~Version Information
VERS.                      2.0: CWLS Log ASCII Standard - VERSION 2.0
WRAP.                       NO: One line per depth step
~Well Information Block
STRT.FT               250.0000: 
STOP.FT               894.7000: 
STEP.FT                 0.1000: 
NULL.                -999.2500: 
COMP.          Pioneer Natural Resources: COMPANY
WELL.          Santisteven 13-22: WELL
FLD.           Purgatoire River: FIELD
LOC.           1861' FSL & 992' FWL----: LOCATION
PROV.                 Colorado: PROVINCE
CNTY.               Las Animas: COUNTRY
SRVC.                Patterson: SERVICE COMPANY
DATE.          Mon Apr 04 11:05:36 2005: LOG DATE
UWI.           05 071 08337 00: UNIQUE WELL ID
~Curve Information Block
DEPT.FT            0 000 00 00: Depth
DCAL.in                       : CDL Caliper
RHOB.g/cc                     : CDL Bulk Density
RHOC.g/cc                     : CDL Density Correction
DPOR.pu                       : CDL Density Porosity
NPOR.pu                       : Neutron Porosity
GR.GAPI                       : Gamma Ray
~Parameter Information Block
~A  Depth       DCAL        RHOB        RHOC        DPOR        NPOR         GR     
# ...
   864.4000      7.7682      2.5553     -0.0266      5.7396     22.2213   -999.2500
   864.5000      7.7681      2.5570      0.0411      5.6343     22.5067   -999.2500
   864.6000      7.7681      2.5575      0.0163      5.6077     22.7502   -999.2500
   864.7000      7.7681      2.5640      0.0072      5.2148     22.9872   -999.2500
   864.8000      7.7683      2.5782      0.0739      4.3498     23.4423   -999.2500
   864.9000      7.7683      2.5870      0.0415      3.8172     24.1707   -999.2500
   865.0000      7.7685      2.5928      0.0186      3.4682     24.7251   -999.2500
   865.1000      7.7685      2.6093      0.0326      2.4691     24.5788   -999.2500
   865.2000      7.7685      2.6289      0.0452      1.2765     24.0501   -999.2500
   865.3000      7.7678      2.6285      0.0966      1.3021     23.7387   -999.2500
   865.4000      7.7678      2.6018      0.0261      2.9232     23.5579   -999.2500
   865.5000      7.7658      2.5664      0.0398      5.0649     23.1580   -999.2500
   865.6000      7.7658      2.5426     -0.0363      6.5103     22.3343   -999.2500
   865.7000      7.7658      2.5416     -0.0276      6.5677     21.3479   -999.2500
   865.8000      7.7659      2.5525      0.0316      5.9101     20.5796   -999.2500
   865.9000      7.7659      2.5547      0.0081      5.7768     19.9127   -999.2500
   866.0000      7.7686      2.5531     -0.0027      5.8710     19.1016   -999.2500
   866.1000      7.7686      2.5597      0.0057      5.4724     18.0637   -999.2500
   866.2000      7.7686      2.5648     -0.0160      5.1642     17.1142   -999.2500
   866.3000      7.7697      2.5575     -0.0315      5.6035     16.8559   -999.2500
   866.4000      7.7697      2.5444     -0.0252      6.4026     17.3254   -999.2500
   866.5000      7.7666      2.5335      0.0039      7.0618     18.1588   -999.2500
   866.6000      7.7666      2.5258     -0.0350      7.5303     19.0296   -999.2500
   866.7000      7.7666      2.5178     -0.0155      8.0136     19.5779   -999.2500
   866.8000      7.7636      2.5026     -0.0060      8.9309     19.7938   -999.2500
   866.9000      7.7636      2.4900     -0.0595      9.6999     19.9873   -999.2500
   867.0000      7.7643      2.4998     -0.0042      9.1017     20.2638   -999.2500
   867.1000      7.7643      2.5290     -0.0139      7.3355     20.5386   -999.2500
   867.2000      7.7643      2.5561      0.0581      5.6937     20.5186   -999.2500
   867.3000      7.7672      2.5636      0.0367      5.2342     20.2064   -999.2500
   867.4000      7.7672      2.5540      0.0015      5.8211     19.8946   -999.2500
   867.5000      7.7692      2.5436      0.0065      6.4465     19.8092   -999.2500
   867.6000      7.7692      2.5436      0.0041      6.4476     19.9836   -999.2500
   867.7000      7.7692      2.5520      0.0227      5.9400     19.8257   -999.2500
   867.8000      7.7690      2.5654     -0.0204      5.1263     19.3985   -999.2500
   867.9000      7.7690      2.5821      0.0240      4.1153     21.3533   -999.2500
   868.0000      7.7684      2.5865      0.0569      3.8464     29.1439   -999.2500
   868.1000      7.7684      2.5625     -0.0047      5.3045     40.6451   -999.2500
   868.2000      7.7684      2.5230     -0.0660      7.6959     48.4545   -999.2500
   868.3000      7.7718      2.4949     -0.0564      9.3983     51.1768   -999.2500
   868.4000      7.7718      2.4853     -0.0805      9.9814     51.7007   -999.2500
   868.5000      7.7765      2.4953     -0.0822      9.3763     51.7557   -999.2500
   868.6000      7.7765      2.5235     -0.0144      7.6682     51.7587   -999.2500
   868.7000      7.7765      2.5529      0.0193      5.8831   -999.2500   -999.2500
   868.8000      7.7771      2.5698      0.0304      4.8603   -999.2500   -999.2500
   868.9000      7.7771      2.5744     -0.0056      4.5840   -999.2500   -999.2500
   869.0000      7.7745      2.5736     -0.0002      4.6297   -999.2500   -999.2500
   869.1000      7.7745      2.5741      0.0091      4.5974   -999.2500   -999.2500
   869.2000      7.7745      2.5740      0.0369      4.6034   -999.2500   -999.2500
   869.3000      7.7724      2.5696      0.0094      4.8722   -999.2500   -999.2500
   869.4000      7.7724      2.5658      0.0067      5.1056   -999.2500   -999.2500
   869.5000      7.7729      2.5650      0.0172      5.1538   -999.2500   -999.2500
   869.6000      7.7729      2.5672     -0.0220      5.0181   -999.2500   -999.2500
   869.7000      7.7729      2.5709      0.0398      4.7933   -999.2500   -999.2500
   869.8000      7.7738      2.5630     -0.0119      5.2715   -999.2500   -999.2500
   869.9000      7.7738      2.5408     -0.0124      6.6171   -999.2500   -999.2500
   870.0000      7.7730      2.5240     -0.0846      7.6345   -999.2500   -999.2500
   870.1000      7.7730      2.5246     -0.0157      7.6004   -999.2500   -999.2500
   870.2000      7.7730      2.5315     -0.0450      7.1845   -999.2500   -999.2500
   870.3000      7.7731      2.5381      0.0079      6.7830   -999.2500   -999.2500
   870.4000      7.7731      2.5442     -0.0010      6.4134   -999.2500   -999.2500
   870.5000      7.7766      2.5472      0.0297      6.2329   -999.2500   -999.2500
   870.6000      7.7766      2.5484     -0.0111      6.1585   -999.2500   -999.2500
   870.7000      7.7766      2.5493     -0.0019      6.1035   -999.2500   -999.2500
   870.8000      7.7797      2.5416      0.0240      6.5670   -999.2500   -999.2500
   870.9000      7.7797      2.5246     -0.0137      7.5999   -999.2500   -999.2500
   871.0000      7.7803      2.5140      0.0113      8.2409   -999.2500   -999.2500
   871.1000      7.7803      2.5165      0.0008      8.0935   -999.2500   -999.2500
   871.2000      7.7803      2.5239     -0.0038      7.6395   -999.2500   -999.2500
   871.3000      7.7804      2.5322     -0.0044      7.1395   -999.2500   -999.2500
   871.4000      7.7804      2.5475     -0.0259      6.2144   -999.2500   -999.2500
   871.5000      7.7820      2.5688      0.0099      4.9212   -999.2500   -999.2500
   871.6000      7.7820      2.5776      0.0351      4.3891   -999.2500   -999.2500
   871.7000      7.7820      2.5654     -0.0397      5.1302   -999.2500   -999.2500
   871.8000      7.7845      2.5484     -0.0172      6.1606   -999.2500   -999.2500
   871.9000      7.7845      2.5411     -0.0106      6.5981   -999.2500   -999.2500
   872.0000      7.7848      2.5408      0.0183      6.6191   -999.2500   -999.2500
   872.1000      7.7848      2.5367      0.0050      6.8676   -999.2500   -999.2500
   872.2000      7.7848      2.5339     -0.0394      7.0341   -999.2500   -999.2500
   872.3000      7.7844      2.5496     -0.0183      6.0849   -999.2500   -999.2500
   872.4000      7.7844      2.5828     -0.0202      4.0726   -999.2500   -999.2500
   872.5000      7.7865      2.6115      0.0069      2.3324   -999.2500   -999.2500
   872.6000      7.7865      2.6163      0.0337      2.0396   -999.2500   -999.2500
   872.7000      7.7865      2.5995     -0.0106      3.0599   -999.2500   -999.2500
   872.8000      7.7899      2.5755     -0.0053      4.5149   -999.2500   -999.2500
   872.9000      7.7899      2.5539     -0.0183      5.8263   -999.2500   -999.2500
   873.0000      7.7909      2.5460     -0.0192      6.3024   -999.2500   -999.2500
   873.1000      7.7909      2.5578      0.0164      5.5889   -999.2500   -999.2500
   873.2000      7.7909      2.5759      0.0371      4.4917   -999.2500   -999.2500
   873.3000      7.7904      2.5841      0.0098      3.9912   -999.2500   -999.2500
   873.4000      7.7904      2.5834      0.0011      4.0355   -999.2500   -999.2500
   873.5000      7.7915      2.5838     -0.0054      4.0151   -999.2500   -999.2500
   873.6000      7.7915      2.5857      0.0122      3.8986   -999.2500   -999.2500
   873.7000      7.7915      2.5802      0.0086      4.2297   -999.2500   -999.2500
   873.8000      7.7921      2.5715     -0.0514      4.7563   -999.2500   -999.2500
   873.9000      7.7921      2.5754     -0.0267      4.5213   -999.2500   -999.2500
