~Version Information
VERS.                      2.0: CWLS Log ASCII Standard - VERSION 2.0
WRAP.                       NO: One line per depth step
~Well Information Block
STRT.FT                10.0000: 
STOP.FT              1066.5000: 
STEP.FT                 0.2500: 
NULL.                -999.2500: 
COMP.          Pioneer Natural Resources: COMPANY
WELL.            Redland 23-24: WELL
FLD.           Purgatoire River: FIELD
LOC.           2356' FSL & 1880' FWL----: LOCATION
PROV.                 Colorado: PROVINCE
CNTY.               Las Animas: COUNTRY
SRVC.                         : SERVICE COMPANY
DATE.          Thu Mar 24 10:01:02 2005: LOG DATE
UWI.           05 071 08221   : UNIQUE WELL ID
~Curve Information Block
DEPT.FT            0 000 00 00: Depth
CCL.                          : Casing Collar Locator
TT3.usec                      : CBL 3' Travel Time
AMP3.mV                       : CBL 3' Amplitude
AMP5.mV                       : CBL 5' Amplitude
GR.GAPI                       : Gamma Ray
~Parameter Information Block
~A  Depth       CCL         TT3         AMP3        AMP5         GR     
# ...
   346.0000      0.0000    897.2813      3.4673      1.1705     74.9688
   346.2500      0.0000    897.5610      3.3601      0.4741     81.7906
   346.5000      0.0000    896.8302      3.2953      0.8223     89.0265
   346.7500      0.0000    895.5683      3.2517      0.5611     95.0956
   347.0000      0.0000    894.1936      3.2063      1.0834     99.8193
   347.2500      0.0000    892.7622      3.1478      0.9093    103.9332
   347.5000      0.0000    890.7292      3.0757      0.3870    107.7092
   347.7500      0.0000    887.3134      2.9979      1.0834    110.6385
   348.0000      0.0000    882.6211      2.9393      1.0834    112.3354
   348.2500      0.0000    878.6663      2.9328      1.1705    113.1810
   348.5000      0.0000    878.5189      2.9892      1.1705    113.7578
   348.7500      0.0000    883.5380      3.0894      0.9093    113.9761
   349.0000      0.0000    891.7242      3.2121      1.5187    113.3566
   349.2500      0.0000    899.3922      3.3490      0.9964    112.1141
   349.5000      0.0000    904.0035      3.4871      1.2575    111.4226
   349.7500      0.0000    905.0044      3.5926      1.2575    112.4704
   350.0000      0.0000    902.7239      3.6233      1.2575    115.5096
   350.2500      0.0000    897.4024      3.5581      1.1705    119.7021
   350.5000      0.0000    889.3755      3.4220      1.4316    123.4581
   350.7500      0.0000    879.4712      3.2898      1.5187    125.1360
   351.0000      0.0000    868.3932      3.2539      1.4316    124.0290
   351.2500      0.0000    855.9248      3.3670      2.2150    120.8906
   351.5000      0.0000    842.2276      3.6021      1.1705    117.2327
   351.7500      0.0000    830.4016      3.8654      1.3446    113.9074
   352.0000      0.0000    825.7604      4.0538      0.9964    110.5459
   352.2500      0.0000    831.0710      4.1085      1.5187    106.5656
   352.5000      0.0000    843.5345      4.0309      1.0834    102.3829
   352.7500      0.0000    857.6084      3.8680      2.0409     99.2852
   353.0000      0.0000    869.8146      3.6899      1.8668     98.4335
   353.2500      0.0000    879.7007      3.5665      1.8668    100.1882
   353.5000      0.0000    887.4292      3.5396      1.6927    103.8799
   353.7500      0.0000    892.2626      3.6038      1.5187    107.9653
   354.0000      0.0000    892.8337      3.7162      1.4316    110.8654
   354.2500      0.0000    887.5896      3.8322      1.5187    112.0111
   354.5000      0.0000    875.7783      3.9328      1.3446    112.0560
   354.7500      0.0000    859.4010      4.0193      1.3446    112.0052
   355.0000      0.0000    843.6255      4.0901      0.9964    112.0526
   355.2500      0.0000    833.3032      4.1342      1.5187    111.4346
   355.5000      0.0000    828.6073      4.1471      1.5187    109.5593
   355.7500      0.0000    825.0070      4.1435      1.9539    106.9113
   356.0000      0.0000    817.7166      4.1508      2.7373    104.4075
   356.2500      0.0000    805.8481      4.1879      1.7798    102.2438
   356.5000      0.0000    792.5348      4.2479      1.7798     99.9581
   356.7500      0.0000    781.8503      4.2999      1.8668     97.4492
   357.0000      0.0000    776.0964      4.3154      1.4316     95.2731
   357.2500      0.0000    775.8004      4.3003      2.6503     93.7850
   357.5000      0.0000    781.1035      4.2959      2.2150     92.5340
   357.7500      0.0000    792.0626      4.3396      2.6503     90.8552
   358.0000      0.0000    807.7079      4.4240      2.3021     88.6697
   358.2500      0.0000    825.8079      4.4996      1.7798     86.3056
   358.5000      0.0000    843.9926      4.5173      2.0409     84.0147
   358.7500      0.0000    860.3069      4.4694      2.0409     82.2389
   359.0000      0.0000    872.5760      4.3949      2.2150     81.9612
   359.2500      0.0000    878.1831      4.3456      2.1280     83.9541
   359.5000      0.0000    875.4508      4.3410      1.8668     87.6921
   359.7500      0.0000    865.9717      4.3547      2.4762     91.6578
   360.0000      0.0000    855.8570      4.3452      1.4316     94.7134
   360.2500      0.0000    852.9423      4.2961      1.6057     96.8007
   360.5000      0.0000    860.5244      4.2220      1.8668     98.6561
   360.7500      0.0000    874.3369      4.1448      2.1280    101.4358
   361.0000      0.0000    886.9965      4.0743      1.6927    106.1011
   361.2500      0.0000    894.5222      4.0099      1.7798    112.2484
   361.5000      0.0000    897.7505      3.9543      1.4316    117.9164
   361.7500      0.0000    899.2421      3.9220      1.9539    121.4094
   362.0000      0.0000    900.4763      3.9320      2.3891    122.9905
   362.2500      0.0000    901.4932      3.9878      1.6927    124.0434
   362.5000      0.0000    901.9539      4.0656      2.1280    125.1506
   362.7500      0.0000    901.9484      4.1259      2.0409    125.7957
   363.0000      0.0000    901.8271      4.1408      1.6927    125.4120
   363.2500      0.0000    901.5465      4.1095      2.1280    123.8389
   363.5000      0.0000    900.6604      4.0525      2.0409    121.0126
   363.7500      0.0000    898.9904      3.9985      1.9539    116.7985
   364.0000      0.0000    897.0156      3.9714      1.5187    111.2365
   364.2500      0.0000    895.5020      3.9777      1.6927    104.9220
   364.5000      0.0000    894.9005      4.0069      1.4316     99.0892
   364.7500      0.0000    895.0788      4.0469      1.2575     95.0300
   365.0000      0.0000    895.4529      4.0920      1.8668     93.2078
   365.2500      0.0000    895.2466      4.1337      2.0409     92.9445
   365.5000      0.0000    893.4080      4.1582      1.5187     93.0816
   365.7500      0.0000    887.6452      4.1614      1.7798     92.9575
   366.0000      0.0000    873.4637      4.1533      1.7798     92.6720
   366.2500      0.0000    845.8366      4.1415      1.9539     92.3523
   366.5000      0.0000    804.1801      4.1222      2.2150     91.5770
   366.7500      0.0000    756.0546      4.0889      1.6057     90.0011
   367.0000      0.0000    714.1715      4.0419      1.6927     88.2915
   367.2500      0.0000    689.0243      3.9867      1.6057     87.7377
   367.5000      0.0000    684.4575      3.9316      1.7798     88.8439
   367.7500      0.0000    698.4338      3.8875      2.1280     90.8425
   368.0000      0.0000    725.3829      3.8641      1.9539     92.7427
   368.2500      0.0000    758.2339      3.8625      2.3891     94.3882
   368.5000      0.0000    790.2690      3.8744      2.5632     96.3804
   368.7500      0.0000    816.1192      3.8905      2.0409     99.3788
   369.0000      0.0000    832.7266      3.9086      2.4762    103.3735
   369.2500      0.0000    841.5084      3.9300      2.9114    107.1657
   369.5000      0.0000    848.2113      3.9502      1.8668    108.8471
   369.7500      0.0000    857.6012      3.9542      2.4762    107.3618
   370.0000      0.0000    868.6162      3.9273      2.9984    103.4320
   370.2500      0.0000    876.3290      3.8661      0.9093     98.6552
   370.5000      0.0000    877.7249      3.7694      4.3041     94.1046
   370.7500      0.0000    874.1692      3.6263      2.2150     90.0802
   371.0000      0.0000    868.6857      3.4332      1.3446     86.6204
   371.2500      0.0000    862.1804      3.2262      1.7798     83.5756
   371.5000      0.0000    853.6098      3.0664      1.1705     80.4662
   371.7500      0.0000    844.0388      2.9848      1.2575     76.9501
   372.0000      0.0000    838.2607      2.9615      1.6057     73.5008
   372.2500      0.0000    840.4885      2.9621      1.2575     71.3338
   372.5000      0.0000    849.4610      2.9707      1.1705     71.5058
   372.7500     -1.0000    859.4341      2.9838      1.3446     73.8974
   373.0000      0.0000    864.9207      2.9942      1.1705     77.0141
   373.2500      0.0000    863.0775      3.0053      1.3446     79.1361
   373.5000      0.0000    853.1476      3.0566      0.9964     79.7718
   373.7500      0.0000    836.7803      3.2061      1.0834     79.6493
