~Version Information
VERS.                      2.0: CWLS Log ASCII Standard - VERSION 2.0
WRAP.                       NO: One line per depth step
~Well Information Block
STRT.FT               850.0000: 
STOP.FT              1609.7000: 
STEP.FT                 0.1000: 
NULL.                -999.2500: 
COMP.          Petrogulf Corporation: COMPANY
WELL.          Great Plains 22-21R: WELL
FLD.           Purgatorie River: FIELD
LOC.           73' FNL & 1992' FWL: LOCATION
PROV.                 Colorado: PROVINCE
CNTY.               Las Animas: COUNTRY
SRVC.                Patterson: SERVICE COMPANY
DATE.          Wed Sep 14 12:10:29 2005: LOG DATE
UWI.                          : UNIQUE WELL ID
~Curve Information Block
DEPT.FT            0 000 00 00: Depth
NPOR.pu                       : Neutron Porosity
GR.GAPI                       : Gamma Ray
CCL.                          : Casing Collar Locator
~Parameter Information Block
~A  Depth       NPOR         GR         CCL     
# ...
   950.2000     27.2244    104.4414      0.0000
   950.3000     27.6144    110.3932      0.0000
   950.4000     27.6144    110.3932      0.0000
   950.5000     28.0662    115.2620      0.0000
   950.6000     28.0662    115.2620      0.0000
   950.7000     28.0662    115.2620      0.0000
   950.8000     28.5674    118.5374      0.0000
   950.9000     28.5674    118.5374      0.0000
   951.0000     29.0421    120.1305      0.0000
   951.1000     29.0421    120.1305      0.0000
   951.2000     29.0421    120.1305      0.0000
   951.3000     29.4583    119.8024      0.0000
   951.4000     29.4583    119.8024      0.0000
   951.5000     29.8599    117.1764      0.0000
   951.6000     29.8599    117.1764      0.0000
   951.7000     29.8599    117.1764      0.0000
   951.8000     30.2848    111.9065      0.0000
   951.9000     30.2848    111.9065      0.0000
   952.0000     30.7039    103.8892      0.0000
   952.1000     30.7039    103.8892      0.0000
   952.2000     30.7039    103.8892      0.0000
   952.3000     31.0583     94.0743      0.0000
   952.4000     31.0583     94.0743      0.0000
   952.5000     31.3130     85.1991      0.0000
   952.6000     31.3130     85.1991      0.0000
   952.7000     31.3130     85.1991      0.0000
   952.8000     31.4515     80.8042      0.0000
   952.9000     31.4515     80.8042      0.0000
   953.0000     31.4498     82.9173      0.0000
   953.1000     31.4498     82.9173      0.0000
   953.2000     31.4498     82.9173      0.0000
   953.3000     31.2860     90.8107      0.0000
   953.4000     31.2860     90.8107      0.0000
   953.5000     30.9687    101.8357      0.0000
   953.6000     30.9687    101.8357      0.0000
   953.7000     30.9687    101.8357      0.0000
   953.8000     30.5453    112.9925      0.0000
   953.9000     30.5453    112.9925      0.0000
   954.0000     30.0887    121.8951      0.0000
   954.1000     30.0887    121.8951      0.0000
   954.2000     30.0887    121.8951      0.0000
   954.3000     29.6770    127.2692      0.0000
   954.4000     29.6770    127.2692      0.0000
   954.5000     29.3708    129.3320      0.0000
   954.6000     29.3708    129.3320      0.0000
   954.7000     29.3708    129.3320      0.0000
   954.8000     29.1937    129.6113      0.0000
   954.9000     29.1937    129.6113      0.0000
   955.0000     29.1325    129.9301      0.0000
   955.1000     29.1325    129.9301      0.0000
   955.2000     29.1325    129.9301      0.0000
   955.3000     29.1522    131.2483      0.0000
   955.4000     29.1522    131.2483      0.0000
   955.5000     29.2094    133.2251      0.0000
   955.6000     29.2094    133.2251      0.0000
   955.7000     29.2094    133.2251      0.0000
   955.8000     29.2571    134.6605      0.0000
   955.9000     29.2571    134.6605      0.0000
   956.0000     29.2489    134.4176      0.0000
   956.1000     29.2489    134.4176      0.0000
   956.2000     29.2489    134.4176      0.0000
   956.3000     29.1497    132.1001      0.0000
   956.4000     29.1497    132.1001      0.0000
   956.5000     28.9572    128.0546      0.0000
   956.6000     28.9572    128.0546      0.0000
   956.7000     28.9572    128.0546      0.0000
   956.8000     28.7203    123.1188      0.0000
   956.9000     28.7203    123.1188      0.0000
   957.0000     28.5296    118.5405      0.0000
   957.1000     28.5296    118.5405      0.0000
   957.2000     28.5296    118.5405      0.0000
   957.3000     28.4698    115.5132      0.0000
   957.4000     28.4698    115.5132      0.0000
   957.5000     28.5670    114.1832      0.0000
   957.6000     28.5670    114.1832      0.0000
   957.7000     28.5670    114.1832      0.0000
   957.8000     28.7855    113.4207      0.0000
   957.9000     28.7855    113.4207      0.0000
   958.0000     29.0798    112.1289      0.0000
   958.1000     29.0798    112.1289      0.0000
   958.2000     29.0798    112.1289      0.0000
   958.3000     29.4322    110.5855      0.0000
   958.4000     29.4322    110.5855      0.0000
   958.5000     29.8260    109.9578      0.0000
   958.6000     29.8260    109.9578      0.0000
   958.7000     29.8260    109.9578      0.0000
   958.8000     30.2072    110.6440      0.0000
   958.9000     30.2072    110.6440      0.0000
   959.0000     30.5050    111.6941      0.0000
   959.1000     30.5050    111.6941      0.0000
   959.2000     30.5050    111.6941      0.0000
   959.3000     30.6864    111.8485      0.0000
   959.4000     30.6864    111.8485      0.0000
   959.5000     30.7792    110.6421      0.0000
   959.6000     30.7792    110.6421      0.0000
   959.7000     30.7792    110.6421      0.0000
   959.8000     30.8434    108.3266      0.0000
   959.9000     30.8434    108.3266      0.0000
   960.0000     30.9079    105.2114      0.0000
   960.1000     30.9079    105.2114      0.0000
   960.2000     30.9079    105.2114      0.0000
   960.3000     30.9310    101.5630      0.0000
   960.4000     30.9310    101.5630      0.0000
   960.5000     30.8446     98.0097      0.0000
   960.6000     30.8446     98.0097      0.0000
   960.7000     30.8446     98.0097      0.0000
   960.8000     30.6496     95.4559      0.0000
   960.9000     30.6496     95.4559      0.0000
   961.0000     30.4284     94.3526      0.0000
   961.1000     30.4284     94.3526      0.0000
   961.2000     30.4284     94.3526      0.0000
   961.3000     30.2374     94.2292      0.0000
   961.4000     30.2374     94.2292      0.0000
   961.5000     30.0189     94.0588      0.0000
   961.6000     30.0189     94.0588      0.0000
   961.7000     30.0189     94.0588      0.0000
   961.8000     29.6454     92.9591      0.0000
   961.9000     29.6454     92.9591      0.0000
   962.0000     29.0310     90.5970      0.0000
   962.1000     29.0310     90.5970      0.0000
   962.2000     29.0310     90.5970      0.0000
   962.3000     28.1878     87.1914      0.0000
   962.4000     28.1878     87.1914      0.0000
   962.5000     27.2150     83.3874     -1.0000
   962.6000     27.2150     83.3874      1.0000
   962.7000     27.2150     83.3874      1.0000
   962.8000     26.2706     80.1734      0.0000
   962.9000     26.2706     80.1734      0.0000
   963.0000     25.5300     78.7496      0.0000
   963.1000     25.5300     78.7496      0.0000
   963.2000     25.5300     78.7496      0.0000
   963.3000     25.1175     80.1948      0.0000
   963.4000     25.1175     80.1948      0.0000
   963.5000     25.0441     85.0186      0.0000
   963.6000     25.0441     85.0186      0.0000
   963.7000     25.0441     85.0186      0.0000
   963.8000     25.2001     92.8256      0.0000
   963.9000     25.2001     92.8256      0.0000
   964.0000     25.4133    102.3026      0.0000
   964.1000     25.4133    102.3026      0.0000
   964.2000     25.4133    102.3026      0.0000
   964.3000     25.5464    111.4919      0.0000
   964.4000     25.5464    111.4919      0.0000
   964.5000     25.5665    118.3082      0.0000
   964.6000     25.5665    118.3082      0.0000
   964.7000     25.5665    118.3082      0.0000
   964.8000     25.5199    121.3446      0.0000
   964.9000     25.5199    121.3446      0.0000
   965.0000     25.4400    120.5462      0.0000
   965.1000     25.4400    120.5462      0.0000
   965.2000     25.4400    120.5462      0.0000
   965.3000     25.3096    117.0509      0.0000
   965.4000     25.3096    117.0509      0.0000
   965.5000     25.1251    112.4490      0.0000
   965.6000     25.1251    112.4490      0.0000
   965.7000     25.1251    112.4490      0.0000
   965.8000     24.9566    108.2650      0.0000
   965.9000     24.9566    108.2650      0.0000
   966.0000     24.9015    105.6418      0.0000
   966.1000     24.9015    105.6418      0.0000
   966.2000     24.9015    105.6418      0.0000
   966.3000     24.9942    104.8077      0.0000
   966.4000     24.9942    104.8077      0.0000
   966.5000     25.1821    104.8624      0.0000
   966.6000     25.1821    104.8624      0.0000
   966.7000     25.1821    104.8624      0.0000
   966.8000     25.3763    104.6002      0.0000
