~Version Information
VERS.                      2.0: CWLS Log ASCII Standard - VERSION 2.0
WRAP.                       NO: One line per depth step
~Well Information Block
STRT.FT                15.0000: 
STOP.FT              1869.0000: 
STEP.FT                 0.2500: 
NULL.                -999.2500: 
COMP.          Pioneer Natural Resources: COMPANY
WELL.          Victory 12-14 Tr: WELL
FLD.           Purgatoire River: FIELD
LOC.           2522' FNL & 276' FWL: LOCATION
PROV.                 Colorado: PROVINCE
CNTY.               Las Animas: COUNTRY
SRVC.                Patterson: SERVICE COMPANY
DATE.          Fri Jul 22 14:39:41 2005: LOG DATE
UWI.           05 071 08433 00: UNIQUE WELL ID
~Curve Information Block
DEPT.FT            0 000 00 00: Depth
GR.GAPI                       : Gamma Ray
CCL.                          : Casing Collar Locator
TT3.usec                      : CBL 3' Travel Time
AMP3.mV                       : CBL 3' Amplitude
~Parameter Information Block
~A  Depth        GR         CCL         TT3         AMP3    
# ...
  1690.0000    135.4128      0.0000    659.3304      3.6080
  1690.2500    122.7938      0.0000    668.8624      2.6790
  1690.5000    108.9587      0.0000    678.2794      1.9858
  1690.7500     95.7190      0.0000    686.5555      1.4680
  1691.0000     84.8121      0.0000    691.8130      1.0742
  1691.2500     77.1245      0.0000    690.8973      0.7706
  1691.5000     72.6137      0.0000    681.9102      0.5367
  1691.7500     70.6928      0.0000    667.0963      0.3690
  1692.0000     70.6106      0.0000    652.3968      0.2808
  1692.2500     71.7123      0.0000    643.8990      0.2857
  1692.5000     73.6133      0.0000    644.8477      0.3762
  1692.7500     76.1510      0.0000    655.0279      0.5272
  1693.0000     79.1768      0.0000    671.2698      0.7174
  1693.2500     82.5641      0.0000    688.3317      0.9395
  1693.5000     86.4629      0.0000    700.9948      1.1909
  1693.7500     91.3122      0.0000    706.6118      1.4665
  1694.0000     97.3934      0.0000    705.5446      1.7673
  1694.2500    104.2906      0.0000    698.7885      2.1091
  1694.5000    110.7714      0.0000    685.9598      2.5210
  1694.7500    115.2956      0.0000    666.4204      3.0374
  1695.0000    116.8674      0.0000    641.7043      3.6844
  1695.2500    115.6318      0.0000    615.8782      4.4506
  1695.5000    112.9123      0.0000    593.9990      5.2634
  1695.7500    110.8314      0.0000    580.8127      6.0077
  1696.0000    111.6027      0.0000    579.9980      6.5857
  1696.2500    116.4325      0.0000    593.1035      6.9662
  1696.5000    124.5148      0.0000    618.1409      7.1842
  1696.7500    133.2285      0.0000    649.0547      7.2996
  1697.0000    140.0147      0.0000    677.8173      7.3604
  1697.2500    144.2468      0.0000    698.8156      7.3963
  1697.5000    146.8754      0.0000    711.7396      7.4279
  1697.7500    148.4163      0.0000    720.2521      7.4653
  1698.0000    148.2071      0.0000    728.2942      7.4977
  1698.2500    145.7543      0.0000    737.3453      7.4991
  1698.5000    141.8126      0.0000    746.1158      7.4518
  1698.7500    137.7706      0.0000    752.1443      7.3643
  1699.0000    134.6981      0.0000    753.4425      7.2672
  1699.2500    133.0763      0.0000    748.8073      7.1904
  1699.5000    132.6276      0.0000    737.4768      7.1376
  1699.7500    132.0867      0.0000    719.6201      7.0844
  1700.0000    129.9119      0.0000    697.6588      7.0153
  1700.2500    125.9550      0.0000    676.7982      6.9648
  1700.5000    122.2560      0.0000    663.2681      7.0002
  1700.7500    121.5292      0.0000    660.7379      7.1506
  1701.0000    124.7453      0.0000    667.4229      7.3705
  1701.2500    130.4435      0.0000    676.6096      7.5836
  1701.5000    136.0089      0.0000    680.8690      7.7480
  1701.7500    139.1225      0.0000    676.7864      7.8715
  1702.0000    138.6601      0.0000    666.2369      7.9794
  1702.2500    135.1067      0.0000    653.7610      8.0842
  1702.5000    130.0242      0.0000    643.1595      8.1833
  1702.7500    124.8913      0.0000    635.9751      8.2749
  1703.0000    120.6516      0.0000    631.9653      8.3681
  1703.2500    118.1803      0.0000    630.3349      8.4754
  1703.5000    118.5788      0.0000    630.7898      8.5982
  1703.7500    122.5503      0.0000    634.0658      8.7205
  1704.0000    129.4249      0.0000    641.6658      8.8223
  1704.2500    137.0123      0.0000    654.3172      8.8977
  1704.5000    142.8266      0.0000    669.8999      8.9565
  1704.7500    145.7961      0.0000    683.7079      9.0098
  1705.0000    146.8346      0.0000    692.2658      9.0623
  1705.2500    147.7087      0.0000    696.5082      9.1146
  1705.5000    149.3520      0.0000    699.5579      9.1629
  1705.7500    151.2428      0.0000    702.0922      9.1949
  1706.0000    152.3405      0.0000    701.8215      9.1977
  1706.2500    152.4628      0.0000    697.2676      9.1734
  1706.5000    152.4140      0.0000    690.2250      9.1422
  1706.7500    152.7608      0.0000    684.1966      9.1318
  1707.0000    152.9863      0.0000    681.4811      9.1620
  1707.2500    152.1945      0.0000    681.5900      9.2341
  1707.5000    150.3620      0.0000    680.9259      9.3280
  1707.7500    148.4456      0.0000    673.7538      9.4111
  1708.0000    147.3102      0.0000    655.5715      9.4500
  1708.2500    146.7687      0.0000    626.9750      9.4100
  1708.5000    145.7563      0.0000    593.9694      9.2502
  1708.7500    143.5255      0.0000    564.8170      8.9394
  1709.0000    140.5752      0.0000    546.7712      8.4940
  1709.2500    138.1073      0.0000    543.4893      7.9967
  1709.5000    136.6135      0.0000    553.0413      7.5469
  1709.7500    135.3498      0.0000    569.1396      7.1742
  1710.0000    133.2279      0.0000    585.3372      6.8260
  1710.2500    130.0956      0.0000    597.9478      6.4734
  1710.5000    127.1403      0.0000    606.5085      6.1960
  1710.7500    125.8838      0.0000    614.0905      6.1102
  1711.0000    126.6911      0.0000    625.8806      6.2311
  1711.2500    128.6456      0.0000    643.9517      6.4527
  1711.5000    130.8905      0.0000    663.7065      6.6495
  1711.7500    133.3887      0.0000    677.8647      6.7682
  1712.0000    136.3171      0.0000    683.3574      6.8346
  1712.2500    139.5816      0.0000    682.7643      6.8882
  1712.5000    143.0809      0.0000    680.7594      6.9006
  1712.7500    146.6386      0.0000    681.2979      6.7675
  1713.0000    149.4749      0.0000    686.9995      6.4083
  1713.2500    150.3327      0.0000    698.7018      5.8517
  1713.5000    148.4339      0.0000    714.6886      5.2020
  1713.7500    144.1581      0.0000    730.9822      4.5658
  1714.0000    138.7040      0.0000    743.2161      4.0278
  1714.2500    133.1031      0.0000    748.8989      3.6386
  1714.5000    127.5356      0.0000    748.4666      3.3895
  1714.7500    121.5729      0.0000    744.5618      3.2258
  1715.0000    114.9934      0.0000    740.0349      3.1054
  1715.2500    108.3360      0.0000    735.7742      3.0367
  1715.5000    102.6621      0.0000    729.9428      3.0537
  1715.7500     98.7667      0.0000    719.7817      3.1771
  1716.0000     96.6893      0.0000    704.6880      3.4177
  1716.2500     96.0617      0.0000    687.4856      3.8120
  1716.5000     96.7002      0.0000    672.7312      4.4229
  1716.7500     98.6079      0.0000    663.8679      5.2795
  1717.0000    101.5623      0.0000    661.4816      6.3128
  1717.2500    105.0054      0.0000    663.7050      7.3614
  1717.5000    108.3677      0.0000    668.0505      8.2525
  1717.7500    111.3280      0.0000    672.7286      8.8872
  1718.0000    113.8416      0.0000    676.5232      9.2642
  1718.2500    116.1077      0.0000    678.3889      9.4383
  1718.5000    118.3744      0.0000    677.9053      9.4647
  1718.7500    120.5181      0.0000    675.7745      9.3778
  1719.0000    121.9942      0.0000    673.3076      9.2040
  1719.2500    122.4197      0.0000    671.5197      8.9783
  1719.5000    122.0014      0.0000    670.9294      8.7444
  1719.7500    121.2319      0.0000    671.8146      8.5430
  1720.0000    120.3185      0.0000    674.0499      8.3980
  1720.2500    119.2014      0.0000    676.7135      8.3073
  1720.5000    118.2452      0.0000    678.5214      8.2442
  1720.7500    118.5992      0.0000    679.1750      8.1710
  1721.0000    121.3567      0.0000    679.8906      8.0603
  1721.2500    126.2725      0.0000    681.8207      7.9137
  1721.5000    131.6206      0.0000    683.9362      7.7610
  1721.7500    135.2953      0.0000    683.3146      7.6386
  1722.0000    135.9316      0.0000    678.1458      7.5653
  1722.2500    133.4544      0.0000    670.3144      7.5375
  1722.5000    129.2307      0.0000    664.5750      7.5392
  1722.7500    125.5392      0.0000    664.7764      7.5548
  1723.0000    124.2497      0.0000    670.4986      7.5760
  1723.2500    125.8104      0.0000    677.6632      7.5963
