~Version Information
VERS.                      2.0: CWLS Log ASCII Standard - VERSION 2.0
WRAP.                       NO: One line per depth step
~Well Information Block
STRT.FT                -7.2500: 
STOP.FT              2610.0000: 
STEP.FT                 0.2500: 
NULL.                -999.2500: 
COMP.          Pioneer Natural Resources: COMPANY
WELL.              Wagner 13-9: WELL
FLD.           Purgatorie River: FIELD
LOC.           1819' FSL & 1111' FWL--: LOCATION
PROV.                       CO: PROVINCE
CNTY.               Las Animas: COUNTRY
SRVC.          Patterson Wireline: SERVICE COMPANY
DATE.          Wed May 18 09:08:26 2005: LOG DATE
UWI.           05 071 08302 00: UNIQUE WELL ID
~Curve Information Block
DEPT.FT            0 000 00 00: Depth
CCL.                          : Casing Collar Locator
TT3.usec                      : CBL 3' Travel Time
AMP3.mV                       : CBL 3' Amplitude
GR.GAPI                       : Gamma Ray
~Parameter Information Block
~A  Depth       CCL         TT3         AMP3         GR     
# ...
   160.2500      0.0000    888.9635      8.9109     76.3113
   160.5000      0.0000    927.8547      8.8951     76.6008
   160.7500      0.0000    963.8294      8.9088     75.8865
   161.0000      0.0000    987.2537      8.9622     73.9045
   161.2500      0.0000    995.0883      9.0563     71.2531
   161.5000      0.0000    988.6914      9.1925     69.1465
   161.7500      0.0000    971.3334      9.3696     68.8255
   162.0000      0.0000    947.6928      9.5670     70.7205
   162.2500      0.0000    923.4226      9.7390     74.0359
   162.5000      0.0000    903.4092      9.8293     77.1432
   162.7500      0.0000    890.1555      9.8008     78.4157
   163.0000      0.0000    883.7764      9.6663     77.1397
   163.2500      0.0000    883.1260      9.4919     74.1715
   163.5000      0.0000    886.6539      9.3542     71.5217
   163.7500      0.0000    892.2283      9.2870     70.7049
   164.0000      0.0000    896.7880      9.2743     71.4890
   164.2500      0.0000    897.2853      9.2889     72.5816
   164.5000      0.0000    892.6121      9.3205     73.1769
   164.7500      0.0000    884.2755      9.3668     73.2948
   165.0000      0.0000    874.7661      9.4112     72.9526
   165.2500      0.0000    865.7996      9.4182     71.8810
   165.5000      0.0000    858.5708      9.3516     70.2002
   165.7500      0.0000    854.7571      9.2031     68.7009
   166.0000      0.0000    855.8958      9.0126     67.9933
   166.2500      0.0000    861.7216      8.8556     67.7935
   166.5000      0.0000    870.1394      8.7966     67.4486
   166.7500      0.0000    879.2736      8.8475     66.9400
   167.0000      0.0000    889.0203      8.9694     67.0863
   167.2500      0.0000    900.2242      9.1075     68.7786
   167.5000      0.0000    912.5684      9.2211     71.9557
   167.7500      0.0000    923.6272      9.2962     75.2636
   168.0000      0.0000    930.3409      9.3460     76.9722
   168.2500      0.0000    931.8338      9.3929     76.5548
   168.5000      0.0000    930.4316      9.4401     75.2807
   168.7500      0.0000    928.9583      9.4733     75.0804
   169.0000      0.0000    927.1840      9.4994     77.0251
   169.2500      0.0000    922.3693      9.5585     80.9488
   169.5000      0.0000    913.6049      9.6764     85.9519
   169.7500      0.0000    904.1741      9.8123     90.8853
   170.0000      0.0000    898.8797      9.8709     94.6615
   170.2500      0.0000    899.8495      9.7730     96.6235
   170.5000      0.0000    905.3261      9.5161     96.7751
   170.7500      0.0000    911.6580      9.1785     95.5641
   171.0000      0.0000    915.8145      8.8699     93.5467
   171.2500      0.0000    916.5046      8.6668     91.2908
   171.5000      0.0000    914.0776      8.5891     89.1901
   171.7500      0.0000    910.1997      8.6244     87.2538
   172.0000      0.0000    907.2829      8.7566     85.4225
   172.2500      0.0000    907.1902      8.9598     84.0822
   172.5000      0.0000    909.9304      9.1777     83.9058
   172.7500      0.0000    913.9630      9.3339     85.2380
   173.0000      0.0000    918.0025      9.3706     87.7729
   173.2500      0.0000    922.3191      9.2785     90.6423
   173.5000      0.0000    927.9748      9.0857     92.6942
   173.7500      0.0000    934.4828      8.8140     92.8855
   174.0000      0.0000    938.8223      8.4381     90.6562
   174.2500      0.0000    939.0889      7.8978     86.1823
   174.5000      0.0000    940.1796      7.1834     80.2877
   174.7500      0.0000    952.0341      6.4159     73.9958
   175.0000      0.0000    977.8160      5.8098     68.2241
   175.2500      0.0000   1006.0113      5.5270     63.7729
   175.5000      0.0000   1019.5153      5.5635     61.2076
   175.7500      0.0000   1012.5911      5.7750     60.7409
   176.0000      2.0000    994.8251      5.9980     62.3438
   176.2500     -2.0000    977.9296      6.1516     65.7607
   176.5000     -2.0000    962.9874      6.2508     70.2478
   176.7500      0.0000    943.5468      6.3551     74.5731
   177.0000      0.0000    918.2565      6.5168     77.6129
   177.2500      0.0000    895.2142      6.7681     79.0158
   177.5000      0.0000    883.6040      7.1315     79.2303
   177.7500      0.0000    884.5767      7.6153     78.9458
   178.0000      0.0000    891.1418      8.1834     78.5432
   178.2500      0.0000    895.1544      8.7423     78.1067
   178.5000      0.0000    893.7576      9.1860     77.8867
   178.7500      0.0000    890.0667      9.4604     78.4458
   179.0000      0.0000    889.1282      9.5757     80.0085
   179.2500      0.0000    894.0555      9.5754     81.8481
   179.5000      0.0000    904.7355      9.5121     82.7468
   179.7500      0.0000    917.8313      9.4382     82.1319
   180.0000      0.0000    927.3818      9.3947     80.5800
   180.2500      0.0000    927.5975      9.4014     79.3154
   180.5000      0.0000    917.1707      9.4572     79.3094
   180.7500      0.0000    900.6021      9.5425     80.6995
   181.0000      0.0000    884.6239      9.6183     82.9750
   181.2500      0.0000    873.6846      9.6370     85.5885
   181.5000      0.0000    868.7087      9.5695     88.1113
   181.7500      0.0000    868.4694      9.4333     89.9332
   182.0000      0.0000    871.0304      9.2885     90.4878
   182.2500      0.0000    874.4869      9.1961     90.0232
   182.5000      0.0000    877.4643      9.1725     89.6587
   182.7500      0.0000    879.3430      9.1854     90.3582
   183.0000      0.0000    879.9464      9.1938     92.0997
   183.2500      0.0000    879.0541      9.1878     94.2089
   183.5000      0.0000    876.4075      9.1958     96.0980
   183.7500      0.0000    872.4949      9.2603     97.3703
   184.0000      0.0000    869.3489      9.4030     97.5081
   184.2500      0.0000    869.8632      9.6038     96.0240
   184.5000      0.0000    875.4299      9.8078     93.0270
   184.7500      0.0000    884.2109      9.9584     89.2967
   185.0000      0.0000    892.4263     10.0338     85.6640
   185.2500      0.0000    897.5485     10.0568     82.6101
   185.5000      0.0000    899.8616     10.0713     80.5393
   185.7500      0.0000    900.6566     10.1032     79.8003
   186.0000      0.0000    899.5664     10.1450     79.9494
   186.2500      0.0000    894.8102     10.1770     79.5588
   186.5000      0.0000    886.1505     10.1999     77.5438
   186.7500      0.0000    876.1723     10.2384     74.4655
   187.0000      0.0000    867.8730     10.3105     72.0656
   187.2500      0.0000    861.7892     10.3983     71.8415
   187.5000      0.0000    856.1730     10.4521     74.2618
   187.7500      0.0000    849.3839     10.4202     78.6423
   188.0000      0.0000    842.0298     10.2853     83.2415
   188.2500      0.0000    837.2427     10.0872     86.1580
   188.5000      0.0000    838.4127      9.9086     86.9111
   188.7500      0.0000    846.0868      9.8253     86.8213
   189.0000      0.0000    857.3174      9.8589     87.4782
   189.2500      0.0000    868.0735      9.9685     89.1541
   189.5000      0.0000    876.1205     10.0806     90.7420
   189.7500      0.0000    881.8985     10.1301     90.9044
   190.0000      0.0000    887.1580     10.0927     89.3427
   190.2500      0.0000    892.9208      9.9904     87.0753
   190.5000      0.0000    898.7290      9.8641     85.3492
   190.7500      0.0000    903.6781      9.7350     84.5031
   191.0000      0.0000    907.6795      9.5967     84.2294
   191.2500      0.0000    911.2503      9.4421     84.4818
   191.5000      0.0000    914.5513      9.2859     85.4433
   191.7500      0.0000    917.2771      9.1528     86.8779
   192.0000      0.0000    919.4576      9.0527     88.0363
   192.2500      0.0000    922.0592      8.9752     88.1500
   192.5000      0.0000    926.9304      8.9007     86.9499
   192.7500      0.0000    936.1089      8.8090     84.9470
   193.0000      0.0000    950.4647      8.6828     83.2423
   193.2500      0.0000    968.4242      8.5163     82.6705
   193.5000      0.0000    986.3043      8.3242     83.0572
