~Version Information
VERS.                      2.0: CWLS Log ASCII Standard - VERSION 2.0
WRAP.                       NO: One line per depth step
~Well Information Block
STRT.FT               546.2500: 
STOP.FT              2488.5000: 
STEP.FT                 0.2500: 
NULL.                -999.2500: 
COMP.          Petrogulf Corporation: COMPANY
WELL.               Egan 9-11V: WELL
FLD.           Purgatorie River: FIELD
LOC.           724' FNL & 1379' FWL: LOCATION
PROV.                 Colorado: PROVINCE
CNTY.               Las Animas: COUNTRY
SRVC.          Patterson Wireline: SERVICE COMPANY
DATE.          Fri Jul 11 23:16:48 2003: LOG DATE
UWI.           05 071 07875 00: UNIQUE WELL ID
~Curve Information Block
DEPT.FT            0 000 00 00: Depth
DCAL.in                       : CDL Caliper
RHOB.g/cc                     : CDL Bulk Density
RHOC.g/cc                     : CDL Density Correction
DPOR.pu                       : CDL Density Porosity
GR.GAPI                       : Gamma Ray
NPOR.pu                       : Neutron Porosity
~Parameter Information Block
~A  Depth       DCAL        RHOB        RHOC        DPOR         GR         NPOR    
# ...
  2466.2500      7.8384      2.5460      0.0984      6.3023     82.6540     19.7968
  2466.5000      7.8445      2.5390      0.0835      6.7270     87.9184     20.7340
  2466.7500      7.8526      2.5335      0.0729      7.0602     90.0168     20.9832
  2467.0000      7.8714      2.5253      0.0593      7.5596     89.7810     20.9133
  2467.2500      7.9210      2.5206      0.0540      7.8418     87.4409     20.7101
  2467.5000      8.0006      2.5157      0.0531      8.1416     81.9970     20.3792
  2467.7500      8.0448      2.5136      0.0556      8.2638     77.7969     20.1764
  2468.0000      7.9546      2.5118      0.0602      8.3731     70.3766     19.8367
  2468.2500      7.8011      2.5111      0.0632      8.4211     63.7059     19.5654
  2468.5000      7.7826      2.5101      0.0686      8.4797     49.8039     19.1889
  2468.7500      7.8463      2.5095      0.0731      8.5168     38.4807     19.0551
  2469.0000      7.8570      2.5084      0.0794      8.5815     21.7405     19.1069
  2469.2500      7.8162      2.5075      0.0819      8.6346     12.8854     19.2693
  2469.5000      7.7851      2.5062      0.0830      8.7179      4.6310     19.5694
  2469.7500      7.7837      2.5055      0.0834      8.7566      1.9761     19.7569
  2470.0000      7.7971      2.5055      0.0867      8.7548      0.4210     20.0230
  2470.2500      7.8058      2.5063      0.0922      8.7089      0.1243     20.2089
  2470.5000      7.7975      2.5081      0.1034      8.6017      0.0142     20.4912
  2470.7500      7.7780      2.5093      0.1090      8.5297      0.0016     20.6596
  2471.0000      7.7618      2.5108      0.1084      8.4357   -999.2500     20.8645
  2471.2500      7.7589      2.5120      0.1024      8.3608   -999.2500     20.9585
  2471.5000      7.7685      2.5153      0.0923      8.1645   -999.2500     20.9670
  2471.7500      7.7787      2.5188      0.0890      7.9511   -999.2500     20.8115
  2472.0000      7.7768      2.5259      0.0894      7.5200   -999.2500     20.2074
  2472.2500      7.7669      2.5313      0.0900      7.1939   -999.2500     19.5504
  2472.5000      7.7716      2.5393      0.0864      6.7089   -999.2500     18.5107
  2472.7500      7.7889      2.5443      0.0810      6.4047   -999.2500     18.2400
  2473.0000      7.7951      2.5515      0.0714      5.9712   -999.2500     19.5935
  2473.2500      7.7876      2.5561      0.0658      5.6912   -999.2500     22.3414
  2473.5000      7.7758      2.5625      0.0597      5.3025   -999.2500     29.6588
  2473.7500      7.7639      2.5659      0.0572      5.0964   -999.2500     35.8975
  2474.0000      7.7498      2.5685      0.0556      4.9415   -999.2500     44.5257
  2474.2500      7.7342      2.5678      0.0555      4.9794   -999.2500     48.5572
  2474.5000      7.7178      2.5629      0.0555      5.2775   -999.2500     51.8510
  2474.7500      7.7085      2.5572      0.0545      5.6249   -999.2500     52.7819
  2475.0000      7.7169      2.5460      0.0514      6.3018   -999.2500     53.2769
  2475.2500      7.7394      2.5378      0.0494      6.8005   -999.2500     53.3622
  2475.5000      7.7593      2.5259      0.0479      7.5216   -999.2500     53.3915
  2475.7500      7.7685      2.5190      0.0482      7.9414   -999.2500     53.3945
  2476.0000      7.7676      2.5106      0.0496      8.4455   -999.2500   -999.2500
  2476.2500      7.7609      2.5065      0.0503      8.6998   -999.2500   -999.2500
  2476.5000      7.7542      2.5018      0.0495      8.9817   -999.2500   -999.2500
  2476.7500      7.7523      2.4996      0.0474      9.1165   -999.2500   -999.2500
  2477.0000      7.7531      2.4973      0.0436      9.2537   -999.2500   -999.2500
  2477.2500      7.7561      2.4964      0.0419      9.3083   -999.2500   -999.2500
  2477.5000      7.7637      2.4957      0.0425      9.3520   -999.2500   -999.2500
  2477.7500      7.7712      2.4955      0.0447      9.3645   -999.2500   -999.2500
  2478.0000      7.7759      2.4957      0.0494      9.3524   -999.2500   -999.2500
  2478.2500      7.7761      2.4966      0.0532      9.2998   -999.2500   -999.2500
  2478.5000      7.7707      2.5000      0.0603      9.0899   -999.2500   -999.2500
  2478.7500      7.7621      2.5043      0.0660      8.8316   -999.2500   -999.2500
  2479.0000      7.7528      2.5137      0.0745      8.2586   -999.2500   -999.2500
  2479.2500      7.7486      2.5217      0.0781      7.7766   -999.2500   -999.2500
  2479.5000      7.7527      2.5351      0.0783      6.9647   -999.2500   -999.2500
  2479.7500      7.7615      2.5445      0.0752      6.3935   -999.2500   -999.2500
  2480.0000      7.7676      2.5589      0.0690      5.5236   -999.2500   -999.2500
  2480.2500      7.7647      2.5682      0.0656      4.9552   -999.2500   -999.2500
  2480.5000      7.7458      2.5810      0.0619      4.1807   -999.2500   -999.2500
  2480.7500      7.7165      2.5879      0.0593      3.7656   -999.2500   -999.2500
  2481.0000      7.6981      2.5945      0.0530      3.3652   -999.2500   -999.2500
  2481.2500      7.6933      2.5962      0.0475      3.2577   -999.2500   -999.2500
  2481.5000      7.6945      2.5957      0.0398      3.2929   -999.2500   -999.2500
  2481.7500      7.6972      2.5938      0.0373      3.4035   -999.2500   -999.2500
  2482.0000      7.6954      2.5899      0.0398      3.6415   -999.2500   -999.2500
  2482.2500      7.6838      2.5866      0.0452      3.8394   -999.2500   -999.2500
  2482.5000      7.6660      2.5805      0.0557      4.2110   -999.2500   -999.2500
  2482.7500      7.6561      2.5757      0.0622      4.5058   -999.2500   -999.2500
  2483.0000      7.6531      2.5688      0.0695      4.9186   -999.2500   -999.2500
  2483.2500      7.6478      2.5671      0.0730      5.0225   -999.2500   -999.2500
  2483.5000      7.6322      2.5764      0.0771      4.4579   -999.2500   -999.2500
  2483.7500      7.6071      2.5969      0.0801      3.2170   -999.2500   -999.2500
  2484.0000      7.5804      2.6618      0.0878     -0.7122   -999.2500   -999.2500
  2484.2500      7.5512      2.7348      0.0951     -5.1400   -999.2500   -999.2500
  2484.5000      7.4664      2.8973      0.1000    -14.9860   -999.2500   -999.2500
  2484.7500      6.9735      3.0412      0.0858    -23.7085   -999.2500   -999.2500
  2485.0000      5.2059      3.2973      0.0064    -39.2311   -999.2500   -999.2500
  2485.2500      2.5101      3.4712     -0.1047    -49.7678   -999.2500   -999.2500
  2485.5000      0.9206      3.6459     -0.3864    -60.3583   -999.2500   -999.2500
  2485.7500      0.5696      3.6196     -0.6632    -58.7660   -999.2500   -999.2500
  2486.0000      0.5409      3.2231     -1.2262    -34.7328   -999.2500   -999.2500
  2486.2500   -999.2500      2.7069     -1.7047     -3.4468   -999.2500   -999.2500
  2486.5000   -999.2500      1.7291      0.0100     55.8111   -999.2500   -999.2500
  2486.7500   -999.2500      1.1117      0.0100     93.2287   -999.2500   -999.2500
  2487.0000   -999.2500      0.4517   -999.2500    133.2300   -999.2500   -999.2500
  2487.2500   -999.2500      0.2093   -999.2500    147.9198   -999.2500   -999.2500
  2487.5000   -999.2500      0.0506   -999.2500    157.5385   -999.2500   -999.2500
  2487.7500   -999.2500      0.0163   -999.2500    159.6159   -999.2500   -999.2500
  2488.0000   -999.2500      0.0022   -999.2500    160.4725   -999.2500   -999.2500
  2488.2500   -999.2500      0.0004   -999.2500    160.5807   -999.2500   -999.2500
  2488.5000   -999.2500      0.0000   -999.2500    160.6061   -999.2500   -999.2500
