~Version Information
VERS.                      2.0: CWLS Log ASCII Standard - VERSION 2.0
WRAP.                       NO: One line per depth step
~Well Information Block
STRT.FT               -11.5000: 
STOP.FT              2395.2500: 
STEP.FT                 0.2500: 
NULL.                -999.2500: 
COMP.          Petrogulf Corporation: COMPANY
WELL.            Montoya 7-21V: WELL
FLD.           Purgatorie River: FIELD
LOC.           738' FSL & 2070' FWL--: LOCATION
CNTY.               Las Animas: COUNTY
SRVC.                         : SERVICE COMPANY
DATE.          Mon Aug 30 15:10:00 2004: LOG DATE
UWI.                          : UNIQUE WELL ID
STAT.                       CO: STATE
~Curve Information Block
DEPT.FT            0 000 00 00: Depth
CCL.                          : Casing Collar Locator
TT3.usec                      : CBL 3' Travel Time
AMP3.mV                       : CBL 3' Amplitude
GR.GAPI                       : Gamma Ray
~Parameter Information Block
~A  Depth       CCL         TT3         AMP3         GR     
# ...
   625.0000      0.0000    307.0539     20.2252     93.2720
   625.2500      0.0000    306.7949     20.2474     92.4696
   625.5000      0.0000    306.5876     20.3438     93.6042
   625.7500      0.0000    306.4404     20.5778     96.0481
   626.0000      0.0000    306.3198     20.8966     98.8187
   626.2500      0.0000    306.2042     21.1769    100.9618
   626.5000      0.0000    306.1143     21.3017    101.8719
   626.7500      0.0000    306.1040     21.2206    101.3872
   627.0000      0.0000    306.2169     20.9539     99.5830
   627.2500      0.0000    306.4420     20.5435     96.8590
   627.5000      0.0000    306.7123     19.9967     94.4118
   627.7500      0.0000    306.9588     19.2806     93.9510
   628.0000      0.0000    307.1712     18.3742     96.2467
   628.2500      0.0000    307.4000     17.3370    100.0946
   628.5000      0.0000    307.6922     16.3329    103.0008
   628.7500      0.0000    308.0256     15.5757    102.9206
   629.0000      0.0000    308.3081     15.2095     99.6315
   629.2500      0.0000    308.4439     15.2030     94.8821
   629.5000      0.0000    308.4023     15.3528     91.1465
   629.7500      0.0000    308.2277     15.4129     89.8849
   630.0000      0.0000    307.9980     15.2563     90.9098
   630.2500      0.0000    307.7791     14.9373     93.2968
   630.5000      0.0000    307.6042     14.6217     96.3505
   630.7500      0.0000    307.4756     14.4556     99.3261
   631.0000      0.0000    307.3805     14.4675    100.9337
   631.2500      0.0000    307.3115     14.5647    100.2900
   631.5000      0.0000    307.2754     14.6288     98.3930
   631.7500      0.0000    307.2772     14.6306     97.7835
   632.0000      0.0000    307.2990     14.6398    100.4137
   632.2500      0.0000    307.3069     14.7126    106.1335
   632.5000      0.0000    307.2873     14.8021    113.1040
   632.7500      0.0000    307.2650     14.8068    119.0848
   633.0000      0.0000    307.2800     14.6805    122.1807
   633.2500      0.0000    307.3497     14.4491    121.1878
   633.5000      0.0000    307.4599     14.1370    116.1932
   633.7500      0.0000    307.5844     13.7304    108.9642
   634.0000      0.0000    307.7065     13.2310    102.1780
   634.2500      0.0000    307.8257     12.7213     97.9143
   634.5000      0.0000    307.9499     12.3433     96.9749
   634.7500      0.0000    308.0804     12.2000     99.2935
   635.0000      0.0000    308.2073     12.2634    104.1416
   635.2500      0.0000    308.3193     12.3723    109.6932
   635.5000      0.0000    308.4241     12.3365    113.1529
   635.7500      0.0000    308.5584     12.0740    112.3461
   636.0000      0.0000    308.7676     11.6708    107.4769
   636.2500      0.0000    309.0557     11.3150    101.0948
   636.5000      0.0000    309.3484     11.1662     96.1779
   636.7500      0.0000    309.5247     11.2673     94.0136
   637.0000      0.0000    309.5124     11.5467     93.4310
   637.2500      0.0000    309.3641     11.8795     92.0506
   637.5000      0.0000    309.2304     12.1471     88.6771
   637.7500      0.0000    309.2479     12.2724     84.5171
   638.0000      0.0000    309.4435     12.2395     81.7946
   638.2500      0.0000    309.7259     12.0990     81.4495
   638.5000      0.0000    309.9494     11.9440     82.5212
   638.7500      0.0000    309.9980     11.8562     83.4160
   639.0000      0.0000    309.8430     11.8601     83.0999
   639.2500      0.0000    309.5504     11.9149     80.9779
   639.5000      0.0000    309.2383     11.9387     76.3114
   639.7500      0.0000    309.0209     11.8530     68.6782
   640.0000      0.0000    308.9745     11.6366     59.2099
   640.2500      0.0000    309.1216     11.3491     50.6237
   640.5000      0.0000    309.4204     11.0935     45.3338
   640.7500      0.0000    309.7662     10.9538     43.6585
   641.0000      0.0000    310.0291     10.9735     43.9616
   641.2500      0.0000    310.1147     11.1663     44.1734
   641.5000      0.0000    310.0111     11.5094     43.1173
   641.7500      0.0000    309.7922     11.9171     40.9637
   642.0000      0.0000    309.5795     12.2459     38.8899
   642.2500      0.0000    309.4910     12.3601     38.1967
   642.5000      0.0000    309.6005     12.2130     39.4053
   642.7500      0.0000    309.9214     11.8745     42.0313
   643.0000      0.0000    310.4092     11.4899     45.0358
   643.2500      0.0000    310.9643     11.2068     47.3549
   643.5000      0.0000    311.4394     11.1112     48.2017
   643.7500      0.0000    311.6861     11.1961     47.3222
   644.0000      0.0000    311.6336     11.3811     45.1928
   644.2500      0.0000    311.3337     11.5713     42.9369
   644.5000      0.0000    310.9272     11.7106     41.8068
   644.7500      0.0000    310.5671     11.7987     42.3389
   645.0000      0.0000    310.3624     11.8690     43.8373
   645.2500      0.0000    310.3572     11.9506     44.9792
   645.5000      0.0000    310.5266     12.0513     45.0325
   645.7500      0.0000    310.7786     12.1799     44.2413
   646.0000      0.0000    310.9816     12.3704     43.1336
   646.2500      0.0000    311.0273     12.6497     42.0582
   646.5000      0.0000    310.8919     12.9771     41.5342
   646.7500      0.0000    310.6472     13.2428     42.3316
   647.0000      0.0000    310.4162     13.3482     44.6130
   647.2500      0.0000    310.3115     13.2865     47.3276
   647.5000      0.0000    310.3910     13.1402     48.9921
   647.7500      0.0000    310.6516     13.0123     48.9204
   648.0000      0.0000    311.0599     12.9663     47.4346
   648.2500      0.0000    311.6846     13.0109     45.2288
   648.5000      0.0000    312.9340     13.1095     42.9372
   648.7500      0.0000    315.7773     13.1982     41.0968
   649.0000      0.0000    321.4896     13.2242     40.0986
   649.2500      0.0000    330.5790     13.1832     39.9778
   649.5000      0.0000    341.9316     13.1079     40.2289
   649.7500      0.0000    354.0034     13.0063     40.0823
   650.0000      0.0000    367.0570     12.8323     39.3005
   650.2500      0.0000    382.4053     12.5549     38.5937
   650.5000      0.0000    398.3103     12.2553     38.8697
   650.7500      0.0000    408.3682     12.1103     40.1138
   651.0000      0.0000    405.8507     12.2470     41.2588
   651.2500      0.0000    389.6458     12.6230     41.1821
   651.5000      0.0000    365.6309     13.0583     39.6867
   651.7500      0.0000    342.4666     13.3741     37.5752
   652.0000      0.0000    326.0219     13.5059     36.0731
   652.2500      0.0000    317.1519     13.5156     36.2201
   652.5000      0.0000    313.4866     13.5190     38.3587
   652.7500      0.0000    312.2932     13.5942     41.7541
   653.0000      0.0000    311.9045     13.7356     44.9226
   653.2500      0.0000    311.6751     13.8761     46.8254
   653.5000      0.0000    311.4772     13.9554     47.6547
   653.7500      0.0000    311.3161     13.9810     48.1009
   654.0000      0.0000    311.1912     14.0211     48.2672
   654.2500      0.0000    311.1567     14.1240     47.9530
   654.5000      0.0000    311.6190     14.2497     47.6750
   654.7500      0.0000    313.9604     14.2987     48.5429
   655.0000      0.0000    321.4382     14.2076     50.9593
   655.2500      0.0000    339.1452     14.0036     53.8993
   655.5000      0.0000    370.8662     13.7779     55.7221
   655.7500      0.0000    412.9076     13.6402     55.5796
   656.0000      0.0000    450.8454     13.6997     53.9496
   656.2500      0.0000    466.2834     14.0418     51.9817
   656.5000      0.0000    450.6228     14.6791     50.6665
   656.7500      0.0000    412.3731     15.5222     50.6421
   657.0000      0.0000    369.9180     16.4162     52.2438
   657.2500      0.0000    337.7301     17.2071     55.1213
   657.5000      0.0000    319.5509     17.7874     57.8940
   657.7500      0.0000    311.6252     18.1179     58.8729
   658.0000      0.0000    308.9013     18.2379     57.4386
   658.2500      0.0000    308.1787     18.2413     54.5091
