~Version Information
 VERS.                                  2.0 : CWLS LAS VERSION
 WRAP.                                   NO : WRAPING MODE
 SWARE .                 MController 2.5.0E : SOFTWARE VERSION
~Well Information
 WELL.                          Enzo 43-8TR : WELL
 COMP.        Pioneer Natural Resources Inc : COMPANY
 FLD.                      Purgatorie River : FIELD
 LOC.                 NE/SE Sec 8 T32S R66W : LOCATION
 DATE.                             10/29/04 : DATE(S) LOGGED
 SRVC.       Blanco Geological Services LLC : SERVICE COMPANY
 STAT.                                   CO : STATE
 CNTY.                           Las Animas : COUNTY
 CTRY.                                  USA : COUNTRY
 API.                       05-071-08213-00 : API NUMBER
 STRT.FT                             562.00 : START DEPTH
 STOP.FT                            2170.00 : STOP DEPTH
 STEP.FT                               1.00 : DEPTH INCREMENT
 NULL.                                -9999 : NULL VALUE
~Curve information
 DEPTH.FT                                   :
 ROP.MIN/FT                                 :
 GAS.UNITS                                  :
~ASCII Log data
# ...
     1362.00        0.300         19.9 
     1363.00        0.267         20.7 
     1364.00        0.267         21.6 
     1365.00        0.383         23.1 
     1366.00        0.433         25.3 
     1367.00        0.500         24.4 
     1368.00        0.333         22.8 
     1369.00        0.333         21.6 
     1370.00        0.333         19.1 
     1371.00        0.200         18.3 
     1372.00        0.200         17.0 
     1373.00        0.167         15.3 
     1374.00        0.233         14.7 
     1375.00        0.267         13.8 
     1376.00        2.417         65.9 
     1377.00        0.700         63.6 
     1378.00        0.517         41.9 
     1379.00        0.367         33.1 
     1380.00        0.333         32.2 
     1381.00        0.267         32.6 
     1382.00        0.267         31.0 
     1383.00        0.233         26.8 
     1384.00        0.200         25.3 
     1385.00        0.233         22.9 
     1386.00        0.300         21.6 
     1387.00        0.267         19.3 
     1388.00        0.267         17.4 
     1389.00        0.267         15.4 
     1390.00        0.250         14.7 
     1391.00        0.267         16.0 
     1392.00        0.233         17.1 
     1393.00        0.233         19.9 
     1394.00        0.267         24.3 
     1395.00        0.233         25.0 
     1396.00        0.267         25.2 
     1397.00        0.267         25.3 
     1398.00        0.267         24.3 
     1399.00        0.300         23.9 
     1400.00        0.233         22.9 
     1401.00        0.200         21.6 
     1402.00        0.133         20.4 
     1403.00        0.200         19.4 
     1404.00        0.250         18.0 
     1405.00        0.167         17.2 
     1406.00        3.000        133.9 
     1407.00        0.750         96.0 
     1408.00        0.400         45.9 
     1409.00        0.433         34.4 
     1410.00        0.400         26.3 
     1411.00        0.367         25.3 
     1412.00        0.300         26.1 
     1413.00        0.367         27.3 
     1414.00        0.267         26.9 
     1415.00        0.250         25.0 
     1416.00        0.200         24.0 
     1417.00        0.200         22.9 
     1418.00        0.233         22.7 
     1419.00        0.267         21.7 
     1420.00        0.233         19.5 
     1421.00        0.300         19.4 
     1422.00        0.267         19.4 
     1423.00        0.267         22.2 
     1424.00        0.200         23.5 
     1425.00        0.200         23.8 
     1426.00        0.200         23.1 
     1427.00        0.267         22.4 
     1428.00        0.333         21.2 
     1429.00        0.217         20.8 
     1430.00        0.167         19.5 
     1431.00        0.200         18.7 
     1432.00        0.167         17.3 
     1433.00        0.200         16.2 
     1434.00        0.233         14.1 
     1435.00        0.267         13.2 
     1436.00        4.017        163.5 
     1437.00        0.767        129.9 
     1438.00        0.400         63.2 
     1439.00        0.317         43.1 
     1440.00        0.333         36.3 
     1441.00        0.300         30.1 
     1442.00        0.333         26.1 
     1443.00        0.400         23.7 
     1444.00        0.233         21.0 
     1445.00        0.300         20.2 
     1446.00        0.300         18.9 
     1447.00        0.267         18.1 
     1448.00        0.333         18.0 
     1449.00        0.300         17.9 
     1450.00        0.283         17.7 
     1451.00        0.500         19.0 
     1452.00        0.667         19.0 
     1453.00        0.467         17.8 
     1454.00        0.300         16.9 
     1455.00        0.300         15.1 
     1456.00        0.367         13.8 
     1457.00        0.333         13.7 
     1458.00        0.317         13.0 
     1459.00        0.367         12.8 
     1460.00        0.333         12.6 
     1461.00        0.300         13.0 
     1462.00        0.300         13.0 
     1463.00        0.300         12.7 
     1464.00        0.300         12.3 
     1465.00        0.300         12.8 
     1466.00        3.217         89.8 
     1467.00        0.267         58.9 
     1468.00        0.267         49.8 
     1469.00        0.233         42.5 
     1470.00        0.267         37.1 
     1471.00        0.250         32.6 
     1472.00        0.133         29.7 
     1473.00        0.233         28.5 
     1474.00        0.233         27.4 
     1475.00        0.233         26.1 
     1476.00        0.300         25.2 
     1477.00        0.267         23.0 
     1478.00        0.267         20.6 
     1479.00        0.267         18.8 
     1480.00        0.167         18.0 
     1481.00        0.200         17.3 
     1482.00        0.267         17.9 
     1483.00        0.267         17.5 
     1484.00        0.233         16.3 
     1485.00        0.250         15.2 
     1486.00        0.167         14.8 
     1487.00        0.133         13.5 
     1488.00        0.167         13.7 
     1489.00        0.133         13.3 
     1490.00        0.167         12.9 
     1491.00        0.133         11.1 
     1492.00        0.167         11.4 
     1493.00        0.200          9.6 
     1494.00        0.267          9.1 
     1495.00        0.200          8.0 
     1496.00        3.650         47.5 
     1497.00        0.333         38.0 
     1498.00        0.400         32.6 
     1499.00        0.333         27.7 
     1500.00        0.283         25.8 
     1501.00        0.300         24.2 
     1502.00        0.300         22.0 
     1503.00        0.267         19.1 
     1504.00        0.300         17.7 
     1505.00        0.267         14.9 
     1506.00        0.367         14.4 
     1507.00        0.200         13.8 
     1508.00        0.267         13.9 
     1509.00        0.200         14.0 
     1510.00        0.167         13.8 
     1511.00        0.267         13.8 
     1512.00        0.233         14.2 
     1513.00        0.283         15.2 
     1514.00        0.267         15.6 
     1515.00        0.200         14.2 
     1516.00        0.300         14.1 
     1517.00        0.333         13.4 
     1518.00        0.100         12.7 
     1519.00        0.200         11.0 
     1520.00        0.200         11.1 
     1521.00        0.233         10.1 
     1522.00        0.300          9.7 
     1523.00        0.200          8.4 
     1524.00        0.233          8.2 
     1525.00        0.367          8.8 
     1526.00        3.083         47.2 
     1527.00        0.400         40.8 
     1528.00        0.417         33.1 
     1529.00        0.333         27.1 
     1530.00        0.367         24.3 
     1531.00        0.333         21.2 
     1532.00        0.333         20.5 
     1533.00        0.333         17.8 
     1534.00        0.333         16.7 
     1535.00        0.300         16.3 
     1536.00        0.200         14.4 
     1537.00        0.400         14.9 
     1538.00        0.183         13.5 
     1539.00        0.300         13.0 
     1540.00        0.267         12.6 
     1541.00        0.467         12.7 
     1542.00        0.167         12.7 
     1543.00        0.233         12.9 
     1544.00        0.367         13.1 
     1545.00        0.200         12.9 
     1546.00        0.167         14.1 
     1547.00        0.333         15.1 
     1548.00        0.300         18.1 
     1549.00        0.233         17.8 
     1550.00        0.250         16.1 
     1551.00        0.133         14.9 
     1552.00        0.367         18.5 
     1553.00        0.400         19.5 
     1554.00        0.300         19.2 
     1555.00        0.167         17.4 
     1556.00        6.100         52.5 
     1557.00        0.233         26.9 
     1558.00        0.233         25.2 
     1559.00        0.233         24.5 
     1560.00        0.267         22.7 
     1561.00        0.267         20.8 
