~Version Information
VERS.                      2.0: CWLS Log ASCII Standard - VERSION 2.0
WRAP.                       NO: One line per depth step
~Well Information Block
STRT.FT               784.0000: 
STOP.FT              1033.0000: 
STEP.FT                 0.1000: 
NULL.                -999.2500: 
COMP.          Pioneer Natural Resources: COMPANY
WELL.          Run-Away-Train 43-26: WELL
FLD.           Purgatoire River: FIELD
LOC.           1693' FSL & 1195' FEL: LOCATION
PROV.                 Colorado: PROVINCE
CNTY.               Las Animas: COUNTRY
SRVC.                Patterson: SERVICE COMPANY
DATE.          Wed Apr 06 07:23:28 2005: LOG DATE
UWI.           05 071 08188 00: UNIQUE WELL ID
~Curve Information Block
DEPT.FT            0 000 00 00: Depth
DCAL.in                       : CDL Caliper
RHOB.g/cc                     : CDL Bulk Density
RHOC.g/cc                     : CDL Density Correction
DPOR.pu                       : CDL Density Porosity
GR.GAPI                       : Gamma Ray
NPOR.pu                       : Neutron Porosity
~Parameter Information Block
~A  Depth       DCAL        RHOB        RHOC        DPOR         GR         NPOR    
# ...
   803.2000      8.1898      2.5777     -0.4100      4.3805     79.5971     28.9446
   803.3000      8.1639      2.5324     -0.4152      7.1300     82.7591     28.1968
   803.4000      8.1639      2.4024     -0.5031     15.0061     80.5450     26.2200
   803.5000      8.1485      2.1825     -0.6146     28.3325     76.2684     23.0497
   803.6000      8.1485      1.8915     -0.7779     45.9723     72.5607     19.2061
   803.7000      8.1485      1.6109     -1.0916     62.9771     67.3576     15.2162
   803.8000      8.1402      1.4267     -1.3021     74.1386     60.6264     11.6981
   803.9000      8.1402      1.3401     -1.4110     79.3854     56.5707      8.9851
   804.0000      8.1271      1.3147     -1.5593     80.9260     57.9135      7.1164
   804.1000      8.1271      1.3694     -1.5351     77.6099     63.0853      5.9905
   804.2000      8.1271      1.5133     -1.1389     68.8921     60.9233      4.9987
   804.3000      8.1246      1.6798     -0.7294     58.7994     63.8121     28.2762
   804.4000      8.1246      1.8152     -0.5287     50.5941     65.2963     26.8253
   804.5000      8.1146      1.9190      0.0511     44.3017     66.0385     25.5919
   804.6000      8.1146      1.9922      0.0942     39.8696     69.4027     24.6730
   804.7000      8.1146      2.0387      0.1290     37.0465     78.4283     23.9561
   804.8000      8.0250      2.0704      0.1436     35.1289     88.1266     23.6002
   804.9000      8.0250      2.1021      0.1476     33.2047     91.5413     23.5070
   805.0000      8.1151      2.1589      0.2241     29.7654     88.4915     23.3200
   805.1000      8.1151      2.2432      0.4393     24.6527     83.7691     22.9789
   805.2000      8.1151      2.3149      0.5261     20.3067     76.3594     22.6276
   805.3000      8.1863      2.3303      0.5418     19.3786     81.5538     22.2558
   805.4000      8.1863      2.2876      0.3484     21.9649     85.9441     21.7412
   805.5000      8.2101      2.2330      0.2666     25.2703     83.5915     21.3382
   805.6000      8.2101      2.2184      0.2657     26.1603     81.1953     21.2889
   805.7000      8.2101      2.2548      0.3502     23.9486     84.3906     21.3515
   805.8000      8.3894      2.3093      0.4003     20.6473     88.0598     21.3584
   805.9000      8.3894      2.3391      0.4176     18.8413     89.8745     21.2816
   806.0000      8.9126      2.3223      0.4785     19.8630     91.5080     21.1369
   806.1000      8.9126      2.2710      0.4121     22.9668     91.0958     21.2948
   806.2000      8.9126      2.2149      0.4157     26.3697     89.0442     21.7026
   806.3000      9.4960      2.1611      0.3871     29.6330     90.0232     21.6819
   806.4000      9.4960      2.1105      0.2939     32.6940     95.2179     21.3025
   806.5000      9.5855      2.0884      0.3028     34.0376     99.1472     21.2645
   806.6000      9.5855      2.1250      0.3054     31.8191     97.6058     21.5254
   806.7000      9.5855      2.2209      0.4523     26.0041     91.4381     21.4945
   806.8000      9.5513      2.3395      0.5417     18.8207     84.4120     21.1686
   806.9000      9.5513      2.4393      0.6347     12.7721     82.9642     20.9474
   807.0000      9.4571      2.5031      0.6211      8.9008     88.3979     20.7982
   807.1000      9.4571      2.5314      0.6658      7.1897     93.4323     20.6270
   807.2000      9.4571      2.5197      0.6110      7.8998     93.3662     20.5311
   807.3000      9.3086      2.4616      0.5299     11.4179     90.7759     20.3315
   807.4000      9.3086      2.3631      0.3931     17.3860     88.7178     20.1998
   807.5000      9.1317      2.2494      0.2088     24.2777     86.8138     20.7669
   807.6000      9.1317      2.1533      0.1506     30.1055     86.8201     22.1141
   807.7000      9.1317      2.0920      0.1188     33.8189     90.2089     23.5896
   807.8000      9.0394      2.0647      0.1464     35.4722     93.4874     24.5437
   807.9000      9.0394      2.0549      0.1362     36.0686     94.7604     24.9828
   808.0000      8.7800      2.0400      0.1064     36.9695     96.8878     25.2224
   808.1000      8.7800      2.0143      0.1076     38.5269     99.6110     25.3709
   808.2000      8.7800      1.9968      0.0659     39.5900     97.4142     25.4165
   808.3000      8.6392      2.0044      0.0800     39.1293     90.7527     25.2061
   808.4000      8.6392      2.0221      0.1427     38.0536     86.0219     24.5854
   808.5000      8.5303      2.0288      0.0956     37.6487     86.6297     23.9332
   808.6000      8.5303      2.0296      0.0955     37.6011     90.1182     23.7626
   808.7000      8.5303      2.0340      0.1008     37.3339     91.3907     23.9029
   808.8000      8.4936      2.0395      0.0844     36.9987     90.6677     23.7305
   808.9000      8.4936      2.0430      0.0976     36.7856     92.7296     23.1286
   809.0000      8.5636      2.0426      0.1369     36.8093     97.2838     22.6257
   809.1000      8.5636      2.0422      0.0782     36.8392     97.7715     22.5075
   809.2000      8.5636      2.0517      0.1004     36.2634     92.7202     22.3707
   809.3000      8.6675      2.0619      0.1564     35.6453     87.7888     21.9235
   809.4000      8.6675      2.0499      0.1385     36.3703     85.6411     21.4153
   809.5000      8.7896      2.0220      0.0618     38.0631     83.6587     21.1901
   809.6000      8.7896      2.0062      0.1110     39.0209     81.0184     21.3629
   809.7000      8.7896      2.0126      0.0984     38.6312     78.8363     21.6730
   809.8000      8.8767      2.0312      0.1194     37.5028     78.5359     21.9862
   809.9000      8.8767      2.0493      0.1233     36.4067     80.4949     22.4496
   810.0000      8.9003      2.0642      0.1660     35.5046     83.6313     22.7534
   810.1000      8.9003      2.0829      0.1818     34.3685     87.1744     22.6197
   810.2000      8.9003      2.1151      0.2146     32.4171     89.9959     22.5064
   810.3000      8.8950      2.1604      0.2586     29.6718     89.7624     22.7836
   810.4000      8.8950      2.2041      0.2633     27.0244     86.1566     23.3478
   810.5000      8.9169      2.2300      0.2855     25.4549     80.5212     23.9043
   810.6000      8.9169      2.2323      0.2536     25.3148     76.4299     24.2355
   810.7000      8.9169      2.2210      0.1898     25.9994     76.8472     24.2417
   810.8000      8.8561      2.2107      0.1929     26.6264     79.5960     23.8352
   810.9000      8.8561      2.2047      0.1880     26.9876     82.3264     23.1476
   811.0000      8.7969      2.1971      0.1823     27.4471     82.9331     22.6440
   811.1000      8.7969      2.1802      0.2036     28.4707     80.8876     22.6301
   811.2000      8.7969      2.1564      0.1524     29.9161     79.0654     22.9885
   811.3000      8.7837      2.1393      0.1761     30.9515     79.7639     23.3298
   811.4000      8.7837      2.1358      0.1744     31.1618     81.6519     23.3261
   811.5000      8.7748      2.1394      0.1777     30.9439     83.4778     23.1700
   811.6000      8.7748      2.1373      0.1845     31.0745     84.2376     23.1429
   811.7000      8.7748      2.1286      0.1558     31.5973     82.0244     23.1878
   811.8000      8.7806      2.1257      0.1403     31.7761     79.3563     23.1073
   811.9000      8.7806      2.1295      0.1737     31.5482     81.6488     22.9318
   812.0000      8.8012      2.1325      0.1426     31.3642     88.0680     22.8891
   812.1000      8.8012      2.1376      0.1323     31.0521     92.5293     22.9175
   812.2000      8.8012      2.1457      0.1658     30.5607     90.9208     22.9306
   812.3000      8.8848      2.1479      0.1521     30.4310     86.3009     22.9752
   812.4000      8.8848      2.1444      0.1381     30.6416     85.3116     23.0450
   812.5000      8.9616      2.1494      0.1237     30.3396     86.8621     23.0049
   812.6000      8.9616      2.1736      0.1420     28.8733     88.5872     22.5420
   812.7000      8.9616      2.2079      0.1815     26.7939     91.8075     21.9088
