~Version Information
VERS.                      2.0: CWLS Log ASCII Standard - VERSION 2.0
WRAP.                       NO: One line per depth step
~Well Information Block
STRT.FT               545.0000: 
STOP.FT              1920.5000: 
STEP.FT                 0.1000: 
NULL.                -999.2500: 
COMP.          Pioneer Natural Resources: COMPANY
WELL.            Summers 21-19: WELL
FLD.           Purgatoire River: FIELD
LOC.           900' FNL & 1950' FWL: LOCATION
PROV.                 Colorado: PROVINCE
CNTY.               Las Animas: COUNTRY
SRVC.                Patterson: SERVICE COMPANY
DATE.          Mon Oct 17 07:05:22 2005: LOG DATE
UWI.           05 071 08315 00: UNIQUE WELL ID
~Curve Information Block
DEPT.FT            0 000 00 00: Depth
DCAL.in                       : CDL Caliper
RHOB.g/cc                     : CDL Bulk Density
RHOC.g/cc                     : CDL Density Correction
DPOR.pu                       : CDL Density Porosity
GR.GAPI                       : Gamma Ray
NPOR.pu                       : Neutron Porosity
~Parameter Information Block
~A  Depth       DCAL        RHOB        RHOC        DPOR         GR         NPOR    
# ...
   727.4000      8.2672      2.4466      0.0431     12.3245    138.7855     25.6356
   727.5000      8.2667      2.4796      0.0463     10.3263    139.9880     25.2606
   727.6000      8.2667      2.5061      0.0336      8.7240    145.7704     25.3511
   727.7000      8.2667      2.5250      0.0163      7.5742    152.8096     25.4328
   727.8000      8.2655      2.5414      0.0670      6.5832    154.9110     25.3040
   727.9000      8.2655      2.5606      0.0402      5.4170    151.7842     24.7504
   728.0000      8.2642      2.5825      0.1055      4.0937    146.2533     23.8738
   728.1000      8.2642      2.5888      0.1114      3.7100    145.1575     23.3729
   728.2000      8.2642      2.5610      0.0938      5.3956    150.5560     23.4651
   728.3000      8.2656      2.5084     -0.0204      8.5830    155.2036     23.6621
   728.4000      8.2656      2.4625     -0.0219     11.3613    156.3876     23.9219
   728.5000      8.2716      2.4396     -0.0021     12.7511    156.2004     24.5671
   728.6000      8.2716      2.4364      0.0013     12.9440    156.2686     25.1204
   728.7000      8.2716      2.4459     -0.0404     12.3709    156.3635     25.2128
   728.8000      8.3000      2.4540      0.0267     11.8767    154.8522     25.3076
   728.9000      8.3000      2.4523      0.0014     11.9794    151.9635     25.6691
   729.0000      8.2468      2.4546     -0.0155     11.8411    148.9157     26.1574
   729.1000      8.2468      2.4714      0.0097     10.8221    145.2234     26.7318
   729.2000      8.2468      2.4880      0.0280      9.8212    141.8316     27.3485
   729.3000      8.2480      2.4839      0.0166     10.0663    140.0373     27.9344
   729.4000      8.2480      2.4603      0.0270     11.4953    137.0031     28.5267
   729.5000      8.2501      2.4416      0.0303     12.6286    130.0509     29.1487
   729.6000      8.2501      2.4474     -0.0176     12.2817    122.3512     29.7711
   729.7000      8.2501      2.4663     -0.0121     11.1352    118.4204     30.1700
   729.8000      8.2622      2.4732      0.0348     10.7125    116.3837     29.9556
   729.9000      8.2622      2.4632     -0.0165     11.3215    113.1170     29.3504
   730.0000      8.2774      2.4546      0.0526     11.8433    108.5491     28.8647
   730.1000      8.2774      2.4722      0.0264     10.7767    105.0001     28.3943
   730.2000      8.2774      2.5277      0.0759      7.4120    105.4809     28.0223
   730.3000      8.2709      2.5917      0.1862      3.5310    109.8176     27.9420
   730.4000      8.2709      2.6148      0.1890      2.1313    114.4128     27.6781
   730.5000      8.2759      2.5896      0.0468      3.6622    116.2319     27.0637
   730.6000      8.2759      2.5473      0.0372      6.2262    115.9742     26.4926
   730.7000      8.2759      2.5114      0.0656      8.4022    118.2098     26.1122
   730.8000      8.2365      2.4947      0.0714      9.4147    125.6711     25.9792
   730.9000      8.2365      2.4982      0.1045      9.2016    133.6671     26.0671
   731.0000      8.2337      2.4995      0.0930      9.1204    137.7074     26.1271
   731.1000      8.2337      2.4816      0.0103     10.2067    139.3263     25.8695
   731.2000      8.2337      2.4553     -0.0068     11.8003    141.1794     25.1093
   731.3000      8.2342      2.4337      0.0083     13.1113    143.0506     24.1980
   731.4000      8.2342      2.4229      0.0001     13.7642    140.5577     23.8866
   731.5000      8.2342      2.4396      0.0046     12.7511    131.2648     24.0771
   731.6000      8.2342      2.4916      0.0773      9.6016    125.7785     24.0634
   731.7000      8.2342      2.5491      0.1607      6.1165    130.3202     23.9713
   731.8000      8.2277      2.5735      0.1404      4.6382    138.1514     24.1619
   731.9000      8.2277      2.5636      0.1182      5.2387    144.0335     24.2798
   732.0000      8.2295      2.5433      0.0617      6.4663    148.2047     23.9469
   732.1000      8.2295      2.5266      0.0878      7.4780    153.5161     23.4462
   732.2000      8.2295      2.5179      0.0341      8.0043    158.4598     23.4224
   732.3000      8.2327      2.5199      0.0850      7.8849    160.4523     24.1318
   732.4000      8.2327      2.5230      0.0503      7.6942    161.7674     24.8190
   732.5000      8.2302      2.5152      0.0407      8.1694    162.4719     24.7136
   732.6000      8.2302      2.4952      0.0147      9.3810    160.2481     24.1335
   732.7000      8.2302      2.4667      0.0484     11.1109    157.0223     23.6104
   732.8000      8.2324      2.4359     -0.0025     12.9769    155.1445     23.1606
   732.9000      8.2324      2.4162     -0.0446     14.1677    153.9392     22.4492
   733.0000      8.2825      2.4112     -0.0314     14.4702    150.9427     21.3311
   733.1000      8.2825      2.3975      0.0107     15.3003    145.1096     20.2146
   733.2000      8.2825      2.3471     -0.0245     18.3557    140.1852     19.4916
   733.3000      8.2828      2.2622     -0.0573     23.5005    138.7806     19.1095
   733.4000      8.2828      2.1641     -0.0696     29.4459    137.9134     18.8864
   733.5000      8.3015      2.0677     -0.0958     35.2912    134.4949     18.5834
   733.6000      8.3015      1.9814     -0.0774     40.5240    131.0734     18.1828
   733.7000      8.3015      1.9083     -0.1194     44.9528    130.9602     17.8491
   733.8000      8.3066      1.8560     -0.1332     48.1186    130.6573     17.5675
   733.9000      8.3066      1.8349     -0.0786     49.3993    125.5027     17.5877
   734.0000      8.2694      1.8400     -0.0412     49.0939    118.2730     18.2218
   734.1000      8.2694      1.8626      0.0367     47.7212    114.0476     19.2720
   734.2000      8.2694      1.9064      0.0474     45.0684    115.6872     20.2483
   734.3000      8.2401      1.9669      0.1191     41.4000    122.7289     20.8313
   734.4000      8.2401      2.0248      0.1140     37.8907    128.0620     21.1331
   734.5000      8.2301      2.0711      0.1147     35.0872    126.6929     21.4096
   734.6000      8.2301      2.1119      0.0880     32.6108    123.1372     21.8010
   734.7000      8.2301      2.1514      0.0531     30.2181    124.3842     22.5820
   734.8000      8.2256      2.1846      0.0981     28.2083    129.4169     23.7179
   734.9000      8.2256      2.2175      0.0427     26.2125    133.2903     24.6464
   735.0000      8.2741      2.2685      0.0660     23.1182    134.8624     25.1582
   735.1000      8.2741      2.3289      0.1073     19.4606    135.9633     25.5922
   735.2000      8.2741      2.3717      0.0915     16.8692    137.3792     26.1345
   735.3000      8.3329      2.3964      0.0247     15.3727    137.7419     26.5079
   735.4000      8.3329      2.4157      0.0326     14.1977    138.7021     26.3423
   735.5000      8.2317      2.4240      0.0433     13.6984    141.4843     25.6182
   735.6000      8.2317      2.4206     -0.0096     13.9054    142.2859     24.7668
   735.7000      8.2317      2.4225      0.0144     13.7889    140.1384     24.2430
   735.8000      8.2250      2.4342      0.0726     13.0788    137.5842     23.8509
   735.9000      8.2250      2.4481      0.0320     12.2387    138.1741     23.2375
   736.0000      8.2194      2.4593      0.0498     11.5554    143.4402     22.6711
   736.1000      8.2194      2.4604      0.0048     11.4934    152.0984     22.1823
   736.2000      8.2194      2.4473      0.0197     12.2843    161.1875     21.3596
   736.3000      8.2114      2.4229      0.0357     13.7629    167.0182     20.4277
   736.4000      8.2114      2.3855      0.0646     16.0276    168.0101     19.7316
   736.5000      8.1998      2.3352      0.0673     19.0807    165.9659     19.2836
   736.6000      8.1998      2.2880      0.0014     21.9399    165.2577     19.3126
   736.7000      8.1998      2.2631      0.0269     23.4459    164.7214     19.6604
   736.8000      8.1899      2.2470      0.0917     24.4226    159.4137     19.6126
   736.9000      8.1899      2.2026      0.0578     27.1164    151.3774     19.1032
