~Version Information
VERS.                      2.0: CWLS Log ASCII Standard - VERSION 2.0
WRAP.                       NO: One line per depth step
~Well Information Block
STRT.FT                 0.0000: 
STOP.FT              2430.7500: 
STEP.FT                 0.2500: 
NULL.                -999.2500: 
COMP.          Petrogulf Corporation: COMPANY
WELL.             Leier 17-42V: WELL
FLD.           Purgatorie River: FIELD
LOC.           2309' FNL & 1062' FEL: LOCATION
PROV.                 Colorado: PROVINCE
CNTY.               Las Animas: COUNTRY
SRVC.                Patterson: SERVICE COMPANY
DATE.          Thu Oct 06 10:18:00 2005: LOG DATE
UWI.                          : UNIQUE WELL ID
~Curve Information Block
DEPT.FT            0 000 00 00: Depth
CCL.                          : Casing Collar Locator
TT3.usec                      : CBL 3' Travel Time
AMP3.mV                       : CBL 3' Amplitude
GR.GAPI                       : Gamma Ray
~Parameter Information Block
~A  Depth       CCL         TT3         AMP3         GR     
# ...
  2077.0000      0.0000    709.0930      1.6325     89.4972
  2077.2500      0.0000    726.6255      1.6997     88.7237
  2077.5000      0.0000    742.1129      1.7755     86.8627
  2077.7500      0.0000    752.4772      1.8398     85.2277
  2078.0000      0.0000    761.6535      1.8823     84.7003
  2078.2500      0.0000    776.9628      1.8979     85.3403
  2078.5000      0.0000    797.4656      1.8852     86.6176
  2078.7500      0.0000    807.4644      1.8643     88.0202
  2079.0000      0.0000    794.7833      1.8679     89.4860
  2079.2500      0.0000    768.2740      1.9000     91.2162
  2079.5000      0.0000    744.4536      1.9402     93.0996
  2079.7500      0.0000    733.1116      1.9775     94.4585
  2080.0000      0.0000    736.1775      2.0088     94.4597
  2080.2500      0.0000    744.5041      2.0257     92.7631
  2080.5000      0.0000    744.4671      2.0173     89.6626
  2080.7500      0.0000    731.8638      1.9806     85.5818
  2081.0000      0.0000    712.3755      1.9372     80.6799
  2081.2500      0.0000    696.1744      1.9211     75.1327
  2081.5000      0.0000    692.4641      1.9379     69.5523
  2081.7500      0.0000    701.9520      1.9625     64.9300
  2082.0000      0.0000    716.9362      1.9829     62.2681
  2082.2500      0.0000    729.7302      2.0094     62.0368
  2082.5000      0.0000    741.1614      2.0461     63.5802
  2082.7500      0.0000    758.5870      2.0900     65.3215
  2083.0000      0.0000    783.9388      2.1443     66.1352
  2083.2500      0.0000    810.8601      2.2007     66.4680
  2083.5000      0.0000    832.7134      2.2250     67.8318
  2083.7500      0.0000    848.7640      2.1925     71.3713
  2084.0000      0.0000    862.3531      2.1256     77.0769
  2084.2500      0.0000    866.7653      2.0697     83.9962
  2084.5000      0.0000    844.1130      2.0385     90.8034
  2084.7500      0.0000    793.7616      2.0077     96.2616
  2085.0000      0.0000    741.5027      1.9509     99.4383
  2085.2500      0.0000    708.9752      1.8725     99.8639
  2085.5000      0.0000    695.5087      1.8014     97.8744
  2085.7500      0.0000    691.1102      1.7448     94.7052
  2086.0000      0.0000    689.6099      1.6861     91.7746
  2086.2500      0.0000    689.1594      1.6292     89.7302
  2086.5000      0.0000    689.2382      1.5961     88.3751
  2086.7500      0.0000    689.8300      1.5937     87.2891
  2087.0000      0.0000    692.2936      1.6125     86.1213
  2087.2500      0.0000    700.4826      1.6384     84.4041
  2087.5000      0.0000    718.9929      1.6560     81.6302
  2087.7500      0.0000    745.5162      1.6560     77.7769
  2088.0000      0.0000    765.6377      1.6415     73.6792
  2088.2500      0.0000    765.0132      1.6240     70.7288
  2088.5000      0.0000    748.1429      1.6208     70.0337
  2088.7500      0.0000    732.9852      1.6472     71.6358
  2089.0000      0.0000    727.7596      1.7033     74.4256
  2089.2500      0.0000    726.3311      1.7685     76.9350
  2089.5000      0.0000    723.1907      1.8059     78.3231
  2089.7500      0.0000    720.6716      1.7873     78.6513
  2090.0000      0.0000    721.4147      1.7260     78.4729
  2090.2500      0.0000    722.0147      1.6677     78.3472
  2090.5000      0.0000    718.2156      1.6437     78.5116
  2090.7500      0.0000    711.8228      1.6543     78.6929
  2091.0000      0.0000    707.4220      1.6826     78.3782
  2091.2500      0.0000    704.9281      1.7057     77.4612
  2091.5000      0.0000    701.3821      1.7118     76.3813
  2091.7500      0.0000    697.3067      1.7124     75.4277
  2092.0000      0.0000    696.0295      1.7168     74.2539
  2092.2500      0.0000    700.8630      1.7164     72.3490
  2092.5000      0.0000    714.6965      1.7131     69.7276
  2092.7500      0.0000    737.0890      1.7165     66.9129
  2093.0000      0.0000    760.7546      1.7221     64.3167
  2093.2500      0.0000    775.2726      1.7304     61.7928
  2093.5000      0.0000    776.2792      1.7566     58.9569
  2093.7500      0.0000    767.8246      1.8162     56.0797
  2094.0000      0.0000    756.7568      1.9185     54.5274
  2094.2500      0.0000    751.2698      2.0591     55.8123
  2094.5000      0.0000    759.3289      2.2212     59.9010
  2094.7500      0.0000    780.2244      2.3994     64.7006
  2095.0000      0.0000    804.4139      2.5922     67.5115
  2095.2500      0.0000    825.0994      2.7606     66.9524
  2095.5000      0.0000    842.0349      2.8767     63.4986
  2095.7500      0.0000    852.4051      2.9860     58.6182
  2096.0000      0.0000    849.8701      3.1100     53.8431
  2096.2500     -2.0000    838.4252      3.1888     50.4325
  2096.5000      0.0000    830.5952      3.1886     49.1163
  2096.7500      0.0000    827.2817      3.1392     49.6928
  2097.0000      0.0000    816.3956      3.0575     51.1537
  2097.2500      0.0000    792.8368      2.9307     52.6237
  2097.5000      0.0000    768.8146      2.7710     54.1633
  2097.7500      0.0000    759.1202      2.6142     56.5303
  2098.0000      0.0000    759.7433      2.4468     60.2463
  2098.2500      0.0000    751.7582      2.2283     64.9291
  2098.5000      0.0000    726.6364      1.9868     69.2109
  2098.7500      0.0000    695.4536      1.7893     71.2171
  2099.0000      0.0000    672.3287      1.6597     69.6847
  2099.2500      0.0000    661.9141      1.5823     65.0802
  2099.5000      0.0000    662.9033      1.5476     59.4945
  2099.7500      0.0000    670.4116      1.5622     55.2613
  2100.0000      0.0000    675.9984      1.6099     53.6667
  2100.2500      0.0000    672.3544      1.6451     54.6716
  2100.5000      0.0000    658.2366      1.6364     57.3107
  2100.7500      0.0000    641.1444      1.5885     60.2552
  2101.0000      0.0000    633.7305      1.5283     62.3911
  2101.2500      0.0000    642.4218      1.4798     63.4056
  2101.5000      0.0000    660.8207      1.4546     64.1736
  2101.7500      0.0000    677.1041      1.4575     66.3996
  2102.0000      0.0000    685.6358      1.4783     71.4038
  2102.2500      0.0000    688.4139      1.5013     79.0366
  2102.5000      0.0000    688.9913      1.5194     87.7151
  2102.7500      0.0000    689.1178      1.5200     95.3064
  2103.0000      0.0000    689.2555      1.4962     99.9681
  2103.2500      0.0000    689.7413      1.4706    100.7619
  2103.5000      0.0000    691.6720      1.4734     98.0805
  2103.7500      0.0000    698.3367      1.5127     93.4107
  2104.0000      0.0000    716.0855      1.5753     88.3353
  2104.2500      0.0000    748.3531      1.6491     83.6296
  2104.5000      0.0000    784.1994      1.7291     79.3363
  2104.7500      0.0000    800.9442      1.8025     75.6017
  2105.0000      0.0000    786.0692      1.8530     73.1272
  2105.2500      0.0000    751.5444      1.8809     72.5591
  2105.5000      0.0000    721.1388      1.8927     73.5903
  2105.7500      0.0000    706.1885      1.8961     75.0248
  2106.0000      0.0000    701.5300      1.9114     75.8822
  2106.2500      0.0000    701.0132      1.9468     76.2249
  2106.5000      0.0000    703.4827      1.9838     76.6875
  2106.7500      0.0000    707.1761      2.0023     77.4420
  2107.0000      0.0000    709.6935      1.9857     78.1263
  2107.2500      0.0000    711.5094      1.9298     78.6810
  2107.5000      0.0000    715.7923      1.8589     79.5490
  2107.7500      0.0000    726.4880      1.7985     80.9169
  2108.0000      0.0000    744.3751      1.7501     82.3195
  2108.2500      0.0000    762.8748      1.7089     83.2030
  2108.5000      0.0000    771.9688      1.6791     83.5693
  2108.7500      0.0000    765.7111      1.6543     83.9363
  2109.0000      0.0000    745.6857      1.6200     84.7908
  2109.2500      0.0000    721.8605      1.5858     85.9804
  2109.5000      0.0000    705.0703      1.5693     86.5393
  2109.7500      0.0000    697.6116      1.5642     85.4310
  2110.0000      0.0000    695.3637      1.5538     82.7997
  2110.2500      0.0000    694.7426      1.5341     80.1566
