~Version Information
 VERS.                      2.0: CWLS Log ASCII Standard - VERSION 2.0
 WRAP.                       NO: One line per depth step
 ~Well Information Block
 STRT.FT               887.5000: 
 STOP.FT              2605.5000: 
 STEP.FT                 0.2500: 
 NULL.                -999.2500: 
 COMP.          Petrogulf Corporation: COMPANY
 WELL.               YWAM 7-23V: WELL
 FLD.           Purgatorie River: FIELD
 LOC.           230' FSL & 225' FWL: LOCATION
 CNTY.               Las Animas: COUNTY
 SRVC.                         : SERVICE COMPANY
 DATE.          Sat Oct 30 08:34:45 2004: LOG DATE
 UWI.           05 071 08227 00: UNIQUE WELL ID
 STAT.                 Colorado: STATE
 PROV.                         :Province
 ~Curve Information Block
 DEPT.FT            0 000 00 00: Depth
 SP.mV                         : DIL Spontaneous Potential
 RILD.Ohm-m                    : DIL Deep Resistivity
 RILM.Ohm-m                    : DIL Medium Resistivity
 RLL3.Ohm-m                    : DIL Shallow Resistivity
 GR.GAPI                       : Gamma Ray
 ~Parameter Information Block
 ~A  Depth        SP         RILD        RILM        RLL3         GR     
# ...
  1251.5000   -189.8468     16.5969     18.4809     22.6410    102.4252
  1251.7500   -188.2499     17.0434     19.3723     24.3873    100.1947
  1252.0000   -186.9022     17.5466     20.4275     26.7341     96.1951
  1252.2500   -185.8940     18.1032     21.6477     29.8630     93.6602
  1252.5000   -185.2847     18.7044     23.0221     33.9664     90.4156
  1252.7500   -185.1021     19.3380     24.5255     39.2068     88.2098
  1253.0000   -185.3511     19.9904     26.1157     45.6528     83.5496
  1253.2500   -186.0294     20.6484     27.7367     53.2071     79.1041
  1253.5000   -187.1231     21.3018     29.3224     61.5548     71.1098
  1253.7500   -188.6069     21.9446     30.8079     70.1556     65.8878
  1254.0000   -190.4258     22.5747     32.1394     78.2974     59.5051
  1254.2500   -192.4819     23.1927     33.2840     85.2047     56.2847
  1254.5000   -194.6315     23.7994     34.2354     90.1768     52.3972
  1254.7500   -196.7089     24.3946     35.0143     92.7293     50.1162
  1255.0000   -198.5527     24.9737     35.6595     92.7102     47.1339
  1255.2500   -200.0440     25.5289     36.2205     90.3681     45.7349
  1255.5000   -201.1246     26.0483     36.7454     86.3486     45.3035
  1255.7500   -201.7861     26.5188     37.2710     81.5984     46.4530
  1256.0000   -202.0428     26.9292     37.8153     77.1752     50.0950
  1256.2500   -201.8982     27.2709     38.3716     73.9987     53.0971
  1256.5000   -201.3289     27.5400     38.9082     72.6094     56.7251
  1256.7500   -200.2944     27.7354     39.3695     73.0243     57.7128
  1257.0000   -198.7754     27.8559     39.6858     74.7477     56.6482
  1257.2500   -196.8240     27.8981     39.7857     76.9385     54.7482
  1257.5000   -194.5887     27.8554     39.6140     78.6705     51.7762
  1257.7500   -192.3172     27.7186     39.1441     79.1871     50.5929
  1258.0000   -190.3131     27.4807     38.3864     78.0601     50.4809
  1258.2500   -188.8725     27.1409     37.3863     75.2244     51.1868
  1258.5000   -188.2119     26.7067     36.2138     70.9083     52.8086
  1258.7500   -188.4172     26.1956     34.9513     65.5208     54.3985
  1259.0000   -189.4214     25.6319     33.6788     59.5457     58.4830
  1259.2500   -191.0192     25.0426     32.4650     53.4625     62.7717
  1259.5000   -192.9177     24.4526     31.3610     47.6950     71.2974
  1259.7500   -194.8013     23.8818     30.3981     42.5751     77.5829
  1260.0000   -196.4023     23.3434     29.5889     38.3168     85.9513
  1260.2500   -197.5499     22.8444     28.9289     35.0078     89.8953
  1260.5000   -198.2019     22.3862     28.3999     32.6218     93.1703
  1260.7500   -198.4267     21.9673     27.9733     31.0505     94.2912
  1261.0000   -198.3631     21.5837     27.6160     30.1411     95.6766
  1261.2500   -198.1686     21.2320     27.2956     29.7262     96.6089
  1261.5000   -197.9577     20.9102     26.9836     29.6410     97.6670
  1261.7500   -197.7787     20.6180     26.6599     29.7334     97.9938
  1262.0000   -197.6074     20.3562     26.3105     29.8733     97.9407
  1262.2500   -197.3834     20.1261     25.9283     29.9643     97.5479
  1262.5000   -197.0520     19.9281     25.5076     29.9559     96.3275
  1262.7500   -196.6075     19.7598     25.0450     29.8434     95.0458
  1263.0000   -196.1011     19.6151     24.5375     29.6549     92.5432
  1263.2500   -195.6274     19.4844     23.9845     29.4236     90.7974
  1263.5000   -195.2794     19.3553     23.3907     29.1599     88.7998
  1263.7500   -195.0983     19.2150     22.7670     28.8365     88.0737
  1264.0000   -195.0483     19.0526     22.1297     28.3946     87.7257
  1264.2500   -195.0198     18.8624     21.4999     27.7683     87.9551
  1264.5000   -194.8641     18.6448     20.8986     26.9166     89.1844
  1264.7500   -194.4486     18.4062     20.3441     25.8461     90.5085
  1265.0000   -193.7046     18.1574     19.8501     24.6173     92.6917
  1265.2500   -192.6611     17.9101     19.4243     23.3331     94.1507
  1265.5000   -191.4373     17.6749     19.0690     22.1155     96.8914
  1265.7500   -190.2189     17.4589     18.7821     21.0800     99.4400
  1266.0000   -189.2100     17.2648     18.5590     20.3159    103.9850
  1266.2500   -188.5837     17.0919     18.3932     19.8749    106.6686
  1266.5000   -188.4411     16.9367     18.2777     19.7699    108.6402
  1266.7500   -188.7858     16.7950     18.2047     19.9800    108.2241
  1267.0000   -189.5218     16.6623     18.1655     20.4595    105.6747
  1267.2500   -190.4688     16.5345     18.1494     21.1450    103.5201
  1267.5000   -191.4084     16.4082     18.1434     21.9593    100.6174
  1267.7500   -192.1301     16.2798     18.1324     22.8123     98.8557
  1268.0000   -192.4896     16.1454     18.1010     23.6014     95.8578
  1268.2500   -192.4388     16.0004     18.0360     24.2166     93.6356
  1268.5000   -192.0369     15.8401     17.9288     24.5544     90.9068
  1268.7500   -191.4210     15.6599     17.7779     24.5361     90.0259
  1269.0000   -190.7681     15.4566     17.5882     24.1289     90.2587
  1269.2500   -190.2378     15.2282     17.3690     23.3602     91.3256
  1269.5000   -189.9378     14.9744     17.1302     22.3171     94.3049
  1269.7500   -189.9139     14.6963     16.8788     21.1307     97.1765
  1270.0000   -190.1541     14.3961     16.6168     19.9456    101.9870
  1270.2500   -190.6188     14.0776     16.3404     18.8857    104.6655
  1270.5000   -191.2576     13.7451     16.0412     18.0257    106.7671
  1270.7500   -192.0242     13.4044     15.7100     17.3791    106.9304
  1271.0000   -192.8657     13.0617     15.3393     16.9027    106.4818
  1271.2500   -193.7090     12.7242     14.9273     16.5189    106.5361
  1271.5000   -194.4498     12.3985     14.4787     16.1433    107.8445
  1271.7500   -194.9502     12.0906     14.0045     15.7111    109.4444
  1272.0000   -195.0702     11.8045     13.5202     15.1935    112.5374
  1272.2500   -194.7011     11.5421     13.0426     14.6003    115.0060
  1272.5000   -193.8154     11.3022     12.5871     13.9721    119.2711
  1272.7500   -192.4961     11.0814     12.1657     13.3639    122.0945
  1273.0000   -190.9407     10.8746     11.7855     12.8280    125.0160
  1273.2500   -189.4209     10.6760     11.4488     12.4008    125.5648
  1273.5000   -188.2198     10.4808     11.1532     12.0960    124.6766
  1273.7500   -187.5556     10.2865     10.8926     11.9048    123.7608
  1274.0000   -187.5153     10.0932     10.6588     11.8001    123.2668
  1274.2500   -188.0262      9.9046     10.4430     11.7430    123.9057
  1274.5000   -188.8812      9.7263     10.2373     11.6893    126.1700
  1274.7500   -189.7914      9.5652     10.0364     11.5976    128.1432
  1275.0000   -190.4818      9.4281      9.8386     11.4367    130.9787
  1275.2500   -190.7626      9.3204      9.6457     11.1943    132.4356
  1275.5000   -190.5861      9.2451      9.4624     10.8830    133.6627
  1275.7500   -190.0499      9.2031      9.2953     10.5400    133.7596
  1276.0000   -189.3606      9.1925      9.1512     10.2218    132.8950
  1276.2500   -188.7667      9.2102      9.0367      9.9915    131.8166
  1276.5000   -188.4875      9.2516      8.9567      9.9026    129.6872
  1276.7500   -188.6617      9.3127      8.9146      9.9858    127.9695
  1277.0000   -189.3197      9.3904      8.9124     10.2409    125.1608
  1277.2500   -190.3986      9.4834      8.9512     10.6381    123.3969
  1277.5000   -191.7830      9.5931      9.0312     11.1267    121.1857
  1277.7500   -193.3416      9.7230      9.1528     11.6512    119.9623
  1278.0000   -194.9682      9.8782      9.3167     12.1659    118.5459
  1278.2500   -196.5949     10.0647      9.5237     12.6473    118.1093
  1278.5000   -198.1833     10.2880      9.7754     13.0961    118.5067
  1278.7500   -199.7078     10.5526     10.0734     13.5324    119.2268
  1279.0000   -201.1326     10.8610     10.4198     13.9841    119.7855
  1279.2500   -202.4048     11.2128     10.8173     14.4755    119.0255
