~Version Information
VERS.                      2.0: CWLS Log ASCII Standard - VERSION 2.0
WRAP.                       NO: One line per depth step
~Well Information Block
STRT.FT                39.7500: 
STOP.FT              1484.0000: 
STEP.FT                 0.2500: 
NULL.                -999.2500: 
COMP.          Evergreen Operating Corporation: COMPANY
WELL.              Chase 21-10: WELL
FLD.           Purgatoire River: FIELD
LOC.           1122' FNL & 1544' FWL: LOCATION
PROV.                       CO: PROVINCE
CNTY.               Las Animas: COUNTRY
SRVC.                         : SERVICE COMPANY
DATE.          Fri May 28 15:54:16 2004: LOG DATE
UWI.           05 071 08006 00: UNIQUE WELL ID
~Curve Information Block
DEPT.FT            0 000 00 00: Depth
TT3.usec                      : CBL 3' Travel Time
AMP3.mV                       : CBL 3' Amplitude
GR.GAPI                       : Gamma Ray
CCL.                          : Casing Collar Locator
~Parameter Information Block
~A  Depth       TT3         AMP3         GR         CCL     
# ...
   307.7500    767.9341      8.8061     72.2470      0.0000
   308.0000    767.9870      9.0663     70.7086      0.0000
   308.2500    767.9937      9.2447     69.4986      0.0000
   308.5000    767.9717      9.3152     68.5976      0.0000
   308.7500    767.8564      9.2960     67.5101      0.0000
   309.0000    767.4323      9.2281     65.7731      0.0000
   309.2500    766.2513      9.1557     63.4905      0.0000
   309.5000    763.8052      9.1062     61.3682      0.0000
   309.7500    760.1631      9.0784     60.1747      0.0000
   310.0000    756.5974      9.0501     59.9455      0.0000
   310.2500    755.0792      8.9995     59.6819      0.0000
   310.5000    756.5974      8.9221     58.1741      0.0000
   310.7500    760.1631      8.8331     55.3608      0.0000
   311.0000    763.8052      8.7513     52.6319      0.0000
   311.2500    766.2513      8.6843     51.5653      0.0000
   311.5000    767.4323      8.6258     52.6301      0.0000
   311.7500    767.8564      8.5673     55.3517      0.0000
   312.0000    767.9717      8.5096     59.3359      0.0000
   312.2500    767.9957      8.4609     64.5619      0.0000
   312.5000    768.0000      8.4235     70.7038      0.0000
   312.7500    768.0000      8.3824     76.7667      0.0000
   313.0000    768.0000      8.3129     81.6967      0.0000
   313.2500    768.0000      8.2025     84.9993      0.0000
   313.5000    768.0000      8.0658     86.6374      0.0000
   313.7500    768.0000      7.9356     86.9304      0.0000
   314.0000    768.0000      7.8372     86.8421      0.0000
   314.2500    768.0000      7.7713     87.6486      0.0000
   314.5000    768.0000      7.7183     89.7508      0.0000
   314.7500    768.0000      7.6574     92.2281      0.0000
   315.0000    768.0000      7.5806     93.8844      0.0000
   315.2500    768.0000      7.4931     94.2489      0.0000
   315.5000    768.0000      7.4045     93.2711      0.0000
   315.7500    768.0000      7.3222     90.6855      0.0000
   316.0000    768.0000      7.2524     86.3496      0.0000
   316.2500    768.0000      7.2028     81.0721      0.0000
   316.5000    768.0000      7.1804     76.4975      0.0000
   316.7500    768.0000      7.1874     73.9270      0.0000
   317.0000    768.0000      7.2193     73.4328      0.0000
   317.2500    768.0000      7.2634     74.2133      0.0000
   317.5000    768.0000      7.3012     75.5712      0.0000
   317.7500    768.0000      7.3176     77.3169      0.0000
   318.0000    768.0000      7.3100     79.3215      0.0000
   318.2500    768.0000      7.2864     81.0957      0.0000
   318.5000    768.0000      7.2564     82.0620      0.0000
   318.7500    768.0000      7.2247     82.1248      0.0000
   319.0000    768.0000      7.1937     81.7563      0.0000
   319.2500    768.0000      7.1657     81.4462      0.0000
   319.5000    768.0000      7.1424     81.1518      0.0000
   319.7500    768.0000      7.1252     80.4915      0.0000
   320.0000    768.0000      7.1159     79.4422      0.0000
   320.2500    768.0000      7.1147     78.4880      0.0000
   320.5000    768.0000      7.1186     77.9460      0.0000
   320.7500    768.0000      7.1215     77.5635      0.0000
   321.0000    768.0000      7.1180     77.0093      0.0000
   321.2500    768.0000      7.1079     76.4112      0.0000
   321.5000    768.0000      7.0967     76.1414      0.0000
   321.7500    768.0000      7.0908     76.3265      0.0000
   322.0000    768.0000      7.0916     76.7071      0.0000
   322.2500    768.0000      7.0958     76.8264      0.0000
   322.5000    768.0000      7.1014     76.3685      0.0000
   322.7500    768.0000      7.1117     75.4674      0.0000
   323.0000    768.0000      7.1299     74.5221      0.0000
   323.2500    768.0000      7.1524     73.5580      0.0000
   323.5000    768.0000      7.1731     72.1083      0.0000
   323.7500    768.0000      7.1910     70.1155      0.0000
   324.0000    768.0000      7.2090     68.7551      0.0000
   324.2500    768.0000      7.2258     69.7796      0.0000
   324.5000    768.0000      7.2352     73.7106      0.0000
   324.7500    768.0000      7.2343     78.9423      0.0000
   325.0000    768.0000      7.2283     83.0341      0.0000
   325.2500    768.0000      7.2257     84.8359      0.0000
   325.5000    768.0000      7.2307     85.0926      0.0000
   325.7500    768.0000      7.2421     85.1815      0.0000
   326.0000    768.0000      7.2567     85.6951      0.0000
   326.2500    768.0000      7.2720     86.2040      0.0000
   326.5000    768.0000      7.2866     86.0291      0.0000
   326.7500    768.0000      7.2987     85.2174      0.0000
   327.0000    768.0000      7.3070     84.8828      0.0000
   327.2500    768.0000      7.3122     86.3453      0.0000
   327.5000    768.0000      7.3177     89.6336      0.0000
   327.7500    768.0000      7.3271     93.1146      0.0000
   328.0000    768.0000      7.3410     94.8920      0.0000
   328.2500    768.0000      7.3555     94.2532      0.0000
   328.5000    768.0000      7.3647     91.6629      0.0000
   328.7500    768.0000      7.3644     88.0274      0.0000
   329.0000    768.0000      7.3552     84.2147      0.0000
   329.2500    768.0000      7.3417     80.8592      0.0000
   329.5000    768.0000      7.3292     78.4377      0.0000
   329.7500    768.0000      7.3220     77.4734      0.0000
   330.0000    768.0000      7.3218     78.2341      0.0000
   330.2500    768.0000      7.3284     80.1201      0.0000
   330.5000    768.0000      7.3393     81.8194      0.0000
   330.7500    768.0000      7.3508     82.2942      0.0000
   331.0000    768.0000      7.3614     81.5000      0.0000
   331.2500    768.0000      7.3736     80.2743      0.0000
   331.5000    767.9954      7.3914     79.6115      0.0000
   331.7500    767.9656      7.4175     79.7947      0.0000
   332.0000    767.8189      7.4544     80.1465      0.0000
   332.2500    767.2453      7.5042     79.7351      0.0000
   332.5000    765.5217      7.5700     78.1781      0.0000
   332.7500    761.5416      7.6529     75.6802      0.0000
   333.0000    754.5165      7.7486     72.6447      0.0000
   333.2500    745.0796      7.8455     69.6329      0.0000
   333.5000    735.3719      7.9275     67.5678      0.0000
   333.7500    727.3563      7.9804     67.5704      0.0000
   334.0000    721.2701      7.9967     70.2845      0.0000
   334.2500    716.4314      7.9762     75.1959      0.0000
   334.5000    713.2422      7.9275     80.5897      0.0000
   334.7500    713.5554      7.8694     84.3594      0.0000
   335.0000    719.0435      7.8255     85.1155      0.0000
   335.2500    729.4100      7.8113     82.7788      0.0000
   335.5000    742.0328      7.8234     78.3751      0.0000
   335.7500    753.4131      7.8461     73.4438      0.0000
   336.0000    761.2808      7.8683     69.5758      0.0000
   336.2500    765.4962      7.8921     67.9741      0.0000
   336.5000    767.2535      7.9235     68.8576      0.0000
   336.7500    767.8234      7.9609     71.2640      0.0000
   337.0000    767.9673      7.9956     73.8350      0.0000
   337.2500    767.9957      8.0205     75.9063      0.0000
   337.5000    767.9952      8.0351     77.6243      0.0000
   337.7500    767.9641      8.0445     79.0702      0.0000
   338.0000    767.8110      8.0571     79.8125      0.0000
   338.2500    767.2135      8.0810     79.7089      0.0000
   338.5000    765.4250      8.1232     79.7673      0.0000
   338.7500    761.3217      8.1899     81.3718      0.0000
   339.0000    754.1940      8.2818     84.4448      0.0000
   339.2500    745.0385      8.3864     87.0776      0.0000
   339.5000    736.8636      8.4786     87.4513      0.0000
   339.7500    732.9740      8.5359     85.6612      0.0000
   340.0000    734.7206      8.5542     83.3341      0.0000
   340.2500    740.9755      8.5497     82.0092      0.0000
   340.5000    749.2589      8.5476     82.2387      0.0000
   340.7500    757.0502      8.5662     83.6669      0.0000
   341.0000    762.7156      8.6067     85.5200      0.0000
