~Version Information
VERS.                      2.0: CWLS Log ASCII Standard - VERSION 2.0
WRAP.                       NO: One line per depth step
~Well Information Block
STRT.FT               -11.2500: 
STOP.FT              1597.0000: 
STEP.FT                 0.2500: 
NULL.                -999.2500: 
COMP.          Petrogulf Corporation: COMPANY
WELL.          Great Plains 22-21R: WELL
FLD.           Purgatorie River: FIELD
LOC.           73' FNL & 1992' FWL--: LOCATION
PROV.                       CO: PROVINCE
CNTY.               Las Animas: COUNTRY
SRVC.          Patterson Wireline: SERVICE COMPANY
DATE.          Fri Sep 09 09:02:35 2005: LOG DATE
UWI.           05 071 08343 00: UNIQUE WELL ID
~Curve Information Block
DEPT.FT            0 000 00 00: Depth
CCL.                          : Casing Collar Locator
TT3.usec                      : CBL 3' Travel Time
AMP3.mV                       : CBL 3' Amplitude
GR.GAPI                       : Gamma Ray
~Parameter Information Block
~A  Depth       CCL         TT3         AMP3         GR     
# ...
  1563.2500      0.0000    734.2382      2.9179     51.2739
  1563.5000      0.0000    741.5895      2.9329     53.4274
  1563.7500      0.0000    743.5878      2.9416     56.7372
  1564.0000      0.0000    741.6520      2.9423     61.0470
  1564.2500      0.0000    737.4374      2.9375     65.1965
  1564.5000      0.0000    731.6718      2.9338     67.6512
  1564.7500      0.0000    724.4414      2.9378     67.6010
  1565.0000      0.0000    716.3008      2.9531     65.6791
  1565.2500      0.0000    708.7176      2.9789     63.3814
  1565.5000      0.0000    703.1313      3.0097     61.6512
  1565.7500      0.0000    699.7655      3.0365     60.3900
  1566.0000      0.0000    697.4997      3.0494     59.2590
  1566.2500      0.0000    694.6602      3.0437     58.3141
  1566.5000      0.0000    690.1578      3.0238     57.7579
  1566.7500      0.0000    684.6732      2.9982     57.6752
  1567.0000      0.0000    681.1534      2.9729     58.2584
  1567.2500      0.0000    683.4168      2.9505     59.8750
  1567.5000      0.0000    693.0815      2.9339     62.5705
  1567.7500      0.0000    707.3270      2.9306     65.5819
  1568.0000      0.0000    720.2863      2.9517     67.5207
  1568.2500      0.0000    727.6681      3.0069     67.1817
  1568.5000      0.0000    730.1268      3.1010     64.4264
  1568.7500      0.0000    731.7477      3.2337     60.5675
  1569.0000      0.0000    736.1285      3.4091     57.9231
  1569.2500      0.0000    744.8763      3.6440     58.5816
  1569.5000      0.0000    758.3285      3.9569     62.9119
  1569.7500      0.0000    775.0347      4.3378     68.8630
  1570.0000      0.0000    790.6473      4.7418     73.0622
  1570.2500      0.0000    799.9009      5.1324     73.2363
  1570.5000      0.0000    800.8305      5.5121     69.5636
  1570.7500      0.0000    796.1594      5.8898     63.6577
  1571.0000      0.0000    790.4086      6.2359     56.9691
  1571.2500      2.0000    786.4802      6.4912     50.4825
  1571.5000      0.0000    784.9115      6.6124     45.0528
  1571.7500      0.0000    785.0267      6.6077     41.2720
  1572.0000      0.0000    785.7393      6.5332     39.1664
  1572.2500      0.0000    785.6780      6.4488     38.2725
  1572.5000      0.0000    783.9242      6.3626     37.9865
  1572.7500      0.0000    781.2930      6.2297     38.0714
  1573.0000      0.0000    779.9033      6.0149     39.2303
  1573.2500      0.0000    780.4893      5.7321     43.2164
  1573.5000      0.0000    781.0723      5.4159     52.0448
  1573.7500      0.0000    779.5764      5.0914     66.6075
  1574.0000      0.0000    776.9680      4.7885     85.4828
  1574.2500      0.0000    776.3595      4.5479    104.7053
  1574.5000      0.0000    779.3241      4.3939    118.8720
  1574.7500      0.0000    784.0604      4.3199    123.4510
  1575.0000      0.0000    786.8845      4.3097    117.1832
  1575.2500      0.0000    785.0194      4.3564    102.7634
  1575.5000      0.0000    778.6881      4.4581     85.1640
  1575.7500      0.0000    771.4214      4.6142     69.1220
  1576.0000      0.0000    767.9651      4.8353     57.4935
  1576.2500      0.0000    770.1735      5.1437     50.7925
  1576.5000      0.0000    774.2916      5.5430     47.7272
  1576.7500      0.0000    773.5928      5.9860     46.5225
  1577.0000      0.0000    764.4228      6.3820     46.0652
  1577.2500      0.0000    748.8572      6.6440     45.9390
  1577.5000      0.0000    731.8379      6.7312     45.7930
  1577.7500      0.0000    717.4506      6.6520     45.1689
  1578.0000      0.0000    707.7787      6.4464     43.9178
  1578.2500      0.0000    703.3159      6.1725     42.4088
  1578.5000      0.0000    703.8109      5.8936     41.1596
  1578.7500      0.0000    709.2407      5.6488     40.4181
  1579.0000      0.0000    719.7476      5.4275     40.1198
  1579.2500      0.0000    734.0497      5.1846     40.0542
  1579.5000      0.0000    748.3326      4.8883     40.0294
  1579.7500      0.0000    757.7535      4.5540     40.1049
  1580.0000      0.0000    759.6549      4.2298     40.7037
  1580.2500      0.0000    755.2003      3.9585     42.1556
  1580.5000      0.0000    747.8347      3.7585     44.1112
  1580.7500      0.0000    740.4919      3.6349     45.8476
  1581.0000      0.0000    734.2246      3.5998     47.1291
  1581.2500      0.0000    728.5808      3.6749     48.1872
  1581.5000      0.0000    723.0173      3.8811     48.9199
  1581.7500      0.0000    719.0676      4.2279     48.7810
  1582.0000      0.0000    721.2308      4.7091     47.5231
  1582.2500      0.0000    733.9841      5.3062     45.4898
  1582.5000      0.0000    756.9524      5.9949     42.9356
  1582.7500      0.0000    783.6622      6.7540     39.3415
  1583.0000      0.0000    805.3825      7.5673     33.7466
  1583.2500      0.0000    815.6620      8.4141     25.9321
  1583.5000      0.0000    812.3196      9.2524     17.1683
  1583.7500      0.0000    797.5911     10.0135      9.5097
  1584.0000      0.0000    776.9286     10.6221      4.3183
  1584.2500      0.0000    756.4456     11.0372      1.5853
  1584.5000      0.0000    740.8666     11.2878      0.4660
  1584.7500      0.0000    733.0856     11.4693      0.1087
  1585.0000      0.0000    733.4485     11.6859      0.0199
  1585.2500      0.0000    738.7346     11.9867      0.0025
  1585.5000      0.0000    743.9780     12.3449      0.0000
  1585.7500      0.0000    746.9288     12.6774   -999.2500
  1586.0000      0.0000    749.6088     12.8826   -999.2500
  1586.2500      0.0000    754.6989     12.8858   -999.2500
  1586.5000      0.0000    761.8419     12.6770   -999.2500
  1586.7500      0.0000    768.3438     12.3146   -999.2500
  1587.0000      0.0000    772.0880     11.8935   -999.2500
  1587.2500      0.0000    772.0385     11.4947   -999.2500
  1587.5000      0.0000    765.5231     11.1314   -999.2500
  1587.7500      0.0000    744.3721     10.7012   -999.2500
  1588.0000      0.0000    693.9016      9.9856   -999.2500
  1588.2500      0.0000    599.9916      8.7607   -999.2500
  1588.5000      0.0000    463.6255      7.0038   -999.2500
  1588.7500      0.0000    309.2834      5.0122   -999.2500
  1589.0000      0.0000    173.1875      3.2505   -999.2500
  1589.2500      0.0000     79.7091      2.0373   -999.2500
  1589.5000      0.0000     29.6992      1.3869   -999.2500
  1589.7500      0.0000      8.8606      1.1155   -999.2500
  1590.0000      0.0000      2.0976      1.0274   -999.2500
  1590.2500      0.0000      0.3881      1.0051   -999.2500
  1590.5000      0.0000      0.0516      1.0007   -999.2500
  1590.7500      0.0000   -999.2500   -999.2500   -999.2500
  1591.0000      0.0000   -999.2500   -999.2500   -999.2500
  1591.2500      0.0000   -999.2500   -999.2500   -999.2500
  1591.5000      0.0000   -999.2500   -999.2500   -999.2500
  1591.7500      0.0000   -999.2500   -999.2500   -999.2500
  1592.0000      0.0000   -999.2500   -999.2500   -999.2500
  1592.2500      0.0000   -999.2500   -999.2500   -999.2500
  1592.5000      0.0000   -999.2500   -999.2500   -999.2500
  1592.7500      0.0000   -999.2500   -999.2500   -999.2500
  1593.0000      0.0000   -999.2500   -999.2500   -999.2500
  1593.2500      0.0000   -999.2500   -999.2500   -999.2500
  1593.5000      0.0000   -999.2500   -999.2500   -999.2500
  1593.7500      0.0000   -999.2500   -999.2500   -999.2500
  1594.0000      0.0000   -999.2500   -999.2500   -999.2500
  1594.2500      0.0000   -999.2500   -999.2500   -999.2500
  1594.5000      0.0000   -999.2500   -999.2500   -999.2500
  1594.7500      0.0000   -999.2500   -999.2500   -999.2500
  1595.0000      0.0000   -999.2500   -999.2500   -999.2500
  1595.2500      0.0000   -999.2500   -999.2500   -999.2500
  1595.5000      0.0000   -999.2500   -999.2500   -999.2500
  1595.7500      0.0000   -999.2500   -999.2500   -999.2500
  1596.0000      0.0000   -999.2500   -999.2500   -999.2500
  1596.2500      0.0000   -999.2500   -999.2500   -999.2500
  1596.5000   -999.2500   -999.2500   -999.2500   -999.2500
