~Version Information
VERS.                      2.0: CWLS Log ASCII Standard - VERSION 2.0
WRAP.                       NO: One line per depth step
~Well Information Block
STRT.FT                -3.0000: 
STOP.FT              1828.0000: 
STEP.FT                 0.2500: 
NULL.                -999.2500: 
COMP.          Pioneer Natural Resources: COMPANY
WELL.           Guajardo 24-16: WELL
FLD.           Purgatorie River: FIELD
LOC.           883' FSL & 2147' FWL--: LOCATION
PROV.                       CO: PROVINCE
CNTY.               Las Animas: COUNTRY
SRVC.          Patterson Wireline: SERVICE COMPANY
DATE.          Wed Aug 10 11:02:25 2005: LOG DATE
UWI.           05 071 08377 00: UNIQUE WELL ID
~Curve Information Block
DEPT.FT            0 000 00 00: Depth
CCL.                          : Casing Collar Locator
TT3.usec                      : CBL 3' Travel Time
AMP3.mV                       : CBL 3' Amplitude
GR.GAPI                       : Gamma Ray
~Parameter Information Block
~A  Depth       CCL         TT3         AMP3         GR     
# ...
   231.5000      0.0000    878.6709     12.2513     63.6169
   231.7500      0.0000    892.6219     12.2981     61.4476
   232.0000      0.0000    906.3349     12.3336     60.0727
   232.2500      0.0000    915.2585     12.3520     60.7481
   232.5000      0.0000    918.0534     12.3542     63.0181
   232.7500      0.0000    917.5116     12.3486     65.5243
   233.0000      0.0000    917.1295     12.3487     67.1111
   233.2500      0.0000    917.7785     12.3668     67.0797
   233.5000      0.0000    918.4724     12.4054     65.3187
   233.7500      0.0000    918.9527     12.4553     62.6900
   234.0000      0.0000    919.7612     12.5030     60.7751
   234.2500      0.0000    920.4169     12.5420     60.7903
   234.5000      0.0000    919.3846     12.5772     62.7557
   234.7500      0.0000    916.3026     12.6156     65.6470
   235.0000      0.0000    913.2476     12.6543     68.1217
   235.2500      0.0000    912.7858     12.6824     69.2401
   235.5000      0.0000    915.1188     12.6935     68.9338
   235.7500      0.0000    918.4705     12.6941     68.0151
   236.0000      0.0000    923.0826     12.6965     67.7358
   236.2500      0.0000    933.8135     12.7074     69.1446
   236.5000      0.0000    956.7830     12.7229     72.3933
   236.7500      0.0000    992.4464     12.7346     76.4078
   237.0000      0.0000   1032.9799     12.7375     79.4328
   237.2500      0.0000   1067.6217     12.7351     80.1835
   237.5000      0.0000   1089.9642     12.7344     78.6636
   237.7500      0.0000   1098.9083     12.7377     75.9505
   238.0000      0.0000   1093.7385     12.7363     73.1938
   238.2500      0.0000   1071.5691     12.7156     70.9206
   238.5000      0.0000   1031.6537     12.6659     69.3431
   238.7500      0.0000    981.1407     12.5900     69.0383
   239.0000      0.0000    933.8857     12.5017     70.9541
   239.2500      0.0000    902.6508     12.4171     75.5355
   239.5000      0.0000    892.4716     12.3475     81.7971
   239.7500      0.0000    899.2114     12.2966     87.4924
   240.0000      0.0000    911.7704     12.2632     90.5615
   240.2500      0.0000    917.5682     12.2440     90.5693
   240.5000      0.0000    910.4336     12.2339     88.7715
   240.7500      0.0000    894.2425     12.2274     86.9268
   241.0000      0.0000    877.7476     12.2229     86.0400
   241.2500      0.0000    866.6867     12.2273     85.9372
   241.5000      0.0000    861.3849     12.2512     85.7701
   241.7500      0.0000    859.5104     12.2974     84.7963
   242.0000      0.0000    858.9586     12.3549     82.7822
   242.2500      0.0000    858.6662     12.4051     80.0240
   242.5000      0.0000    858.2877     12.4356     77.3485
   242.7500      0.0000    857.8714     12.4451     76.0095
   243.0000      0.0000    857.7325     12.4391     77.0088
   243.2500      0.0000    858.6562     12.4255     80.0644
   243.5000      0.0000    862.1378     12.4141     83.4836
   243.7500      0.0000    870.4406     12.4146     85.4542
   244.0000      0.0000    885.7361     12.4325     85.4129
   244.2500      0.0000    907.8702     12.4598     83.9976
   244.5000      0.0000    931.9846     12.4584     81.9492
   244.7500      0.0000    949.0305     12.3468     79.4361
   245.0000      0.0000    951.1014     12.0320     76.4894
   245.2500      0.0000    939.2240     11.4983     73.7305
   245.5000      0.0000    927.1095     10.8628     72.1722
   245.7500      0.0000    934.2068     10.2975     72.1693
   246.0000      0.0000    970.1261      9.8884     72.8866
   246.2500      0.0000   1025.3107      9.6103     72.9853
   246.5000      0.0000   1079.3239      9.4171     71.7423
   246.7500      1.5656   1117.3635      9.2906     69.5237
   247.0000     -2.0000   1137.4943      9.2080     67.5204
   247.2500     -2.0000   1145.6660      9.1213     67.2446
   247.5000      1.5686   1148.2319      8.9922     69.8439
   247.7500      0.0000   1148.8617      8.8664     75.2272
   248.0000      0.0000   1148.9840      8.9203     81.6117
   248.2500      0.0000   1149.0000      9.3708     86.1183
   248.5000      0.0000   1148.9873     10.2459     86.3459
   248.7500      0.0000   1148.9047     11.2704     82.0349
   249.0000      0.0000   1148.4978     12.0707     75.4214
   249.2500      0.0000   1146.9215     12.4770     69.6914
   249.5000      0.0000   1142.2205     12.5788     66.9437
   249.7500      0.0000   1131.5487     12.5479     67.4672
   250.0000      0.0000   1113.3655     12.4916     70.1927
   250.2500      0.0000   1090.6908     12.4401     73.2143
   250.5000      0.0000   1070.7655     12.3898     74.4318
   250.7500      0.0000   1058.4661     12.3345     72.7512
   251.0000      0.0000   1050.1207     12.2791     68.9762
   251.2500      0.0000   1037.0721     12.2448     65.2178
   251.5000      0.0000   1015.8337     12.2623     63.3530
   251.7500      0.0000    992.4312     12.3517     64.0259
   252.0000      0.0000    976.7735     12.4991     66.7055
   252.2500      0.0000    974.6026     12.6530     70.3847
   252.5000      0.0000    983.6987     12.7544     74.2255
   252.7500      0.0000    995.4951     12.7748     77.5932
   253.0000      0.0000   1000.7361     12.7260     79.7454
   253.2500      0.0000    995.9713     12.6381     80.1649
   253.5000      0.0000    986.0133     12.5373     79.4570
   253.7500      0.0000    979.7088     12.4442     79.2383
   254.0000      0.0000    982.5236     12.3799     80.5418
   254.2500      0.0000    993.5990     12.3599     82.6565
   254.5000      0.0000   1008.9178     12.3752     84.0572
   254.7500      0.0000   1023.4578     12.3809     84.3706
   255.0000      0.0000   1029.9005     12.3108     84.8777
   255.2500      0.0000   1021.0564     12.1193     86.7707
   255.5000      0.0000    996.9930     11.8184     89.3442
   255.7500      0.0000    966.9727     11.4754     90.5559
   256.0000      0.0000    942.3526     11.1683     89.3346
   256.2500      0.0000    929.4692     10.9405     86.8620
   256.5000      0.0000    929.6898     10.7937     85.5208
   256.7500      0.0000    943.1017     10.7120     86.8609
   257.0000      0.0000    969.1826     10.6807     90.5761
   257.2500      0.0000   1004.0406     10.6866     95.1294
   257.5000      0.0000   1039.1489     10.7112     98.9506
   257.7500      0.0000   1064.3352     10.7359    100.8596
   258.0000      0.0000   1072.0293     10.7548     99.9384
   258.2500      0.0000   1059.5415     10.7798     95.9553
   258.5000      0.0000   1030.0621     10.8327     89.9868
   258.7500      0.0000    992.5400     10.9312     83.9771
   259.0000      0.0000    958.1403     11.0808     79.4705
   259.2500      0.0000    934.5938     11.2752     76.7752
   259.5000      0.0000    923.7967     11.4993     75.0621
   259.7500      0.0000    924.4578     11.7321     73.2277
   260.0000      0.0000    935.4533     11.9471     70.9066
   260.2500      0.0000    955.9168     12.1152     68.7622
   260.5000      0.0000    983.3090     12.2145     67.8497
   260.7500      0.0000   1013.1917     12.2442     68.7661
   261.0000      0.0000   1041.2401     12.2311     71.2161
   261.2500      0.0000   1064.5872     12.2203     74.1155
   261.5000      0.0000   1081.7072     12.2513     76.2172
   261.7500      0.0000   1092.6742     12.3358     76.9836
   262.0000      0.0000   1099.5448     12.4546     77.0296
   262.2500      0.0000   1105.1616     12.5725     77.6520
   262.5000      0.0000   1111.3480     12.6589     79.7709
   262.7500      0.0000   1118.4174     12.7010     83.1587
   263.0000      0.0000   1125.5818     12.7058     86.4836
   263.2500      0.0000   1131.1974     12.6923     88.1596
   263.5000      0.0000   1133.3073     12.6809     87.6833
   263.7500      0.0000   1130.9098     12.6840     86.3289
   264.0000      0.0000   1124.8420     12.6980     85.9737
   264.2500      0.0000   1117.4143     12.7030     87.0081
   264.5000      0.0000   1111.2516     12.6726     87.7930
   264.7500      0.0000   1108.1633     12.5875     86.2764
