~Version Information
VERS.                      2.0: CWLS Log ASCII Standard - VERSION 2.0
WRAP.                       NO: One line per depth step
~Well Information Block
STRT.FT                -3.5000: 
STOP.FT              1841.0000: 
STEP.FT                 0.2500: 
NULL.                -999.2500: 
COMP.          Pioneer Natural Resources: COMPANY
WELL.          Corkscrew 33-12 Tr: WELL
FLD.           Purgatorie River: FIELD
LOC.           1870' FSL  & 1706' FEL--------: LOCATION
PROV.                       CO: PROVINCE
CNTY.               Las Animas: COUNTRY
SRVC.          Patterson Wireline: SERVICE COMPANY
DATE.          Mon Apr 04 10:07:45 2005: LOG DATE
UWI.           05 071 08295 00: UNIQUE WELL ID
~Curve Information Block
DEPT.FT            0 000 00 00: Depth
CCL.                          : Casing Collar Locator
TT3.usec                      : CBL 3' Travel Time
AMP3.mV                       : CBL 3' Amplitude
GR.GAPI                       : Gamma Ray
~Parameter Information Block
~A  Depth       CCL         TT3         AMP3         GR     
# ...
  1336.5000      0.0000    724.2411      5.8682     87.0382
  1336.7500      0.0000    720.7190      6.0646     92.4194
  1337.0000      0.0000    716.7357      6.1990    103.1181
  1337.2500      0.0000    710.9866      6.2099    116.0586
  1337.5000      0.0000    703.2458      6.1640    127.2383
  1337.7500      0.0000    694.7379      6.1676    134.5526
  1338.0000      0.0000    687.4579      6.2423    138.9361
  1338.2500      0.0000    682.8451      6.3070    142.7184
  1338.5000      0.0000    681.1239      6.2797    147.1922
  1338.7500      0.0000    681.8126      6.1757    151.6922
  1339.0000      0.0000    684.5079      6.0964    154.4128
  1339.2500      0.0000    688.8649      6.1320    153.9696
  1339.5000      0.0000    693.8823      6.2744    150.5646
  1339.7500      0.0000    697.7480      6.4166    145.7625
  1340.0000      0.0000    699.1187      6.4408    141.0421
  1340.2500      0.0000    698.6569      6.3237    136.6434
  1340.5000      0.0000    698.6443      6.1633    131.9144
  1340.7500      0.0000    700.5758      6.0892    126.7022
  1341.0000      0.0000    703.3848      6.1394    122.2647
  1341.2500      0.0000    704.4377      6.2300    120.5366
  1341.5000      0.0000    702.2378      6.2533    122.2733
  1341.7500      0.0000    697.9341      6.1976    125.9319
  1342.0000      0.0000    694.2012      6.1572    128.6483
  1342.2500      0.0000    692.8713      6.2209    128.5484
  1342.5000      0.0000    693.7990      6.3611    126.0961
  1342.7500      0.0000    695.8755      6.4393    123.2345
  1343.0000      0.0000    698.6722      6.3318    121.5475
  1343.2500      0.0000    702.6021      6.0662    121.3280
  1343.5000      0.0000    707.6549      5.8322    121.8656
  1343.7500      0.0000    712.6997      5.8263    122.1102
  1344.0000      0.0000    716.2639      6.0582    121.1745
  1344.2500      0.0000    717.4882      6.3172    118.7405
  1344.5000      0.0000    716.0921      6.3489    115.2493
  1344.7500      0.0000    711.5947      6.0765    111.7069
  1345.0000      0.0000    702.1168      5.6680    109.0792
  1345.2500      0.0000    683.6042      5.3996    107.5555
  1345.5000      0.0000    652.2331      5.4320    106.4333
  1345.7500      0.0000    611.0797      5.6880    104.8977
  1346.0000      0.0000    573.8560      5.9415    102.6177
  1346.2500      0.0000    557.2166      6.0328     99.3024
  1346.5000      2.0000    567.3328      5.9919     94.3261
  1346.7500      2.0000    596.3776      5.9562     87.5953
  1347.0000      0.0000    631.8369      6.0021     80.5200
  1347.2500      0.0000    665.5106      6.0844     75.4229
  1347.5000      0.0000    693.7787      6.1233     73.9866
  1347.7500      0.0000    714.3003      6.1079     76.5097
  1348.0000      0.0000    725.6384      6.1003     82.3901
  1348.2500      0.0000    728.8486      6.1515     90.9766
  1348.5000      0.0000    727.3209      6.2237    102.0732
  1348.7500      0.0000    724.4332      6.2060    115.8560
  1349.0000      0.0000    721.3854      6.0300    132.0275
  1349.2500      0.0000    716.7043      5.7718    148.8251
  1349.5000      0.0000    707.1309      5.6113    163.2287
  1349.7500      0.0000    689.7021      5.6694    172.7619
  1350.0000      0.0000    664.5851      5.8880    177.1705
  1350.2500      0.0000    636.5436      6.0797    178.0695
  1350.5000      0.0000    612.7823      6.1003    177.1644
  1350.7500      0.0000    598.8743      5.9737    175.1745
  1351.0000      0.0000    596.7784      5.8562    172.2191
  1351.2500      0.0000    605.6184      5.8845    168.5345
  1351.5000      0.0000    622.5513      6.0563    164.4971
  1351.7500      0.0000    642.9495      6.2424    160.3931
  1352.0000      0.0000    661.7519      6.3064    156.7509
  1352.2500      0.0000    675.8943      6.2253    154.6187
  1352.5000      0.0000    685.1516      6.1056    154.8227
  1352.7500      0.0000    690.6064      6.0838    157.1632
  1353.0000      0.0000    693.1332      6.1946    160.8872
  1353.2500      0.0000    693.5873      6.3311    165.5960
  1353.5000      0.0000    693.4867      6.3414    171.0728
  1353.7500      0.0000    694.5456      6.1851    176.4303
  1354.0000      0.0000    697.5594      5.9928    179.8927
  1354.2500      0.0000    702.1260      5.9588    179.4153
  1354.5000      0.0000    707.3300      6.1572    173.7192
  1354.7500      0.0000    712.3458      6.4598    163.4207
  1355.0000      0.0000    716.5083      6.6324    151.2413
  1355.2500      0.0000    719.3578      6.5272    140.2700
  1355.5000      0.0000    720.8530      6.2140    131.7442
  1355.7500      0.0000    721.3710      5.9377    125.0257
  1356.0000      0.0000    721.4172      5.9255    119.5312
  1356.2500      0.0000    721.3654      6.1986    115.6605
  1356.5000      0.0000    721.4046      6.5538    113.9203
  1356.7500      0.0000    721.5865      6.7270    114.2803
  1357.0000      0.0000    721.8679      6.5993    116.4722
  1357.2500      0.0000    722.1620      6.2852    120.1298
  1357.5000      0.0000    722.3767      6.0375    124.5971
  1357.7500      0.0000    722.4348      6.0405    128.9949
  1358.0000      0.0000    722.3049      6.2634    132.5653
  1358.2500      0.0000    722.0549      6.5069    135.0422
  1358.5000      0.0000    721.8539      6.5991    136.7269
  1358.7500      0.0000    721.8693      6.5476    138.0024
  1359.0000      0.0000    722.0965      6.4995    138.8016
  1359.2500      0.0000    722.2251      6.5570    138.7671
  1359.5000      0.0000    721.5891      6.6550    137.7664
  1359.7500      0.0000    719.2852      6.6385    135.9816
  1360.0000      0.0000    714.6689      6.4470    133.6357
  1360.2500      0.0000    708.2165      6.1960    130.6048
  1360.5000      0.0000    701.9880      6.0715    126.3576
  1360.7500      0.0000    698.5078      6.1550    120.7259
  1361.0000      0.0000    698.1509      6.3549    114.6468
  1361.2500      0.0000    696.9927      6.5061    109.4738
  1361.5000      0.0000    687.7255      6.5352    105.6672
  1361.7500      0.0000    665.1879      6.5225    102.7427
  1362.0000      0.0000    633.9504      6.5979    100.2121
  1362.2500      0.0000    609.6367      6.7818     97.8172
  1362.5000      0.0000    608.0548      6.9482     95.0266
  1362.7500      0.0000    630.9929      6.9404     91.1836
  1363.0000      0.0000    665.0320      6.7216     86.5366
  1363.2500      0.0000    694.3644      6.4260     82.8895
  1363.5000      0.0000    712.0137      6.2653     82.8506
  1363.7500      0.0000    719.8240      6.3543     88.1539
  1364.0000      0.0000    722.4714      6.6082     98.6553
  1364.2500      0.0000    723.4495      6.8165    112.7739
  1364.5000      0.0000    724.5490      6.8228    128.3622
  1364.7500      0.0000    726.7547      6.6412    142.9480
  1365.0000      0.0000    730.9722      6.4300    154.1032
  1365.2500      0.0000    738.1356      6.3623    160.5817
  1365.5000      0.0000    748.9140      6.4852    162.9347
  1365.7500      0.0000    763.2921      6.6736    162.5459
  1366.0000      0.0000    779.6731      6.7353    160.3349
  1366.2500      0.0000    793.9736      6.5882    156.6207
  1366.5000      0.0000    801.1912      6.3455    151.7549
  1366.7500      0.0000    799.8969      6.2293    146.2138
  1367.0000      0.0000    794.2661      6.3883    140.1499
  1367.2500      0.0000    789.3591      6.7653    133.5448
  1367.5000      0.0000    785.0412      7.1245    126.7792
  1367.7500      0.0000    777.1758      7.2215    120.3038
  1368.0000      0.0000    764.5439      6.9846    113.7562
  1368.2500      0.0000    751.9504      6.5611    106.2672
  1368.5000      0.0000    746.0347      6.1930     97.8783
  1368.7500      0.0000    749.3430      6.0267     90.1422
  1369.0000      0.0000    758.0550      6.0170     85.1664
  1369.2500      0.0000    764.4877      6.0107     84.2148
  1369.5000      0.0000    762.6884      5.9203     87.1518
  1369.7500      0.0000    752.8317      5.8145     92.9389
