~Version Information
VERS.                      2.0: CWLS Log ASCII Standard - VERSION 2.0
WRAP.                       NO: One line per depth step
~Well Information Block
STRT.FT               819.0000: 
STOP.FT              2499.5000: 
STEP.FT                 0.2500: 
NULL.                -999.2500: 
COMP.          Petrogulf Corporation: COMPANY
WELL.             State 16-21V: WELL
FLD.           Purgatorie River: FIELD
LOC.           1738' FWL & 332' FWL: LOCATION
PROV.                 Colorado: PROVINCE
CNTY.               Las Animas: COUNTRY
SRVC.          Patterson Wireline: SERVICE COMPANY
DATE.          Sun Jul 13 13:34:36 2003: LOG DATE
UWI.           05 071 08829 00: UNIQUE WELL ID
~Curve Information Block
DEPT.FT            0 000 00 00: Depth
SP.mV                         : DIL Spontaneous Potential
RILD.Ohm-m                    : DIL Deep Resistivity
RILM.Ohm-m                    : DIL Medium Resistivity
RLL3.Ohm-m                    : DIL Shallow Resistivity
GR.GAPI                       : Gamma Ray
~Parameter Information Block
~A  Depth        SP         RILD        RILM        RLL3         GR     
# ...
  1071.0000   2000.0000     15.5119     15.5747   2000.0000    131.7749
  1071.2500   2000.0000     15.5980     15.6329   2000.0000    132.9275
  1071.5000   2000.0000     15.6855     15.7239   2000.0000    136.3753
  1071.7500   2000.0000     15.7868     15.8517   2000.0000    139.2157
  1072.0000   2000.0000     15.9163     16.0198   2000.0000    143.0282
  1072.2500   2000.0000     16.0850     16.2306   2000.0000    144.8869
  1072.5000   2000.0000     16.2976     16.4852   2000.0000    146.8712
  1072.7500   2000.0000     16.5525     16.7829   2000.0000    148.0213
  1073.0000   2000.0000     16.8445     17.1210   2000.0000    149.6021
  1073.2500   2000.0000     17.1669     17.4944   2000.0000    150.1026
  1073.5000   2000.0000     17.5133     17.8953   2000.0000    148.7679
  1073.7500   2000.0000     17.8755     18.3138   2000.0000    146.0092
  1074.0000   2000.0000     18.2410     18.7380   2000.0000    139.4048
  1074.2500   2000.0000     18.5926     19.1555   2000.0000    134.2260
  1074.5000   2000.0000     18.9142     19.5538   2000.0000    127.1015
  1074.7500   2000.0000     19.1981     19.9225   2000.0000    123.4993
  1075.0000   2000.0000     19.4494     20.2539   2000.0000    120.2459
  1075.2500   2000.0000     19.6837     20.5439   2000.0000    119.4566
  1075.5000   2000.0000     19.9172     20.7921   2000.0000    119.7955
  1075.7500   2000.0000     20.1551     21.0010   2000.0000    120.5280
  1076.0000   2000.0000     20.3830     21.1750   2000.0000    121.9925
  1076.2500   2000.0000     20.5700     21.3192   2000.0000    123.5773
  1076.5000   2000.0000     20.6845     21.4380   2000.0000    127.5371
  1076.7500   2000.0000     20.7108     21.5350   2000.0000    130.7524
  1077.0000   2000.0000     20.6573     21.6124   2000.0000    134.1455
  1077.2500   2000.0000     20.5497     21.6714   2000.0000    134.3320
  1077.5000   2000.0000     20.4182     21.7131   2000.0000    131.6676
  1077.7500   2000.0000     20.2905     21.7385   2000.0000    129.0192
  1078.0000   2000.0000     20.1895     21.7491   2000.0000    125.5565
  1078.2500   2000.0000     20.1345     21.7473   2000.0000    123.9784
  1078.5000   2000.0000     20.1384     21.7364   2000.0000    122.3587
  1078.7500   2000.0000     20.2017     21.7200   2000.0000    121.4051
  1079.0000   2000.0000     20.3075     21.7024   2000.0000    119.7797
  1079.2500   2000.0000     20.4246     21.6882   2000.0000    118.5281
  1079.5000   2000.0000     20.5200     21.6828   2000.0000    116.5457
  1079.7500   2000.0000     20.5754     21.6923   2000.0000    115.3465
  1080.0000   2000.0000     20.5959     21.7236   2000.0000    114.2069
  1080.2500   2000.0000     20.6056     21.7847   2000.0000    114.1031
  1080.5000   2000.0000     20.6343     21.8846   2000.0000    114.7815
  1080.7500   2000.0000     20.7074     22.0328   2000.0000    115.3324
  1081.0000   2000.0000     20.8412     22.2392   2000.0000    115.4364
  1081.2500   2000.0000     21.0468     22.5132   2000.0000    114.8960
  1081.5000   2000.0000     21.3349     22.8629   2000.0000    113.5982
  1081.7500   2000.0000     21.7169     23.2944   2000.0000    112.6563
  1082.0000   2000.0000     22.1984     23.8102   2000.0000    111.2439
  1082.2500   2000.0000     22.7674     24.4079   2000.0000    110.2836
  1082.5000   2000.0000     23.3848     25.0782   2000.0000    108.6134
  1082.7500   2000.0000     23.9889     25.8036   2000.0000    107.0716
  1083.0000   2000.0000     24.5146     26.5567   2000.0000    103.7215
  1083.2500   2000.0000     24.9189     27.2997   2000.0000    100.7991
  1083.5000   2000.0000     25.1936     27.9859   2000.0000     95.5490
  1083.7500   2000.0000     25.3561     28.5631   2000.0000     91.6125
  1084.0000   2000.0000     25.4274     28.9799   2000.0000     86.0368
  1084.2500   2000.0000     25.4154     29.1927   2000.0000     83.7589
  1084.5000   2000.0000     25.3126     29.1734   2000.0000     84.6038
  1084.7500   2000.0000     25.1042     28.9141   2000.0000     88.2616
  1085.0000   2000.0000     24.7771     28.4282   2000.0000     96.6341
  1085.2500   2000.0000     24.3250     27.7474   2000.0000    102.5830
  1085.5000   2000.0000     23.7505     26.9154   2000.0000    110.2183
  1085.7500   2000.0000     23.0660     25.9821   2000.0000    114.1212
  1086.0000   2000.0000     22.2949     24.9966   2000.0000    118.1828
  1086.2500   2000.0000     21.4723     24.0035   2000.0000    119.6821
  1086.5000   2000.0000     20.6450     23.0397   2000.0000    120.1338
  1086.7500   2000.0000     19.8674     22.1340   2000.0000    119.4245
  1087.0000   2000.0000     19.1900     21.3065   2000.0000    117.6700
  1087.2500   2000.0000     18.6456     20.5692   2000.0000    116.8477
  1087.5000   -197.7016     18.2392     19.9270   2000.0000    117.6849
  1087.7500   -197.3856     17.9467     19.3783   2000.0000    120.0505
  1088.0000   -197.2119     17.7225     18.9164   2000.0000    125.3475
  1088.2500   -197.1859     17.5145     18.5301   2000.0000    128.7265
  1088.5000   -197.2844     17.2804     18.2053     26.0812    131.5558
  1088.7500   -197.4624     16.9995     17.9264     28.4351    131.5964
  1089.0000   -197.6672     16.6754     17.6783     31.6026    129.8340
  1089.2500   -197.8521     16.3313     17.4482     34.6634    128.4965
  1089.5000   -197.9879     16.0021     17.2272     36.6093    127.8448
  1089.7500   -198.0647     15.7260     17.0121     36.7128    128.6982
  1090.0000   -198.0870     15.5358     16.8051     34.8316    131.7245
  1090.2500   -198.0669     15.4507     16.6132     31.4742    134.6837
  1090.5000   -198.0184     15.4713     16.4473     27.5744    140.1225
  1090.7500   -197.9539     15.5801     16.3194     24.0879    143.9104
  1091.0000   -197.8810     15.7467     16.2415     21.6396    148.4959
  1091.2500   -197.7971     15.9362     16.2236     20.4018    150.2036
  1091.5000   -197.6860     16.1176     16.2726     20.2270    150.6387
  1091.7500   -197.5242     16.2691     16.3910     20.8890    149.8390
  1092.0000   -197.2942     16.3793     16.5765     22.2381    147.3296
  1092.2500   -196.9984     16.4465     16.8211     24.2044    144.5676
  1092.5000   -196.6606     16.4777     17.1103     26.7263    138.2157
  1092.7500   -196.3190     16.4870     17.4231     29.6885    132.6098
  1093.0000   -196.0165     16.4907     17.7320     32.8523    123.3766
  1093.2500   -195.7938     16.4991     18.0052     35.8013    117.5514
  1093.5000   -195.6810     16.5093     18.2093     38.0165    110.2262
  1093.7500   -195.6852     16.5040     18.3140     39.0966    106.5102
  1094.0000   -195.7816     16.4577     18.2971     38.9303    102.9563
  1094.2500   -195.9225     16.3482     18.1485     37.6593    101.9419
  1094.5000   -196.0602     16.1662     17.8722     35.5218    101.9535
  1094.7500   -196.1694     15.9189     17.4849     32.7590    102.5543
  1095.0000   -196.2513     15.6241     17.0124     29.6261    103.9477
  1095.2500   -196.3219     15.3006     16.4845     26.4208    105.2272
  1095.5000   -196.3973     14.9608     15.9303     23.4627    107.7908
  1095.7500   -196.4853     14.6090     15.3749     21.0333    109.8916
  1096.0000   -196.5862     14.2455     14.8381     19.3139    113.3444
  1096.2500   -196.6987     13.8709     14.3335     18.3590    115.5954
  1096.5000   -196.8293     13.4903     13.8701     18.1069    118.5665
  1096.7500   -196.9965     13.1134     13.4531     18.3984    120.3059
  1097.0000   -197.2261     12.7535     13.0851     18.9950    122.8714
  1097.2500   -197.5367     12.4262     12.7676     19.6252    124.6324
  1097.5000   -197.9260     12.1479     12.5019     20.0612    127.1178
  1097.7500   -198.3643     11.9345     12.2894     20.1774    128.5402
  1098.0000   -198.8027     11.7996     12.1322     19.9542    130.4474
  1098.2500   -199.1854     11.7523     12.0331     19.4604    131.6791
  1098.5000   -199.4621     11.7955     11.9957     18.8434    133.1120
  1098.7500   -199.6014     11.9267     12.0243     18.2931    133.3565
