~Version Information
VERS.                      2.0: CWLS Log ASCII Standard - VERSION 2.0
WRAP.                       NO: One line per depth step
~Well Information Block
STRT.FT               419.7500: 
STOP.FT              1170.0000: 
STEP.FT                 0.2500: 
NULL.                -999.2500: 
COMP.          Evergreen Operating Corporation: COMPANY
WELL.             Bernice 21-3: WELL
FLD.           Purgatoire River: FIELD
LOC.           201' FNL & 2575' FWL: LOCATION
PROV.                 Colorado: PROVINCE
CNTY.               Las Animas: COUNTRY
SRVC.                Patterson: SERVICE COMPANY
DATE.          Mon Jan 26 13:04:04 2004: LOG DATE
UWI.           05 071 07912   : UNIQUE WELL ID
~Curve Information Block
DEPT.FT            0 000 00 00: Depth
SN.Ohm-m                      : IEL Short Normal
SP.mV                         : IEL Spontaneous Potential
DIR.Ohm-m                     : IEL Induction Resistivity
GR.GAPI                       : Gamma Ray
~Parameter Information Block
~A  Depth        SN          SP         DIR          GR     
# ...
   888.7500     17.6510   -204.2280     14.5630    111.9940
   889.0000     18.1333   -203.7510     15.1354    109.0618
   889.2500     18.6678   -203.2376     15.8264    106.2029
   889.5000     19.2248   -202.6687     16.5775    101.7572
   889.7500     19.9398   -201.9845     17.3388     99.2624
   890.0000     20.8568   -201.1504     18.0828     96.3411
   890.2500     21.8901   -200.1939     18.7958     94.6560
   890.5000     22.9838   -199.1884     19.4613     91.9916
   890.7500     24.1013   -198.2117     20.0556     89.8896
   891.0000     25.1811   -197.3139     20.5539     85.9930
   891.2500     26.1537   -196.5054     20.9346     82.9440
   891.5000     26.9253   -195.7546     21.1749     78.3190
   891.7500     27.3978   -195.0040     21.2496     75.8436
   892.0000     27.5165   -194.2107     21.1416     74.2094
   892.2500     27.2262   -193.3859     20.8597     74.9505
   892.5000     26.4182   -192.5986     20.4419     79.0001
   892.7500     25.0519   -191.9364     19.9384     83.5794
   893.0000     23.3462   -191.4608     19.3897     93.0545
   893.2500     21.7343   -191.1924     18.8144    100.8547
   893.5000     20.5870   -191.1201     18.2168    113.8216
   893.7500     20.0335   -191.1916     17.6005    122.4789
   894.0000     19.9931   -191.2954     16.9805    133.9877
   894.2500     20.2641   -191.2824     16.3825    139.9391
   894.5000     20.5775   -191.0370     15.8365    145.6267
   894.7500     20.6914   -190.5415     15.3712    147.4696
   895.0000     20.5616   -189.8800     15.0119    148.4595
   895.2500     20.3592   -189.1818     14.7782    148.4562
   895.5000     20.2509   -188.5492     14.6778    147.4693
   895.7500     20.2686   -188.0197     14.7023    145.9635
   896.0000     20.3721   -187.5670     14.8296    142.4547
   896.2500     20.5366   -187.1179     15.0300    139.4783
   896.5000     20.7745   -186.5804     15.2705    134.3831
   896.7500     21.0847   -185.8937     15.5135    130.7570
   897.0000     21.4096   -185.0771     15.7171    125.6154
   897.2500     21.6852   -184.2295     15.8465    122.9721
   897.5000     21.9046   -183.4732     15.8971    120.8704
   897.7500     22.0931   -182.8802     15.9119    120.5087
   898.0000     22.2562   -182.4289     15.9709    120.6466
   898.2500     22.3572   -182.0273     16.1495    121.0778
   898.5000     22.3330   -181.5934     16.4721    122.7832
   898.7500     22.1643   -181.1151     16.8929    124.6605
   899.0000     21.9195   -180.6288     17.3204    127.5206
   899.2500     21.6848   -180.1684     17.6767    128.6724
   899.5000     21.4714   -179.7578     17.9475    128.5794
   899.7500     21.2216   -179.4238     18.1786    127.2787
   900.0000     20.9173   -179.1775     18.4249    123.7223
   900.2500     20.6820   -178.9926     18.6945    120.5528
   900.5000     20.6727   -178.8210     18.9320    115.2930
   900.7500     20.8687   -178.6242     19.0522    111.9737
   901.0000     21.1557   -178.3855     19.0047    108.2955
   901.2500     21.5031   -178.1075     18.8105    107.2377
   901.5000     21.8478   -177.8123     18.5333    108.1472
   901.7500     22.0613   -177.5344     18.2222    110.2571
   902.0000     22.1217   -177.2983     17.8833    114.7530
   902.2500     22.0809   -177.0998     17.4906    117.8712
   902.5000     21.9266   -176.9098     17.0181    121.6802
   902.7500     21.6525   -176.6889     16.4709    123.5779
   903.0000     21.3364   -176.3980     15.8981    126.1234
   903.2500     21.0291   -176.0037     15.3795    127.7801
   903.5000     20.7290   -175.4908     14.9882    129.2934
   903.7500     20.4799   -174.8709     14.7557    128.8672
   904.0000     20.3085   -174.1737     14.6573    125.7595
   904.2500     20.1095   -173.4304     14.6248    122.7244
   904.5000     19.7697   -172.6734     14.5800    118.8064
   904.7500     19.3510   -171.9431     14.4696    117.8691
   905.0000     19.0033   -171.2769     14.2814    119.9291
   905.2500     18.7907   -170.6850     14.0346    122.8619
   905.5000     18.6681   -170.1447     13.7601    126.7020
   905.7500     18.5398   -169.6261     13.4856    127.5813
   906.0000     18.3642   -169.1259     13.2336    126.4876
   906.2500     18.2068   -168.6687     13.0267    125.1123
   906.5000     18.1406   -168.2760     12.8927    123.2022
   906.7500     18.1479   -167.9476     12.8572    121.9259
   907.0000     18.1538   -167.6831     12.9269    119.4586
   907.2500     18.1087   -167.5058     13.0743    117.4526
   907.5000     18.0086   -167.4432     13.2430    114.3212
   907.7500     17.8450   -167.4794     13.3746    112.2362
   908.0000     17.5731   -167.5366     13.4401    108.6357
   908.2500     17.1509   -167.5132     13.4491    105.4249
   908.5000     16.6201   -167.3433     13.4335     98.9637
   908.7500     16.1533   -167.0296     13.4238     94.0582
   909.0000     15.9862   -166.6357     13.4357     87.9884
   909.2500     16.2440   -166.2450     13.4690     86.1672
   909.5000     16.8299   -165.9048     13.5140     87.5917
   909.7500     17.5050   -165.5825     13.5556     90.5929
   910.0000     18.0501   -165.1678     13.5747     96.0581
   910.2500     18.3283   -164.5284     13.5473     99.5606
   910.5000     18.2900   -163.5870     13.4477    104.5730
   910.7500     18.0079   -162.3764     13.2585    108.0475
   911.0000     17.6209   -161.0361     12.9841    113.5165
   911.2500     17.2159   -159.7520     12.6546    116.9396
   911.5000     16.8570   -158.6795     12.3145    120.5987
   911.7500     16.6508   -157.8890     12.0034    121.4832
   912.0000     16.6418   -157.3562     11.7449    120.4679
   912.2500     16.7432   -156.9829     11.5506    118.8876
   912.5000     16.8929   -156.6305     11.4305    116.7258
   912.7500     17.1146   -156.1618     11.3951    116.1262
   913.0000     17.3528   -155.5003     11.4467    117.1102
   913.2500     17.5042   -154.6817     11.5713    119.0295
   913.5000     17.5947   -153.8382     11.7422    122.9098
   913.7500     17.6949   -153.1134     11.9276    125.1328
   914.0000     17.7685   -152.5833     12.0961    126.2030
   914.2500     17.7220   -152.2375     12.2156    124.9900
   914.5000     17.5080   -152.0047     12.2555    120.8301
   914.7500     17.1558   -151.7897     12.1953    117.2514
   915.0000     16.7446   -151.5107     12.0315    111.9844
   915.2500     16.3534   -151.1271     11.7763    109.0369
   915.5000     16.0274   -150.6373     11.4562    105.8841
   915.7500     15.7698   -150.0550     11.1131    104.8982
   916.0000     15.5487   -149.3902     10.7988    105.8448
   916.2500     15.3322   -148.6444     10.5570    108.3478
   916.5000     15.1173   -147.8159     10.4025    114.1986
   916.7500     14.9140   -146.9035     10.3148    118.5159
   917.0000     14.7167   -145.9046     10.2510    124.0779
   917.2500     14.5147   -144.8128     10.1713    126.7641
   917.5000     14.3434   -143.6411     10.0567    129.2038
   917.7500     14.2595   -142.4762      9.9105    129.8872
   918.0000     14.2399   -141.4907      9.7470    129.8129
   918.2500     14.2479   -140.8461      9.5848    129.2096
   918.5000     14.3469   -140.5502      9.4471    127.6037
   918.7500     14.5574   -140.4263      9.3639    126.1988
   919.0000     14.7433   -140.2392      9.3678    124.5086
   919.2500     14.8178   -139.8519      9.4831    124.4785
   919.5000     14.8975   -139.2792      9.7165    126.7471
   919.7500     15.1017   -138.6368     10.0532    129.3595
   920.0000     15.3721   -138.0633     10.4635    133.3330
   920.2500     15.6092   -137.6690     10.9160    135.2065
   920.5000     15.8156   -137.5220     11.3881    136.2902
   920.7500     16.0213   -137.6593     11.8685    135.9746
   921.0000     16.2156   -138.0939     12.3534    134.1028
   921.2500     16.4564   -138.8083     12.8412    131.5145
   921.5000     16.9438   -139.7481     13.3327    124.4826
   921.7500     17.8675   -140.8281     13.8372    117.7554
   922.0000     19.2445   -141.9420     14.3822    106.9264
