~Version Information
VERS.                      2.0: CWLS Log ASCII Standard - VERSION 2.0
WRAP.                       NO: One line per depth step
~Well Information Block
STRT.FT               430.0000: 
STOP.FT              2827.0000: 
STEP.FT                 0.1000: 
NULL.                -999.2500: 
COMP.          Pioneer Natural Resources: COMPANY
WELL.           Ei-ei-oh 31-24: WELL
FLD.           Purgatoire River: FIELD
LOC.           235' FNL & 2001' FEL--: LOCATION
PROV.                 Colorado: PROVINCE
CNTY.               Las Animas: COUNTRY
SRVC.                Patterson: SERVICE COMPANY
DATE.          Thu Jun 16 07:14:41 2005: LOG DATE
UWI.           05 071 08403 00: UNIQUE WELL ID
~Curve Information Block
DEPT.FT            0 000 00 00: Depth
DCAL.in                       : CDL Caliper
DPOR.pu                       : CDL Density Porosity
NPOR.pu                       : Neutron Porosity
RHOB.g/cc                     : CDL Bulk Density
RHOC.g/cc                     : CDL Density Correction
GR.GAPI                       : Gamma Ray
~Parameter Information Block
~A  Depth       DCAL        DPOR        NPOR        RHOB        RHOC         GR     
# ...
  1342.0000      7.9189      4.7091     19.0030      2.5723      0.0989     56.8365
  1342.1000      7.9189      4.0977     19.1365      2.5824      0.1026     52.6598
  1342.2000      7.9189      4.0840     19.6967      2.5826      0.1114     51.3516
  1342.3000      7.9177      4.5179     20.3578      2.5755      0.0908     48.1293
  1342.4000      7.9177      5.5749     20.3615      2.5580      0.1005     45.2686
  1342.5000      7.9184      7.3357     19.6153      2.5290      0.0500     47.8968
  1342.6000      7.9184      8.5400     19.0427      2.5091      0.0251     53.0062
  1342.7000      7.9184      8.0062     19.3713      2.5179      0.0352     56.9522
  1342.8000      7.9181      6.6563     20.1040      2.5402      0.1207     60.3148
  1342.9000      7.9181      6.2600     20.5625      2.5467      0.1073     63.0127
  1343.0000      7.9174      6.4128     20.8519      2.5442      0.0539     61.7135
  1343.1000      7.9174      5.7640     21.0428      2.5549      0.0835     56.2381
  1343.2000      7.9174      5.2772     21.2817      2.5629      0.0971     51.8077
  1343.3000      7.9167      6.1856     21.7897      2.5479      0.0400     50.3964
  1343.4000      7.9167      7.0714     22.2852      2.5333     -0.0159     50.9650
  1343.5000      7.9159      6.3981     22.6171      2.5444      0.0426     51.5505
  1343.6000      7.9159      5.0008     22.4935      2.5675      0.0808     51.2959
  1343.7000      7.9159      4.2418     21.8000      2.5800      0.0935     52.7826
  1343.8000      7.9161      4.4373     21.4776      2.5768      0.0679     56.4642
  1343.9000      7.9161      4.9412     22.0984      2.5685      0.0751     58.4348
  1344.0000      7.9177      4.8463     22.9656      2.5700      0.0807     56.3907
  1344.1000      7.9177      4.2262     23.4616      2.5803      0.1122     51.6255
  1344.2000      7.9177      4.1034     23.6977      2.5823      0.1179     47.2850
  1344.3000      7.9201      4.6691     23.9087      2.5730      0.0725     46.1527
  1344.4000      7.9201      4.7257     23.9370      2.5720      0.0697     47.2345
  1344.5000      7.9206      3.6900     23.6226      2.5891      0.0814     47.4143
  1344.6000      7.9206      2.4343     23.3669      2.6098      0.0775     46.1423
  1344.7000      7.9206      1.6951     23.5999      2.6220      0.0917     44.4596
  1344.8000      7.9186      1.2128     23.9986      2.6300      0.0580     43.1287
  1344.9000      7.9186      0.8150     24.1503      2.6366      0.0784     45.7632
  1345.0000      7.9152      1.1748     24.1121      2.6306      0.0977     52.8260
  1345.1000      7.9152      2.4549     23.7691      2.6095      0.0854     58.1883
  1345.2000      7.9152      3.1920     23.1317      2.5973      0.0404     59.3393
  1345.3000      7.9123      2.2600     22.7853      2.6127      0.0697     58.3335
  1345.4000      7.9123      0.4671     22.9999      2.6423      0.0902     57.7752
  1345.5000      7.9100     -1.4076     23.4420      2.6732      0.0735     59.5951
  1345.6000      7.9100     -3.0234     23.6019      2.6999      0.1097     62.8454
  1345.7000      7.9100     -3.2406     23.1991      2.7035      0.1006     65.2545
  1345.8000      7.9089     -1.7199     22.7488      2.6784      0.0625     66.4601
  1345.9000      7.9089      0.8382     23.0660      2.6362      0.0378     66.2709
  1346.0000      7.9126      4.0682     23.9564      2.5829      0.0048     66.0295
  1346.1000      7.9126      6.8469     24.3188      2.5370     -0.0511     66.8437
  1346.2000      7.9126      7.7737     23.9329      2.5217     -0.0257     67.9108
  1346.3000      7.9213      7.2838     23.5333      2.5298     -0.0018     70.8880
  1346.4000      7.9213      6.6734     23.6676      2.5399      0.0048     78.4993
  1346.5000      7.9283      6.4125     24.2153      2.5442      0.0426     86.6035
  1346.6000      7.9283      6.6885     24.8365      2.5396      0.0535     87.6079
  1346.7000      7.9283      7.4286     25.4329      2.5274      0.0581     82.6051
  1346.8000      7.9287      7.8856     25.5754      2.5199      0.0162     79.1444
  1346.9000      7.9287      7.5193     24.9415      2.5259      0.0484     80.4368
  1347.0000      7.9268      6.9121     24.1865      2.5360      0.0677     83.9165
  1347.1000      7.9268      7.2032     23.6890      2.5311      0.1200     86.6991
  1347.2000      7.9268      8.5905     23.3621      2.5083      0.0678     89.1865
  1347.3000      7.9273      9.6523     23.5937      2.4907      0.0409     94.6776
  1347.4000      7.9273      9.1402     24.2508      2.4992      0.0470    100.0034
  1347.5000      7.9255      7.5207     24.6642      2.5259      0.0894     95.9813
  1347.6000      7.9255      6.0245     24.5309      2.5506      0.1062     84.8675
  1347.7000      7.9255      5.3089     24.2339      2.5624      0.0939     77.6669
  1347.8000      7.9189      5.5593     24.4122      2.5583      0.1153     77.5400
  1347.9000      7.9189      6.3248     25.0363      2.5456      0.0437     80.8234
  1348.0000      7.9121      6.5124     25.6510      2.5425      0.0528     83.8510
  1348.1000      7.9121      6.1575     26.1066      2.5484      0.1114     84.3379
  1348.2000      7.9121      6.2771     26.2893      2.5464      0.0815     81.4107
  1348.3000      7.9105      6.8727     25.9310      2.5366      0.0806     76.6082
  1348.4000      7.9105      7.1383     25.3224      2.5322      0.0525     75.8687
  1348.5000      7.9111      6.8525     24.9917      2.5369      0.0846     80.8324
  1348.6000      7.9111      6.5929     24.8168      2.5412      0.0357     84.5802
  1348.7000      7.9111      6.9190     24.3601      2.5358      0.0698     83.9598
  1348.8000      7.9109      7.8405     23.7052      2.5206      0.0323     84.0378
  1348.9000      7.9109      8.6234     23.3110      2.5077      0.0267     88.9460
  1349.0000      7.9102      9.0555     23.0957      2.5006      0.0568     95.8979
  1349.1000      7.9102      9.3348     22.5992      2.4960      0.0273     99.7504
  1349.2000      7.9102      8.7689     21.8956      2.5053      0.0056     99.7567
  1349.3000      7.9097      7.5102     21.5245      2.5261      0.0772     99.7047
  1349.4000      7.9097      7.2360     21.7297      2.5306      0.0918    100.5130
  1349.5000      7.9105      7.9971     22.1810      2.5180      0.0224    101.2659
  1349.6000      7.9105      7.7745     22.6572      2.5217     -0.0035    101.7307
  1349.7000      7.9105      6.0445     23.3398      2.5503      0.0447     98.2970
  1349.8000      7.9110      4.5869     24.0859      2.5743      0.0941     91.2976
  1349.9000      7.9110      4.6384     24.3357      2.5735      0.0716     87.3966
  1350.0000      7.9093      5.4496     23.8990      2.5601      0.0452     86.9533
  1350.1000      7.9093      5.5879     23.1373      2.5578      0.0216     86.3785
  1350.2000      7.9093      4.2431     22.4917      2.5800      0.0312     84.3461
  1350.3000      7.9082      1.7904     21.9992      2.6205      0.0513     81.0357
  1350.4000      7.9082     -0.3444     21.5193      2.6557      0.0896     78.8542
  1350.5000      7.9115     -1.4663     21.3542      2.6742      0.0571     78.8343
  1350.6000      7.9115     -2.5221     22.0129      2.6916      0.0409     79.1593
  1350.7000      7.9115     -3.8990     23.3315      2.7143      0.0891     78.6402
  1350.8000      7.9150     -4.9425     24.3541      2.7316      0.0913     78.0781
  1350.9000      7.9150     -5.7779     24.7023      2.7453      0.0863     76.6129
  1351.0000      7.9131     -6.1646     24.7597      2.7517      0.1260     73.7282
  1351.1000      7.9131     -5.0006     24.5013      2.7325      0.1047     71.7301
  1351.2000      7.9131     -2.8720     24.1318      2.6974      0.0256     72.6309
  1351.3000      7.9088     -1.3681     24.4278      2.6726      0.0202     76.4989
  1351.4000      7.9088     -0.5839     25.1809      2.6596      0.0250     81.8992
  1351.5000      7.9069     -0.2640     25.2959      2.6544     -0.0379     87.2904
