~Version Information
VERS.                      2.0: CWLS Log ASCII Standard - VERSION 2.0
WRAP.                       NO: One line per depth step
~Well Information Block
STRT.FT               548.0000: 
STOP.FT              1916.0000: 
STEP.FT                 0.2500: 
NULL.                -999.2500: 
COMP.          Pioneer Natural Resources: COMPANY
WELL.          Blackjack 32-11 Tr: WELL
FLD.           Purgatorie River: FIELD
LOC.           2066' FNL & 1453' FEL: LOCATION
PROV.                 Colorado: PROVINCE
CNTY.               Las Animas: COUNTRY
SRVC.                Patterson: SERVICE COMPANY
DATE.          Tue Aug 16 12:08:23 2005: LOG DATE
UWI.                          : UNIQUE WELL ID
~Curve Information Block
DEPT.FT            0 000 00 00: Depth
SN.Ohm-m                      : IEL Short Normal
SP.mV                         : IEL Spontaneous Potential
DIR.Ohm-m                     : IEL Induction Resistivity
GR.GAPI                       : Gamma Ray
~Parameter Information Block
~A  Depth        SN          SP         DIR          GR     
# ...
  1184.5000   2000.0000   2000.0000     11.3978    149.6336
  1184.7500   2000.0000   2000.0000     11.4822    139.5264
  1185.0000   2000.0000   2000.0000     11.8373    126.4559
  1185.2500   2000.0000   2000.0000     11.7147    124.5223
  1185.5000   2000.0000   2000.0000     11.9408    131.8340
  1185.7500   2000.0000   2000.0000     11.3808    132.0855
  1186.0000   2000.0000   2000.0000     11.1831    139.2649
  1186.2500   2000.0000   2000.0000     10.6208    130.3625
  1186.5000   2000.0000   2000.0000     11.1257    122.1544
  1186.7500   2000.0000   2000.0000     11.0574    124.4309
  1187.0000   2000.0000   2000.0000     10.8027    129.3982
  1187.2500   2000.0000   2000.0000     10.8035    133.1606
  1187.5000   2000.0000   2000.0000     10.0236    152.3819
  1187.7500   2000.0000   2000.0000     10.1170    154.0919
  1188.0000   2000.0000   2000.0000      9.8850    160.5897
  1188.2500   2000.0000   2000.0000      9.5211    150.7272
  1188.5000   2000.0000   2000.0000      9.5462    154.2191
  1188.7500   2000.0000   2000.0000      9.0911    152.3280
  1189.0000   2000.0000   2000.0000      8.8186    149.6697
  1189.2500   2000.0000   2000.0000      8.5151    155.2436
  1189.5000   2000.0000   2000.0000      8.4710    156.0893
  1189.7500   2000.0000   2000.0000      8.5529    157.3222
  1190.0000   2000.0000   2000.0000      8.4628    156.9565
  1190.2500   2000.0000   2000.0000      8.5454    163.4449
  1190.5000   2000.0000   2000.0000      8.4574    150.6264
  1190.7500   2000.0000   2000.0000      8.8801    146.0547
  1191.0000   2000.0000   2000.0000      8.9515    162.2773
  1191.2500   2000.0000   2000.0000      9.1539    156.2702
  1191.5000   2000.0000   2000.0000      9.4215    151.2393
  1191.7500   2000.0000   2000.0000      9.6761    151.4574
  1192.0000   2000.0000   2000.0000      9.9615    154.9241
  1192.2500   2000.0000   2000.0000     10.0484    148.9866
  1192.5000   2000.0000   2000.0000     10.5976    153.8873
  1192.7500   2000.0000   2000.0000     10.8710    149.5806
  1193.0000   2000.0000   2000.0000     10.8729    140.5791
  1193.2500   2000.0000   2000.0000     11.6336    143.6198
  1193.5000   2000.0000   2000.0000     11.6755    137.9558
  1193.7500   2000.0000   2000.0000     12.2095    132.6255
  1194.0000   2000.0000   2000.0000     12.4841    131.1106
  1194.2500   2000.0000   2000.0000     12.2081    137.2312
  1194.5000   2000.0000   2000.0000     13.1624    137.5676
  1194.7500   2000.0000   2000.0000     13.4264    133.0444
  1195.0000   2000.0000   2000.0000     13.4194    144.6835
  1195.2500   2000.0000   2000.0000     13.9231    143.8885
  1195.5000   2000.0000   2000.0000     14.1136    138.2809
  1195.7500   2000.0000   2000.0000     13.9010    139.5196
  1196.0000   2000.0000   2000.0000     13.8644    144.9050
  1196.2500   2000.0000   2000.0000     14.3356    147.1370
  1196.5000   2000.0000   2000.0000     15.1762    144.6643
  1196.7500   2000.0000   2000.0000     15.3258    145.7020
  1197.0000   2000.0000   2000.0000     15.3146    139.2411
  1197.2500   2000.0000   2000.0000     15.9805    129.1690
  1197.5000   2000.0000   2000.0000     17.1799    124.3935
  1197.7500   2000.0000   2000.0000     18.4818    121.3521
  1198.0000   2000.0000   2000.0000     19.3588    111.0604
  1198.2500   2000.0000   2000.0000     21.3885    116.0043
  1198.5000   2000.0000   2000.0000     21.6162    120.4632
  1198.7500   2000.0000   2000.0000     21.5941    119.7411
  1199.0000   2000.0000   2000.0000     21.5132    115.0632
  1199.2500   2000.0000   2000.0000     22.7250    108.1783
  1199.5000   2000.0000   2000.0000     21.4218    103.2083
  1199.7500   2000.0000   2000.0000     17.2730    102.8764
  1200.0000   2000.0000   2000.0000     17.3223     99.8542
  1200.2500   2000.0000   2000.0000     17.5050    108.4189
  1200.5000   2000.0000   2000.0000     17.5251    103.5268
  1200.7500   2000.0000   2000.0000     17.4759    113.1078
  1201.0000   2000.0000   2000.0000     15.8347    129.5375
  1201.2500   2000.0000   2000.0000     15.8108    133.7481
  1201.5000   2000.0000   2000.0000     15.5840    143.2435
  1201.7500   2000.0000   2000.0000     14.8181    151.5662
  1202.0000   2000.0000   2000.0000     14.5220    161.8225
  1202.2500   2000.0000   2000.0000     14.0939    159.4281
  1202.5000   2000.0000   2000.0000     12.8969    158.4107
  1202.7500   2000.0000   2000.0000     12.7242    160.8276
  1203.0000   2000.0000   2000.0000     12.5863    158.1107
  1203.2500   2000.0000   2000.0000     12.0478    151.2413
  1203.5000   2000.0000   2000.0000     12.2594    148.5240
  1203.7500   2000.0000   2000.0000     12.6118    146.7639
  1204.0000   2000.0000   2000.0000     12.4016    141.2487
  1204.2500   2000.0000   2000.0000     12.0515    139.3068
  1204.5000   2000.0000   2000.0000     12.0493    139.7810
  1204.7500   2000.0000   2000.0000     12.3151    130.5934
  1205.0000   2000.0000   2000.0000     10.9041    133.3954
  1205.2500   2000.0000   2000.0000     11.2696    127.4647
  1205.5000   2000.0000   2000.0000     11.0293    125.3831
  1205.7500   2000.0000   2000.0000     10.5526    129.9345
  1206.0000   2000.0000   2000.0000     10.4125    136.0105
  1206.2500   2000.0000   2000.0000     10.6943    141.8247
  1206.5000   2000.0000   2000.0000     10.8389    149.8681
  1206.7500   2000.0000   2000.0000     10.4306    141.4197
  1207.0000   2000.0000   2000.0000     10.3513    150.8452
  1207.2500   2000.0000   2000.0000     10.8255    157.9805
  1207.5000   2000.0000   2000.0000     10.5368    153.6127
  1207.7500   2000.0000   2000.0000     10.3924    155.9675
  1208.0000   2000.0000   2000.0000     10.4713    166.3203
  1208.2500   2000.0000   2000.0000     10.6428    157.4274
  1208.5000   2000.0000   2000.0000     10.9040    148.4273
  1208.7500   2000.0000   2000.0000     11.7667    155.7471
  1209.0000   2000.0000   2000.0000     12.6055    165.6576
  1209.2500   2000.0000   2000.0000     13.5552    163.8954
  1209.5000   2000.0000   2000.0000     13.8670    142.3407
  1209.7500   2000.0000   2000.0000     14.9643    126.3540
  1210.0000   2000.0000   2000.0000     16.3973    118.5173
  1210.2500   2000.0000   2000.0000     17.1835    114.2565
  1210.5000   2000.0000   2000.0000     18.0373     97.1198
  1210.7500   2000.0000   2000.0000     19.1319     84.1370
  1211.0000   2000.0000   2000.0000     20.9872     70.7202
  1211.2500   2000.0000   2000.0000     20.9519     77.5696
  1211.5000   2000.0000   2000.0000     22.4533     79.8148
  1211.7500   2000.0000   2000.0000     22.4817     85.8544
  1212.0000   2000.0000   2000.0000     20.8537     97.9505
  1212.2500   2000.0000   2000.0000     18.3946    101.2134
  1212.5000   2000.0000   2000.0000     19.5300    116.7592
  1212.7500   2000.0000   2000.0000     17.4672    128.7377
  1213.0000   2000.0000   2000.0000     19.4202    126.7641
  1213.2500   2000.0000   2000.0000     18.6753    133.7884
  1213.5000   2000.0000   2000.0000     17.2087    139.6334
  1213.7500   2000.0000   2000.0000     16.7210    137.6642
  1214.0000   2000.0000   2000.0000     16.6525    127.3863
  1214.2500   2000.0000   2000.0000     15.6761    132.1679
  1214.5000   2000.0000   2000.0000     15.7352    135.5670
  1214.7500   2000.0000   2000.0000     14.7222    134.8186
  1215.0000   2000.0000   2000.0000     14.3885    132.8037
  1215.2500   2000.0000   2000.0000     14.0831    139.8066
  1215.5000   2000.0000   2000.0000     14.5802    137.9702
  1215.7500   2000.0000   2000.0000     14.0829    146.9149
  1216.0000   2000.0000   2000.0000     13.8262    144.9438
  1216.2500   2000.0000   2000.0000     15.5642    137.9509
  1216.5000   2000.0000   2000.0000     15.2436    132.0350
  1216.7500   2000.0000   2000.0000     15.4524    139.0671
  1217.0000   2000.0000   2000.0000     15.6482    130.1158
  1217.2500   2000.0000   2000.0000     16.3279    122.7783
  1217.5000   2000.0000   2000.0000     15.1559    109.4057
  1217.7500   2000.0000   2000.0000     15.8442    104.6114
