~Version Information
VERS.                      2.0: CWLS Log ASCII Standard - VERSION 2.0
WRAP.                       NO: One line per depth step
~Well Information Block
STRT.FT               -11.0000: 
STOP.FT              1896.2500: 
STEP.FT                 0.2500: 
NULL.                -999.2500: 
COMP.          Pioneer Natural Resources: COMPANY
WELL.            Summers 21-19: WELL
FLD.           Purgatoire River: FIELD
LOC.           900' FNL & 1950' FWL--: LOCATION
PROV.                 Colorado: PROVINCE
CNTY.               Las Animas: COUNTRY
SRVC.                Patterson: SERVICE COMPANY
DATE.          Thu Oct 20 15:06:00 2005: LOG DATE
UWI.           05 071 08315 00: UNIQUE WELL ID
~Curve Information Block
DEPT.FT            0 000 00 00: Depth
GR.GAPI                       : Gamma Ray
CCL.                          : Casing Collar Locator
TT3.usec                      : CBL 3' Travel Time
AMP3.mV                       : CBL 3' Amplitude
~Parameter Information Block
~A  Depth        GR         CCL         TT3         AMP3    
# ...
  1228.5000    156.2581      0.0000    733.0764      4.5360
  1228.7500    155.5526      0.0000    732.6429      4.5890
  1229.0000    153.3511      0.0000    732.1252      4.6381
  1229.2500    148.7151      0.0000    731.6901      4.6632
  1229.5000    142.0354      0.0000    731.4159      4.6551
  1229.7500    134.8176      0.0000    731.3059      4.6242
  1230.0000    128.9278      0.0000    731.3056      4.5945
  1230.2500    125.7465      0.0000    731.2435      4.5881
  1230.5000    125.6027      0.0000    730.7868      4.6075
  1230.7500    127.7263      0.0000    729.4791      4.6272
  1231.0000    130.7535      0.0000    726.8641      4.6013
  1231.2500    133.4546      0.0000    722.7787      4.4832
  1231.5000    135.0491      0.0000    717.6158      4.2504
  1231.7500    134.9424      0.0000    712.1401      3.9288
  1232.0000    132.5834      0.0000    707.0832      3.6028
  1232.2500    128.0182      0.0000    703.3317      3.3790
  1232.5000    122.5206      0.0000    702.3356      3.3159
  1232.7500    118.1197      0.0000    705.3711      3.3854
  1233.0000    116.2039      0.0000    711.9089      3.5043
  1233.2500    116.6666     -1.5540    719.1291      3.5940
  1233.5000    118.4148      0.0000    723.7174      3.6172
  1233.7500    120.4384      0.0000    724.5932      3.5898
  1234.0000    122.2532      0.0000    723.6854      3.5826
  1234.2500    123.5270      0.0000    723.6794      3.6983
  1234.5000    123.7055      0.0000    725.4059      4.0096
  1234.7500    122.3107      0.0000    727.7654      4.4920
  1235.0000    119.5048      0.0000    729.4739      5.0178
  1235.2500    116.1388      0.0000    730.1627      5.4318
  1235.5000    113.1841      0.0000    730.1372      5.6449
  1235.7500    111.0566      0.0000    729.8073      5.6622
  1236.0000    109.4135      0.0000    729.4469      5.5450
  1236.2500    107.6954      0.0000    729.1942      5.3689
  1236.5000    105.8474      0.0000    729.0804      5.2107
  1236.7500    104.2728      0.0000    729.0734      5.1340
  1237.0000    103.1694      0.0000    729.1036      5.1611
  1237.2500    102.2101      0.0000    729.0028      5.2627
  1237.5000    100.9184      0.0000    728.3802      5.3853
  1237.7500     99.1530      0.0000    726.7401      5.4888
  1238.0000     97.1742      0.0000    724.0706      5.5577
  1238.2500     95.3920      0.0000    721.4395      5.5876
  1238.5000     94.1295      0.0000    720.5702      5.5757
  1238.7500     93.5891      0.0000    722.3445      5.5254
  1239.0000     94.0430      0.0000    725.8401      5.4514
  1239.2500     95.8953      0.0000    729.0953      5.3738
  1239.5000     99.1934      0.0000    730.5396      5.3089
  1239.7500    103.1269      0.0000    729.6386      5.2657
  1240.0000    106.2982      0.0000    726.9116      5.2427
  1240.2500    107.4734      0.0000    723.8909      5.2304
  1240.5000    106.0733      0.0000    722.5117      5.2205
  1240.7500    102.3346      0.0000    723.7148      5.2151
  1241.0000     97.3104      0.0000    726.6623      5.2242
  1241.2500     92.5071      0.0000    729.6589      5.2539
  1241.5000     89.1334      0.0000    731.6274      5.3005
  1241.7500     87.4734      0.0000    732.5385      5.3495
  1242.0000     86.8077      0.0000    732.8528      5.3808
  1242.2500     86.0103      0.0000    732.9711      5.3799
  1242.5000     84.5355      0.0000    733.0936      5.3483
  1242.7500     82.9339      0.0000    733.2831      5.3000
  1243.0000     82.2982      0.0000    733.5278      5.2487
  1243.2500     83.3291      0.0000    733.7880      5.2020
  1243.5000     86.0121      0.0000    734.0223      5.1650
  1243.7500     89.9085      0.0000    734.1992      5.1396
  1244.0000     94.4478      0.0000    734.2896      5.1201
  1244.2500     98.9753      0.0000    734.2675      5.1000
  1244.5000    102.6293      0.0000    734.1266      5.0811
  1244.7500    104.3455      0.0000    733.8862      5.0687
  1245.0000    103.3245      0.0000    733.5800      5.0606
  1245.2500     99.6411      0.0000    733.2509      5.0516
  1245.5000     94.2847      0.0000    732.9510      5.0483
  1245.7500     88.6098      0.0000    732.7263      5.0682
  1246.0000     83.7035      0.0000    732.5948      5.1217
  1246.2500     80.0817      0.0000    732.5560      5.1969
  1246.5000     77.8694      0.0000    732.6179      5.2640
  1246.7500     77.2117      0.0000    732.7863      5.2960
  1247.0000     78.2980      0.0000    732.9751      5.2890
  1247.2500     80.9134      0.0000    732.8583      5.2615
  1247.5000     84.2610      0.0000    731.6901      5.2322
  1247.7500     87.3208      0.0000    728.2771      5.2063
  1248.0000     89.1941      0.0000    721.5019      5.1855
  1248.2500     89.2849      0.0000    711.4104      5.1795
  1248.5000     87.5613      0.0000    699.8571      5.2005
  1248.7500     84.6482      0.0000    689.6254      5.2473
  1249.0000     81.5036      0.0000    682.6664      5.3024
  1249.2500     78.9740      0.0000    679.2726      5.3467
  1249.5000     77.5396      0.0000    678.7676      5.3791
  1249.7500     77.1858      0.0000    680.4449      5.4170
  1250.0000     77.5286      0.0000    683.5569      5.4798
  1250.2500     78.2298      0.0000    686.7869      5.5736
  1250.5000     79.1681      0.0000    688.5654      5.6913
  1250.7500     80.1195      0.0000    688.4825      5.8168
  1251.0000     80.5404      0.0000    688.0059      5.9296
  1251.2500     79.9440      0.0000    689.1342      6.0096
  1251.5000     78.4582      0.0000    692.2839      6.0443
  1251.7500     76.8259      0.0000    695.7620      6.0328
  1252.0000     75.8912      0.0000    697.2039      5.9861
  1252.2500     76.2449      0.0000    695.3831      5.9214
  1252.5000     78.2326      0.0000    690.9360      5.8531
  1252.7500     81.9466      0.0000    685.7274      5.7871
  1253.0000     87.0516      0.0000    681.5215      5.7216
  1253.2500     92.6371      0.0000    679.0500      5.6502
  1253.5000     97.3764      0.0000    678.1384      5.5671
  1253.7500    100.0695      0.0000    678.4687      5.4750
  1254.0000    100.3103      0.0000    680.2322      5.3867
  1254.2500     98.6034      0.0000    684.2609      5.3130
  1254.5000     95.6972      0.0000    691.4426      5.2531
  1254.7500     91.9152      0.0000    701.6274      5.1998
  1255.0000     87.2794      0.0000    713.0061      5.1526
  1255.2500     82.1077      0.0000    722.9624      5.1174
  1255.5000     77.3306      0.0000    729.7597      5.0955
  1255.7500     74.1968      0.0000    733.3357      5.0776
  1256.0000     73.5559      0.0000    734.6132      5.0528
  1256.2500     75.2310      0.0000    734.3571      5.0193
  1256.5000     78.0406      0.0000    732.6505      4.9861
  1256.7500     80.4921      0.0000    729.2045      4.9661
  1257.0000     81.5816      0.0000    724.1281      4.9662
  1257.2500     81.2194      0.0000    718.4698      4.9836
  1257.5000     80.1414      0.0000    713.9612      5.0114
  1257.7500     79.2811      0.0000    712.1315      5.0456
  1258.0000     78.8936      0.0000    713.5179      5.0857
  1258.2500     78.1625      0.0000    717.3389      5.1311
  1258.5000     75.8173      0.0000    721.7507      5.1820
  1258.7500     71.3481      0.0000    724.8186      5.2428
  1259.0000     65.7247      0.0000    725.7646      5.3196
  1259.2500     60.9191      0.0000    725.3885      5.4118
  1259.5000     58.6489      0.0000    725.2238      5.5057
  1259.7500     59.5190      0.0000    726.2858      5.5793
  1260.0000     63.1721      0.0000    728.4302      5.6148
  1260.2500     68.7962      0.0000    730.5302      5.6086
  1260.5000     75.1722      0.0000    731.0461      5.5698
  1260.7500     80.5255      0.0000    728.5858      5.5133
  1261.0000     83.0997      0.0000    722.5104      5.4533
  1261.2500     82.4957      0.0000    713.7613      5.4026
  1261.5000     80.4576      0.0000    705.1390      5.3723
  1261.7500     80.0336      0.0000    699.9802      5.3659
