~Version Information
 VERS.                                  2.0 : CWLS LAS VERSION
 WRAP.                                   NO : WRAPING MODE
 SWARE .                 MController 2.5.0J : SOFTWARE VERSION
~Well Information
 WELL.                         Culver 14-12 : WELL
 COMP.    Pioneer Natural Resources USA Inc : COMPANY
 FLD.                      Purgatoire River : FIELD
 LOC.                SW/SW Sec 12 T32S R66W : LOCATION
 DATE.                              6/06/05 : DATE(S) LOGGED
 SRVC.       Blanco Geological Services LLC : SERVICE COMPANY
 STAT.                                   CO : STATE
 CNTY.                           Las Animas : COUNTY
 CTRY.                                  USA : COUNTRY
 API.                       05 071 08386 00 : API NUMBER
 STRT.FT                             442.00 : START DEPTH
 STOP.FT                            2305.00 : STOP DEPTH
 STEP.FT                               1.00 : DEPTH INCREMENT
 NULL.                                -9999 : NULL VALUE
~Curve information
 DEPTH.FT                                   :
 ROP.MIN/FT                                 :
 GAS.UNITS                                  :
~ASCII Log data
       442.0     -9999.00          2.4 
       443.0         1.38          2.9 
       444.0         0.13          2.6 
       445.0         0.20          2.6 
       446.0         0.17          2.7 
       447.0         0.13          2.6 
       448.0         0.10          2.9 
       449.0         0.10          2.7 
       450.0         0.13          2.9 
       451.0         0.10          2.8 
       452.0         0.27          3.0 
       453.0         0.13          2.7 
       454.0         0.30          2.7 
       455.0         0.22          2.9 
       456.0         0.17          3.0 
       457.0         0.13          2.8 
       458.0         0.20          2.9 
       459.0         0.27          3.0 
       460.0         0.20          3.0 
       461.0         0.37          2.9 
       462.0         0.23          2.7 
       463.0         0.20          2.8 
       464.0         0.17          2.6 
       465.0         0.20          2.6 
       466.0         0.23          2.6 
       467.0         0.20          2.7 
       468.0         0.22          2.8 
       469.0         0.20          2.6 
       470.0         0.17          2.6 
       471.0         0.17          2.9 
       472.0         0.20          2.9 
       473.0         0.23          2.8 
       474.0         0.17          2.8 
       475.0         1.53          3.1 
       476.0         0.45          2.9 
       477.0         0.33          2.7 
       478.0         0.20          3.0 
       479.0         0.17          2.7 
       480.0         0.17          2.7 
       481.0         0.17          3.1 
       482.0         0.17          2.9 
       483.0         0.17          3.2 
       484.0         0.17          3.0 
       485.0         0.17          3.0 
       486.0         0.17          3.0 
       487.0         0.20          3.1 
       488.0         0.18          2.9 
       489.0         0.13          3.1 
       490.0         0.13          2.8 
       491.0         0.20          2.7 
       492.0         0.17          2.8 
       493.0         0.20          2.7 
       494.0         0.17          2.9 
       495.0         0.17          2.8 
       496.0         0.13          3.0 
       497.0         0.13          2.9 
       498.0         0.17          3.3 
       499.0         0.13          3.3 
       500.0         0.13          3.2 
       501.0         0.17          3.7 
       502.0         0.13          3.6 
       503.0         0.17          3.6 
       504.0         0.23          3.7 
       505.0         1.25          3.6 
       506.0         0.43          2.9 
       507.0         0.30          2.7 
       508.0         0.23          2.8 
       509.0         0.20          3.1 
       510.0         0.17          3.0 
       511.0         0.20          3.3 
       512.0         0.18         52.9 
       513.0         0.20         69.7 
       514.0         0.20         62.6 
       515.0         0.17         37.9 
       516.0         0.17         22.6 
       517.0         0.17         12.8 
       518.0         0.20          7.4 
       519.0         0.17          4.2 
       520.0         0.17          2.4 
       521.0         0.17          1.2 
       522.0         0.17          1.0 
       523.0         0.17          0.8 
       524.0         0.13          0.8 
       525.0         0.13          0.8 
       526.0         0.17          1.0 
       527.0         0.17          1.1 
       528.0         0.20          1.1 
       529.0         0.20          1.3 
       530.0         0.20          1.4 
       531.0         0.22          1.6 
       532.0         0.17          1.7 
       533.0         0.17          2.1 
       534.0         0.17          2.0 
       535.0         0.40          2.5 
       536.0         1.70          2.7 
       537.0         0.33          2.7 
       538.0         0.23          2.9 
       539.0         0.25          2.5 
       540.0         0.23          2.7 
       541.0         0.20          2.8 
       542.0         0.20          2.9 
       543.0         0.20          2.8 
       544.0         0.17          2.8 
       545.0         0.17          2.9 
       546.0         0.17          3.2 
       547.0         0.20          2.8 
       548.0         0.17          3.0 
       549.0         0.17          3.0 
       550.0         0.13          2.9 
       551.0         0.17          3.1 
       552.0         0.20          3.3 
       553.0         0.13          3.7 
       554.0         0.17          3.7 
       555.0         0.17          4.0 
       556.0         0.17          5.8 
       557.0         0.15         72.3 
       558.0         0.20        126.3 
       559.0         0.17        122.2 
       560.0         0.17         90.2 
       561.0         0.23         65.0 
       562.0         0.20         43.2 
       563.0         0.23         30.1 
       564.0         0.20         22.3 
       565.0         0.43         25.3 
       566.0         3.98        449.0 
       567.0         0.30         85.5 
       568.0         0.20         60.8 
       569.0         0.17         49.4 
       570.0         0.17         42.3 
       571.0         0.18         36.3 
       572.0         0.13         32.7 
       573.0         0.13         30.7 
       574.0         0.17         27.1 
       575.0         0.13         25.3 
       576.0         0.17         24.1 
       577.0         0.17         21.7 
       578.0         0.17         18.9 
       579.0         0.17         17.2 
       580.0         0.13         17.2 
       581.0         0.13         17.1 
       582.0         0.17         17.4 
       583.0         0.13         17.4 
       584.0         0.13         18.7 
       585.0         0.20         19.2 
       586.0         0.17         14.9 
       587.0         0.17         10.9 
       588.0         0.20          8.5 
       589.0         0.13          6.5 
       590.0         0.17          5.4 
       591.0         0.22          4.9 
       592.0         0.13          9.0 
       593.0         0.13         16.5 
       594.0         0.20         29.1 
       595.0         0.13         38.6 
       596.0         1.73        121.2 
       597.0         0.27         42.5 
       598.0         0.33         23.7 
       599.0         0.23          9.5 
       600.0         0.28          4.1 
       601.0         0.27          6.6 
       602.0         0.30         14.0 
       603.0         0.33         19.1 
       604.0         0.30         19.1 
       605.0         0.30         17.5 
       606.0         0.33         14.4 
       607.0         0.37         11.9 
       608.0         0.33          9.5 
       609.0         0.27          7.4 
       610.0         0.30          6.6 
       611.0         0.32          5.2 
       612.0         0.33          3.2 
       613.0         0.33          2.9 
       614.0         0.37          3.1 
       615.0         0.37          2.2 
       616.0         0.37          2.5 
       617.0         0.37          3.5 
       618.0         0.30          3.1 
       619.0         0.23          1.2 
       620.0         0.17          0.0 
       621.0         0.20          0.2 
       622.0         0.22          0.1 
       623.0         0.17          0.1 
       624.0         0.10          2.0 
       625.0         0.17         10.1 
       626.0         1.77         84.9 
       627.0         0.17         38.8 
       628.0         0.33         27.3 
       629.0         0.23         12.8 
       630.0         0.20          6.9 
       631.0         0.25          3.7 
       632.0         0.30          1.1 
       633.0         0.27          0.1 
       634.0         0.27          0.0 
       635.0         0.27          0.3 
       636.0         0.23          0.3 
       637.0         0.23          0.1 
       638.0         0.23          0.3 
       639.0         0.20          0.2 
       640.0         0.23          0.2 
       641.0         0.20          0.1 
