~Version Information
VERS.                      2.0: CWLS Log ASCII Standard - VERSION 2.0
WRAP.                       NO: One line per depth step
~Well Information Block
STRT.FT               577.0000: 
STOP.FT              2643.2000: 
STEP.FT                 0.1000: 
NULL.                -999.2500: 
COMP.          Petrogulf Corporation: COMPANY
WELL.           Montoya 12-41V: WELL
FLD.           Purgatorie River: FIELD
LOC.           1081' FNL & 605' FEL: LOCATION
CNTY.               Las Animas: COUNTY
SRVC.                         : SERVICE COMPANY
DATE.          Tue Aug 10 14:17:12 2004: LOG DATE
UWI.           05 071 08094 00: UNIQUE WELL ID
STAT.                 Colorado: STATE
~Curve Information Block
DEPT.FT            0 000 00 00: Depth
DCAL.in                       : CDL Caliper
RHOB.g/cc                     : CDL Bulk Density
RHOC.g/cc                     : CDL Density Correction
DPOR.pu                       : CDL Density Porosity
GR.GAPI                       : Gamma Ray
NPOR.pu                       : Neutron Porosity
~Parameter Information Block
~A  Depth       DCAL        RHOB        RHOC        DPOR         GR         NPOR    
# ...
   721.0000      8.2484      2.4893     -0.0164      9.7421    135.6235     24.7834
   721.1000      8.2484      2.5036     -0.0053      8.8703    137.9452     25.4804
   721.2000      8.2484      2.5335      0.0151      7.0595    143.7715     25.7247
   721.3000      8.2497      2.5625      0.0375      5.3025    146.9134     25.5511
   721.4000      8.2497      2.5757      0.0372      4.5024    140.5188     25.0924
   721.5000      8.2504      2.5720     -0.0094      4.7273    132.7464     24.4991
   721.6000      8.2504      2.5658      0.0046      5.1022    130.7433     24.0493
   721.7000      8.2504      2.5656      0.0130      5.1170    131.7222     24.0632
   721.8000      8.2493      2.5633      0.0028      5.2525    134.6993     24.2618
   721.9000      8.2493      2.5528     -0.0037      5.8906    140.7252     24.2287
   722.0000      8.2499      2.5443     -0.0112      6.4032    147.0211     23.9677
   722.1000      8.2499      2.5511     -0.0334      5.9925    153.4857     23.6568
   722.2000      8.2499      2.5626      0.0656      5.2956    165.0426     23.4139
   722.3000      8.2510      2.5539      0.0064      5.8253    181.1962     23.3522
   722.4000      8.2510      2.5258     -0.0102      7.5272    195.2270     23.4715
   722.5000      8.2538      2.5051     -0.0536      8.7827    203.2692     23.4728
   722.6000      8.2538      2.5059     -0.0178      8.7360    204.8285     23.2588
   722.7000      8.2538      2.5127      0.0493      8.3198    201.3551     23.1222
   722.8000      8.2737      2.5066      0.0252      8.6895    199.8114     23.0258
   722.9000      8.2737      2.4901     -0.0146      9.6905    200.7802     22.7403
   723.0000      8.2954      2.4734      0.0024     10.7040    199.2728     22.2160
   723.1000      8.2954      2.4579      0.0207     11.6448    196.8648     21.7436
   723.2000      8.2954      2.4360      0.0481     12.9726    193.3789     21.7559
   723.3000      8.3211      2.3995      0.0092     15.1806    186.9645     22.1642
   723.4000      8.3211      2.3514      0.0006     18.0985    180.7764     22.6785
   723.5000      8.3749      2.3019     -0.0166     21.0969    176.6146     23.2370
   723.6000      8.3749      2.2612     -0.0189     23.5614    175.5089     23.8136
   723.7000      8.3749      2.2336      0.0184     25.2341    179.1472     24.4693
   723.8000      8.3977      2.2210     -0.0218     25.9985    184.5612     25.2166
   723.9000      8.3977      2.2285      0.0388     25.5442    184.9717     25.9677
   724.0000      8.4335      2.2517      0.0842     24.1400    178.1793     26.5495
   724.1000      8.4335      2.2772      0.1139     22.5954    169.7003     26.6780
   724.2000      8.4335      2.2995      0.0678     21.2405    167.4631     26.4347
   724.3000      8.4723      2.3173      0.1234     20.1649    170.8879     26.3836
   724.4000      8.4723      2.3178      0.1385     20.1313    170.7085     26.5876
   724.5000      8.4243      2.2904      0.0789     21.7964    166.7506     26.5185
   724.6000      8.4243      2.2402     -0.0071     24.8374    166.5696     26.0540
   724.7000      8.4243      2.1712     -0.0214     29.0166    165.0643     25.3488
   724.8000      8.4622      2.0802     -0.0629     34.5317    152.2231     24.5118
   724.9000      8.4622      1.9757     -0.0671     40.8660    136.2771     23.6958
   725.0000      8.5817      1.8692      0.0155     47.3212    133.7249     22.9021
   725.1000      8.5817      1.7731     -0.0079     53.1424    141.3249     22.2094
   725.2000      8.5817      1.7299      0.0386     55.7635    145.2050     21.9739
   725.3000      8.6818      1.7893      0.2227     52.1649    145.6501     21.9723
   725.4000      8.6818      1.9556      0.3507     42.0823    147.5581     21.7181
   725.5000      8.7217      2.1773      0.5641     28.6495    150.6660     21.5036
   725.6000      8.7217      2.3764      0.7011     16.5812    155.1165     21.6999
   725.7000      8.7217      2.4961      0.7773      9.3255    158.3620     22.1297
   725.8000      8.5357      2.5243      0.7288      7.6190    158.2638     22.5711
   725.9000      8.5357      2.4877      0.5678      9.8387    154.4022     23.1593
   726.0000      8.3761      2.4245      0.4458     13.6693    146.6173     23.9894
   726.1000      8.3761      2.3540      0.3204     17.9380    138.0034     24.8342
   726.2000      8.3761      2.2868      0.1412     22.0092    135.0645     25.4606
   726.3000      8.4116      2.2419      0.0339     24.7331    140.8185     25.7740
   726.4000      8.4116      2.2222      0.0648     25.9261    150.1015     25.9042
   726.5000      8.4115      2.1970      0.1165     27.4530    156.5929     25.9122
   726.6000      8.4115      2.1337      0.0563     31.2912    160.4981     25.4544
   726.7000      8.4115      2.0297      0.0174     37.5959    160.6763     24.4909
   726.8000      8.3858      1.9127     -0.0395     44.6858    156.6808     23.3781
   726.9000      8.3858      1.8294     -0.0767     49.7310    155.2054     22.4414
   727.0000      8.3926      1.8132     -0.0418     50.7156    160.4436     21.8217
   727.1000      8.3926      1.8521      0.0324     48.3562    169.9470     21.2172
   727.2000      8.3926      1.9183      0.0459     44.3453    177.2007     20.3412
   727.3000      8.3946      2.0178      0.0906     38.3167    175.1338     19.5595
   727.4000      8.3946      2.1666      0.3143     29.2993    165.5759     19.1158
   727.5000      8.4047      2.3330      0.5536     19.2118    157.7473     18.7658
   727.6000      8.4047      2.4466      0.5993     12.3286    153.4353     18.5991
   727.7000      8.4047      2.4561      0.5488     11.7517    151.0072     19.0513
   727.8000      8.4741      2.3702      0.2764     16.9597    148.0062     20.2357
   727.9000      8.4741      2.2500      0.1258     24.2419    140.3486     21.8811
   728.0000      8.5346      2.1559      0.0696     29.9433    133.6134     23.6019
   728.1000      8.5346      2.1083      0.0508     32.8319    133.2047     25.0694
   728.2000      8.5346      2.1018     -0.0244     33.2219    133.9701     26.0452
   728.3000      8.3449      2.1259      0.0478     31.7622    130.8711     26.6403
   728.4000      8.3449      2.1660      0.0048     29.3323    123.6623     27.1432
   728.5000      8.3044      2.2184      0.0617     26.1561    115.9672     27.2696
   728.6000      8.3044      2.2906      0.1119     21.7838    115.5522     26.9060
   728.7000      8.3044      2.3810      0.1659     16.3058    120.7199     26.6126
   728.8000      8.2993      2.4656      0.1976     11.1766    122.7418     26.4287
   728.9000      8.2993      2.5180      0.1361      8.0022    120.3312     25.8818
   729.0000      8.2957      2.5401      0.0422      6.6625    115.5457     25.1677
   729.1000      8.2957      2.5475      0.0454      6.2091    110.2073     24.9867
   729.2000      8.2957      2.5433      0.0099      6.4668    108.9453     25.3564
   729.3000      8.2661      2.5346     -0.0027      6.9919    115.8286     25.5701
   729.4000      8.2661      2.5398     -0.0118      6.6775    127.9648     25.3222
   729.5000      8.2611      2.5602      0.0271      5.4436    132.9253     24.9660
   729.6000      8.2611      2.5807      0.0358      4.1981    123.6641     24.7798
   729.7000      8.2611      2.5973      0.0115      3.1970    110.8820     24.7222
   729.8000      8.2610      2.6170      0.0288      1.9992    107.5545     24.6704
   729.9000      8.2610      2.6430      0.0147      0.4267    111.0811     24.5744
   730.0000      8.2607      2.6659      0.0745     -0.9665    111.6469     24.3908
   730.1000      8.2607      2.6758      0.0376     -1.5650    107.1711     24.2279
   730.2000      8.2607      2.6729      0.0676     -1.3849    104.6613     24.3149
   730.3000      8.2582      2.6586      0.0413     -0.5239    109.5036     24.5788
   730.4000      8.2582      2.6387     -0.0100      0.6826    115.9164     24.8322
   730.5000      8.2586      2.6207      0.0166      1.7773    115.3825     24.9791
