~Version Information
VERS.                      2.0: CWLS Log ASCII Standard - VERSION 2.0
WRAP.                       NO: One line per depth step
~Well Information Block
STRT.FT               390.0000: 
STOP.FT              2770.2500: 
STEP.FT                 0.2500: 
NULL.                -999.2500: 
COMP.          Pioneer Natural Resources: COMPANY
WELL.              Lynch 43-30: WELL
FLD.           Purgatoire River: FIELD
LOC.           1438' FSL & 429' FEL: LOCATION
PROV.                 Colorado: PROVINCE
CNTY.               Las Animas: COUNTRY
SRVC.                Patterson: SERVICE COMPANY
DATE.          Wed Oct 27 08:06:51 2004: LOG DATE
UWI.           05 071 08170 00: UNIQUE WELL ID
~Curve Information Block
DEPT.FT            0 000 00 00: Depth
DIR.Ohm-m                     : IEL Induction Resistivity
SN.Ohm-m                      : IEL Short Normal
SP.mV                         : IEL Spontaneous Potential
GR.GAPI                       : Gamma Ray
~Parameter Information Block
~A  Depth       DIR          SN          SP          GR     
# ...
   557.5000     20.0846   2000.0000   2000.0000    144.9250
   557.7500     19.4547   2000.0000   2000.0000    145.8216
   558.0000     18.8743   2000.0000   2000.0000    146.8772
   558.2500     18.3799   2000.0000   2000.0000    147.2151
   558.5000     17.9979   2000.0000   2000.0000    146.8884
   558.7500     17.7359   2000.0000   2000.0000    146.3946
   559.0000     17.5814   2000.0000   2000.0000    146.0240
   559.2500     17.5041   2000.0000   2000.0000    146.1468
   559.5000     17.4613   2000.0000   2000.0000    146.4667
   559.7500     17.4074   2000.0000   2000.0000    146.5135
   560.0000     17.3071   2000.0000   2000.0000    146.1420
   560.2500     17.1476   2000.0000   2000.0000    145.5039
   560.5000     16.9410   2000.0000   2000.0000    143.9928
   560.7500     16.7158   2000.0000   2000.0000    143.0137
   561.0000     16.5043   2000.0000   2000.0000    142.6225
   561.2500     16.3344   2000.0000   2000.0000    143.2166
   561.5000     16.2284   2000.0000   2000.0000    144.1156
   561.7500     16.2031   2000.0000   2000.0000    143.5762
   562.0000     16.2696   2000.0000   2000.0000    140.0440
   562.2500     16.4310   2000.0000   2000.0000    136.1884
   562.5000     16.6811   2000.0000   2000.0000    129.5244
   562.7500     17.0064   2000.0000   2000.0000    125.1720
   563.0000     17.3902   2000.0000   2000.0000    119.1170
   563.2500     17.8179   2000.0000   2000.0000    115.1057
   563.5000     18.2774   2000.0000   2000.0000    108.3459
   563.7500     18.7589   2000.0000   2000.0000    103.2179
   564.0000     19.2566   2000.0000   2000.0000     95.3410
   564.2500     19.7736   2000.0000   2000.0000     90.6349
   564.5000     20.3224   2000.0000   2000.0000     84.9786
   564.7500     20.9169   2000.0000   2000.0000     81.9767
   565.0000     21.5593   2000.0000   2000.0000     77.9065
   565.2500     22.2315   2000.0000   2000.0000     75.1915
   565.5000     22.9002   2000.0000   2000.0000     71.2461
   565.7500     23.5326   2000.0000   2000.0000     69.0780
   566.0000     24.1109   2000.0000   2000.0000     67.1193
   566.2500     24.6394   2000.0000   2000.0000     66.7193
   566.5000     25.1395   2000.0000   2000.0000     66.9442
   566.7500     25.6395   2000.0000   2000.0000     67.1830
   567.0000     26.1653   2000.0000   2000.0000     67.0663
   567.2500     26.7351   2000.0000   2000.0000     66.5277
   567.5000     27.3553   2000.0000   2000.0000     65.1543
   567.7500     28.0124   2000.0000   2000.0000     64.1396
   568.0000     28.6650   2000.0000   2000.0000     63.0805
   568.2500     29.2470   2000.0000   2000.0000     62.8681
   568.5000     29.6907   2000.0000   2000.0000     63.0497
   568.7500     29.9599   2000.0000   2000.0000     63.1808
   569.0000     30.0715   2000.0000   2000.0000     62.8536
   569.2500     30.0918   2000.0000   2000.0000     62.0094
   569.5000     30.1119   2000.0000   2000.0000     59.6012
   569.7500     30.2119   2000.0000   2000.0000     57.5303
   570.0000     30.4241   2000.0000   2000.0000     54.9538
   570.2500     30.7088   2000.0000   2000.0000     54.3073
   570.5000     30.9580   2000.0000   2000.0000     55.3746
   570.7500     31.0386   2000.0000   2000.0000     57.2158
   571.0000     30.8500   2000.0000   2000.0000     61.1695
   571.2500     30.3599   2000.0000   2000.0000     64.6461
   571.5000     29.5961   2000.0000   2000.0000     71.8047
   571.7500     28.6229   2000.0000   2000.0000     78.2238
   572.0000     27.5253   2000.0000   2000.0000     90.0830
   572.2500     26.4007   2000.0000   2000.0000     98.7383
   572.5000     25.3383   2000.0000   2000.0000    110.9207
   572.7500     24.3954   2000.0000   2000.0000    117.4270
   573.0000     23.5885   2000.0000   2000.0000    123.8971
   573.2500     22.9034   2000.0000   2000.0000    126.2758
   573.5000     22.3162   2000.0000   2000.0000    128.0661
   573.7500     21.8104   2000.0000   2000.0000    128.6606
   574.0000     21.3839   2000.0000   2000.0000    129.2466
   574.2500     21.0448   2000.0000   2000.0000    129.6044
   574.5000     20.8034   2000.0000   2000.0000    130.0930
   574.7500     20.6648   2000.0000   2000.0000    130.1728
   575.0000     20.6274   2000.0000   2000.0000    129.3841
   575.2500     20.6823   2000.0000   2000.0000    128.0653
   575.5000     20.8099   2000.0000   2000.0000    124.9536
   575.7500     20.9779   2000.0000   2000.0000    122.3101
   576.0000     21.1463   2000.0000   2000.0000    118.1240
   576.2500     21.2826   2000.0000   2000.0000    115.8038
   576.5000     21.3736   2000.0000   2000.0000    114.1564
   576.7500     21.4287   2000.0000   2000.0000    114.5797
   577.0000     21.4743   2000.0000   2000.0000    116.9412
   577.2500     21.5501   2000.0000   2000.0000    118.8664
   577.5000     21.7049   2000.0000   2000.0000    120.9246
   577.7500     21.9854   2000.0000   2000.0000    121.2683
   578.0000     22.4177   2000.0000   2000.0000    119.8100
   578.2500     22.9910   2000.0000   2000.0000    117.3809
   578.5000     23.6555   2000.0000   2000.0000    111.8757
   578.7500     24.3429   2000.0000   2000.0000    107.6421
   579.0000     24.9997   2000.0000   2000.0000    101.9085
   579.2500     25.6115   2000.0000   2000.0000     99.0318
   579.5000     26.1976   2000.0000   2000.0000     96.1627
   579.7500     26.7883   2000.0000   2000.0000     94.8686
   580.0000     27.4070   2000.0000   2000.0000     93.0517
   580.2500     28.0645   2000.0000   2000.0000     91.4630
   580.5000     28.7522   2000.0000   2000.0000     88.0210
   580.7500     29.4353   2000.0000   2000.0000     85.0435
   581.0000     30.0562   2000.0000   2000.0000     79.9811
   581.2500     30.5634   2000.0000   2000.0000     76.5148
   581.5000     30.9484   2000.0000   2000.0000     71.7611
   581.7500     31.2594   2000.0000   2000.0000     69.2518
   582.0000     31.5732   2000.0000   2000.0000     66.6921
   582.2500     31.9397   2000.0000   2000.0000     65.4799
   582.5000     32.3359   2000.0000   2000.0000     63.5804
   582.7500     32.6690   2000.0000   2000.0000     62.0840
   583.0000     32.8402   2000.0000   2000.0000     60.0098
   583.2500     32.8233   2000.0000   2000.0000     59.2329
   583.5000     32.6857   2000.0000   2000.0000     59.4634
   583.7500     32.5304   2000.0000   2000.0000     60.4586
   584.0000     32.4224   2000.0000   2000.0000     62.4863
   584.2500     32.3641   2000.0000   2000.0000     63.6658
   584.5000     32.3255   2000.0000   2000.0000     64.7684
   584.7500     32.2865   2000.0000   2000.0000     65.2852
   585.0000     32.2501   2000.0000   2000.0000     66.4276
   585.2500     32.2234   2000.0000   2000.0000     67.5882
   585.5000     32.1974   2000.0000   2000.0000     69.5909
   585.7500     32.1513   2000.0000   2000.0000     70.8122
   586.0000     32.0702   2000.0000   2000.0000     72.2967
   586.2500     31.9596   2000.0000   2000.0000     73.1808
   586.5000     31.8445   2000.0000   2000.0000     74.7235
   586.7500     31.7747   2000.0000   2000.0000     76.0091
   587.0000     31.8370   2000.0000   2000.0000     78.0167
   587.2500     32.1468   2000.0000   2000.0000     78.9707
   587.5000     32.7842   2000.0000   2000.0000     79.2291
   587.7500     33.6913   2000.0000   2000.0000     78.6602
   588.0000     34.6059   2000.0000   2000.0000     77.1586
   588.2500     35.1454   2000.0000   2000.0000     75.8063
   588.5000     35.0652   2000.0000   2000.0000     72.9548
   588.7500     34.4537   2000.0000   2000.0000     70.4091
   589.0000     33.6281   2000.0000   2000.0000     65.9209
   589.2500     32.8748   2000.0000   2000.0000     62.8442
   589.5000     32.3074   2000.0000   2000.0000     58.9264
   589.7500     31.8929   2000.0000   2000.0000     57.2654
   590.0000     31.5493   2000.0000   2000.0000     56.4581
   590.2500     31.2289   2000.0000   2000.0000     56.6977
   590.5000     30.9438   2000.0000   2000.0000     57.4358
   590.7500     30.7326   2000.0000   2000.0000     58.0826
