~Version Information
VERS.                      2.0: CWLS Log ASCII Standard - VERSION 2.0
WRAP.                       NO: One line per depth step
~Well Information Block
STRT.FT                -7.5000: 
STOP.FT              1545.0000: 
STEP.FT                 0.2500: 
NULL.                -999.2500: 
COMP.          Pioneer Natural Resources: COMPANY
WELL.          Kristin 22-23 Tr: WELL
FLD.           Purgatorie River: FIELD
LOC.           2273' FNL & 2029' FWL--: LOCATION
PROV.                       CO: PROVINCE
CNTY.               Las Animas: COUNTRY
SRVC.                         : SERVICE COMPANY
DATE.          Tue Jan 25 11:16:36 2005: LOG DATE
UWI.           071-08259      : UNIQUE WELL ID
~Curve Information Block
DEPT.FT            0 000 00 00: Depth
CCL.                          : Casing Collar Locator
TT3.usec                      : CBL 3' Travel Time
AMP3.mV                       : CBL 3' Amplitude
GR.GAPI                       : Gamma Ray
~Parameter Information Block
~A  Depth       CCL         TT3         AMP3         GR     
# ...
   997.5000      0.0000    686.6862      3.6088    109.9223
   997.7500      0.0000    686.4327      3.6081    110.4611
   998.0000      0.0000    686.3853      3.6048    110.9860
   998.2500      0.0000    686.3870      3.5862    111.4052
   998.5000      0.0000    685.9365      3.5715    111.7043
   998.7500      0.0000    684.0674      3.5974    111.9661
   999.0000      0.0000    679.6444      3.6801    111.8993
   999.2500      0.0000    672.4926      3.7983    110.9544
   999.5000      0.0000    664.7310      3.9091    109.4001
   999.7500      0.0000    660.3062      3.9773    108.5824
  1000.0000      0.0000    662.0155      3.9915    109.4576
  1000.2500      0.0000    668.8337      3.9566    111.2527
  1000.5000      0.0000    676.7537      3.8767    112.1603
  1000.7500      0.0000    681.9052      3.7580    111.3511
  1001.0000      0.0000    682.5560      3.6318    109.9400
  1001.2500      0.0000    679.0461      3.5536    109.7283
  1001.5000      0.0000    672.9119      3.5514    111.0904
  1001.7500      0.0000    665.7991      3.5867    112.4081
  1002.0000      0.0000    658.5797      3.5994    111.6503
  1002.2500      0.0000    651.6422      3.5811    108.4161
  1002.5000      0.0000    645.8787      3.5784    104.3554
  1002.7500      0.0000    642.5654      3.6320    101.7459
  1003.0000     -2.0000    642.3510      3.7386    101.7799
  1003.2500     -2.0000    645.3201      3.8615    103.9364
  1003.5000      0.0000    652.0182      3.9622    106.5883
  1003.7500      0.0000    662.9988      4.0258    108.2232
  1004.0000      0.0000    676.7008      4.0609    108.4047
  1004.2500      0.0000    688.7010      4.0761    107.6854
  1004.5000      0.0000    693.7786      4.0694    106.6375
  1004.7500      0.0000    688.5564      4.0484    105.1406
  1005.0000      0.0000    672.6320      4.0420    102.6976
  1005.2500      0.0000    648.3798      4.0763     99.3315
  1005.5000      0.0000    620.2047      4.1537     96.0496
  1005.7500      0.0000    593.0407      4.2584     94.4083
  1006.0000      0.0000    570.5242      4.3647     95.5433
  1006.2500      0.0000    554.1122      4.4362     99.4854
  1006.5000      0.0000    543.3304      4.4428    105.1620
  1006.7500      0.0000    536.6519      4.3936    110.8879
  1007.0000      0.0000    532.7418      4.3431    115.1163
  1007.2500      0.0000    531.2301      4.3473    117.1476
  1007.5000      0.0000    532.1973      4.4177    117.2814
  1007.7500      0.0000    535.3567      4.5250    116.1599
  1008.0000      0.0000    540.2399      4.6394    113.9777
  1008.2500      0.0000    546.9167      4.7501    110.5293
  1008.5000      0.0000    555.8832      4.8423    106.0669
  1008.7500      0.0000    566.8520      4.8774    101.6365
  1009.0000      0.0000    577.6400      4.8140     98.0859
  1009.2500      0.0000    585.0329      4.6505     95.0252
  1009.5000      0.0000    587.6144      4.4476     91.5788
  1009.7500      0.0000    587.4365      4.3010     88.0989
  1010.0000      0.0000    588.5747      4.2773     86.2064
  1010.2500      0.0000    594.6953      4.3692     86.9302
  1010.5000      0.0000    607.6965      4.5129     89.5392
  1010.7500      0.0000    626.8416      4.6451     92.4719
  1011.0000      0.0000    648.4063      4.7397     94.9597
  1011.2500      0.0000    667.3625      4.7955     97.4443
  1011.5000      0.0000    680.4161      4.8098    100.5686
  1011.7500      0.0000    687.4218      4.7760    103.8740
  1012.0000      0.0000    690.0040      4.7019    105.5899
  1012.2500      0.0000    689.2556      4.6211    103.9715
  1012.5000      0.0000    684.4289      4.5762     98.8980
  1012.7500      0.0000    673.3084      4.5824     91.9412
  1013.0000      0.0000    654.3288      4.6120     85.0774
  1013.2500      0.0000    629.3649      4.6176     79.8510
  1013.5000      0.0000    604.5471      4.5767     77.5518
  1013.7500      0.0000    587.1246      4.5110     79.0525
  1014.0000      0.0000    580.2692      4.4612     83.9302
  1014.2500      0.0000    580.5260      4.4417     90.3955
  1014.5000      0.0000    580.7991      4.4256     96.5590
  1014.7500      0.0000    576.3856      4.3790    101.3741
  1015.0000      0.0000    568.0796      4.3065    104.3776
  1015.2500      0.0000    559.7097      4.2542    105.2436
  1015.5000      0.0000    553.9398      4.2651    103.9570
  1015.7500      0.0000    550.8951      4.3400    101.1396
  1016.0000      0.0000    549.4830      4.4379     97.8438
  1016.2500      0.0000    548.8778      4.5067     94.6763
  1016.5000      0.0000    549.1171      4.5154     91.0963
  1016.7500      0.0000    551.2955      4.4685     86.0447
  1017.0000      0.0000    557.4885      4.3926     79.4986
  1017.2500      0.0000    569.6553      4.3096     73.0711
  1017.5000      0.0000    587.4621      4.2300     68.7475
  1017.7500      0.0000    606.9095      4.1690     67.1180
  1018.0000      0.0000    622.1046      4.1483     66.9949
  1018.2500      0.0000    629.5093      4.1742     66.6819
  1018.5000      0.0000    630.8447      4.2254     65.3989
  1018.7500      0.0000    631.5446      4.2744     63.4925
  1019.0000      0.0000    635.5963      4.3205     61.6935
  1019.2500      0.0000    641.6342      4.3883     60.3949
  1019.5000      0.0000    644.4445      4.4892     59.4187
  1019.7500      0.0000    639.8956      4.5907     58.3155
  1020.0000      0.0000    627.5941      4.6362     56.9372
  1020.2500      0.0000    609.8769      4.5953     55.6533
  1020.5000      0.0000    590.3232      4.4936     54.9838
  1020.7500      0.0000    572.9320      4.3915     55.1930
  1021.0000      0.0000    560.6409      4.3354     56.1946
  1021.2500      0.0000    553.9056      4.3277     57.5761
  1021.5000      0.0000    551.1232      4.3398     58.7405
  1021.7500      0.0000    550.3004      4.3501     59.4207
  1022.0000      0.0000    550.1482      4.3638     60.1008
  1022.2500      0.0000    550.1227      4.3967     61.5272
  1022.5000      0.0000    550.0569      4.4525     63.6806
  1022.7500      0.0000    549.9165      4.5220     65.6872
  1023.0000      0.0000    549.7034      4.5979     66.8504
  1023.2500      0.0000    549.4334      4.6794     67.1872
  1023.5000      0.0000    549.1012      4.7555     66.8766
  1023.7500      0.0000    548.6807      4.7911     65.9205
  1024.0000      0.0000    548.1677      4.7475     64.6113
  1024.2500      0.0000    547.6197      4.6262     63.8335
  1024.5000      0.0000    547.1438      4.4826     64.5498
  1024.7500      0.0000    546.8434      4.3859     66.9684
  1025.0000      0.0000    546.7640      4.3677     70.1241
  1025.2500      0.0000    546.8723      4.4106     72.4209
  1025.5000      0.0000    547.0781      4.4756     72.7892
  1025.7500      0.0000    547.2890      4.5276     71.2141
  1026.0000      0.0000    547.4577      4.5457     68.2546
  1026.2500      0.0000    547.5916      4.5282     64.6720
  1026.5000      0.0000    547.7422      4.4904     61.5804
  1026.7500      0.0000    548.0795      4.4477     60.2124
  1027.0000      0.0000    549.1340      4.3982     61.1105
  1027.2500      0.0000    552.1783      4.3368     63.7291
  1027.5000      0.0000    559.2944      4.2818     66.8984
  1027.7500      0.0000    572.3596      4.2672     69.5895
  1028.0000      0.0000    590.8704      4.3035     71.4450
  1028.2500      0.0000    610.3415      4.3591     72.8575
  1028.5000      0.0000    623.2305      4.3921     74.5293
  1028.7500      0.0000    622.0677      4.3934     76.9256
  1029.0000      0.0000    603.1465      4.3884     80.0408
  1029.2500      0.0000    569.7826      4.3952     83.2483
  1029.5000      0.0000    533.3988      4.3998     85.2061
  1029.7500      0.0000    509.5463      4.3797     84.5722
  1030.0000      0.0000    509.4368      4.3438     81.3505
  1030.2500      0.0000    532.7543      4.3333     77.1436
  1030.5000      0.0000    567.5432      4.3795     73.6129
  1030.7500      0.0000    597.7577      4.4658     70.9900
