~Version Information
VERS.                      2.0: CWLS Log ASCII Standard - VERSION 2.0
WRAP.                       NO: One line per depth step
~Well Information Block
STRT.FT               930.0000: 
STOP.FT              2783.2000: 
STEP.FT                 0.1000: 
NULL.                -999.2500: 
COMP.          Pioneer Natural Resources: COMPANY
WELL.           Desoto 13-7TR: WELL
FLD.           Purgatoire River: FIELD
LOC.           1404' FSL & 1115' FWL: LOCATION
PROV.                 Colorado: PROVINCE
CNTY.               Las Animas: COUNTRY
SRVC.                Patterson: SERVICE COMPANY
DATE.          Fri Jan 14 14:42:18 2005: LOG DATE
UWI.           05 071 08216 00: UNIQUE WELL ID
~Curve Information Block
DEPT.FT            0 000 00 00: Depth
DCAL.in                       : CDL Caliper
RHOB.g/cc                     : CDL Bulk Density
RHOC.g/cc                     : CDL Density Correction
DPOR.pu                       : CDL Density Porosity
NPOR.pu                       : Neutron Porosity
GR.GAPI                       : Gamma Ray
~Parameter Information Block
~A  Depth       DCAL        RHOB        RHOC        DPOR        NPOR         GR     
# ...
  2754.0000      7.8418      2.5953      0.1002      3.3151     24.9215   -999.2500
  2754.1000      7.8418      2.6149      0.0784      2.1262     25.4405   -999.2500
  2754.2000      7.8418      2.6182      0.0853      1.9251     24.3448   -999.2500
  2754.3000      7.8424      2.6181      0.1162      1.9331     22.1809   -999.2500
  2754.4000      7.8424      2.6157      0.0933      2.0766     20.9524   -999.2500
  2754.5000      7.8405      2.6156      0.0814      2.0862     20.9434   -999.2500
  2754.6000      7.8405      2.6210      0.0941      1.7553     21.2090   -999.2500
  2754.7000      7.8405      2.6254      0.0242      1.4920     21.3163   -999.2500
  2754.8000      7.8394      2.6240      0.0540      1.5773     21.1399   -999.2500
  2754.9000      7.8394      2.6126      0.0654      2.2661     21.0320   -999.2500
  2755.0000      7.8422      2.5947      0.0565      3.3508     21.5332   -999.2500
  2755.1000      7.8422      2.5829      0.0286      4.0688     22.3061   -999.2500
  2755.2000      7.8422      2.5786      0.0601      4.3253     22.8809   -999.2500
  2755.3000      7.8449      2.5696      0.0207      4.8749     23.1541   -999.2500
  2755.4000      7.8449      2.5475      0.0047      6.2123     23.1613   -999.2500
  2755.5000      7.8459      2.5227     -0.0027      7.7168     23.0436   -999.2500
  2755.6000      7.8459      2.5067      0.0247      8.6846     22.9304   -999.2500
  2755.7000      7.8459      2.4994      0.0033      9.1275     23.1557   -999.2500
  2755.8000      7.8468      2.5036     -0.0111      8.8744     23.7379   -999.2500
  2755.9000      7.8468      2.5182      0.0416      7.9865     24.1604   -999.2500
  2756.0000      7.8470      2.5257      0.0474      7.5317     24.1315   -999.2500
  2756.1000      7.8470      2.5131      0.0055      8.2956     23.8482   -999.2500
  2756.2000      7.8470      2.4946     -0.0147      9.4156     23.3723   -999.2500
  2756.3000      7.8465      2.4936      0.0071      9.4764     22.8865   -999.2500
  2756.4000      7.8465      2.5114      0.0152      8.4003     24.5070   -999.2500
  2756.5000      7.8430      2.5323      0.0518      7.1320     31.6727   -999.2500
  2756.6000      7.8430      2.5513      0.0350      5.9817     42.7932   -999.2500
  2756.7000      7.8430      2.5725      0.0452      4.6986     50.5562   -999.2500
  2756.8000      7.8382      2.5912      0.0662      3.5626     53.2931   -999.2500
  2756.9000      7.8382      2.6017      0.0795      2.9297     53.8243   -999.2500
  2757.0000      7.8397      2.6079      0.0687      2.5486     53.8804   -999.2500
  2757.1000      7.8397      2.6166      0.0623      2.0247     53.8836   -999.2500
  2757.2000      7.8397      2.6200      0.1047      1.8163   -999.2500   -999.2500
  2757.3000      7.8434      2.6028      0.0958      2.8584   -999.2500   -999.2500
  2757.4000      7.8434      2.5783      0.0017      4.3464   -999.2500   -999.2500
  2757.5000      7.8447      2.5772      0.0146      4.4105   -999.2500   -999.2500
  2757.6000      7.8447      2.5957      0.0448      3.2924   -999.2500   -999.2500
  2757.7000      7.8447      2.6091      0.0603      2.4767   -999.2500   -999.2500
  2757.8000      7.8446      2.6093      0.0588      2.4670   -999.2500   -999.2500
  2757.9000      7.8446      2.5936      0.0983      3.4185   -999.2500   -999.2500
  2758.0000      7.8431      2.5637      0.0366      5.2273   -999.2500   -999.2500
  2758.1000      7.8431      2.5370      0.0263      6.8472   -999.2500   -999.2500
  2758.2000      7.8431      2.5273     -0.0091      7.4371   -999.2500   -999.2500
  2758.3000      7.8417      2.5292      0.0185      7.3217   -999.2500   -999.2500
  2758.4000      7.8417      2.5328      0.0054      7.1044   -999.2500   -999.2500
  2758.5000      7.8420      2.5394      0.0466      6.7028   -999.2500   -999.2500
  2758.6000      7.8420      2.5462      0.0730      6.2895   -999.2500   -999.2500
  2758.7000      7.8420      2.5438      0.0345      6.4346   -999.2500   -999.2500
  2758.8000      7.8430      2.5389      0.0111      6.7359   -999.2500   -999.2500
  2758.9000      7.8430      2.5423      0.0573      6.5298   -999.2500   -999.2500
  2759.0000      7.8419      2.5484      0.0515      6.1589   -999.2500   -999.2500
  2759.1000      7.8419      2.5496      0.0586      6.0841   -999.2500   -999.2500
  2759.2000      7.8419      2.5428      0.0839      6.4952   -999.2500   -999.2500
  2759.3000      7.8395      2.5288      0.0250      7.3425   -999.2500   -999.2500
  2759.4000      7.8395      2.5163      0.0440      8.1043   -999.2500   -999.2500
  2759.5000      7.8383      2.5081      0.0700      8.6022   -999.2500   -999.2500
  2759.6000      7.8383      2.4984      0.0494      9.1875   -999.2500   -999.2500
  2759.7000      7.8383      2.4870     -0.0042      9.8777   -999.2500   -999.2500
  2759.8000      7.8371      2.4762      0.0407     10.5326   -999.2500   -999.2500
  2759.9000      7.8371      2.4623      0.0389     11.3787   -999.2500   -999.2500
  2760.0000      7.8334      2.4506     -0.0066     12.0851   -999.2500   -999.2500
  2760.1000      7.8334      2.4582     -0.0132     11.6231   -999.2500   -999.2500
  2760.2000      7.8334      2.4834      0.0455     10.0962   -999.2500   -999.2500
  2760.3000      7.8248      2.5039      0.0702      8.8576   -999.2500   -999.2500
  2760.4000      7.8248      2.5136      0.0534      8.2652   -999.2500   -999.2500
  2760.5000      7.8162      2.5214      0.0578      7.7968   -999.2500   -999.2500
  2760.6000      7.8162      2.5223      0.0696      7.7402   -999.2500   -999.2500
  2760.7000      7.8162      2.5061      0.0696      8.7185   -999.2500   -999.2500
  2760.8000      7.8135      2.4756      0.0261     10.5678   -999.2500   -999.2500
  2760.9000      7.8135      2.4481     -0.0009     12.2393   -999.2500   -999.2500
  2761.0000      7.8153      2.4413      0.0033     12.6511   -999.2500   -999.2500
  2761.1000      7.8153      2.4606      0.0194     11.4788   -999.2500   -999.2500
  2761.2000      7.8153      2.4951      0.0430      9.3894   -999.2500   -999.2500
  2761.3000      7.8213      2.5193      0.0614      7.9188   -999.2500   -999.2500
  2761.4000      7.8213      2.5149      0.0555      8.1859   -999.2500   -999.2500
  2761.5000      7.8306      2.4913      0.0361      9.6209   -999.2500   -999.2500
  2761.6000      7.8306      2.4688      0.0215     10.9835   -999.2500   -999.2500
  2761.7000      7.8306      2.4538      0.0090     11.8882   -999.2500   -999.2500
  2761.8000      7.8326      2.4479     -0.0019     12.2486   -999.2500   -999.2500
  2761.9000      7.8326      2.4539      0.0331     11.8825   -999.2500   -999.2500
  2762.0000      7.8249      2.4651      0.0173     11.2066   -999.2500   -999.2500
  2762.1000      7.8249      2.4683      0.0499     11.0126   -999.2500   -999.2500
  2762.2000      7.8249      2.4565      0.0708     11.7274   -999.2500   -999.2500
  2762.3000      7.8156      2.4373      0.0118     12.8904   -999.2500   -999.2500
  2762.4000      7.8156      2.4210      0.0278     13.8768   -999.2500   -999.2500
  2762.5000      7.8046      2.4074      0.0231     14.7056   -999.2500   -999.2500
  2762.6000      7.8046      2.4021      0.0075     15.0257   -999.2500   -999.2500
  2762.7000      7.8046      2.4168      0.0223     14.1336   -999.2500   -999.2500
  2762.8000      7.7952      2.4443      0.0639     12.4654   -999.2500   -999.2500
  2762.9000      7.7952      2.4667      0.0597     11.1116   -999.2500   -999.2500
  2763.0000      7.7910      2.4799      0.0592     10.3109   -999.2500   -999.2500
  2763.1000      7.7910      2.4945      0.0594      9.4226   -999.2500   -999.2500
  2763.2000      7.7910      2.5163      0.0934      8.1037   -999.2500   -999.2500
  2763.3000      7.7888      2.5330      0.1231      7.0929   -999.2500   -999.2500
  2763.4000      7.7888      2.5361      0.0807      6.9006   -999.2500   -999.2500
  2763.5000      7.7842      2.5325      0.1219      7.1230   -999.2500   -999.2500
