~Version Information
VERS.                      2.0: CWLS Log ASCII Standard - VERSION 2.0
WRAP.                       NO: One line per depth step
~Well Information Block
STRT.FT               491.0000: 
STOP.FT              1056.0000: 
STEP.FT                 0.2500: 
NULL.                -999.2500: 
COMP.          Evergreen Operating Corporation: COMPANY
WELL.              Sunset 24-3: WELL
FLD.           Purgatorie River: FIELD
LOC.           467' FSL & 2262' FWL: LOCATION
PROV.                 Colorado: PROVINCE
CNTY.               Las Animas: COUNTRY
SRVC.                         : SERVICE COMPANY
DATE.          Wed Sep 22 11:23:45 2004: LOG DATE
UWI.           05 071 08158 00: UNIQUE WELL ID
~Curve Information Block
DEPT.FT            0 000 00 00: Depth
SN.Ohm-m                      : IEL Short Normal
SP.mV                         : IEL Spontaneous Potential
DIR.Ohm-m                     : IEL Induction Resistivity
GR.GAPI                       : Gamma Ray
~Parameter Information Block
~A  Depth        SN          SP         DIR          GR     
# ...
   893.0000     21.6700      3.6369     23.8498     85.8258
   893.2500     21.5501      3.4159     23.5928     86.8367
   893.5000     21.4905      3.1463     23.3034     89.0304
   893.7500     21.4746      2.8416     22.9965     90.4552
   894.0000     21.4889      2.5196     22.7163     90.9461
   894.2500     21.5227      2.2000     22.5141     89.4735
   894.5000     21.5671      1.9025     22.4206     84.7400
   894.7500     21.6141      1.6442     22.4292     80.7356
   895.0000     21.6558      1.4375     22.5007     75.2584
   895.2500     21.6853      1.2885     22.5861     72.7822
   895.5000     21.6978      1.1966     22.6502     71.3893
   895.7500     21.6899      1.1552     22.6828     71.7466
   896.0000     21.6599      1.1525     22.6897     72.9719
   896.2500     21.6077      1.1743     22.6771     73.5122
   896.5000     21.5355      1.2056     22.6396     73.5412
   896.7500     21.4477      1.2333     22.5599     73.3117
   897.0000     21.3506      1.2478     22.4165     72.9253
   897.2500     21.2498      1.2441     22.1956     72.4829
   897.5000     21.1480      1.2225     21.9009     71.2450
   897.7500     21.0444      1.1882     21.5555     70.1717
   898.0000     20.9358      1.1504     21.1968     68.8171
   898.2500     20.8191      1.1207     20.8627     68.4165
   898.5000     20.6934      1.1112     20.5807     68.7332
   898.7500     20.5602      1.1322     20.3643     69.3855
   899.0000     20.4218      1.1906     20.2177     70.6653
   899.2500     20.2797      1.2888     20.1375     71.7515
   899.5000     20.1349      1.4240     20.1068     74.2383
   899.7500     19.9896      1.5898     20.0896     76.6871
   900.0000     19.8498      1.7763     20.0396     81.1086
   900.2500     19.7256      1.9727     19.9258     83.8465
   900.5000     19.6289      2.1682     19.7540     86.4392
   900.7500     19.5702      2.3537     19.5616     86.8958
   901.0000     19.5550      2.5222     19.3921     86.1721
   901.2500     19.5833      2.6697     19.2717     85.4117
   901.5000     19.6507      2.7952     19.2045     84.9059
   901.7500     19.7508      2.9010     19.1800     85.2077
   902.0000     19.8765      2.9923     19.1851     86.3711
   902.2500     20.0193      3.0764     19.2116     87.5255
   902.5000     20.1682      3.1620     19.2576     90.0421
   902.7500     20.3093      3.2571     19.3228     92.2761
   903.0000     20.4271      3.3680     19.4037     95.9366
   903.2500     20.5078      3.4977     19.4946     98.1470
   903.5000     20.5435      3.6462     19.5949    100.5056
   903.7500     20.5344      3.8102     19.7135    101.1339
   904.0000     20.4907      3.9841     19.8639    100.4915
   904.2500     20.4308      4.1611     20.0539     99.4340
   904.5000     20.3786      4.3340     20.2780     98.2866
   904.7500     20.3592      4.4954     20.5193     98.3412
   905.0000     20.3940      4.6387     20.7564     99.3351
   905.2500     20.4957      4.7580     20.9692     99.9655
   905.5000     20.6672      4.8493     21.1430     99.9277
   905.7500     20.9024      4.9112     21.2718     98.9749
   906.0000     21.1889      4.9462     21.3635     95.9036
   906.2500     21.5092      4.9616     21.4422     92.6506
   906.5000     21.8393      4.9690     21.5425     86.1219
   906.7500     22.1503      4.9841     21.6987     81.1294
   907.0000     22.4138      5.0240     21.9347     74.0760
   907.2500     22.6104      5.1051     22.2576     70.5913
   907.5000     22.7359      5.2399     22.6555     68.1899
   907.7500     22.8017      5.4353     23.0966     68.3194
   908.0000     22.8289      5.6909     23.5311     69.7096
   908.2500     22.8415      5.9992     23.8993     70.5029
   908.5000     22.8596      6.3466     24.1484     70.6655
   908.7500     22.8956      6.7152     24.2481     70.1590
   909.0000     22.9527      7.0845     24.1984     69.1575
   909.2500     23.0264      7.4336     24.0276     68.7716
   909.5000     23.1065      7.7428     23.7815     68.9380
   909.7500     23.1782      7.9946     23.5076     69.3385
   910.0000     23.2226      8.1752     23.2357     69.6878
   910.2500     23.2175      8.2750     22.9666     69.5615
   910.5000     23.1411      8.2897     22.6782     69.1642
   910.7500     22.9779      8.2208     22.3477     69.0875
   911.0000     22.7246      8.0754     21.9761     69.4839
   911.2500     22.3938      7.8662     21.5948     70.0188
   911.5000     22.0125      7.6096     21.2505     71.1654
   911.7500     21.6176      7.3245     20.9815     72.3516
   912.0000     21.2475      7.0295     20.8030     75.3922
   912.2500     20.9346      6.7415     20.7062     78.4657
   912.5000     20.7000      6.4736     20.6694     84.0398
   912.7500     20.5542      6.2352     20.6702     87.3961
   913.0000     20.5024      6.0310     20.6939     89.7464
   913.2500     20.5491      5.8620     20.7359     88.7069
   913.5000     20.6967      5.7258     20.7994     83.6331
   913.7500     20.9406      5.6180     20.8917     79.1734
   914.0000     21.2648      5.5325     21.0194     73.4909
   914.2500     21.6417      5.4626     21.1870     71.2495
   914.5000     22.0389      5.4024     21.3975     69.8905
   914.7500     22.4270      5.3470     21.6585     69.5127
   915.0000     22.7853      5.2943     21.9845     68.6660
   915.2500     23.1045      5.2444     22.3902     67.9048
   915.5000     23.3867      5.2007     22.8739     67.3179
   915.7500     23.6408      5.1690     23.4027     67.8568
   916.0000     23.8777      5.1565     23.9173     70.3694
   916.2500     24.1050      5.1707     24.3571     72.8831
   916.5000     24.3257      5.2177     24.6892     76.8318
   916.7500     24.5400      5.3012     24.9150     78.8331
   917.0000     24.7482      5.4211     25.0541     79.9054
   917.2500     24.9509      5.5739     25.1260     79.2521
   917.5000     25.1474      5.7522     25.1442     77.1685
   917.7500     25.3324      5.9458     25.1218     75.9585
   918.0000     25.4939      6.1426     25.0754     75.4422
   918.2500     25.6140      6.3300     25.0228     75.7258
   918.5000     25.6723      6.4954     24.9758     75.5937
   918.7500     25.6510      6.6276     24.9316     74.4986
   919.0000     25.5408      6.7170     24.8703     71.8037
   919.2500     25.3441      6.7563     24.7632     70.1361
   919.5000     25.0761      6.7408     24.5863     68.7997
   919.7500     24.7610      6.6692     24.3343     68.6927
   920.0000     24.4262      6.5437     24.0239     69.3103
   920.2500     24.0963      6.3707     23.6853     70.0932
   920.5000     23.7895      6.1602     23.3499     71.6922
   920.7500     23.5173      5.9254     23.0410     72.8716
   921.0000     23.2859      5.6810     22.7736     74.3200
   921.2500     23.0984      5.4417     22.5561     74.8665
   921.5000     22.9553      5.2207     22.3924     75.2017
   921.7500     22.8560      5.0278     22.2811     75.4265
   922.0000     22.7996      4.8688     22.2142     76.1283
   922.2500     22.7850      4.7453     22.1783     76.6819
   922.5000     22.8101      4.6548     22.1600     77.0119
   922.7500     22.8699      4.5917     22.1520     76.7251
   923.0000     22.9563      4.5483     22.1555     75.8166
   923.2500     23.0587      4.5163     22.1753     75.1382
   923.5000     23.1650      4.4876     22.2126     74.0490
   923.7500     23.2631      4.4560     22.2603     73.1057
   924.0000     23.3414      4.4181     22.3071     71.3288
   924.2500     23.3911      4.3738     22.3467     70.2778
   924.5000     23.4096      4.3268     22.3851     69.8518
   924.7500     23.4029      4.2841     22.4390     70.4966
   925.0000     23.3840      4.2548     22.5237     72.0148
   925.2500     23.3679      4.2484     22.6382     72.6953
   925.5000     23.3643      4.2732     22.7580     72.7256
   925.7500     23.3747      4.3342     22.8407     72.3000
   926.0000     23.3937      4.4325     22.8434     71.7579
   926.2500     23.4136      4.5649     22.7418     71.8030
