~Version Information
VERS.                      2.0: CWLS Log ASCII Standard - VERSION 2.0
WRAP.                       NO: One line per depth step
~Well Information Block
STRT.FT               -10.0000: 
STOP.FT              2544.2500: 
STEP.FT                 0.2500: 
NULL.                -999.2500: 
COMP.          Pioneer Natural Resources: COMPANY
WELL.            Cortina 23-25: WELL
FLD.           Purgatorie River: FIELD
LOC.           2344' FWL  & 2526' FSL------: LOCATION
PROV.                       CO: PROVINCE
CNTY.               Las Animas: COUNTRY
SRVC.          Patterson Wireline: SERVICE COMPANY
DATE.          Fri Apr 01 11:50:55 2005: LOG DATE
UWI.           05 071 08340 00: UNIQUE WELL ID
~Curve Information Block
DEPT.FT            0 000 00 00: Depth
CCL.                          : Casing Collar Locator
TT3.usec                      : CBL 3' Travel Time
AMP3.mV                       : CBL 3' Amplitude
GR.GAPI                       : Gamma Ray
~Parameter Information Block
~A  Depth       CCL         TT3         AMP3         GR     
# ...
  1665.0000      0.0000    793.1606      7.4128    151.8059
  1665.2500      0.0000    789.6725      7.5582    158.6216
  1665.5000      0.0000    780.0671      7.6631    160.9718
  1665.7500      0.0000    764.2678      7.6969    158.8177
  1666.0000      0.0000    743.8947      7.6648    154.5561
  1666.2500      0.0000    721.0175      7.5940    150.6015
  1666.5000      0.0000    696.6696      7.5100    147.9866
  1666.7500      0.0000    671.3611      7.4358    146.9091
  1667.0000      0.0000    647.5749      7.4062    147.4108
  1667.2500      0.0000    630.8245      7.4581    149.0021
  1667.5000      0.0000    626.0044      7.5990    150.3603
  1667.7500      0.0000    631.2688      7.7980    150.1527
  1668.0000      0.0000    637.0468      8.0142    148.1110
  1668.2500      0.0000    633.9506      8.2298    145.0893
  1668.5000      0.0000    622.0961      8.4531    142.5416
  1668.7500      0.0000    611.2885      8.6998    142.1049
  1669.0000      0.0000    612.2195      8.9791    144.7802
  1669.2500      0.0000    628.1858      9.2855    149.8386
  1669.5000      0.0000    653.7979      9.5896    154.8302
  1669.7500      0.0000    679.7098      9.8484    156.9205
  1670.0000      0.0000    699.1097     10.0459    154.4880
  1670.2500      0.0000    711.7578     10.2170    148.1834
  1670.5000      0.0000    723.0914     10.3927    140.9332
  1670.7500      0.0000    739.0531     10.5113    136.3411
  1671.0000      0.0000    760.5082     10.4359    136.0531
  1671.2500      0.0000    782.0333     10.0987    138.0156
  1671.5000      0.0000    796.6865      9.6000    137.4701
  1671.7500      0.0000    802.4921      9.1329    130.4994
  1672.0000      0.0000    803.8585      8.8321    117.3499
  1672.2500      2.0000    806.4076      8.7103    102.3051
  1672.5000      2.0000    811.2060      8.7009     90.3182
  1672.7500      0.0000    814.3077      8.7392     83.8492
  1673.0000      0.0000    810.9005      8.8173     82.4008
  1673.2500      0.0000    799.9230      8.9634     84.0687
  1673.5000      0.0000    785.9173      9.1670     87.0691
  1673.7500      0.0000    776.1067      9.3700     90.3736
  1674.0000      0.0000    774.1066      9.5655     93.7614
  1674.2500      0.0000    776.4358      9.8369     97.2800
  1674.5000      0.0000    776.1000     10.2344    100.2985
  1674.7500      0.0000    769.2616     10.6573    101.5095
  1675.0000      0.0000    757.7631     10.9174    100.4394
  1675.2500      0.0000    746.1191     10.8967     98.5323
  1675.5000      0.0000    737.3383     10.6175     98.0738
  1675.7500      0.0000    731.4822     10.1922    100.1153
  1676.0000      0.0000    727.1834      9.7336    103.6617
  1676.2500      0.0000    723.6557      9.3036    106.6156
  1676.5000      0.0000    721.0693      8.9146    107.4299
  1676.7500      0.0000    719.6710      8.5601    106.3328
  1677.0000      0.0000    719.2153      8.2478    105.2934
  1677.2500      0.0000    719.2073      8.0132    106.4964
  1677.5000      0.0000    719.3447      7.8958    110.6844
  1677.7500      0.0000    719.6851      7.8888    117.1272
  1678.0000      0.0000    720.5469      7.9262    124.7911
  1678.2500      0.0000    722.2263      7.9286    132.9378
  1678.5000      0.0000    724.5256      7.8565    140.8858
  1678.7500      0.0000    726.2994      7.7155    147.9935
  1679.0000      0.0000    725.5329      7.5342    154.0414
  1679.2500      0.0000    720.0869      7.3501    159.1811
  1679.5000      0.0000    708.4360      7.1917    163.1570
  1679.7500      0.0000    690.2254      7.0588    164.6537
  1680.0000      0.0000    667.2781      6.9301    161.9216
  1680.2500      0.0000    644.6531      6.7980    154.3604
  1680.5000      0.0000    629.8405      6.6857    143.3964
  1680.7500      0.0000    629.2183      6.6277    131.8190
  1681.0000      0.0000    643.9167      6.6428    122.2939
  1681.2500      0.0000    668.7320      6.7180    116.0811
  1681.5000      0.0000    695.4427      6.8063    112.7094
  1681.7500      0.0000    717.4518      6.8518    110.7701
  1682.0000      0.0000    731.8799      6.8364    109.0610
  1682.2500      0.0000    739.0654      6.8016    107.0662
  1682.5000      0.0000    741.6210      6.8085    104.6055
  1682.7500      0.0000    743.1309      6.8786    101.5107
  1683.0000      0.0000    745.9213      6.9826     97.8792
  1683.2500      0.0000    749.6075      7.0767     94.3214
  1683.5000      0.0000    752.1868      7.1320     91.5789
  1683.7500      0.0000    752.4279      7.1414     89.8982
  1684.0000      0.0000    751.1690      7.1202     88.9530
  1684.2500      0.0000    750.8472      7.1017     88.4508
  1684.5000      0.0000    753.8973      7.1142     88.8467
  1684.7500      0.0000    760.9395      7.1544     91.3223
  1685.0000      0.0000    769.8568      7.1944     96.8461
  1685.2500      0.0000    776.6506      7.2153    105.1620
  1685.5000      0.0000    777.8184      7.2236    114.5640
  1685.7500      0.0000    772.5785      7.2313    122.5666
  1686.0000      0.0000    763.1738      7.2331    127.1002
  1686.2500      0.0000    752.8937      7.2110    127.6014
  1686.5000      0.0000    743.5647      7.1594    125.1778
  1686.7500      0.0000    734.8791      7.0937    121.7397
  1687.0000      0.0000    725.6275      7.0346    119.0332
  1687.2500      0.0000    714.3506      6.9925    118.2289
  1687.5000      0.0000    698.5401      6.9602    119.7542
  1687.7500      0.0000    674.8723      6.9211    123.2166
  1688.0000      0.0000    642.4402      6.8690    127.7815
  1688.2500      0.0000    606.3812      6.8229    132.7799
  1688.5000      0.0000    577.5417      6.8102    137.9373
  1688.7500      0.0000    567.6675      6.8305    143.2052
  1689.0000      0.0000    583.4370      6.8436    148.5061
  1689.2500      0.0000    622.2621      6.8096    153.3557
  1689.5000      0.0000    671.9221      6.7359    156.4841
  1689.7500      0.0000    715.8811      6.6660    156.3439
  1690.0000      0.0000    742.1691      6.6272    152.6150
  1690.2500      0.0000    749.1417      6.6148    146.9909
  1690.5000      0.0000    744.0482      6.6114    141.9981
  1690.7500      0.0000    736.8497      6.5905    139.1361
  1691.0000      0.0000    734.4337      6.5335    138.2011
  1691.2500      0.0000    738.4044      6.4757    137.7519
  1691.5000      0.0000    746.6259      6.4951    135.7206
  1691.7500      0.0000    756.2369      6.6274    130.1401
  1692.0000      0.0000    765.3054      6.8301    120.4163
  1692.2500      0.0000    772.3547      7.0390    108.4356
  1692.5000      0.0000    775.5795      7.2126     98.1196
  1692.7500      0.0000    773.6017      7.3262     93.3187
  1693.0000      0.0000    767.2776      7.3717     95.8065
  1693.2500      0.0000    759.9651      7.3622    104.8095
  1693.5000      0.0000    754.8481      7.3072    117.7637
  1693.7500      0.0000    752.0233      7.2086    131.4566
  1694.0000      0.0000    749.0581      7.0937    143.1235
  1694.2500      0.0000    743.8884      7.0086    151.0933
  1694.5000      0.0000    735.4846      6.9642    154.8646
  1694.7500      0.0000    721.6541      6.9293    155.1008
  1695.0000      0.0000    698.8123      6.8784    153.5548
  1695.2500      0.0000    666.1148      6.8009    152.3413
  1695.5000      0.0000    628.9422      6.6846    152.8378
  1695.7500      0.0000    596.1413      6.5448    155.1918
  1696.0000      0.0000    573.6706      6.4448    158.3595
  1696.2500      0.0000    561.6937      6.4274    160.2263
  1696.5000      0.0000    556.8345      6.4544    158.5957
  1696.7500      0.0000    555.5912      6.4674    153.1735
  1697.0000      0.0000    555.8133      6.4679    146.3085
  1697.2500      0.0000    556.5638      6.4836    141.1125
  1697.5000      0.0000    557.7300      6.5033    139.0334
  1697.7500      0.0000    559.9764      6.5112    139.3787
  1698.0000      0.0000    565.0484      6.5405    140.7278
  1698.2500      0.0000    575.8633      6.6244    142.5700
