~Version Information
VERS.                      2.0: CWLS Log ASCII Standard - VERSION 2.0
WRAP.                       NO: One line per depth step
~Well Information Block
STRT.FT               830.0000: 
STOP.FT              3122.7000: 
STEP.FT                 0.1000: 
NULL.                -999.2500: 
COMP.          Pioneer Natural Resources: COMPANY
WELL.              Stones 24-8: WELL
FLD.           Purgatoire River: FIELD
LOC.           648' FSL & 2264' FWL: LOCATION
PROV.                 Colorado: PROVINCE
CNTY.               Las Animas: COUNTRY
SRVC.                Patterson: SERVICE COMPANY
DATE.          Wed Jan 19 15:33:00 2005: LOG DATE
UWI.           05 071 07945 00: UNIQUE WELL ID
~Curve Information Block
DEPT.FT            0 000 00 00: Depth
DCAL.in                       : CDL Caliper
RHOB.g/cc                     : CDL Bulk Density
RHOC.g/cc                     : CDL Density Correction
DPOR.pu                       : CDL Density Porosity
NPOR.pu                       : Neutron Porosity
GR.GAPI                       : Gamma Ray
~Parameter Information Block
~A  Depth       DCAL        RHOB        RHOC        DPOR        NPOR         GR     
# ...
   983.6000      8.5178      1.7947     -0.0247     51.8344     21.6632    130.1821
   983.7000      8.5178      1.8368      0.0550     49.2876     21.4309    131.0463
   983.8000      8.5367      1.9890      0.2990     40.0603     21.4448    125.2830
   983.9000      8.5367      2.1593      0.4183     29.7382     21.8675    116.4144
   984.0000      8.5967      2.2941      0.4244     21.5678     22.6592    111.9124
   984.1000      8.5967      2.4104      0.4857     14.5189     23.2406    115.9783
   984.2000      8.5967      2.5249      0.5881      7.5823     23.6015    123.1980
   984.3000      8.7031      2.6216      0.6142      1.7194     24.2663    125.6560
   984.4000      8.7031      2.6783      0.6051     -1.7159     25.0833    123.2447
   984.5000      8.7393      2.6892      0.4370     -2.3770     25.5788    119.3935
   984.6000      8.7393      2.6755      0.3822     -1.5438     25.7173    116.3503
   984.7000      8.7393      2.6708      0.3851     -1.2577     25.5492    117.7083
   984.8000      8.6630      2.6887      0.4072     -2.3428     25.3090    123.5973
   984.9000      8.6630      2.7080      0.4087     -3.5140     25.2929    127.8708
   985.0000      8.5745      2.7086      0.2964     -3.5510     25.2779    125.5233
   985.1000      8.5745      2.6942      0.2616     -2.6817     25.0479    120.0487
   985.2000      8.5745      2.6632      0.2384     -0.8017     24.9589    119.4197
   985.3000      8.5417      2.6143      0.1611      2.1663     25.0490    122.9837
   985.4000      8.5417      2.5708      0.0680      4.7981     24.9155    122.8265
   985.5000      8.5443      2.5504      0.0976      6.0382     24.7934    116.2502
   985.6000      8.5443      2.5410      0.0848      6.6060     25.1068    106.4011
   985.7000      8.5443      2.5296      0.0668      7.2994     25.5608     98.6001
   985.8000      8.5509      2.5204      0.0454      7.8535     25.8425     96.7300
   985.9000      8.5509      2.5254      0.0445      7.5530     26.0847     98.6890
   986.0000      8.5541      2.5411      0.0881      6.6012     26.3770    102.2218
   986.1000      8.5541      2.5496      0.0400      6.0860     26.6404    106.6849
   986.2000      8.5541      2.5406      0.1042      6.6287     27.0785    109.9697
   986.3000      8.5497      2.5228      0.0268      7.7103     28.0486    111.8941
   986.4000      8.5497      2.5192      0.0027      7.9288     29.1731    114.9914
   986.5000      8.5436      2.5282      0.0576      7.3828     29.5913    117.9894
   986.6000      8.5436      2.5239      0.0674      7.6401     29.1829    117.5221
   986.7000      8.5436      2.5018      0.0265      8.9801     28.3841    113.5047
   986.8000      8.5408      2.4802     -0.0079     10.2901     27.4545    108.4548
   986.9000      8.5408      2.4704      0.0067     10.8864     26.8146    104.4461
   987.0000      8.5408      2.4665      0.0341     11.1206     26.6995    104.1161
   987.1000      8.5408      2.4624     -0.0013     11.3725     26.9149    109.2781
   987.2000      8.5408      2.4618     -0.0067     11.4073     27.1539    116.2392
   987.3000      8.5409      2.4647     -0.0041     11.2298     26.9097    120.7054
   987.4000      8.5409      2.4690     -0.0139     10.9717     26.0574    122.5316
   987.5000      8.5399      2.4793     -0.0127     10.3482     25.0991    124.6043
   987.6000      8.5399      2.4906      0.0449      9.6606     24.2244    130.1948
   987.7000      8.5399      2.4924      0.0284      9.5499     23.3029    137.8544
   987.8000      8.5405      2.4911      0.0278      9.6276     22.5601    143.7779
   987.9000      8.5405      2.4884      0.0615      9.7950     22.2661    146.2479
   988.0000      8.5471      2.4717      0.0209     10.8085     22.0294    142.7961
   988.1000      8.5471      2.4425      0.0268     12.5760     21.4915    134.5036
   988.2000      8.5471      2.4179      0.0094     14.0670     20.8761    128.1822
   988.3000      8.5689      2.4113     -0.0097     14.4684     20.4766    125.8895
   988.4000      8.5689      2.4258      0.0030     13.5870     20.3066    125.6468
   988.5000      8.5722      2.4530      0.0496     11.9368     20.3167    126.6898
   988.6000      8.5722      2.4806      0.0275     10.2654     20.4504    124.7361
   988.7000      8.5722      2.5011      0.0803      9.0242     20.8064    117.3956
   988.8000      8.5214      2.5111      0.0607      8.4186     21.4375    110.5772
   988.9000      8.5214      2.5157      0.0695      8.1367     21.7639    110.1295
   989.0000      8.4730      2.5206      0.0949      7.8401     21.5930    115.7960
   989.1000      8.4730      2.5221      0.0810      7.7516     21.6513    121.4540
   989.2000      8.4730      2.5143      0.0327      8.2215     22.0137    123.3350
   989.3000      8.4552      2.4976      0.0339      9.2392     22.0443    123.9824
   989.4000      8.4552      2.4823      0.0394     10.1619     21.8173    124.9009
   989.5000      8.4519      2.4835      0.0198     10.0916     21.9043    124.4132
   989.6000      8.4519      2.4960      0.0886      9.3323     21.9928    120.4542
   989.7000      8.4519      2.5001      0.0744      9.0837     21.5175    116.6281
   989.8000      8.4521      2.4907      0.0193      9.6535     21.1482    119.0957
   989.9000      8.4521      2.4751      0.0435     10.5983     21.4126    123.9982
   990.0000      8.4529      2.4644      0.0297     11.2506     21.7427    123.5202
   990.1000      8.4529      2.4711      0.0254     10.8400     21.8207    118.5985
   990.2000      8.4529      2.4904      0.0385      9.6698     21.8306    115.6722
   990.3000      8.4543      2.4996      0.0505      9.1137     21.7930    115.6046
   990.4000      8.4543      2.4917     -0.0105      9.5914     21.7441    114.5858
   990.5000      8.4548      2.4864      0.0325      9.9131     21.8192    111.7874
   990.6000      8.4548      2.4969     -0.0017      9.2789     21.8311    109.2875
   990.7000      8.4548      2.5137      0.0589      8.2585     21.6910    108.8230
   990.8000      8.4552      2.5237      0.0649      7.6543     21.8658    109.6600
   990.9000      8.4552      2.5278      0.0474      7.4049     22.6042    109.1429
   991.0000      8.4557      2.5331      0.0556      7.0872     23.5007    108.6837
   991.1000      8.4557      2.5332      0.0618      7.0806     24.3144    111.9274
   991.2000      8.4557      2.5203      0.0220      7.8602     24.8902    117.7319
   991.3000      8.4517      2.5062      0.0359      8.7165     25.1211    121.5390
   991.4000      8.4517      2.5034      0.0435      8.8862     25.4529    120.1235
   991.5000      8.4377      2.5078      0.0466      8.6198     26.1978    115.2976
   991.6000      8.4377      2.5109      0.0319      8.4327     27.2911    111.2859
   991.7000      8.4377      2.5106      0.0380      8.4478     28.7754    107.4917
   991.8000      8.4158      2.5142      0.0054      8.2277     30.3002    102.4045
   991.9000      8.4158      2.5202      0.0744      7.8653     31.3222    100.4401
   992.0000      8.4022      2.5116      0.0279      8.3850     31.9219    104.4890
   992.1000      8.4022      2.4936      0.0052      9.4770     32.2297    110.6407
   992.2000      8.4022      2.4902     -0.0493      9.6824     32.1085    114.0586
   992.3000      8.3986      2.5039      0.0367      8.8553     31.7072    112.8243
   992.4000      8.3986      2.5160      0.0470      8.1208     31.3343    108.8873
   992.5000      8.3957      2.5218     -0.0087      7.7680     31.0593    105.4705
   992.6000      8.3957      2.5301      0.0271      7.2641     30.9620    104.7660
   992.7000      8.3957      2.5423      0.0079      6.5288     30.9115    106.5161
   992.8000      8.3934      2.5582      0.0071      5.5630     30.6313    107.0266
   992.9000      8.3934      2.5739      0.0623      4.6114     30.2545    104.9857
   993.0000      8.3947      2.5765      0.0629      4.4551     29.9106    102.4842
   993.1000      8.3947      2.5641      0.0096      5.2069     29.3493    101.2160
