~Version Information
 VERS.                                  2.0 : CWLS LAS VERSION
 WRAP.                                   NO : WRAPING MODE
 SWARE .                 MController 2.5.0I : SOFTWARE VERSION
~Well Information
 WELL.                        Montoya 1-44v : WELL
 COMP.                       Petrogulf Corp : COMPANY
 FLD.                      Purgatorie River : FIELD
 LOC.                 SE/SE Sec 1 T33S R68W : LOCATION
 DATE.                           8/24-25/04 : DATE(S) LOGGED
 SRVC.       Blanco Geological services LLC : SERVICE COMPANY
 STAT.                                   CO : STATE
 CNTY.                           Las Animas : COUNTY
 CTRY.                                  USA : COUNTRY
 API.                       05-071-08142-00 : API NUMBER
 STRT.FT                             556.00 : START DEPTH
 STOP.FT                            2600.00 : STOP DEPTH
 STEP.FT                               1.00 : DEPTH INCREMENT
 NULL.                                -9999 : NULL VALUE
~Curve information
 DEPTH.FT                                   :
 ROP.MIN/FT                                 :
 GAS.UNITS                                  :
~ASCII Log data
# ...
      1756.0          0.3          5.1 
      1757.0          0.5          4.9 
      1758.0          0.5          4.9 
      1759.0          0.6          4.5 
      1760.0          0.4          4.7 
      1761.0          0.5          4.5 
      1762.0          0.6          4.5 
      1763.0          0.4          4.3 
      1764.0          0.5          4.5 
      1765.0          0.4          4.6 
      1766.0          0.5          4.3 
      1767.0          0.7          4.2 
      1768.0          0.6          4.1 
      1769.0          0.4          4.3 
      1770.0          0.4          4.0 
      1771.0          0.9          4.1 
      1772.0          0.4          4.0 
      1773.0          0.3          3.8 
      1774.0          0.2          4.0 
      1775.0          4.1         49.2 
      1776.0          0.2         19.9 
      1777.0          0.2         11.6 
      1778.0          0.3          8.0 
      1779.0          0.3          6.2 
      1780.0          0.3          5.7 
      1781.0          0.3          5.3 
      1782.0          0.3          5.2 
      1783.0          0.2          5.4 
      1784.0          0.3          5.3 
      1785.0          0.5          5.4 
      1786.0          0.5          7.4 
      1787.0          0.5          7.1 
      1788.0          0.4          6.4 
      1789.0          0.6          6.3 
      1790.0          0.5          6.5 
      1791.0          0.2          6.4 
      1792.0          0.4          6.5 
      1793.0          0.4          7.3 
      1794.0          0.4          7.7 
      1795.0          0.3          7.1 
      1796.0          0.4          6.9 
      1797.0          0.6          6.6 
      1798.0          0.3          6.2 
      1799.0          0.2          6.1 
      1800.0          0.3          6.1 
      1801.0          0.2          6.3 
      1802.0          0.3          5.9 
      1803.0          0.3          5.5 
      1804.0          0.2          5.4 
      1805.0          4.7         58.9 
      1806.0          0.3         16.7 
      1807.0          0.7          9.2 
      1808.0          0.5          7.7 
      1809.0          0.4          6.9 
      1810.0          0.4          6.9 
      1811.0          0.4          6.5 
      1812.0          0.4          6.5 
      1813.0          0.4          6.6 
      1814.0          0.5          6.0 
      1815.0          0.6          5.6 
      1816.0          0.7          5.4 
      1817.0          0.8          5.0 
      1818.0          0.7          4.7 
      1819.0          0.6          4.7 
      1820.0          0.5          4.5 
      1821.0          0.4          4.5 
      1822.0          0.4          4.4 
      1823.0          0.4          4.5 
      1824.0          0.4          4.6 
      1825.0          0.4          4.7 
      1826.0          0.4          4.5 
      1827.0          0.4          4.9 
      1828.0          0.3          4.5 
      1829.0          0.4          4.5 
      1830.0          0.5          4.8 
      1831.0          0.4          4.6 
      1832.0          0.5          5.3 
      1833.0          0.5          4.8 
      1834.0          0.6          4.7 
      1835.0          4.0         61.9 
      1836.0          0.6         25.3 
      1837.0          0.4          7.5 
      1838.0          0.3          5.5 
      1839.0          0.3          5.4 
      1840.0          0.3          5.3 
      1841.0          0.6          5.7 
      1842.0          1.1          5.4 
      1843.0          0.4          4.1 
      1844.0          0.3          4.2 
      1845.0          0.4          4.3 
      1846.0          0.3          4.4 
      1847.0          0.3          4.3 
      1848.0          0.4          4.4 
      1849.0          0.4          4.4 
      1850.0          0.2          4.2 
      1851.0          0.2          4.1 
      1852.0          0.2          4.3 
      1853.0          0.2          4.2 
      1854.0          0.2          4.0 
      1855.0          0.3          4.2 
      1856.0          0.3          4.0 
      1857.0          0.2          3.9 
      1858.0          0.3          3.9 
      1859.0          0.3          3.6 
      1860.0          0.2          3.6 
      1861.0          0.2          3.5 
      1862.0          0.3          3.4 
      1863.0          0.2          3.2 
      1864.0          0.3          3.2 
      1865.0          0.4          3.1 
      1866.0          0.3          3.0 
      1867.0          4.3         77.3 
      1868.0          0.2         21.2 
      1869.0          0.2         12.1 
      1870.0          0.2          8.4 
      1871.0          0.3          6.5 
      1872.0          0.4          5.7 
      1873.0          0.4          6.3 
      1874.0          0.3          7.0 
      1875.0          0.3          6.7 
      1876.0          0.4          5.3 
      1877.0          0.5          4.0 
      1878.0          0.4          3.7 
      1879.0          0.5          3.1 
      1880.0          0.4          3.3 
      1881.0          0.4          3.2 
      1882.0          0.4          3.7 
      1883.0          0.4          4.2 
      1884.0          0.4          4.3 
      1885.0          0.4          4.4 
      1886.0          0.4          4.3 
      1887.0          0.5          4.2 
      1888.0          0.2          4.2 
      1889.0          0.2          4.3 
      1890.0          0.2          4.0 
      1891.0          0.2          4.0 
      1892.0          0.2          4.0 
      1893.0          0.2          4.2 
      1894.0          0.3          3.8 
      1895.0          0.3          3.9 
      1896.0          0.3          3.5 
      1897.0          4.5         27.3 
      1898.0          0.4         24.6 
      1899.0          0.4         12.6 
      1900.0          0.4          7.4 
      1901.0          0.4          6.0 
      1902.0          0.3          5.2 
      1903.0          0.4          5.2 
      1904.0          0.5          6.0 
      1905.0          0.5          6.1 
      1906.0          0.4          5.3 
      1907.0          0.4          5.1 
      1908.0          0.4          5.2 
      1909.0          0.4          5.1 
      1910.0          0.4          4.8 
      1911.0          0.4          5.1 
      1912.0          0.5          5.0 
      1913.0          0.3          4.8 
      1914.0          0.2          5.0 
      1915.0          0.3          5.0 
      1916.0          0.2          4.6 
      1917.0          0.3          4.6 
      1918.0          0.3          4.8 
      1919.0          0.3          4.5 
      1920.0          0.3          4.5 
      1921.0          0.3          4.5 
      1922.0          0.3          4.5 
      1923.0          0.2          4.2 
      1924.0          0.2          4.1 
      1925.0          0.1          3.8 
      1926.0          0.2          3.9 
      1927.0          4.2         40.0 
      1928.0          0.2         35.1 
      1929.0          0.3         28.4 
      1930.0          0.3         17.0 
      1931.0          0.3         12.0 
      1932.0          0.4         10.4 
      1933.0          0.4          8.8 
      1934.0          0.4         12.4 
      1935.0          0.4         19.0 
      1936.0          0.4         18.7 
      1937.0          0.2         14.5 
      1938.0          0.2         13.3 
      1939.0          0.3         12.6 
      1940.0          0.4         12.0 
      1941.0          0.3         11.3 
      1942.0          0.3         10.9 
      1943.0          0.5         10.2 
      1944.0          0.3          9.5 
      1945.0          0.3          9.2 
      1946.0          0.3          9.1 
      1947.0          0.4          9.1 
      1948.0          0.3          8.8 
      1949.0          0.2          8.1 
      1950.0          0.2          7.9 
      1951.0          0.2          7.6 
      1952.0          0.2          7.3 
      1953.0          0.2          7.1 
      1954.0          0.2          7.0 
      1955.0          0.2          6.5 
