~Version Information
VERS.                      2.0: CWLS Log ASCII Standard - VERSION 2.0
WRAP.                       NO: One line per depth step
~Well Information Block
STRT.FT               630.0000: 
STOP.FT              1155.5000: 
STEP.FT                 0.1000: 
NULL.                -999.2500: 
COMP.          Pioneer Natural Resources: COMPANY
WELL.          Drewmeister 34-34: WELL
FLD.           Purgatoire River: FIELD
LOC.           958' FSL & 1857' FEL: LOCATION
STAT.                 Colorado: State
CNTY.               Las Animas: COUNTY
CTRY. USA : Country
SECT. 34 : Section
TOWN. 32S : Township
RANG. 65W : Range
SRVC.                Patterson: SERVICE COMPANY
DATE.          Tue Oct 04 08:23:16 2005: LOG DATE
API.           05 071 08131 00: UNIQUE WELL ID
~Curve Information Block
DEPT.FT            0 000 00 00: Depth
DCAL.in                       : CDL Caliper
RHOB.g/cc                     : CDL Bulk Density
RHOC.g/cc                     : CDL Density Correction
DPOR.pu                       : CDL Density Porosity
GR.GAPI                       : Gamma Ray
NPOR.pu                       : Neutron Porosity
~Parameter Information Block
~A  Depth       DCAL        RHOB        RHOC        DPOR         GR         NPOR    
# ...
   697.2000      8.1346      2.6172      0.1083      1.9861    116.9630     25.3910
   697.3000      8.1347      2.6150      0.1159      2.1206    111.2845     25.4212
   697.4000      8.1347      2.5980      0.1023      3.1524    112.7212     24.6980
   697.5000      8.1353      2.5635      0.0758      5.2424    117.7281     23.7696
   697.6000      8.1353      2.5234      0.0137      7.6746    119.1316     23.5108
   697.7000      8.1353      2.4918      0.0281      9.5896    114.0682     23.6647
   697.8000      8.1360      2.4732     -0.0194     10.7164    108.1231     23.3913
   697.9000      8.1360      2.4612      0.0090     11.4411    107.3352     22.5091
   698.0000      8.1360      2.4414      0.0219     12.6422    110.9085     21.6538
   698.1000      8.1360      2.4097     -0.0181     14.5653    113.1817     21.3768
   698.2000      8.1360      2.3806     -0.0161     16.3289    110.1418     21.3723
   698.3000      8.1359      2.3719      0.0039     16.8539    103.2739     20.8285
   698.4000      8.1359      2.3855      0.0178     16.0312     96.4036     19.8326
   698.5000      8.1365      2.4068      0.0211     14.7373     91.3238     19.1820
   698.6000      8.1365      2.4209      0.0883     13.8858     85.6715     19.3644
   698.7000      8.1365      2.4252      0.0906     13.6250     79.1555     19.9049
   698.8000      8.1375      2.4306      0.0626     13.2999     76.2011     19.9850
   698.9000      8.1375      2.4430      0.1100     12.5449     75.9565     20.0527
   699.0000      8.1380      2.4649      0.0662     11.2194     74.3613     20.7805
   699.1000      8.1380      2.5039      0.0756      8.8542     72.4820     21.8045
   699.2000      8.1380      2.5540      0.1148      5.8202     69.5526     22.3752
   699.3000      8.1374      2.6014      0.0875      2.9435     64.0925     22.4848
   699.4000      8.1374      2.6411      0.0959      0.5404     59.4741     22.7478
   699.5000      8.1363      2.6649      0.1361     -0.9049     58.1302     22.6996
   699.6000      8.1363      2.6701      0.1118     -1.2198     58.2214     21.6943
   699.7000      8.1363      2.6643      0.0885     -0.8639     56.7858     20.5220
   699.8000      8.1357      2.6440      0.0960      0.3644     55.2694     20.0289
   699.9000      8.1357      2.6030      0.0411      2.8491     55.2179     20.0664
   700.0000      8.1358      2.5533     -0.0392      5.8612     53.7032     20.2957
   700.1000      8.1358      2.5152     -0.1185      8.1706     49.5878     20.4519
   700.2000      8.1358      2.4954     -0.0761      9.3680     45.6116     20.0123
   700.3000      8.1357      2.4867     -0.0609      9.8991     45.1771     19.1127
   700.4000      8.1357      2.4884     -0.0580      9.7944     48.4616     18.7057
   700.5000      8.1347      2.5041      0.0336      8.8448     50.2166     19.2027
   700.6000      8.1347      2.5272      0.0702      7.4419     48.4073     19.6560
   700.7000      8.1347      2.5473      0.1058      6.2261     46.3905     19.2582
   700.8000      8.1312      2.5554      0.1306      5.7304     45.2968     18.6152
   700.9000      8.1312      2.5459      0.1200      6.3075     45.3800     18.4697
   701.0000      8.1276      2.5182      0.0754      7.9898     46.9800     18.6512
   701.1000      8.1276      2.4845      0.0138     10.0294     48.8525     18.4299
   701.2000      8.1276      2.4607      0.0346     11.4757     48.7410     17.8899
   701.3000      8.1299      2.4434      0.0241     12.5193     46.5928     17.6145
   701.4000      8.1299      2.4237     -0.0422     13.7163     44.1969     17.4738
   701.5000      8.1352      2.4088     -0.0310     14.6200     41.7873     17.1563
   701.6000      8.1352      2.4023      0.0399     15.0098     38.3470     16.8432
   701.7000      8.1352      2.3918      0.0020     15.6501     33.8877     16.8322
   701.8000      8.1384      2.3754     -0.0279     16.6450     30.5440     17.1242
   701.9000      8.1384      2.3687     -0.0054     17.0477     30.1039     17.5692
   702.0000      8.1390      2.3860     -0.0065     16.0001     30.3388     18.2819
   702.1000      8.1390      2.4202      0.0515     13.9275     29.1108     19.1465
   702.2000      8.1390      2.4483      0.0685     12.2242     27.3034     19.4856
   702.3000      8.1380      2.4666      0.0764     11.1150     27.0646     19.3587
   702.4000      8.1380      2.4860      0.0965      9.9404     29.5322     19.0261
   702.5000      8.1362      2.5063      0.0785      8.7087     32.9928     18.3290
   702.6000      8.1362      2.5252      0.0931      7.5617     36.4610     17.5006
   702.7000      8.1362      2.5458      0.1560      6.3148     39.9064     16.9198
   702.8000      8.1349      2.5677      0.1180      4.9909     42.2722     16.6064
   702.9000      8.1349      2.5784      0.1573      4.3397     44.4574     16.4190
   703.0000      8.1345      2.5572      0.1356      5.6229     46.7616     16.2996
   703.1000      8.1345      2.5028      0.0593      8.9231     45.9085     16.3725
   703.2000      8.1345      2.4391      0.0091     12.7831     42.4755     16.4611
   703.3000      8.1358      2.3940     -0.0498     15.5172     40.4479     16.2873
   703.4000      8.1358      2.3808     -0.0283     16.3126     39.8452     16.0926
   703.5000      8.1396      2.3859      0.0728     16.0082     38.5603     15.9387
   703.6000      8.1396      2.3891      0.0604     15.8133     35.7169     15.8500
   703.7000      8.1396      2.3966      0.0722     15.3565     33.2184     15.9243
   703.8000      8.1438      2.4218      0.0915     13.8317     33.7216     15.9174
   703.9000      8.1438      2.4567      0.1851     11.7158     36.4094     15.7026
   704.0000      8.1478      2.4869      0.1250      9.8870     38.2066     15.4984
   704.1000      8.1478      2.5051      0.1516      8.7843     38.3539     15.5008
   704.2000      8.1478      2.5012      0.1508      9.0178     39.9363     15.5480
   704.3000      8.1494      2.4805      0.0845     10.2712     45.5607     15.2808
   704.4000      8.1494      2.4637      0.1024     11.2892     50.7079     14.7904
   704.5000      8.1494      2.4524      0.0671     11.9776     50.0930     14.4630
   704.6000      8.1494      2.4296      0.0971     13.3601     48.1769     14.2636
   704.7000      8.1494      2.3786      0.0295     16.4467     49.4760     14.0748
   704.8000      8.1498      2.2950      0.0219     21.5133     50.6105     14.1055
   704.9000      8.1498      2.1967     -0.0229     27.4719     49.5294     14.5317
   705.0000      8.1508      2.1179     -0.0267     32.2473     49.5909     15.3692
   705.1000      8.1508      2.0776     -0.0460     34.6905     52.7951     16.5490
   705.2000      8.1508      2.0743     -0.0287     34.8934     55.6292     17.7881
   705.3000      8.1520      2.1010     -0.0192     33.2701     56.8094     18.9890
   705.4000      8.1520      2.1441      0.0696     30.6584     62.1686     20.0198
   705.5000      8.1524      2.1875      0.1183     28.0275     74.7157     20.8047
   705.6000      8.1524      2.2366      0.1386     25.0519     87.3700     21.8495
   705.7000      8.1524      2.3083      0.2236     20.7086     94.0645     23.1798
   705.8000      8.1485      2.3884      0.3600     15.8529     98.5151     24.3234
   705.9000      8.1485      2.4313      0.3090     13.2521    104.1212     25.5240
   706.0000      8.1280      2.4191      0.1228     13.9933    109.2660     26.8454
   706.1000      8.1280      2.3818      0.0675     16.2543    113.6027     27.8591
   706.2000      8.1280      2.3582     -0.0054     17.6851    117.2491     28.4008
   706.3000      8.0930      2.3664      0.0305     17.1903    117.7839     28.4136
   706.4000      8.0930      2.3969      0.0019     15.3405    116.0521     28.0726
   706.5000      8.0713      2.4316      0.0536     13.2354    116.3494     28.0913
   706.6000      8.0713      2.4674      0.0386     11.0689    118.5050     28.7945
   706.7000      8.0713      2.5145      0.1144      8.2148    120.5915     29.3711
