~Version Information
VERS.                      2.0: CWLS Log ASCII Standard - VERSION 2.0
WRAP.                       NO: One line per depth step
~Well Information Block
STRT.FT               563.6000: 
STOP.FT              2133.0000: 
STEP.FT                 0.1000: 
NULL.                -999.2500: 
COMP.          Petrogulf Corporation: COMPANY
WELL.             State 16-43V: WELL
FLD.           Purgatorie River: FIELD
LOC.           2437' FSL & 734' FEL: LOCATION
CNTY.               Las Animas: COUNTY
SRVC.                         : SERVICE COMPANY
DATE.          Mon Dec 06 06:01:26 2004: LOG DATE
UWI.           05 071 08015 00: UNIQUE WELL ID
STAT.                 Colorado: STATE
~Curve Information Block
DEPT.FT            0 000 00 00: Depth
DCAL.in                       : CDL Caliper
RHOB.g/cc                     : CDL Bulk Density
RHOC.g/cc                     : CDL Density Correction
DPOR.pu                       : CDL Density Porosity
GR.GAPI                       : Gamma Ray
NPOR.pu                       : Neutron Porosity
~Parameter Information Block
~A  Depth       DCAL        RHOB        RHOC        DPOR         GR         NPOR    
# ...
  2013.2000      7.8039      2.5718      0.0558      4.7370     68.3598     21.1731
  2013.3000      7.7965      2.6253      0.0414      1.4969     71.9588     20.8604
  2013.4000      7.7965      2.6720      0.0761     -1.3342     73.8300     20.7463
  2013.5000      7.7937      2.6887      0.1129     -2.3429     69.5963     20.8006
  2013.6000      7.7937      2.6626      0.0970     -0.7647     62.9966     20.7271
  2013.7000      7.7937      2.6099      0.0693      2.4329     61.6073     20.6323
  2013.8000      7.8017      2.5647      0.0311      5.1685     65.6877     20.8271
  2013.9000      7.8017      2.5410      0.0532      6.6072     69.2072     21.0451
  2014.0000      7.7972      2.5278      0.0166      7.4044     71.4851     21.1308
  2014.1000      7.7972      2.5167      0.0376      8.0793     75.4902     21.5151
  2014.2000      7.7972      2.5089      0.0292      8.5529     79.6517     22.1178
  2014.3000      7.7831      2.5147     -0.0101      8.1987     82.3229     22.7021
  2014.4000      7.7831      2.5312      0.0542      7.2020     82.7457     23.3154
  2014.5000      7.7424      2.5378      0.0343      6.7973     82.0632     23.4766
  2014.6000      7.7424      2.5321      0.0754      7.1454     83.6497     22.8637
  2014.7000      7.7424      2.5211      0.1019      7.8097     85.9420     22.3357
  2014.8000      7.8150      2.5111      0.0121      8.4181     84.9971     22.1560
  2014.9000      7.8150      2.5189      0.0435      7.9425     82.8087     21.6450
  2015.0000      7.8624      2.5479      0.1017      6.1902     85.1752     20.8893
  2015.1000      7.8624      2.5854      0.1137      3.9166     89.8799     20.6359
  2015.2000      7.8624      2.6275      0.1292      1.3627     90.7521     21.0279
  2015.3000      7.7868      2.6706      0.1550     -1.2475     88.2660     21.5607
  2015.4000      7.7868      2.7019      0.1518     -3.1430     84.5306     21.8499
  2015.5000      7.7253      2.7133      0.1801     -3.8391     81.0256     22.0545
  2015.6000      7.7253      2.7105      0.1673     -3.6670     80.1645     22.4407
  2015.7000      7.7253      2.7030      0.1185     -3.2097     80.6562     22.9874
  2015.8000      7.7033      2.6899      0.1062     -2.4188     80.3644     23.5430
  2015.9000      7.7033      2.6639      0.1034     -0.8428     79.7444     23.7361
  2016.0000      7.6889      2.6272      0.0761      1.3843     78.3860     22.9574
  2016.1000      7.6889      2.5968      0.0543      3.2214     76.2456     21.7287
  2016.2000      7.6889      2.5892      0.0196      3.6873     74.9682     21.2490
  2016.3000      7.7764      2.5917      0.0620      3.5355     74.4384     21.3423
  2016.4000      7.7764      2.5775      0.0391      4.3933     73.2521     21.1015
  2016.5000      7.8293      2.5581     -0.0144      5.5688     71.6150     20.7080
  2016.6000      7.8293      2.5655      0.0145      5.1189     69.0239     20.9670
  2016.7000      7.8293      2.5931      0.1115      3.4501     66.7390     21.6863
  2016.8000      7.7994      2.6208      0.0648      1.7712     66.7741     22.1993
  2016.9000      7.7994      2.6551      0.0657     -0.3068     67.1535     22.3596
  2017.0000      7.7966      2.6925      0.0889     -2.5741     66.7406     22.5585
  2017.1000      7.7966      2.7085      0.0723     -3.5484     67.2465     23.2047
  2017.2000      7.7966      2.6963      0.0655     -2.8080     69.5020     23.6649
  2017.3000      7.8341      2.6666      0.0410     -1.0077     70.6600     23.0460
  2017.4000      7.8341      2.6322      0.0227      1.0797     69.1073     21.9936
  2017.5000      7.8292      2.5987      0.0519      3.1092     67.7155     21.6234
  2017.6000      7.8292      2.5698     -0.0047      4.8588     68.7415     22.0155
  2017.7000      7.8292      2.5623     -0.0198      5.3138     71.4661     22.5140
  2017.8000      7.8282      2.5858     -0.0006      3.8914     72.8429     22.5149
  2017.9000      7.8282      2.6159      0.0579      2.0666     71.9143     22.0362
  2018.0000      7.7650      2.6182      0.0687      1.9278     71.8666     21.6598
  2018.1000      7.7650      2.5922      0.0203      3.5034     74.9879     21.8419
  2018.2000      7.7650      2.5636      0.0533      5.2361     78.6773     22.3070
  2018.3000      7.7840      2.5476      0.0246      6.2076     80.7190     22.8932
  2018.4000      7.7840      2.5522     -0.0139      5.9295     82.0972     23.7703
  2018.5000      7.8246      2.5768      0.0646      4.4362     82.0472     24.3699
  2018.6000      7.8246      2.5938      0.0490      3.4066     81.3309     23.8665
  2018.7000      7.8246      2.5791      0.0274      4.2964     84.2809     22.6576
  2018.8000      7.8085      2.5453      0.0039      6.3462     91.2943     22.4412
  2018.9000      7.8085      2.5206      0.0225      7.8453     98.4006     23.9181
  2019.0000      7.8077      2.5237     -0.0016      7.6519    104.2753     25.3433
  2019.1000      7.8077      2.5606      0.0521      5.4166    108.8764     25.1481
  2019.2000      7.8077      2.6125      0.0829      2.2740    110.5081     24.1359
  2019.3000      7.8289      2.6435      0.1937      0.3966    108.5575     23.7477
  2019.4000      7.8289      2.6335      0.1061      0.9972    102.1137     24.1259
  2019.5000      7.8901      2.5939      0.0820      3.4011     93.3049     24.8123
  2019.6000      7.8901      2.5590      0.0052      5.5138     88.8286     25.2456
  2019.7000      7.8901      2.5642      0.0389      5.1981     91.7200     24.8472
  2019.8000      7.8368      2.6074      0.0764      2.5798     97.9247     23.6531
  2019.9000      7.8368      2.6596      0.0818     -0.5836    101.8242     22.4875
  2020.0000      7.7798      2.7054      0.0997     -3.3589    102.5219     22.0787
  2020.1000      7.7798      2.7448      0.1624     -5.7468    105.1425     22.5202
  2020.2000      7.7798      2.7674      0.2004     -7.1139    111.2746     23.5325
  2020.3000      7.8047      2.7597      0.1822     -6.6467    116.3163     24.5083
  2020.4000      7.8047      2.7370      0.1266     -5.2752    120.1218     25.1089
  2020.5000      7.7723      2.7193      0.1408     -4.2018    127.2066     25.3657
  2020.6000      7.7723      2.7032      0.0728     -3.2247    137.0016     25.2286
  2020.7000      7.7723      2.6965      0.0107     -2.8197    148.3854     24.8464
  2020.8000      7.7356      2.7164      0.0331     -4.0232    162.6169     24.5974
  2020.9000      7.7356      2.7511      0.0416     -6.1303    175.5162     24.5947
  2021.0000      7.7696      2.7728      0.0741     -7.4432    179.4626     24.4695
  2021.1000      7.7696      2.7645      0.0925     -6.9383    174.8210     23.7160
  2021.2000      7.7696      2.7325      0.0827     -5.0023    169.2534     23.0025
  2021.3000      7.8013      2.6997      0.0550     -3.0103    167.9837     23.2953
  2021.4000      7.8013      2.6909     -0.0188     -2.4791    168.3297     24.0489
  2021.5000      7.8205      2.7209     -0.0201     -4.2988    164.8891     24.2923
  2021.6000      7.8205      2.7708      0.0318     -7.3200    161.7860     24.1480
  2021.7000      7.8205      2.7974      0.0841     -8.9362    162.5329     24.1126
  2021.8000      7.7919      2.7810      0.0509     -7.9417    160.2299     24.0600
  2021.9000      7.7919      2.7389      0.0799     -5.3850    150.5989     23.5840
  2022.0000      7.7939      2.7067     -0.0207     -3.4338    138.0764     22.9594
  2022.1000      7.7939      2.7103      0.0616     -3.6550    128.8953     22.7834
  2022.2000      7.7939      2.7386      0.0440     -5.3694    124.1385     23.1280
  2022.3000      7.8074      2.7607      0.1073     -6.7120    120.4504     23.7596
  2022.4000      7.8074      2.7614      0.0622     -6.7504    116.8326     24.4576
  2022.5000      7.7554      2.7590      0.0464     -6.6084    115.7558     24.9770
  2022.6000      7.7554      2.7622      0.0692     -6.8010    120.0313     25.1472
  2022.7000      7.7554      2.7528      0.0719     -6.2287    127.2629     25.1457
