~Version Information
VERS.                      2.0: CWLS Log ASCII Standard - VERSION 2.0
WRAP.                       NO: One line per depth step
~Well Information Block
STRT.FT               575.0000: 
STOP.FT              2016.2000: 
STEP.FT                 0.1000: 
NULL.                -999.2500: 
COMP.          Pioneer Natural Resources: COMPANY
WELL.          Bucksnort 41-35: WELL
FLD.           Purgatoire River: FIELD
LOC.           117' FNL & 463' FEL--: LOCATION
PROV.                 Colorado: PROVINCE
CNTY.               Las Animas: COUNTRY
SRVC.                Patterson: SERVICE COMPANY
DATE.          Thu Jul 21 15:01:23 2005: LOG DATE
UWI.           05 071 08401 00: UNIQUE WELL ID
~Curve Information Block
DEPT.FT            0 000 00 00: Depth
DCAL.in                       : CDL Caliper
RHOB.g/cc                     : CDL Bulk Density
RHOC.g/cc                     : CDL Density Correction
DPOR.pu                       : CDL Density Porosity
NPOR.pu                       : Neutron Porosity
GR.GAPI                       : Gamma Ray
~Parameter Information Block
~A  Depth       DCAL        RHOB        RHOC        DPOR        NPOR         GR     
# ...
   671.0000      7.9264      2.6357      0.0523      0.8660     29.3718     92.5273
   671.1000      7.9264      2.6166      0.0424      2.0228     28.7608     91.8555
   671.2000      7.9264      2.6009     -0.0169      2.9765     28.3919     88.4228
   671.3000      7.9229      2.6016      0.0093      2.9309     28.6278     90.0931
   671.4000      7.9229      2.6111      0.0470      2.3565     29.0907     94.4664
   671.5000      7.9226      2.6088      0.0567      2.4996     29.2216     96.0715
   671.6000      7.9226      2.5969      0.0347      3.2178     29.0243     94.1940
   671.7000      7.9226      2.5917      0.0578      3.5363     28.7224     92.3435
   671.8000      7.9209      2.5880      0.0527      3.7582     28.5852     95.2854
   671.9000      7.9209      2.5720      0.0489      4.7251     28.9505    101.9684
   672.0000      7.9192      2.5556     -0.0105      5.7184     29.8021    107.5070
   672.1000      7.9192      2.5630     -0.0212      5.2728     30.5834    110.6649
   672.2000      7.9192      2.5852      0.0556      3.9277     30.8658    110.1560
   672.3000      7.9192      2.5921      0.0973      3.5081     30.7969    104.5324
   672.4000      7.9192      2.5806      0.0617      4.2060     30.5782     99.3167
   672.5000      7.9187      2.5723      0.0349      4.7098     30.3468     99.7287
   672.6000      7.9187      2.5762      0.0343      4.4722     30.2023    102.3310
   672.7000      7.9187      2.5792      0.0427      4.2896     30.2264    102.7702
   672.8000      7.9199      2.5737      0.0309      4.6221     30.5591    100.6894
   672.9000      7.9199      2.5712      0.0137      4.7773     30.7673     97.2160
   673.0000      7.9234      2.5759      0.0485      4.4906     30.5197     95.5554
   673.1000      7.9234      2.5727      0.0586      4.6838     30.4641     99.4136
   673.2000      7.9234      2.5560      0.0092      5.6951     30.7000    108.1244
   673.3000      7.9281      2.5440      0.0010      6.4231     30.6910    117.4601
   673.4000      7.9281      2.5507      0.0403      6.0163     30.6824    122.5715
   673.5000      7.9332      2.5682      0.0488      4.9557     30.9202    119.8711
   673.6000      7.9332      2.5771      0.0655      4.4163     30.9512    113.2724
   673.7000      7.9332      2.5664      0.0497      5.0651     30.7497    110.4732
   673.8000      7.9383      2.5461     -0.0103      6.2999     30.9181    111.9805
   673.9000      7.9383      2.5297      0.0042      7.2911     31.4567    113.5483
   674.0000      7.9415      2.5187      0.0001      7.9561     31.9308    114.9330
   674.1000      7.9415      2.5192      0.0037      7.9271     32.3127    115.3545
   674.2000      7.9415      2.5387      0.0426      6.7432     32.6026    112.4358
   674.3000      7.9412      2.5613      0.0675      5.3739     32.7025    111.0461
   674.4000      7.9412      2.5611      0.0691      5.3885     32.5183    115.0540
   674.5000      7.9404      2.5392      0.0067      6.7152     31.9525    120.0093
   674.6000      7.9404      2.5191     -0.0005      7.9305     31.2329    123.9081
   674.7000      7.9404      2.5106      0.0309      8.4461     30.6383    130.0313
   674.8000      7.9404      2.5048      0.0236      8.7981     30.0906    134.1701
   674.9000      7.9404      2.4965     -0.0096      9.3037     29.4164    131.6944
   675.0000      7.9405      2.4881     -0.0030      9.8117     28.7696    128.2327
   675.1000      7.9405      2.4780      0.0465     10.4251     28.5143    124.7228
   675.2000      7.9405      2.4665     -0.0063     11.1222     28.6090    118.5953
   675.3000      7.9394      2.4639      0.0195     11.2773     28.5541    117.6102
   675.4000      7.9394      2.4735      0.0111     10.6944     28.0967    121.4496
   675.5000      7.9384      2.4945      0.0434      9.4251     27.4649    118.7277
   675.6000      7.9384      2.5228      0.0930      7.7086     27.0158    112.1722
   675.7000      7.9384      2.5422      0.0980      6.5325     27.0749    111.1963
   675.8000      7.9348      2.5402      0.0838      6.6536     27.4762    113.1474
   675.9000      7.9348      2.5213      0.0669      7.8019     27.6011    111.8030
   676.0000      7.9260      2.5009      0.0562      9.0389     27.5409    107.8060
   676.1000      7.9260      2.4988     -0.0012      9.1642     27.8040    105.0793
   676.2000      7.9260      2.5249      0.0334      7.5795     28.3257    106.5122
   676.3000      7.9183      2.5567      0.0955      5.6574     28.8233    111.4489
   676.4000      7.9183      2.5611      0.0915      5.3888     29.0774    114.7052
   676.5000      7.9154      2.5418      0.0333      6.5574     29.1085    112.9893
   676.6000      7.9154      2.5215      0.0323      7.7906     28.9283    109.1080
   676.7000      7.9154      2.5013      0.0371      9.0130     28.5006    109.2457
   676.8000      7.9143      2.4803     -0.0051     10.2853     27.9844    114.6197
   676.9000      7.9143      2.4727     -0.0073     10.7483     27.6122    118.3054
   677.0000      7.9126      2.4821      0.0404     10.1788     27.8040    115.8545
   677.1000      7.9126      2.4989      0.0279      9.1554     28.5174    110.2068
   677.2000      7.9126      2.5196      0.0548      7.9042     29.1320    106.6489
   677.3000      7.9124      2.5434      0.0363      6.4634     29.4045    104.9321
   677.4000      7.9124      2.5646      0.0453      5.1734     29.4908    102.7214
   677.5000      7.9141      2.5722      0.0586      4.7170     29.6238    102.4196
   677.6000      7.9141      2.5649      0.0166      5.1583     29.7011    105.3937
   677.7000      7.9141      2.5561      0.0176      5.6924     29.4412    109.8747
   677.8000      7.9173      2.5491      0.0675      6.1178     29.1796    113.4701
   677.9000      7.9173      2.5427      0.0216      6.5025     29.3992    115.0082
   678.0000      7.9188      2.5398      0.0551      6.6780     29.8421    116.3470
   678.1000      7.9188      2.5259      0.0612      7.5204     29.8565    119.2057
   678.2000      7.9188      2.4928     -0.0006      9.5249     29.4820    118.2718
   678.3000      7.9190      2.4607      0.0302     11.4746     29.3184    108.3639
   678.4000      7.9190      2.4445      0.0266     12.4540     29.4806     96.6139
   678.5000      7.9223      2.4390      0.0149     12.7870     29.5543     91.3839
   678.6000      7.9223      2.4369      0.0125     12.9151     29.1599     91.5317
   678.7000      7.9223      2.4386      0.0050     12.8140     28.2880     94.8050
   678.8000      7.9308      2.4435      0.0382     12.5137     27.3396     99.1510
   678.9000      7.9308      2.4554     -0.0173     11.7954     26.4657    100.9304
   679.0000      7.9387      2.4851      0.0455      9.9942     25.5570     99.2245
   679.1000      7.9387      2.5312      0.0726      7.1992     24.8544     95.8978
   679.2000      7.9387      2.5757      0.1314      4.5044     24.6328     94.0344
   679.3000      7.9436      2.6003      0.1201      3.0106     24.6156     94.8214
   679.4000      7.9436      2.6015      0.1061      2.9376     24.8417     96.7098
   679.5000      7.9476      2.5847      0.0533      3.9595     25.8125     98.4532
   679.6000      7.9476      2.5608      0.0467      5.4074     27.2934     99.3136
   679.7000      7.9476      2.5478     -0.0012      6.1954     28.4259     98.8581
   679.8000      7.9494      2.5484      0.0654      6.1554     28.9324     99.1138
   679.9000      7.9494      2.5467      0.0110      6.2616     29.2206    100.8193
   680.0000      7.9507      2.5460     -0.0098      6.3032     29.6931    103.1677
   680.1000      7.9507      2.5544      0.0795      5.7932     30.0661    103.9327
   680.2000      7.9507      2.5584      0.0806      5.5519     30.0123    101.5818
   680.3000      7.9528      2.5547      0.0434      5.7767     30.0184    100.7755
   680.4000      7.9528      2.5566      0.0615      5.6616     30.4030    103.8729
   680.5000      7.9535      2.5678      0.0201      4.9823     30.9035    105.8597
