~Version Information
VERS.                      2.0: CWLS Log ASCII Standard - VERSION 2.0
WRAP.                       NO: One line per depth step
~Well Information Block
STRT.FT               -13.0000: 
STOP.FT              1411.2500: 
STEP.FT                 0.2500: 
NULL.                -999.2500: 
COMP.                         : COMPANY
WELL.                         : WELL
FLD.                          : FIELD
LOC.                          : LOCATION
CNTY.                         : COUNTY
SRVC.                         : SERVICE COMPANY
DATE.          Sat Jan 17 07:25:27 2004: LOG DATE
UWI.                          : UNIQUE WELL ID
STAT.                         : STATE
~Curve Information Block
DEPT.FT            0 000 00 00: Depth
CCL.                          : Casing Collar Locator
TT3.usec                      : CBL 3' Travel Time
AMP3.mV                       : CBL 3' Amplitude
GR.GAPI                       : Gamma Ray
~Parameter Information Block
~A  Depth       CCL         TT3         AMP3         GR     
# ...
  1025.5000      0.0000    716.1792      1.2562    130.4926
  1025.7500      0.0000    708.4653      1.2553    130.3180
  1026.0000      0.0000    696.8209      1.2471    129.6692
  1026.2500      0.0000    683.4508      1.2584    130.0333
  1026.5000      0.0000    671.4504      1.3018    131.8079
  1026.7500      0.0000    662.8710      1.3576    133.8524
  1027.0000      0.0000    657.8069      1.3955    134.7363
  1027.2500      0.0000    655.1035      1.3979    134.0676
  1027.5000      0.0000    653.5641      1.3630    132.3231
  1027.7500      0.0000    652.5432      1.2973    129.8370
  1028.0000      0.0000    651.8489      1.2122    126.5116
  1028.2500      0.0000    651.4253      1.1264    122.3203
  1028.5000      0.0000    651.1603      1.0684    117.5147
  1028.7500      0.0000    650.8734      1.0664    112.3165
  1029.0000      0.0000    650.3937      1.1246    106.7813
  1029.2500      0.0000    649.6260      1.2140    101.0440
  1029.5000      0.0000    648.5780      1.2978     95.4960
  1029.7500      0.0000    647.3589      1.3610     90.7560
  1030.0000      0.0000    646.1467      1.4080     87.6630
  1030.2500      0.0000    645.1398      1.4381     87.0884
  1030.5000      0.0000    644.5184      1.4378     89.1808
  1030.7500      0.0000    644.4090      1.4010     92.7582
  1031.0000      0.0000    644.8176      1.3457     95.9606
  1031.2500      0.0000    645.5836      1.3032     97.7443
  1031.5000      0.0000    646.4251      1.2920     98.5132
  1031.7500      0.0000    647.0642      1.3060     99.1855
  1032.0000      0.0000    647.3546      1.3307     99.8923
  1032.2500      0.0000    647.3244      1.3632     99.8073
  1032.5000      0.0000    647.1020      1.4069     98.1895
  1032.7500      0.0000    646.7684      1.4534     95.4365
  1033.0000      0.0000    646.2562      1.4814     92.9971
  1033.2500      0.0000    645.3965      1.4795     92.2629
  1033.5000      0.0000    644.0703      1.4617     93.6497
  1033.7500      0.0000    642.2573      1.4528     96.5927
  1034.0000      0.0000    639.7941      1.4607     99.9504
  1034.2500      0.0000    636.0740      1.4659    102.3286
  1034.5000      0.0000    630.2910      1.4408    102.5926
  1034.7500      0.0000    622.3555      1.3798    100.5733
  1035.0000      0.0000    613.5442      1.3091     97.3172
  1035.2500      0.0000    605.8849      1.2660     94.5073
  1035.5000      0.0000    600.7593      1.2661     93.3559
  1035.7500      0.0000    598.2114      1.2933     93.8334
  1036.0000      0.0000    597.5231      1.3205     94.8773
  1036.2500      0.0000    598.2205      1.3353     95.3440
  1036.5000      0.0000    600.5798      1.3436     94.8462
  1036.7500      0.0000    605.4028      1.3528     93.9092
  1037.0000      0.0000    613.2675      1.3631     93.5072
  1037.2500      0.0000    623.6896      1.3775     94.3445
  1037.5000      0.0000    634.8779      1.4041     96.3097
  1037.7500      0.0000    644.5578      1.4403     98.5353
  1038.0000      0.0000    651.2880      1.4646    100.0983
  1038.2500      0.0000    655.0853      1.4567    100.7518
  1038.5000      0.0000    656.9445      1.4247    100.9842
  1038.7500      0.0000    657.9395      1.4062    101.4015
  1039.0000      0.0000    658.7296      1.4356    102.0799
  1039.2500      0.0000    659.7200      1.5125    102.3611
  1039.5000      0.0000    661.5776      1.6007    101.2353
  1039.7500      0.0000    665.4825      1.6540     98.1981
  1040.0000      0.0000    672.5717      1.6461     93.8556
  1040.2500      0.0000    682.7355      1.5851     89.5519
  1040.5000      0.0000    693.9549      1.5086     86.4231
  1040.7500      0.0000    703.2880      1.4606     84.9602
  1041.0000      0.0000    708.9855      1.4624     85.1216
  1041.2500      0.0000    711.8222      1.4995     86.2101
  1041.5000      0.0000    714.2688      1.5382     86.5814
  1041.7500      0.0000    718.1293      1.5583     84.1010
  1042.0000      0.0000    722.9199      1.5660     77.4957
  1042.2500      0.0000    726.7007      1.5760     67.4951
  1042.5000      0.0000    728.0321      1.5894     56.6182
  1042.7500      0.0000    726.3135      1.5965     47.6451
  1043.0000      0.0000    720.7639      1.5923     42.0435
  1043.2500      0.0000    710.7969      1.5792     39.6026
  1043.5000      0.0000    697.7985      1.5508     39.2334
  1043.7500      0.0000    685.0507      1.4876     39.8970
  1044.0000      0.0000    675.4059      1.3817     41.0313
  1044.2500      0.0000    670.1721      1.2639     42.5983
  1044.5000      0.0000    670.6727      1.1871     44.9213
  1044.7500      0.0000    679.3845      1.1837     48.2518
  1045.0000      0.0000    697.9166      1.2511     52.3095
  1045.2500      0.0000    723.3823      1.3760     56.3132
  1045.5000      0.0000    747.6976      1.5529     59.5389
  1045.7500      4.0000    761.9172      1.7789     61.7876
  1046.0000      0.0000    761.9365      2.0448     63.2611
  1046.2500      0.0000    750.3882      2.3293     63.9703
  1046.5000      0.0000    733.9775      2.5971     63.3080
  1046.7500      0.0000    719.3223      2.8054     60.4581
  1047.0000      0.0000    710.4959      2.9135     55.4665
  1047.2500      0.0000    708.9303      2.8955     49.7067
  1047.5000      0.0000    713.8530      2.7593     44.9477
  1047.7500      0.0000    721.9888      2.5567     41.9746
  1048.0000      0.0000    728.2825      2.3652     40.2476
  1048.2500      0.0000    729.1201      2.2529     38.7319
  1048.5000      0.0000    725.2791      2.2479     36.8947
  1048.7500      0.0000    720.6188      2.3307     35.0544
  1049.0000      0.0000    717.8082      2.4538     34.0521
  1049.2500      0.0000    716.0724      2.5694     34.6035
  1049.5000      0.0000    712.9869      2.6402     36.7612
  1049.7500      0.0000    707.6676      2.6456     39.7805
  1050.0000      0.0000    701.9684      2.5944     42.4465
  1050.2500      0.0000    698.8245      2.5210     43.7166
  1050.5000      0.0000    699.5962      2.4566     43.3348
  1050.7500      0.0000    702.9869      2.4036     41.9216
  1051.0000      0.0000    706.4396      2.3438     40.3950
  1051.2500      0.0000    708.2662      2.2631     39.2581
  1051.5000      0.0000    708.4158      2.1631     38.4806
  1051.7500      0.0000    707.7712      2.0502     38.0392
  1052.0000      0.0000    707.3411      1.9260     38.3300
  1052.2500      0.0000    708.1773      1.7977     39.8164
  1052.5000      0.0000    711.4993      1.6917     42.3816
  1052.7500      0.0000    718.2163      1.6396     45.2042
  1053.0000      0.0000    727.8088      1.6462     47.2984
  1053.2500      0.0000    737.6173      1.6823     48.1918
  1053.5000      0.0000    743.5942      1.7090     48.1650
  1053.7500      0.0000    742.3808      1.7045     47.8845
  1054.0000      0.0000    733.3774      1.6708     47.8928
  1054.2500      0.0000    719.2623      1.6246     48.5319
  1054.5000      0.0000    704.4277      1.5857     50.1199
  1054.7500      0.0000    692.5116      1.5658     52.9228
  1055.0000      0.0000    684.8657      1.5623     57.0752
  1055.2500      0.0000    680.7104      1.5584     62.6592
  1055.5000      0.0000    678.2864      1.5366     69.6535
  1055.7500      0.0000    676.0535      1.4946     77.6772
  1056.0000      0.0000    673.4628      1.4478     85.9844
  1056.2500      0.0000    671.1028      1.4162     93.8014
  1056.5000      0.0000    669.9999      1.4179    100.5146
  1056.7500      0.0000    670.4693      1.4658    105.5614
  1057.0000      0.0000    671.5601      1.5600    108.4503
  1057.2500      0.0000    671.7985      1.6803    109.0735
  1057.5000      0.0000    670.7700      1.7971    107.9602
  1057.7500      0.0000    670.5549      1.8926    106.0920
  1058.0000      0.0000    675.6797      1.9650    104.3846
  1058.2500      0.0000    690.4280      2.0090    103.3022
  1058.5000      0.0000    714.6941      2.0058    102.9134
  1058.7500      0.0000    742.2902      1.9428    103.2051
