~Version Information
VERS.                      2.0: CWLS Log ASCII Standard - VERSION 2.0
WRAP.                       NO: One line per depth step
~Well Information Block
STRT.FT               294.0000: 
STOP.FT              1961.5000: 
STEP.FT                 0.2500: 
NULL.                -999.2500: 
COMP.          Pioneer Natural Resources: COMPANY
WELL.          Commander 43-26 Tr: WELL
FLD.           Purgatoire River: FIELD
LOC.           2439' FSL & 446' FEL: LOCATION
PROV.                 Colorado: PROVINCE
CNTY.               Las Animas: COUNTRY
SRVC.                Patterson: SERVICE COMPANY
DATE.          Thu Apr 14 18:26:07 2005: LOG DATE
UWI.           05 071 08341 00: UNIQUE WELL ID
~Curve Information Block
DEPT.FT            0 000 00 00: Depth
SN.Ohm-m                      : IEL Short Normal
SP.mV                         : IEL Spontaneous Potential
DIR.Ohm-m                     : IEL Induction Resistivity
GR.GAPI                       : Gamma Ray
~Parameter Information Block
~A  Depth        SN          SP         DIR          GR     
# ...
  1265.5000     30.5579     63.4025     28.6125     33.0326
  1265.7500     30.7604     63.6125     28.2964     32.1784
  1266.0000     30.9069     63.7247     27.9255     31.1200
  1266.2500     30.9982     63.7224     27.5765     30.6223
  1266.5000     31.0472     63.6223     27.3072     29.9110
  1266.7500     31.0593     63.4585     27.1476     29.3320
  1267.0000     31.0939     63.2644     27.0994     28.4534
  1267.2500     31.1536     63.0635     27.1377     28.0290
  1267.5000     31.0996     62.8648     27.2109     27.7772
  1267.7500     30.8722     62.6629     27.2410     27.9389
  1268.0000     30.5542     62.4461     27.1348     28.9702
  1268.2500     30.1013     62.2176     26.8113     30.3460
  1268.5000     29.3332     62.0134     26.2340     33.3779
  1268.7500     28.2366     61.8939     25.4208     35.8402
  1269.0000     26.9904     61.9113     24.4249     40.0077
  1269.2500     25.6796     62.0734     23.3072     43.2157
  1269.5000     24.2317     62.3356     22.1234     48.8831
  1269.7500     22.5867     62.6228     20.9235     53.1519
  1270.0000     20.8161     62.8649     19.7486     60.0691
  1270.2500     19.1448     63.0212     18.6260     65.1359
  1270.5000     17.8175     63.0862     17.5678     73.8296
  1270.7500     16.9098     63.0831     16.5749     80.1984
  1271.0000     16.3424     63.0490     15.6451     89.2014
  1271.2500     15.9530     63.0191     14.7796     93.8546
  1271.5000     15.5085     63.0165     13.9860     98.3760
  1271.7500     14.9150     63.0529     13.2773    100.3970
  1272.0000     14.3329     63.1352     12.6686    103.4054
  1272.2500     13.8582     63.2691     12.1722    105.9203
  1272.5000     13.3924     63.4569     11.7939    110.9731
  1272.7500     12.8974     63.6894     11.5320    115.4414
  1273.0000     12.4550     63.9394     11.3794    123.6062
  1273.2500     12.1255     64.1654     11.3268    129.2276
  1273.5000     11.9170     64.3233     11.3652    135.8312
  1273.7500     11.8737     64.3784     11.4866    138.0902
  1274.0000     12.1352     64.3129     11.6837    138.1693
  1274.2500     12.7685     64.1281     11.9506    136.6334
  1274.5000     13.5832     63.8434     12.2868    132.9665
  1274.7500     14.3088     63.4911     12.7009    129.7332
  1275.0000     14.9327     63.1066     13.2121    123.0480
  1275.2500     15.6989     62.7163     13.8451    116.7582
  1275.5000     16.8427     62.3291     14.6214    104.0412
  1275.7500     18.5650     61.9382     15.5501     93.8573
  1276.0000     21.1701     61.5317     16.6256     78.1296
  1276.2500     24.8531     61.1071     17.8315     68.6349
  1276.5000     29.3697     60.6776     19.1465     56.9926
  1276.7500     34.1811     60.2676     20.5414     50.9180
  1277.0000     38.8415     59.9024     21.9610     43.7519
  1277.2500     43.0838     59.6034     23.3012     39.9992
  1277.5000     46.6749     59.3913     24.4061     35.8503
  1277.7500     49.3513     59.2899     25.1028     34.2099
  1278.0000     50.9002     59.3127     25.2621     33.5611
  1278.2500     51.3012     59.4360     24.8474     34.2043
  1278.5000     50.7298     59.5919     23.9240     36.4116
  1278.7500     49.2813     59.7053     22.6332     38.6406
  1279.0000     46.6497     59.7476     21.1472     43.4552
  1279.2500     42.3217     59.7534     19.6252     48.0348
  1279.5000     36.3084     59.7890     18.1848     57.5603
  1279.7500     29.6439     59.9052     16.8937     65.7335
  1280.0000     23.8724     60.1070     15.7762     80.0018
  1280.2500     19.8962     60.3517     14.8260     89.9781
  1280.5000     17.5417     60.5713     14.0187    103.7252
  1280.7500     16.0973     60.7030     13.3233    111.0606
  1281.0000     14.9513     60.7138     12.7122    118.5407
  1281.2500     13.8703     60.6084     12.1671    121.5623
  1281.5000     12.9165     60.4198     11.6798    124.8397
  1281.7500     12.2080     60.1861     11.2493    127.1007
  1282.0000     11.7942     59.9258     10.8759    130.8718
  1282.2500     11.6607     59.6308     10.5593    132.9670
  1282.5000     11.7277     59.2883     10.2997    133.9546
  1282.7500     11.8639     58.9108     10.0995    132.8098
  1283.0000     11.9594     58.5429      9.9641    129.0879
  1283.2500     12.0012     58.2397      9.8975    126.0291
  1283.5000     12.0856     58.0355      9.8996    121.4884
  1283.7500     12.3204     57.9253      9.9657    118.6756
  1284.0000     12.6822     57.8655     10.0910    114.9260
  1284.2500     13.0211     57.7930     10.2736    112.9295
  1284.5000     13.2187     57.6555     10.5137    111.0179
  1284.7500     13.2880     57.4444     10.8091    110.4250
  1285.0000     13.3055     57.2083     11.1525    109.9284
  1285.2500     13.2803     57.0203     11.5331    109.3670
  1285.5000     13.1370     56.9174     11.9409    107.7467
  1285.7500     12.8300     56.8681     12.3686    106.3457
  1286.0000     12.4158     56.8041     12.8132    104.6464
  1286.2500     12.0338     56.6716     13.2760    104.1717
  1286.5000     11.9607     56.4523     13.7634    104.2544
  1286.7500     12.6941     56.1547     14.2844    104.3000
  1287.0000     14.6852     55.8035     14.8450    103.3896
  1287.2500     17.8184     55.4351     15.4407    101.8558
  1287.5000     21.3490     55.0883     16.0504     98.3837
  1287.7500     24.4005     54.7919     16.6333     95.7068
  1288.0000     26.4285     54.5577     17.1303     91.9326
  1288.2500     27.3114     54.3851     17.4705     89.9275
  1288.5000     27.2034     54.2689     17.5869     88.1400
  1288.7500     26.4882     54.2007     17.4372     88.0076
  1289.0000     25.6720     54.1667     17.0231     89.9197
  1289.2500     24.9810     54.1480     16.3924     93.0229
  1289.5000     24.1912     54.1240     15.6179    100.9598
  1289.7500     22.9671     54.0738     14.7699    108.1474
  1290.0000     21.2070     53.9750     13.9006    119.7562
  1290.2500     19.0342     53.8113     13.0451    126.4120
  1290.5000     16.6264     53.5892     12.2287    132.6807
  1290.7500     14.1813     53.3487     11.4719    134.1428
  1291.0000     11.9619     53.1465     10.7891    133.3814
  1291.2500     10.2553     53.0214     10.1862    131.9070
  1291.5000      9.2613     52.9739      9.6600    129.5842
  1291.7500      8.9580     52.9739      9.2006    128.3636
  1292.0000      9.1164     52.9808      8.7972    127.4372
  1292.2500      9.4808     52.9613      8.4418    127.6962
  1292.5000      9.8492     52.8997      8.1310    129.6354
  1292.7500     10.0768     52.7997      7.8641    131.6668
  1293.0000     10.1308     52.6786      7.6409    134.8347
  1293.2500     10.0884     52.5580      7.4602    136.6877
  1293.5000     10.0216     52.4581      7.3194    139.1906
  1293.7500      9.9368     52.3944      7.2150    140.7204
  1294.0000      9.8145     52.3764      7.1438    142.3620
  1294.2500      9.6459     52.4067      7.1034    142.7732
  1294.5000      9.4576     52.4764      7.0928    142.6338
  1294.7500      9.2956     52.5617      7.1116    142.4645
  1295.0000      9.1811     52.6288      7.1585    142.5780
  1295.2500      9.1223     52.6505      7.2311    142.8822
  1295.5000      9.1434     52.6216      7.3263    143.3121
  1295.7500      9.2651     52.5633      7.4412    143.3116
  1296.0000      9.4630     52.5086      7.5739    142.8307
  1296.2500      9.6638     52.4800      7.7250    142.6449
  1296.5000      9.8129     52.4775      7.8958    143.6920
  1296.7500      9.9664     52.4830      8.0859    145.4239
  1297.0000     10.2356     52.4723      8.2905    148.4106
  1297.2500     10.6046     52.4239      8.4994    149.6302
  1297.5000     10.9114     52.3233      8.7010    149.1618
  1297.7500     11.0193     52.1676      8.8882    147.2884
  1298.0000     10.9600     51.9656      9.0625    143.0562
  1298.2500     10.9099     51.7289      9.2342    140.1881
  1298.5000     10.9797     51.4636      9.4181    137.3518
  1298.7500     11.0744     51.1737      9.6264    136.8667
