~Version Information
VERS.                      2.0: CWLS Log ASCII Standard - VERSION 2.0
WRAP.                       NO: One line per depth step
~Well Information Block
STRT.FT               664.0000: 
STOP.FT              1113.5000: 
STEP.FT                 0.1000: 
NULL.                -999.2500: 
COMP.          Petrogulf Corporation: COMPANY
WELL.          Great Plains 22-21R: WELL
FLD.           Purgatorie River: FIELD
LOC.           73' FNL & 1992' FWL: LOCATION
PROV.                 Colorado: PROVINCE
CNTY.               Las Animas: COUNTRY
SRVC.                Patterson: SERVICE COMPANY
DATE.          Thu Sep 08 08:02:28 2005: LOG DATE
UWI.                          : UNIQUE WELL ID
~Curve Information Block
DEPT.FT            0 000 00 00: Depth
DCAL.in                       : CDL Caliper
RHOB.g/cc                     : CDL Bulk Density
RHOC.g/cc                     : CDL Density Correction
DPOR.pu                       : CDL Density Porosity
GR.GAPI                       : Gamma Ray
NPOR.pu                       : Neutron Porosity
~Parameter Information Block
~A  Depth       DCAL        RHOB        RHOC        DPOR         GR         NPOR    
# ...
  1009.6000      7.9517      2.5581      0.0342      5.5716    143.7352     26.1997
  1009.7000      7.9517      2.5656      0.0785      5.1149    149.8930     26.2652
  1009.8000      7.9745      2.5459      0.0170      6.3069    153.7878     26.4929
  1009.9000      7.9745      2.5141      0.0566      8.2382    153.5385     26.7815
  1010.0000      8.0069      2.4900     -0.0068      9.6958    153.0317     27.0610
  1010.1000      8.0069      2.4797     -0.0018     10.3205    155.7006     27.2356
  1010.2000      8.0069      2.4827      0.0216     10.1406    158.2613     27.1628
  1010.3000      8.0269      2.4957     -0.0002      9.3540    159.4196     26.9309
  1010.4000      8.0269      2.5077      0.0454      8.6256    162.0020     26.7886
  1010.5000      8.0466      2.5101      0.0452      8.4761    165.8371     26.9246
  1010.6000      8.0466      2.5055      0.0316      8.7562    169.4519     27.4241
  1010.7000      8.0466      2.4974      0.0261      9.2478    173.0150     28.1866
  1010.8000      8.0267      2.4857      0.0639      9.9604    175.6927     28.8434
  1010.9000      8.0267      2.4699      0.0484     10.9169    175.6522     29.0896
  1011.0000      8.0131      2.4530      0.0767     11.9394    173.3243     28.9296
  1011.1000      8.0131      2.4362      0.0445     12.9552    171.1345     28.6694
  1011.2000      8.0131      2.4200      0.0067     13.9410    168.9696     28.6442
  1011.3000      8.0457      2.4149     -0.0092     14.2515    167.1664     28.8127
  1011.4000      8.0457      2.4329      0.0379     13.1590    171.0302     28.9021
  1011.5000      8.0492      2.4677      0.0722     11.0499    179.1920     28.8711
  1011.6000      8.0492      2.4960      0.1222      9.3313    181.8153     29.0039
  1011.7000      8.0492      2.4985      0.1034      9.1816    176.7894     29.4680
  1011.8000      8.0568      2.4784      0.0410     10.4001    170.2968     29.8867
  1011.9000      8.0568      2.4520      0.0606     11.9986    167.0276     29.8868
  1012.0000      8.0171      2.4356     -0.0191     12.9930    166.8451     29.6742
  1012.1000      8.0171      2.4438     -0.0075     12.4946    165.9298     29.5496
  1012.2000      8.0171      2.4741      0.0285     10.6633    163.0426     29.4076
  1012.3000      8.0041      2.5103      0.0740      8.4679    161.2409     29.1034
  1012.4000      8.0041      2.5439      0.0882      6.4285    162.5090     28.7519
  1012.5000      8.0080      2.5695      0.1264      4.8773    164.9947     28.6360
  1012.6000      8.0080      2.5782      0.1045      4.3487    164.4585     28.7583
  1012.7000      8.0080      2.5768      0.0986      4.4344    160.9648     28.9784
  1012.8000      8.0078      2.5821      0.0835      4.1134    160.1251     29.2473
  1012.9000      8.0078      2.5917      0.0421      3.5321    162.2829     29.4539
  1013.0000      8.0094      2.5938      0.0454      3.4031    163.7491     29.4573
  1013.1000      8.0094      2.5925     -0.0044      3.4858    163.6620     29.3734
  1013.2000      8.0094      2.5917      0.0499      3.5303    159.8446     29.3797
  1013.3000      8.0158      2.5824      0.0489      4.0986    153.7170     29.3598
  1013.4000      8.0158      2.5653      0.0239      5.1355    152.3868     29.2243
  1013.5000      8.0264      2.5476      0.0218      6.2069    156.2086     29.0884
  1013.6000      8.0264      2.5265      0.0281      7.4872    159.4610     29.0004
  1013.7000      8.0264      2.4975      0.0256      9.2426    160.3282     28.7300
  1013.8000      8.0396      2.4686     -0.0513     10.9920    160.2546     28.1305
  1013.9000      8.0396      2.4562     -0.0140     11.7461    162.1300     27.7537
  1014.0000      8.0471      2.4631     -0.0214     11.3255    167.6347     28.2332
  1014.1000      8.0471      2.4755     -0.0001     10.5752    172.4833     29.1479
  1014.2000      8.0471      2.4753      0.0130     10.5888    172.4476     29.5239
  1014.3000      8.0549      2.4629      0.0243     11.3387    169.7440     29.0171
  1014.4000      8.0549      2.4595      0.0351     11.5430    168.3548     28.1177
  1014.5000      8.0628      2.4766      0.0722     10.5118    169.5469     27.5208
  1014.6000      8.0628      2.5020      0.0574      8.9727    171.5162     27.5247
  1014.7000      8.0628      2.5202      0.0870      7.8646    171.1369     27.8865
  1014.8000      8.0695      2.5306      0.0744      7.2347    169.1704     28.2446
  1014.9000      8.0695      2.5375      0.0542      6.8187    167.9415     28.3913
  1015.0000      8.0680      2.5401      0.0856      6.6609    166.0726     28.4658
  1015.1000      8.0680      2.5421      0.0707      6.5394    162.7372     28.8657
  1015.2000      8.0680      2.5491      0.0846      6.1155    159.0759     29.5191
  1015.3000      8.0660      2.5535      0.0918      5.8482    158.0395     29.9887
  1015.4000      8.0660      2.5416      0.1214      6.5699    160.6880     30.0833
  1015.5000      8.0677      2.5168      0.0764      8.0735    163.1365     29.8663
  1015.6000      8.0677      2.5004      0.0319      9.0693    164.0677     29.5360
  1015.7000      8.0677      2.4971      0.0283      9.2652    164.7630     29.1074
  1015.8000      8.0673      2.4917      0.0155      9.5968    164.0104     28.5625
  1015.9000      8.0673      2.4806      0.0324     10.2693    162.7301     28.2572
  1016.0000      8.0619      2.4756      0.0056     10.5698    163.8262     28.2756
  1016.1000      8.0619      2.4857      0.0173      9.9605    162.6845     28.4354
  1016.2000      8.0619      2.5021      0.0746      8.9635    155.7495     28.7301
  1016.3000      8.0595      2.5067      0.0652      8.6852    149.7279     28.9767
  1016.4000      8.0595      2.5000      0.0171      9.0912    150.2010     28.8209
  1016.5000      8.0625      2.5041      0.0218      8.8416    156.0702     28.1819
  1016.6000      8.0625      2.5218      0.0848      7.7681    162.9335     27.3609
  1016.7000      8.0625      2.5240      0.1267      7.6356    167.5836     26.9493
  1016.8000      8.0644      2.4985      0.0651      9.1817    169.1589     27.1578
  1016.9000      8.0644      2.4689      0.0622     10.9732    164.8737     27.5133
  1017.0000      8.0659      2.4535      0.0364     11.9105    154.4022     27.6713
  1017.1000      8.0659      2.4416      0.0764     12.6327    144.3944     27.8962
  1017.2000      8.0659      2.4228      0.0544     13.7722    138.2245     28.2926
  1017.3000      8.0564      2.4120      0.0402     14.4239    133.5301     28.6391
  1017.4000      8.0564      2.4198      0.0803     13.9542    130.0320     28.9728
  1017.5000      8.0707      2.4354      0.0503     13.0076    129.2345     29.3110
  1017.6000      8.0707      2.4475      0.1031     12.2712    129.5316     29.4650
  1017.7000      8.0707      2.4552      0.0824     11.8078    128.3882     29.5230
  1017.8000      8.0530      2.4635      0.1135     11.3051    126.6155     29.5645
  1017.9000      8.0530      2.4739      0.0696     10.6714    126.0387     29.4726
  1018.0000      8.0450      2.4827      0.0943     10.1401    126.9435     29.3851
  1018.1000      8.0450      2.4832      0.1239     10.1117    128.4387     29.3410
  1018.2000      8.0450      2.4758      0.1009     10.5546    128.0690     29.2145
  1018.3000      8.0354      2.4642      0.1357     11.2611    127.9270     29.0772
  1018.4000      8.0354      2.4437      0.0797     12.5047    133.6343     29.0316
  1018.5000      8.0370      2.4122      0.0382     14.4092    145.1909     28.9578
  1018.6000      8.0370      2.3737      0.0507     16.7461    156.6811     28.8168
  1018.7000      8.0370      2.3335      0.0355     19.1808    162.1275     28.8202
  1018.8000      8.0424      2.2943      0.0135     21.5546    161.4904     29.1950
  1018.9000      8.0424      2.2594     -0.0040     23.6718    160.6267     29.7092
  1019.0000      8.0348      2.2403      0.0017     24.8281    163.7669     29.9693
  1019.1000      8.0348      2.2442      0.0392     24.5934    168.7542     30.0813
