~Version Information
VERS.                      2.0: CWLS Log ASCII Standard - VERSION 2.0
WRAP.                       NO: One line per depth step
~Well Information Block
STRT.FT                30.0000: 
STOP.FT              2789.0000: 
STEP.FT                 0.1000: 
NULL.                -999.2500: 
COMP.          Pioneer Natural Resources: COMPANY
WELL.          Rabbit Bush Federal 44-19: WELL
FLD.           Purgatorie River: FIELD
LOC.           826' FSL & 1127' FEL: LOCATION
CNTY.               Las Animas: COUNTY
SRVC.                Patterson: SERVICE COMPANY
DATE.          Mon Aug 28 10:56:57 2006: LOG DATE
UWI.           05-071-08149-00: UNIQUE WELL ID
STAT.                 Colorado: STATE
~Curve Information Block
DEPT.FT            0 000 00 00: Depth
DCAL.in                       : CDL Caliper
RHOB.g/cc                     : CDL Bulk Density
RHOC.g/cc                     : CDL Density Correction
DPOR.pu                       : CDL Density Porosity
GR.GAPI                       : Gamma Ray
NPOR.pu                       : Neutron Porosity
~Parameter Information Block
~A  Depth       DCAL        RHOB        RHOC        DPOR         GR         NPOR    
# ...
  1662.0000      7.9736      1.9623      0.1021     41.6798     57.6075     12.6995
  1662.1000      7.9736      2.0365      0.1603     37.1828     59.6345     13.5849
  1662.2000      7.9736      2.1097      0.1899     32.7441     59.3125     14.2880
  1662.3000      7.9435      2.1725      0.1246     28.9416     57.2817     14.9504
  1662.4000      7.9435      2.2318      0.1685     25.3445     55.4287     16.0672
  1662.5000      7.9158      2.2906      0.1543     21.7791     56.0738     17.7051
  1662.6000      7.9158      2.3517      0.1291     18.0806     61.3238     19.2422
  1662.7000      7.9158      2.4149      0.0684     14.2489     68.8709     20.2358
  1662.8000      7.8912      2.4678     -0.0402     11.0413     74.9416     20.8430
  1662.9000      7.8912      2.4985     -0.0609      9.1828     79.2691     21.2780
  1663.0000      7.8826      2.5103     -0.0105      8.4686     82.6892     21.4740
  1663.1000      7.8826      2.5161     -0.0190      8.1130     85.1386     21.2027
  1663.2000      7.8826      2.5155      0.0280      8.1505     87.8981     20.4042
  1663.3000      7.9112      2.4944      0.0208      9.4275     92.5851     19.4524
  1663.4000      7.9112      2.4588     -0.0008     11.5860     98.1554     18.9003
  1663.5000      7.9439      2.4225      0.0251     13.7893    103.4145     18.7423
  1663.6000      7.9439      2.3768      0.0025     16.5550    109.2391     18.6469
  1663.7000      7.9439      2.3253     -0.0543     19.6797    114.6458     18.5667
  1663.8000      7.9551      2.2893      0.0776     21.8601    116.8352     18.6107
  1663.9000      7.9551      2.2741      0.0269     22.7791    115.9233     18.8181
  1664.0000      7.9499      2.2772      0.1623     22.5938    113.2281     19.1703
  1664.1000      7.9499      2.2979      0.1313     21.3423    107.7513     19.6225
  1664.2000      7.9499      2.3351      0.1804     19.0872    100.1531     20.1388
  1664.3000      7.9365      2.3812      0.2014     16.2881     95.8948     20.6627
  1664.4000      7.9365      2.4175      0.2838     14.0893     96.6609     21.0477
  1664.5000      7.9108      2.4205      0.2554     13.9114     97.8252     21.2485
  1664.6000      7.9108      2.3853      0.1501     16.0442     98.3301     21.3496
  1664.7000      7.9108      2.3313      0.0953     19.3136     99.4862     21.3703
  1664.8000      7.8870      2.2860      0.0313     22.0577     99.5210     21.2612
  1664.9000      7.8870      2.2667      0.0169     23.2309     99.8934     21.0081
  1665.0000      7.8963      2.2678     -0.0420     23.1620    105.9962     20.7750
  1665.1000      7.8963      2.2731      0.0074     22.8428    116.9542     20.7451
  1665.2000      7.8963      2.2813     -0.0005     22.3442    125.1770     20.9289
  1665.3000      7.9347      2.3055      0.0294     20.8790    128.1072     21.1547
  1665.4000      7.9347      2.3357      0.1243     19.0503    131.2576     21.2692
  1665.5000      7.9527      2.3480      0.1758     18.3009    136.1043     21.3367
  1665.6000      7.9527      2.3482      0.1322     18.2932    137.6755     21.5236
  1665.7000      7.9527      2.3602      0.0960     17.5613    135.4604     21.8170
  1665.8000      7.9443      2.3844      0.1568     16.0974    133.1154     21.9418
  1665.9000      7.9443      2.3952      0.1745     15.4429    130.2334     21.9015
  1666.0000      7.9266      2.3838      0.1517     16.1313    125.4293     21.8180
  1666.1000      7.9266      2.3723      0.0726     16.8306    119.8746     21.6683
  1666.2000      7.9266      2.3779      0.1328     16.4934    113.8313     21.7008
  1666.3000      7.9094      2.3935      0.1438     15.5447    109.0489     22.0288
  1666.4000      7.9094      2.4138      0.1667     14.3144    108.6243     22.4040
  1666.5000      7.9067      2.4476      0.1576     12.2640    110.0434     22.7346
  1666.6000      7.9067      2.4958      0.1988      9.3434    108.6818     23.1171
  1666.7000      7.9067      2.5363      0.2184      6.8908    104.6847     23.7287
  1666.8000      7.9113      2.5498      0.1646      6.0757    101.3395     24.5384
  1666.9000      7.9113      2.5409      0.1900      6.6135    101.1546     25.2863
  1667.0000      7.9117      2.5249      0.1592      7.5812    102.3357     25.8432
  1667.1000      7.9117      2.5193      0.1151      7.9190    101.9987     26.2089
  1667.2000      7.9117      2.5399      0.0608      6.6737    101.2976     26.5719
  1667.3000      7.8994      2.5866      0.0756      3.8442    102.5400     27.3241
  1667.4000      7.8994      2.6409      0.1022      0.5536    106.0139     28.2477
  1667.5000      7.8881      2.6895      0.1072     -2.3958    108.6547     28.7222
  1667.6000      7.8881      2.7334      0.1455     -5.0556    106.7347     28.8915
  1667.7000      7.8881      2.7674      0.2213     -7.1136    101.5446     29.3187
  1667.8000      7.8864      2.7764      0.2740     -7.6585     98.5724     29.9638
  1667.9000      7.8864      2.7666      0.1203     -7.0679    101.1341     30.3365
  1668.0000      7.8951      2.7639      0.1180     -6.9044    105.2834     30.1316
  1668.1000      7.8951      2.7681      0.1021     -7.1602    105.1683     29.3581
  1668.2000      7.8951      2.7691      0.1427     -7.2157    102.4975     28.2638
  1668.3000      7.9082      2.7727      0.1359     -7.4362    103.6681     27.2278
  1668.4000      7.9082      2.7705      0.1604     -7.3041    110.4952     26.2788
  1668.5000      7.9130      2.7457      0.1161     -5.8023    119.0822     25.1502
  1668.6000      7.9130      2.7097      0.1233     -3.6205    125.8414     23.8495
  1668.7000      7.9130      2.6840      0.0983     -2.0605    131.4063     22.6843
  1668.8000      7.9148      2.6757      0.1029     -1.5594    138.0060     22.0694
  1668.9000      7.9148      2.6730      0.1549     -1.3923    145.9240     22.0769
  1669.0000      7.9259      2.6604      0.1062     -0.6282    152.0565     22.3273
  1669.1000      7.9259      2.6419      0.1075      0.4894    154.2586     22.6977
  1669.2000      7.9259      2.6280      0.1505      1.3328    156.1017     23.2054
  1669.3000      7.9405      2.6207      0.1248      1.7741    159.5710     23.5764
  1669.4000      7.9405      2.6153      0.1322      2.1005    161.0414     23.6010
  1669.5000      7.9556      2.5993      0.1483      3.0750    160.0689     23.6399
  1669.6000      7.9556      2.5775      0.0756      4.3927    160.8292     23.9993
  1669.7000      7.9556      2.5744      0.0901      4.5832    164.7469     24.4702
  1669.8000      7.9675      2.5860      0.1284      3.8795    168.4862     24.7332
  1669.9000      7.9675      2.5879      0.0814      3.7647    169.4975     24.8167
  1670.0000      7.9661      2.5753      0.0854      4.5282    168.2923     24.9861
  1670.1000      7.9661      2.5553      0.1084      5.7414    166.2639     25.2215
  1670.2000      7.9661      2.5329      0.0746      7.0983    164.8979     25.2762
  1670.3000      7.9642      2.5192      0.0185      7.9300    164.1213     25.1761
  1670.4000      7.9642      2.5169      0.0751      8.0637    163.5571     25.3007
  1670.5000      7.9666      2.5162      0.0602      8.1096    164.4217     25.7114
  1670.6000      7.9666      2.5292      0.0187      7.3211    168.8055     25.9709
  1670.7000      7.9666      2.5725      0.0932      4.6967    175.8311     25.7777
  1670.8000      7.9692      2.6260      0.1374      1.4533    179.5527     25.2053
  1670.9000      7.9692      2.6595      0.1526     -0.5733    175.7304     24.4868
  1671.0000      7.9649      2.6664      0.1618     -0.9923    168.7085     24.0158
  1671.1000      7.9649      2.6602      0.1674     -0.6208    166.8624     23.9705
  1671.2000      7.9649      2.6509      0.1149     -0.0528    171.5742     24.1564
  1671.3000      7.9601      2.6357      0.1198      0.8676    176.2032     24.3470
  1671.4000      7.9601      2.6118      0.1418      2.3143    176.0736     24.4596
  1671.5000      7.9728      2.5884      0.1028      3.7305    172.0606     24.6555
