~Version Information
VERS.                      2.0: CWLS Log ASCII Standard - VERSION 2.0
WRAP.                       NO: One line per depth step
~Well Information Block
STRT.FT               488.0000: 
STOP.FT              1824.7000: 
STEP.FT                 0.1000: 
NULL.                -999.2500: 
COMP.          Pioneer Natural Resources: COMPANY
WELL.            Buckeye 11-13: WELL
FLD.           Purgatoire River: FIELD
LOC.           211' FNL & 1054' FWL: LOCATION
STAT.                 Colorado: State
CNTY.               Las Animas: COUNTY
CTRY. USA : Country
SECT. 13 : Section
TOWN. 33S : Township
RANG. 67W : Range
SRVC.                Patterson: SERVICE COMPANY
DATE.          Mon Mar 07 02:06:39 2005: LOG DATE
API.           05 071 08317 00: UNIQUE WELL ID
~Curve Information Block
DEPT.FT            0 000 00 00: Depth
DCAL.in                       : CDL Caliper
RHOB.g/cc                     : CDL Bulk Density
RHOC.g/cc                     : CDL Density Correction
DPOR.pu                       : CDL Density Porosity
GR.GAPI                       : Gamma Ray
NPOR.pu                       : Neutron Porosity
~Parameter Information Block
~A  Depth       DCAL        RHOB        RHOC        DPOR         GR         NPOR    
# ...
  1812.8000      7.8383      2.5342      0.0231      7.0162   -999.2500   -999.2500
  1812.9000      7.8383      2.5303     -0.0084      7.2520   -999.2500   -999.2500
  1813.0000      7.8354      2.5343      0.0090      7.0143   -999.2500   -999.2500
  1813.1000      7.8354      2.5427      0.0137      6.5028   -999.2500   -999.2500
  1813.2000      7.8354      2.5535      0.0326      5.8476   -999.2500   -999.2500
  1813.3000      7.8391      2.5737     -0.0103      4.6226   -999.2500   -999.2500
  1813.4000      7.8391      2.6000      0.0656      3.0301   -999.2500   -999.2500
  1813.5000      7.8444      2.6086      0.0698      2.5101   -999.2500   -999.2500
  1813.6000      7.8444      2.5905      0.0500      3.6065   -999.2500   -999.2500
  1813.7000      7.8444      2.5728      0.0157      4.6783   -999.2500   -999.2500
  1813.8000      7.8425      2.5821      0.0013      4.1130   -999.2500   -999.2500
  1813.9000      7.8425      2.6058      0.0739      2.6790   -999.2500   -999.2500
  1814.0000      7.8190      2.6131      0.0630      2.2381   -999.2500   -999.2500
  1814.1000      7.8190      2.6027      0.0224      2.8673   -999.2500   -999.2500
  1814.2000      7.8190      2.5963     -0.0008      3.2528   -999.2500   -999.2500
  1814.3000      7.8107      2.5964      0.0484      3.2502   -999.2500   -999.2500
  1814.4000      7.8107      2.5897      0.0071      3.6539   -999.2500   -999.2500
  1814.5000      7.8271      2.5794     -0.0080      4.2786   -999.2500   -999.2500
  1814.6000      7.8271      2.5674      0.0240      5.0087   -999.2500   -999.2500
  1814.7000      7.8271      2.5410      0.0249      6.6047   -999.2500   -999.2500
  1814.8000      7.8420      2.5085     -0.0270      8.5761   -999.2500   -999.2500
  1814.9000      7.8420      2.5070     -0.0757      8.6660   -999.2500   -999.2500
  1815.0000      7.8555      2.5437      0.0395      6.4394   -999.2500   -999.2500
  1815.1000      7.8555      2.5725      0.0684      4.6996   -999.2500   -999.2500
  1815.2000      7.8555      2.5632      0.0559      5.2625   -999.2500   -999.2500
  1815.3000      7.8580      2.5323      0.0197      7.1313   -999.2500   -999.2500
  1815.4000      7.8580      2.5037      0.0383      8.8639   -999.2500   -999.2500
  1815.5000      7.8410      2.4971     -0.0391      9.2683   -999.2500   -999.2500
  1815.6000      7.8410      2.5225      0.0440      7.7289   -999.2500   -999.2500
  1815.7000      7.8410      2.5556      0.0267      5.7216   -999.2500   -999.2500
  1815.8000      7.8491      2.5610      0.0653      5.3961   -999.2500   -999.2500
  1815.9000      7.8491      2.5359     -0.0034      6.9172   -999.2500   -999.2500
  1816.0000      7.8563      2.5127     -0.0507      8.3208   -999.2500   -999.2500
  1816.1000      7.8563      2.5144     -0.0179      8.2163   -999.2500   -999.2500
  1816.2000      7.8563      2.5316     -0.0089      7.1760   -999.2500   -999.2500
  1816.3000      7.8507      2.5454      0.0275      6.3411   -999.2500   -999.2500
  1816.4000      7.8507      2.5527     -0.0057      5.8976   -999.2500   -999.2500
  1816.5000      7.8464      2.5649      0.0694      5.1569   -999.2500   -999.2500
  1816.6000      7.8464      2.5803      0.0952      4.2271   -999.2500   -999.2500
  1816.7000      7.8464      2.5838      0.0656      4.0115   -999.2500   -999.2500
  1816.8000      7.8359      2.5726      0.0605      4.6937   -999.2500   -999.2500
  1816.9000      7.8359      2.5604      0.0363      5.4297   -999.2500   -999.2500
  1817.0000      7.8235      2.5576      0.0325      5.6000   -999.2500   -999.2500
  1817.1000      7.8235      2.5568      0.0762      5.6483   -999.2500   -999.2500
  1817.2000      7.8235      2.5461      0.0470      6.2941   -999.2500   -999.2500
  1817.3000      7.8425      2.5240      0.0532      7.6339   -999.2500   -999.2500
  1817.4000      7.8425      2.5007      0.0192      9.0513   -999.2500   -999.2500
  1817.5000      7.8422      2.4925      0.0048      9.5484   -999.2500   -999.2500
  1817.6000      7.8422      2.5015      0.0102      9.0000   -999.2500   -999.2500
  1817.7000      7.8422      2.5087      0.0627      8.5640   -999.2500   -999.2500
  1817.8000      7.8193      2.5052      0.0560      8.7767   -999.2500   -999.2500
  1817.9000      7.8193      2.5024      0.0605      8.9459   -999.2500   -999.2500
  1818.0000      7.8342      2.4980      0.1029      9.2117   -999.2500   -999.2500
  1818.1000      7.8342      2.4761      0.1401     10.5410   -999.2500   -999.2500
  1818.2000      7.8342      2.4423      0.1099     12.5908   -999.2500   -999.2500
  1818.3000      7.8323      2.4180      0.0114     14.0582   -999.2500   -999.2500
  1818.4000      7.8323      2.4034      0.0466     14.9481   -999.2500   -999.2500
  1818.5000      7.8528      2.3857     -0.0084     16.0170   -999.2500   -999.2500
  1818.6000      7.8528      2.3698      0.0366     16.9789   -999.2500   -999.2500
  1818.7000      7.8528      2.3628      0.0394     17.4034   -999.2500   -999.2500
  1818.8000      7.8500      2.3649      0.0173     17.2809   -999.2500   -999.2500
  1818.9000      7.8500      2.3786      0.0317     16.4465   -999.2500   -999.2500
  1819.0000      7.8733      2.4007      0.0698     15.1097   -999.2500   -999.2500
  1819.1000      7.8733      2.4190      0.0394     14.0022   -999.2500   -999.2500
  1819.2000      7.8733      2.4291      0.0471     13.3852   -999.2500   -999.2500
  1819.3000      7.8216      2.4289      0.0680     13.3986   -999.2500   -999.2500
  1819.4000      7.8216      2.4169     -0.0052     14.1294   -999.2500   -999.2500
  1819.5000      7.8312      2.4006      0.0125     15.1171   -999.2500   -999.2500
  1819.6000      7.8312      2.3886     -0.0389     15.8421   -999.2500   -999.2500
  1819.7000      7.8312      2.3827      0.0061     16.1993   -999.2500   -999.2500
  1819.8000      7.8157      2.3754      0.0183     16.6417   -999.2500   -999.2500
  1819.9000      7.8157      2.3630      0.0294     17.3945   -999.2500   -999.2500
  1820.0000      7.8055      2.3535     -0.0144     17.9698   -999.2500   -999.2500
  1820.1000      7.8055      2.3541      0.0319     17.9310   -999.2500   -999.2500
  1820.2000      7.8055      2.3605      0.0591     17.5431   -999.2500   -999.2500
  1820.3000      7.7632      2.3697      0.0842     16.9859   -999.2500   -999.2500
  1820.4000      7.7632      2.3802      0.0998     16.3488   -999.2500   -999.2500
  1820.5000      7.7766      2.3832      0.0986     16.1669   -999.2500   -999.2500
  1820.6000      7.7766      2.3733      0.0918     16.7670   -999.2500   -999.2500
  1820.7000      7.7766      2.3570      0.0497     17.7593   -999.2500   -999.2500
  1820.8000      7.7865      2.3428      0.0629     18.6187   -999.2500   -999.2500
  1820.9000      7.7865      2.3383      0.0393     18.8931   -999.2500   -999.2500
  1821.0000      7.7651      2.3525      0.0338     18.0303   -999.2500   -999.2500
  1821.1000      7.7651      2.3850      0.0672     16.0591   -999.2500   -999.2500
  1821.2000      7.7651      2.4199      0.0662     13.9447   -999.2500   -999.2500
  1821.3000      7.7429      2.4417      0.1055     12.6247   -999.2500   -999.2500
  1821.4000      7.7429      2.4472      0.0829     12.2903   -999.2500   -999.2500
  1821.5000      7.7320      2.4419      0.0932     12.6103   -999.2500   -999.2500
  1821.6000      7.7320      2.4290      0.0890     13.3912   -999.2500   -999.2500
  1821.7000      7.7320      2.4096      0.0735     14.5699   -999.2500   -999.2500
  1821.8000      7.6958      2.3856      0.0971     16.0271   -999.2500   -999.2500
  1821.9000      7.6958      2.3860     -0.0207     16.0022   -999.2500   -999.2500
  1822.0000      7.6435      2.4695      0.0265     10.9372   -999.2500   -999.2500
  1822.1000      7.6435      2.5280      0.0316      7.3965   -999.2500   -999.2500
  1822.2000      7.6435      2.1391      0.5170     30.9613   -999.2500   -999.2500
  1822.3000      7.5194      1.2233      0.0000     86.4663   -999.2500   -999.2500
