~Version Information
VERS.                      2.0: CWLS Log ASCII Standard - VERSION 2.0
WRAP.                       NO: One line per depth step
~Well Information Block
STRT.FT                -7.7500: 
STOP.FT              1532.2500: 
STEP.FT                 0.2500: 
NULL.                -999.2500: 
COMP.          Pioneer Natural Resources: COMPANY
WELL.          Big Cat Federal 44-1: WELL
FLD.           Purgatorie River: FIELD
LOC.           197' FSL & 973' FEL--: LOCATION
CNTY.               Las Animas: COUNTY
SRVC.          Patterson Wireline: SERVICE COMPANY
DATE.          Fri Apr 28 12:21:06 2006: LOG DATE
UWI.           05 071 08042 00: UNIQUE WELL ID
STAT.                       CO: STATE
~Curve Information Block
DEPT.FT            0 000 00 00: Depth
CCL.                          : Casing Collar Locator
TT3.usec                      : CBL 3' Travel Time
AMP3.mV                       : CBL 3' Amplitude
GR.GAPI                       : Gamma Ray
~Parameter Information Block
~A  Depth       CCL         TT3         AMP3         GR     
# ...
   193.2500      0.0000    861.9242     14.2165     70.4479
   193.5000      0.0000    825.2120     14.3244     70.2671
   193.7500      0.0000    769.6113     14.4953     73.9172
   194.0000      0.0000    701.7076     14.7173     79.7598
   194.2500      0.0000    641.2985     14.9233     86.0879
   194.5000      0.0000    605.7621     15.0618     91.5312
   194.7500      0.0000    593.8177     15.1472     95.1400
   195.0000      0.0000    592.8616     15.2372     96.9376
   195.2500      0.0000    599.9452     15.3689     98.0411
   195.5000      0.0000    623.1315     15.5249     99.5124
   195.7500      0.0000    660.2661     15.6695    101.1995
   196.0000      0.0000    688.1118     15.8008    101.9802
   196.2500      0.0000    679.2032     15.9440    100.9225
   196.5000      0.0000    627.2040     16.0950     98.1968
   196.7500      0.0000    555.2134     16.1939     95.2022
   197.0000      0.0000    501.0175     16.1684     93.6361
   197.2500      0.0000    491.5617     15.9996     93.9982
   197.5000      0.0000    526.2932     15.7418     95.1362
   197.7500      0.0000    582.2838     15.4822     95.4861
   198.0000      0.0000    635.6472     15.2837     94.3822
   198.2500      0.0000    677.3837     15.1542     92.0262
   198.5000      0.0000    708.7604     15.0627     88.8444
   198.7500      0.0000    727.5431     14.9784     85.3786
   199.0000      0.0000    725.3054     14.8925     82.5118
   199.2500      0.0000    697.8263     14.8089     81.2475
   199.5000      0.0000    655.3412     14.7228     82.1067
   199.7500      0.0000    620.4364     14.6147     84.7294
   200.0000      0.0000    612.0217     14.4640     87.9284
   200.2500      0.0000    628.8046     14.2661     90.2562
   200.5000      0.0000    650.9170     14.0260     91.0420
   200.7500      0.0000    659.8574     13.7214     91.0497
   201.0000      0.0000    656.0179     13.2920     91.7575
   201.2500      0.0000    656.7194     12.7086     93.7254
   201.5000      0.0000    679.3529     12.0550     95.7644
   201.7500      0.0000    726.7225     11.4782     96.0785
   202.0000      0.0000    785.5356     11.0430     94.3100
   202.2500      0.0000    835.7112     10.6987     92.0082
   202.5000      0.0000    863.0663     10.3888     90.7896
   202.7500      0.0000    867.9297     10.1235     90.6006
   203.0000      2.0000    863.1684      9.9400     90.4290
   203.2500      2.0000    860.8184      9.8604     90.1729
   203.5000      0.0000    857.0724      9.8996     90.8088
   203.7500      0.0000    832.6404     10.0833     92.9456
   204.0000      0.0000    773.9216     10.4434     96.0791
   204.2500      0.0000    693.3795     10.9958     99.1012
   204.5000      0.0000    623.2532     11.7002    100.7888
   204.7500      0.0000    589.6640     12.4389    100.1141
   205.0000      0.0000    596.5669     13.0680     97.0431
   205.2500      0.0000    629.6329     13.5025     92.9997
   205.5000      0.0000    667.7922     13.7435     89.9066
   205.7500      0.0000    692.0237     13.8452     88.7128
   206.0000      0.0000    689.7391     13.8830     88.9729
   206.2500      0.0000    656.2990     13.9346     89.5588
   206.5000      0.0000    596.4268     14.0519     89.6754
   206.7500      0.0000    524.2473     14.2384     89.4111
   207.0000      0.0000    457.5756     14.4590     89.3821
   207.2500      0.0000    408.6602     14.6766     89.9415
   207.5000      0.0000    380.1833     14.8773     90.8737
   207.7500      0.0000    369.3114     15.0697     91.6006
   208.0000      0.0000    374.0516     15.2653     91.3874
   208.2500      0.0000    396.1732     15.4601     89.5357
   208.5000      0.0000    438.0164     15.6333     85.7019
   208.7500      0.0000    493.9246     15.7729     80.3379
   209.0000      0.0000    544.5081     15.9069     74.9554
   209.2500      0.0000    564.6393     16.0950     71.6478
   209.5000      0.0000    542.2564     16.3790     71.8719
   209.7500      0.0000    488.8754     16.7580     75.4609
   210.0000      0.0000    429.7237     17.2178     80.7153
   210.2500      0.0000    384.4951     17.7604     85.3854
   210.5000      0.0000    357.9446     18.3784     87.8705
   210.7500      0.0000    344.7856     19.0074     88.0195
   211.0000      0.0000    338.6358     19.5266     87.1382
   211.2500      0.0000    336.0207     19.8289     87.0528
   211.5000      0.0000    335.3168     19.9074     88.6244
   211.7500      0.0000    334.8803     19.8815     91.0190
   212.0000      0.0000    333.0847     19.9171     92.7878
   212.2500      0.0000    329.4790     20.1024     93.6409
   212.5000      0.0000    325.0625     20.3994     94.6900
   212.7500      0.0000    321.0844     20.7089     96.9993
   213.0000      0.0000    317.9817     20.9486    100.2659
   213.2500      0.0000    315.7997     21.0551    102.9035
   213.5000      0.0000    315.1495     20.9587    103.2806
   213.7500      0.0000    316.9344     20.6208    100.9330
   214.0000      0.0000    320.9731     20.1033     96.5332
   214.2500      0.0000    325.3327     19.5704     91.0061
   214.5000      0.0000    327.5054     19.1953     85.2590
   214.7500      0.0000    326.5176     19.0499     80.5590
   215.0000      0.0000    323.8605     19.0750     78.2968
   215.2500      0.0000    322.1048     19.1524     79.2078
   215.5000      0.0000    322.4868     19.2070     83.1333
   215.7500      0.0000    324.0404     19.2408     89.2677
   216.0000      0.0000    325.1550     19.2810     96.1925
   216.2500      0.0000    325.4423     19.3220    101.9119
   216.5000      0.0000    325.5667     19.3310    104.5263
   216.7500      0.0000    325.8385     19.2894    103.4533
   217.0000      0.0000    326.0726     19.2010    100.1688
   217.2500      0.0000    326.6777     19.0641     97.4707
   217.5000      0.0000    328.6748     18.8668     97.5721
   217.7500      0.0000    332.3055     18.6248    100.6584
   218.0000      0.0000    336.3776     18.4048    105.0811
   218.2500      0.0000    339.2448     18.2941    108.7488
   218.5000      0.0000    340.0345     18.3398    110.3974
   218.7500      0.0000    339.0361     18.5077    109.8192
   219.0000      0.0000    337.4466     18.6896    107.3196
   219.2500      0.0000    336.6985     18.7660    103.5335
   219.5000      0.0000    337.5082     18.6828     99.7933
   219.7500      0.0000    339.4268     18.4682     97.8812
   220.0000      0.0000    341.4450     18.1763     98.8107
   220.2500      0.0000    342.9157     17.8422    101.9383
   220.5000      0.0000    343.7996     17.5051    105.3905
   220.7500      0.0000    344.2719     17.2409    107.2892
   221.0000      0.0000    344.3370     17.1406    106.6944
   221.2500      0.0000    343.7605     17.2573    103.9159
   221.5000      0.0000    342.2797     17.5735    100.3262
   221.7500      0.0000    340.0068     17.9983     97.6299
   222.0000      0.0000    337.7422     18.3956     96.6157
   222.2500      0.0000    336.6483     18.6502     96.3664
   222.5000      0.0000    337.2779     18.7279     95.0218
   222.7500      0.0000    338.9690     18.6739     91.4274
   223.0000      0.0000    340.3564     18.5680     86.0103
   223.2500      0.0000    340.4138     18.5008     80.3549
   223.5000      0.0000    339.0769     18.5582     76.2672
   223.7500      0.0000    337.1905     18.7683     75.0092
   224.0000      0.0000    335.8275     19.0618     76.7962
   224.2500      0.0000    335.3668     19.3228     80.6107
   224.5000      0.0000    335.3484     19.4797     84.6032
   224.7500      0.0000    335.4121     19.5199     87.1377
   225.0000      0.0000    335.9576     19.4446     87.7107
   225.2500      0.0000    337.4914     19.2571     86.8270
   225.5000      0.0000    339.7408     18.9857     85.1826
   225.7500      0.0000    341.8653     18.6792     83.4363
   226.0000      0.0000    343.2927     18.3834     82.5926
   226.2500      0.0000    344.0332     18.1413     83.8579
   226.5000      0.0000    344.3708     17.9925     87.7236
