~Version Information
 VERS.                                  2.0 : CWLS LAS VERSION
 WRAP.                                   NO : WRAPING MODE
 SWARE .                 MController 2.5.0N : SOFTWARE VERSION
~Well Information
 WELL.                         State 16-41V : WELL
 COMP.                Petrogulf Corporation : COMPANY
 FLD.                      Purgatoire River : FIELD
 LOC.                NE/NE Sec 16 T33S R67W : LOCATION
 DATE.                             08/01/05 : DATE(S) LOGGED
 SRVC.       BLANCO Geological Services LLC : SERVICE COMPANY
 STAT.                                   CO : STATE
 CNTY.                           Las Animas : COUNTY
 CTRY.                                  USA : COUNTRY
 API.                       05-071-08344-00 : API NUMBER
 STRT.FT                             582.00 : START DEPTH
 STOP.FT                            2275.00 : STOP DEPTH
 STEP.FT                               1.00 : DEPTH INCREMENT
 NULL.                                -9999 : NULL VALUE
~Curve information
 DEPTH.FT                                   :
 ROP.MIN/FT                                 :
 GAS.UNITS                                  :
~ASCII Log data
# ...
      1182.0         0.20         16.1 
      1183.0         0.23         15.6 
      1184.0         0.20         15.3 
      1185.0         0.27         18.9 
      1186.0         0.25         18.9 
      1187.0         0.33         15.6 
      1188.0         0.23          9.8 
      1189.0         0.17          7.4 
      1190.0         0.20          9.1 
      1191.0         0.17         12.5 
      1192.0         0.20         20.0 
      1193.0         0.27         33.8 
      1194.0         0.27         46.4 
      1195.0         0.30         56.6 
      1196.0         1.58         59.0 
      1197.0         0.50         24.9 
      1198.0         0.33         23.5 
      1199.0         0.40         22.8 
      1200.0         0.37         21.1 
      1201.0         0.47         20.1 
      1202.0         0.27         18.9 
      1203.0         0.17         18.3 
      1204.0         0.28         18.0 
      1205.0         0.20         18.5 
      1206.0         0.20         19.0 
      1207.0         0.27         18.0 
      1208.0         0.27         14.0 
      1209.0         0.30         12.3 
      1210.0         0.30         15.9 
      1211.0         0.27         18.5 
      1212.0         0.27         19.4 
      1213.0         0.27         19.1 
      1214.0         0.33         18.6 
      1215.0         0.23         18.7 
      1216.0         0.35         22.9 
      1217.0         0.30         25.8 
      1218.0         0.20         21.9 
      1219.0         0.20         16.0 
      1220.0         0.37         11.4 
      1221.0         0.37         18.1 
      1222.0         0.27         30.3 
      1223.0         0.23         41.2 
      1224.0         0.23         51.9 
      1225.0         0.27         62.4 
      1226.0         1.65         64.8 
      1227.0         0.23         25.8 
      1228.0         0.27         22.5 
      1229.0         0.23         20.1 
      1230.0         0.20         18.8 
      1231.0         0.20         18.1 
      1232.0         0.20         17.4 
      1233.0         0.27         16.8 
      1234.0         0.38         16.3 
      1235.0         0.37         15.6 
      1236.0         0.23         15.2 
      1237.0         0.27         14.7 
      1238.0         0.43         13.9 
      1239.0         0.30         13.4 
      1240.0         0.27         13.3 
      1241.0         0.23         13.3 
      1242.0         0.27         13.4 
      1243.0         0.30         13.5 
      1244.0         0.30         13.5 
      1245.0         0.18         14.0 
      1246.0         0.17         17.0 
      1247.0         0.27         18.3 
      1248.0         0.27         16.3 
      1249.0         0.27         11.6 
      1250.0         0.37          8.4 
      1251.0         0.27         16.4 
      1252.0         0.33         33.6 
      1253.0         0.23         48.3 
      1254.0         0.20         59.8 
      1255.0         0.20         67.1 
      1256.0         2.08         69.1 
      1257.0         0.47         23.2 
      1258.0         0.37         17.3 
      1259.0         0.23         15.7 
      1260.0         0.27         16.2 
      1261.0         0.35         15.8 
      1262.0         0.30         15.9 
      1263.0         0.20         16.1 
      1264.0         0.23         17.3 
      1265.0         0.20         17.6 
      1266.0         0.13         17.0 
      1267.0         0.10         15.8 
      1268.0         0.17         15.1 
      1269.0         0.20         14.7 
      1270.0         0.17         14.6 
      1271.0         0.20         14.9 
      1272.0         0.13         14.9 
      1273.0         0.27         17.9 
      1274.0         0.17         19.4 
      1275.0         0.27         18.9 
      1276.0         0.38         14.7 
      1277.0         0.33          9.7 
      1278.0         0.30         15.6 
      1279.0         0.23         23.7 
      1280.0         0.13         30.9 
      1281.0         0.20         43.0 
      1282.0         0.17         54.1 
      1283.0         0.23         67.4 
      1284.0         0.20         72.8 
      1285.0         0.23         73.2 
      1286.0         1.32         71.1 
      1287.0         0.27         28.8 
      1288.0         0.30         24.2 
      1289.0         0.23         20.4 
      1290.0         0.27         18.9 
      1291.0         0.20         17.0 
      1292.0         0.23         16.3 
      1293.0         0.30         15.1 
      1294.0         0.27         13.9 
      1295.0         0.20         13.0 
      1296.0         0.23         12.4 
      1297.0         0.18         11.9 
      1298.0         0.23         11.9 
      1299.0         0.20         11.5 
      1300.0         0.20         11.3 
      1301.0         0.17         11.3 
      1302.0         0.23         11.4 
      1303.0         0.33         11.7 
      1304.0         0.30         12.3 
      1305.0         0.20         14.9 
      1306.0         0.27         15.1 
      1307.0         0.30         12.1 
      1308.0         0.30          8.6 
      1309.0         0.23          8.4 
      1310.0         0.20         12.2 
      1311.0         0.28         20.9 
      1312.0         0.23         29.3 
      1313.0         0.20         39.7 
      1314.0         0.23         51.2 
      1315.0         0.30         56.2 
      1316.0         1.50         56.1 
      1317.0         0.43         23.7 
      1318.0         0.38         17.4 
      1319.0         0.47         15.2 
      1320.0         0.30         14.9 
      1321.0         0.27         14.5 
      1322.0         0.37         14.0 
      1323.0         0.23         13.3 
      1324.0         0.27         12.7 
      1325.0         0.33         12.6 
      1326.0         0.33         12.6 
      1327.0         0.27         12.6 
      1328.0         0.25         12.5 
      1329.0         0.20         12.6 
      1330.0         0.20         12.3 
      1331.0         0.20         13.7 
      1332.0         0.17         15.6 
      1333.0         0.20         15.4 
      1334.0         0.20         14.3 
      1335.0         0.20         11.9 
      1336.0         0.17          9.8 
      1337.0         0.17          8.4 
      1338.0         0.20          7.7 
      1339.0         0.20          8.7 
      1340.0         0.20         11.5 
      1341.0         0.17         16.1 
      1342.0         0.20         22.9 
      1343.0         0.13         29.0 
      1344.0         0.18         37.6 
      1345.0         0.27         44.6 
      1346.0         1.77         49.6 
      1347.0         0.30         25.8 
      1348.0         0.27         21.4 
      1349.0         0.27         18.4 
      1350.0         0.45         16.3 
      1351.0         0.27         14.1 
      1352.0         0.30         13.3 
      1353.0         0.33         13.2 
      1354.0         0.37         12.7 
      1355.0         0.17         12.3 
      1356.0         0.27         13.3 
      1357.0         0.27         13.6 
      1358.0         0.20         14.0 
      1359.0         0.17         14.3 
      1360.0         0.17         14.8 
      1361.0         0.20         15.4 
      1362.0         0.35         15.9 
      1363.0         0.17         16.0 
      1364.0         0.27         16.3 
      1365.0         0.40         16.5 
      1366.0         0.30         17.0 
      1367.0         0.27         17.0 
      1368.0         0.37         15.9 
      1369.0         0.33         15.5 
      1370.0         0.30         13.6 
      1371.0         0.37         10.5 
      1372.0         0.52         13.1 
      1373.0         0.40         24.4 
      1374.0         0.30         35.9 
      1375.0         0.43         47.4 
      1376.0         1.77         48.0 
      1377.0         0.42         22.3 
      1378.0         0.37         19.1 
      1379.0         0.33         16.9 
      1380.0         0.27         15.4 
      1381.0         0.23         14.4 
