~Version Information
VERS.                      2.0: CWLS Log ASCII Standard - VERSION 2.0
WRAP.                       NO: One line per depth step
~Well Information Block
STRT.FT                -7.2500: 
STOP.FT               868.2500: 
STEP.FT                 0.2500: 
NULL.                -999.2500: 
COMP.          Pioneer Natural Resources: COMPANY
WELL.              Venom 32-22: WELL
FLD.           Purgatorie River: FIELD
LOC.           2307' FNL & 2024' FWL--: LOCATION
PROV.                       CO: PROVINCE
CNTY.               Las Animas: COUNTRY
SRVC.          Patterson Wireline: SERVICE COMPANY
DATE.          Mon May 16 15:26:38 2005: LOG DATE
UWI.           05 071 08361 00: UNIQUE WELL ID
~Curve Information Block
DEPT.FT            0 000 00 00: Depth
CCL.                          : Casing Collar Locator
TT3.usec                      : CBL 3' Travel Time
AMP3.mV                       : CBL 3' Amplitude
GR.GAPI                       : Gamma Ray
~Parameter Information Block
~A  Depth       CCL         TT3         AMP3         GR     
# ...
   763.2500      0.0000    827.7928      4.5495     72.8305
   763.5000      0.0000    806.1646      4.5017     73.7097
   763.7500      0.0000    785.0577      4.5420     72.9709
   764.0000      0.0000    772.3502      4.6457     71.4077
   764.2500      0.0000    772.2654      4.7543     69.7149
   764.5000      0.0000    783.0779      4.8273     68.3850
   764.7500      0.0000    799.2836      4.8715     67.7131
   765.0000      0.0000    814.4150      4.9215     67.6427
   765.2500      0.0000    822.5051      5.0025     67.8489
   765.5000      0.0000    820.3766      5.1076     68.1282
   765.7500      0.0000    810.7836      5.2044     68.4906
   766.0000      0.0000    802.0575      5.2690     68.8149
   766.2500      0.0000    802.1305      5.3044     68.7299
   766.5000      0.0000    812.1155      5.2987     67.9864
   766.7500      0.0000    826.3483      5.2052     66.7582
   767.0000      0.0000    838.2854      5.0240     65.5011
   767.2500      0.0000    845.2181      4.8788     64.6470
   767.5000      0.0000    848.0815      4.9274     64.4570
   767.7500      0.0000    848.8347      5.1885     65.0882
   768.0000      0.0000    848.8210      5.5095     66.7152
   768.2500      0.0000    848.6118      5.7179     69.4921
   768.5000      0.0000    848.3308      5.7705     73.2758
   768.7500      0.0000    847.7523      5.7497     77.2977
   769.0000      0.0000    846.0255      5.7430     80.2299
   769.2500      0.0000    841.1467      5.7533     80.9558
   769.5000      0.0000    829.8603      5.7207     79.6580
   769.7500      0.0000    809.1390      5.6051     78.0600
   770.0000      0.0000    779.2257      5.4353     78.2137
   770.2500      0.0000    745.4993      5.2880     80.8236
   770.5000      0.0000    716.2168      5.2224     84.6817
   770.7500      0.0000    697.7124      5.2373     87.6521
   771.0000      0.0000    691.6613      5.2974     88.2871
   771.2500      0.0000    695.8322      5.3944     86.6845
   771.5000      0.0000    706.3034      5.5542     83.8439
   771.7500      0.0000    719.8744      5.7611     80.4117
   772.0000      0.0000    735.7521      5.9012     76.4043
   772.2500      0.0000    754.2955      5.8414     71.9299
   772.5000      0.0000    773.4795      5.5784     67.5826
   772.7500      0.0000    788.2088      5.2720     64.1499
   773.0000      0.0000    794.5168      5.1016     62.3615
   773.2500      0.0000    793.5347      5.1081     62.7677
   773.5000      0.0000    790.1271      5.1929     65.3024
   773.7500      0.0000    787.6745      5.2411     68.9431
   774.0000      0.0000    784.8397      5.2180     72.2882
   774.2500      0.0000    777.4611      5.1678     74.5437
   774.5000      0.0000    762.9473      5.1514     75.6414
   774.7500      0.0000    742.7160      5.1931     75.5938
   775.0000      0.0000    721.1171      5.2782     74.2315
   775.2500      0.0000    702.6083      5.3752     71.5502
   775.5000      0.0000    689.6356      5.4450     68.0033
   775.7500      0.0000    682.2411      5.4526     64.4866
   776.0000      0.0000    678.9789      5.3984     62.0232
   776.2500      0.0000    678.1324      5.3187     61.1900
   776.5000      0.0000    678.4442      5.2432     61.7118
   776.7500      0.0000    679.2351      5.1701     62.7152
   777.0000      0.0000    680.2142      5.0878     63.5365
   777.2500      0.0000    681.2774      5.0033     64.2923
   777.5000      0.0000    682.3678      4.9336     65.5540
   777.7500      0.0000    683.3760      4.8641     67.4308
   778.0000      0.0000    684.1486      4.7349     69.1699
   778.2500      0.0000    684.6141      4.5121     69.8732
   778.5000      0.0000    684.9885      4.2790     69.5169
   778.7500      0.0000    686.0609      4.2078     69.0626
   779.0000      0.0000    689.5859      4.4061     69.4986
   779.2500      0.0000    698.3286      4.8036     70.8816
   779.5000      0.0000    714.7496      5.2077     72.5153
   779.7500      0.0000    738.3188      5.4585     73.9857
   780.0000      0.0000    764.0204      5.5179     75.5550
   780.2500      0.0000    784.8571      5.4315     77.4065
   780.5000      0.0000    796.7424      5.2473     78.9147
   780.7500      0.0000    800.6942      4.9864     79.0434
   781.0000      0.0000    800.4914      4.6691     77.5514
   781.2500      0.0000    799.2391      4.3379     75.6384
   781.5000      0.0000    798.1993      4.0469     75.0066
   781.7500      0.0000    797.5720      3.8298     76.0878
   782.0000      0.0000    797.3515      3.6784     77.4995
   782.2500      0.0000    797.5274      3.5511     77.4413
   782.5000      0.0000    798.0367      3.4028     75.3888
   782.7500      0.0000    798.7266      3.2103     72.2917
   783.0000      0.0000    799.2393      2.9785     69.5089
   783.2500      0.0000    798.5760      2.7410     67.9849
   783.5000      0.0000    794.6737      2.5512     68.1975
   783.7500      0.0000    785.1100      2.4394     70.0468
   784.0000      0.0000    769.5102      2.3647     72.4460
   784.2500      0.0000    751.6139      2.2439     73.6411
   784.5000      0.0000    737.9389      2.0635     72.5922
   784.7500      0.0000    733.3876      1.9482     69.9431
   785.0000      0.0000    737.9554      2.0732     67.3609
   785.2500      0.0000    747.7648      2.4863     66.0827
   785.5000      0.0000    759.2399      3.0368     66.3390
   785.7500      2.0000    771.7518      3.5001     67.9186
   786.0000      0.0000    785.7739      3.7574     70.7228
   786.2500     -2.0000    799.5732      3.8372     74.5996
   786.5000      0.0000    809.5132      3.8235     78.9518
   786.7500      0.0000    813.4885      3.7829     82.7306
   787.0000      0.0000    812.8631      3.7648     84.8477
   787.2500      0.0000    810.8651      3.8103     84.8165
   787.5000      0.0000    809.6622      3.9345     83.1689
   787.7500      0.0000    809.2064      4.1202     81.0702
   788.0000      0.0000    808.5363      4.3357     79.4481
   788.2500      0.0000    807.3453      4.5512     78.7024
   788.5000      0.0000    806.0533      4.7449     79.0781
   788.7500      0.0000    805.0513      4.9079     80.7556
   789.0000      0.0000    804.3818      5.0359     83.4893
   789.2500      0.0000    803.9034      5.1156     86.6062
   789.5000      0.0000    803.4673      5.1317     89.5489
   789.7500      0.0000    802.9672      5.0975     92.0727
   790.0000      0.0000    802.3731      5.0613     93.7552
   790.2500      0.0000    801.7343      5.0531     93.7334
   790.5000      0.0000    801.1521      5.0434     91.2993
   790.7500      0.0000    800.6868      4.9750     86.5991
   791.0000      0.0000    800.2831      4.8237     80.7089
   791.2500      0.0000    799.5943      4.6244     75.2748
   791.5000      0.0000    797.6523      4.4565     71.8209
   791.7500      0.0000    792.3841      4.4012     70.8394
   792.0000      0.0000    780.9421      4.4910     71.5675
   792.2500      0.0000    761.8915      4.6944     72.9006
   792.5000      0.0000    738.3261      4.9362     74.3221
   792.7500      0.0000    718.3581      5.1340     75.8692
   793.0000      0.0000    710.9161      5.2406     77.6283
   793.2500      0.0000    719.8015      5.2642     79.5345
   793.5000      0.0000    741.0032      5.2434     81.3833
   793.7500      0.0000    765.4609      5.2199     82.8408
   794.0000      0.0000    785.0394      5.2374     83.6510
   794.2500      0.0000    796.6932      5.3290     83.8814
   794.5000      0.0000    801.9029      5.4834     83.8251
   794.7500      0.0000    803.5139      5.6383     83.6279
   795.0000      0.0000    803.5646      5.7117     83.1135
   795.2500      0.0000    803.0084      5.6305     82.0122
   795.5000      0.0000    802.2715      5.3565     80.3730
   795.7500      0.0000    801.6011      4.9189     78.8020
   796.0000      0.0000    801.1407      4.4212     78.2333
   796.2500      0.0000    800.8650      3.9951     79.1129
   796.5000      0.0000    800.6425      3.7365     80.6162
