~Version Information
VERS.                      2.0: CWLS Log ASCII Standard - VERSION 2.0
WRAP.                       NO: One line per depth step
~Well Information Block
STRT.FT               -10.0000: 
STOP.FT              2297.5000: 
STEP.FT                 0.2500: 
NULL.                -999.2500: 
COMP.          Pioneer Natural Resources: COMPANY
WELL.              Bobsy 34-11: WELL
FLD.           Purgatorie River: FIELD
LOC.           1937' FEL & 451' FSL----------: LOCATION
PROV.                       CO: PROVINCE
CNTY.               Las Animas: COUNTRY
SRVC.          Patterson Wireline: SERVICE COMPANY
DATE.          Mon Apr 18 09:37:11 2005: LOG DATE
UWI.           05 071 08330 00: UNIQUE WELL ID
~Curve Information Block
DEPT.FT            0 000 00 00: Depth
CCL.                          : Casing Collar Locator
TT3.usec                      : CBL 3' Travel Time
AMP3.mV                       : CBL 3' Amplitude
GR.GAPI                       : Gamma Ray
~Parameter Information Block
~A  Depth       CCL         TT3         AMP3         GR     
# ...
   157.5000      0.0000    263.6994     81.6809     83.8393
   157.7500      0.0000    263.6915     81.5229     79.3727
   158.0000      0.0000    263.6860     81.4624     73.8084
   158.2500      0.0000    263.6924     81.4788     68.7714
   158.5000      0.0000    263.7091     81.5092     66.5301
   158.7500      0.0000    263.7249     81.5006     68.7959
   159.0000      0.0000    263.7256     81.4719     75.0857
   159.2500      0.0000    263.7018     81.5081     82.4096
   159.5000      0.0000    263.6564     81.6796     87.1083
   159.7500      0.0000    263.6022     81.9708     87.4233
   160.0000      0.0000    263.5538     82.2936     84.5384
   160.2500      0.0000    263.5186     82.5540     81.2987
   160.5000      0.0000    263.4963     82.7001     79.8759
   160.7500      0.0000    263.4858     82.7300     80.3122
   161.0000      0.0000    263.4858     82.6827     80.9652
   161.2500      0.0000    263.4919     82.6215     80.1584
   161.5000      0.0000    263.4953     82.5985     77.4395
   161.7500      0.0000    263.4914     82.6180     73.6578
   162.0000      0.0000    263.4868     82.6363     70.3240
   162.2500      0.0000    263.4959     82.6094     68.9121
   162.5000      0.0000    263.5290     82.5423     70.2567
   162.7500      0.0000    263.5796     82.4840     74.0432
   163.0000      0.0000    263.6262     82.4810     78.7930
   163.2500      0.0000    263.6458     82.5473     82.7498
   163.5000      0.0000    263.6309     82.6612     85.0453
   163.7500      0.0000    263.5947     82.7689     85.9922
   164.0000      0.0000    263.5616     82.8041     86.4210
   164.2500      0.0000    263.5514     82.7346     86.9584
   164.5000      0.0000    263.5709     82.5939     87.8464
   164.7500      0.0000    263.6138     82.4535     89.1028
   165.0000      0.0000    263.6657     82.3658     90.4987
   165.2500      0.0000    263.7104     82.3431     91.3601
   165.5000      0.0000    263.7360     82.3771     90.9434
   165.7500      0.0000    263.7396     82.4455     89.3398
   166.0000      0.0000    263.7281     82.5047     87.5447
   166.2500      0.0000    263.7135     82.5050     86.3367
   166.5000      0.0000    263.7052     82.4262     85.4736
   166.7500      0.0000    263.7065     82.2909     84.2241
   167.0000      0.0000    263.7142     82.1492     82.3222
   167.2500      0.0000    263.7207     82.0590     80.0699
   167.5000      0.0000    263.7157     82.0624     77.7019
   167.7500      0.0000    263.6934     82.1532     75.1367
   168.0000      0.0000    263.6572     82.2690     72.3940
   168.2500      0.0000    263.6191     82.3354     69.7618
   168.5000      0.0000    263.5900     82.3182     67.3918
   168.7500      0.0000    263.5717     82.2307     65.0986
   169.0000      0.0000    263.5555     82.1073     62.6298
   169.2500      0.0000    263.5297     81.9855     59.8688
   169.5000      0.0000    263.4915     81.8982     56.9074
   169.7500      0.0000    263.4535     81.8621     54.1718
   170.0000      0.0000    263.4373     81.8664     52.1950
   170.2500      0.0000    263.4586     81.8728     51.0342
   170.5000      0.0000    263.5170     81.8408     50.2654
   170.7500      0.0000    263.5965     81.7666     49.7953
   171.0000      0.0000    263.6767     81.6909     50.2812
   171.2500      0.0000    263.7433     81.6571     52.4772
   171.5000      0.0000    263.7902     81.6719     56.4322
   171.7500      0.0000    263.8193     81.7012     61.4436
   172.0000      0.0000    263.8488     81.6747     66.4099
   172.2500      0.0000    263.9295     81.4195     70.1274
   172.5000      0.0000    264.1611     80.5211     71.7418
   172.7500      0.0000    264.6868     78.3156     71.1424
   173.0000      0.0000    265.6288     74.2725     68.6845
   173.2500      0.0000    266.9791     68.5942     64.6740
   173.5000      0.0000    268.5412     62.3870     59.5168
   173.7500      0.0000    270.0096     57.0703     54.0944
   174.0000      0.0000    271.1338     53.5277     49.4258
   174.2500      0.0000    271.8303     51.7587     46.0290
   174.5000      0.0000    272.1696     51.1838     43.9250
   174.7500      0.0000    272.2874     51.1421     43.1267
   175.0000     -2.0000    272.2998     51.1532     43.7452
   175.2500     -2.0000    272.2605     50.9421     45.5229
   175.5000      0.0000    272.1471     50.4540     47.5053
   175.7500      0.0000    271.8663     49.9827     48.5440
   176.0000      0.0000    271.2842     50.2834     48.2398
   176.2500      0.0000    270.3029     52.3596     47.2166
   176.5000      0.0000    268.9591     56.7878     46.4790
   176.7500      0.0000    267.4650     63.0273     46.6896
   177.0000      0.0000    266.1187     69.5161     47.8842
   177.2500      0.0000    265.1403     74.6702     49.4484
   177.5000      0.0000    264.5712     77.8406     50.3901
   177.7500      0.0000    264.3082     79.3656     50.1187
   178.0000      0.0000    264.2117     79.9504     49.1669
   178.2500      0.0000    264.1830     80.1388     48.9007
   178.5000      0.0000    264.1751     80.1993     50.3212
   178.7500      0.0000    264.1697     80.2333     53.1182
   179.0000      0.0000    264.1582     80.2659     55.8928
   179.2500      0.0000    264.1411     80.2713     57.3684
   179.5000      0.0000    264.1294     80.1995     57.3674
   179.7500      0.0000    264.1344     80.0322     56.5085
   180.0000      0.0000    264.1550     79.8147     55.2131
   180.2500      0.0000    264.1791     79.6252     53.4707
   180.5000      0.0000    264.1953     79.5203     51.4843
   180.7500      0.0000    264.2007     79.5158     49.9422
   181.0000      0.0000    264.1998     79.5917     49.4023
   181.2500      0.0000    264.1985     79.6995     49.6872
   181.5000      0.0000    264.1985     79.7861     50.0761
   181.7500      0.0000    264.1936     79.8340     49.9935
   182.0000      0.0000    264.1759     79.8710     49.4684
   182.2500      0.0000    264.1447     79.9320     49.0852
   182.5000      0.0000    264.1101     80.0218     49.6239
   182.7500      0.0000    264.0843     80.1087     51.7015
   183.0000      0.0000    264.0704     80.1438     55.5525
   183.2500      0.0000    264.0620     80.0961     60.9114
   183.5000      0.0000    264.0530     79.9825     67.0965
   183.7500      0.0000    264.0456     79.8597     73.4845
   184.0000      0.0000    264.0484     79.7749     79.9882
   184.2500      0.0000    264.0697     79.7295     86.8282
   184.5000      0.0000    264.1092     79.6949     93.8492
   184.7500      0.0000    264.1567     79.6549    100.4398
   185.0000      0.0000    264.1973     79.6202    106.1132
   185.2500      0.0000    264.2204     79.6075    110.6614
   185.5000      0.0000    264.2241     79.6224    113.6906
   185.7500      0.0000    264.2129     79.6702    114.5233
   186.0000      0.0000    264.1908     79.7730    112.7877
   186.2500      0.0000    264.1567     79.9554    108.8822
   186.5000      0.0000    264.1104     80.2032    103.7077
   186.7500      0.0000    264.0621     80.4451     98.0306
   187.0000      0.0000    264.0331     80.5857     92.2653
   187.2500      0.0000    264.0389     80.5751     86.7147
   187.5000      0.0000    264.0726     80.4533     81.6255
   187.7500      0.0000    264.1082     80.3236     77.0423
   188.0000      0.0000    264.1242     80.2712     73.1266
   188.2500      0.0000    264.1211     80.3035     70.6795
   188.5000      0.0000    264.1160     80.3601     70.6819
   188.7500      0.0000    264.1227     80.3779     73.0433
   189.0000      0.0000    264.1404     80.3453     76.3166
   189.2500      0.0000    264.1581     80.2977     78.8821
   189.5000      0.0000    264.1646     80.2769     79.9515
   189.7500      0.0000    264.1549     80.3011     79.4635
   190.0000      0.0000    264.1313     80.3653     77.7969
   190.2500      0.0000    264.0981     80.4628     75.7295
   190.5000      0.0000    264.0582     80.6025     73.9428
   190.7500      0.0000    264.0145     80.7964     72.3474
