~Version Information
VERS.                      2.0: CWLS Log ASCII Standard - VERSION 2.0
WRAP.                       NO: One line per depth step
~Well Information Block
STRT.FT                 0.6000: 
STOP.FT              2735.2000: 
STEP.FT                 0.1000: 
NULL.                -999.2500: 
COMP.          Pioneer Natural Resources: COMPANY
WELL.              Cluck 21-25: WELL
FLD.           Purgatoire River: FIELD
LOC.           91' FNL & 1834' FWL--: LOCATION
PROV.                 Colorado: PROVINCE
CNTY.               Las Animas: COUNTRY
SRVC.                Patterson: SERVICE COMPANY
DATE.          Mon Jun 06 19:08:34 2005: LOG DATE
UWI.           05 071 08397 00: UNIQUE WELL ID
~Curve Information Block
DEPT.FT            0 000 00 00: Depth
SN.Ohm-m                      : IEL Short Normal
SP.mV                         : IEL Spontaneous Potential
DIR.Ohm-m                     : IEL Induction Resistivity
GR.GAPI                       : Gamma Ray
~Parameter Information Block
~A  Depth        SN          SP         DIR          GR     
# ...
  1823.0000     11.1560   -149.9033      8.7724    142.1210
  1823.1000     11.1560   -149.9033      8.7724    145.3262
  1823.2000     11.1560   -149.9033      8.7724    148.2609
  1823.3000     10.6356   -149.0514      8.5673    150.8980
  1823.4000     10.6356   -149.0514      8.5673    153.2143
  1823.5000     10.0470   -148.2955      8.3516    155.1887
  1823.6000     10.0470   -148.2955      8.3516    156.8012
  1823.7000     10.0470   -148.2955      8.3516    158.0368
  1823.8000      9.4508   -147.6919      8.1480    158.8858
  1823.9000      9.4508   -147.6919      8.1480    159.3552
  1824.0000      8.8987   -147.2830      7.9771    159.4632
  1824.1000      8.8987   -147.2830      7.9771    159.2412
  1824.2000      8.8987   -147.2830      7.9771    158.7301
  1824.3000      8.4481   -147.0936      7.8550    157.9738
  1824.4000      8.4481   -147.0936      7.8550    157.0154
  1824.5000      8.1676   -147.1280      7.7924    155.8945
  1824.6000      8.1676   -147.1280      7.7924    154.6501
  1824.7000      8.1676   -147.1280      7.7924    153.3175
  1824.8000      8.1216   -147.3675      7.7949    151.9363
  1824.9000      8.1216   -147.3675      7.7949    150.5481
  1825.0000      8.3381   -147.7720      7.8646    149.1982
  1825.1000      8.3381   -147.7720      7.8646    147.9342
  1825.2000      8.3381   -147.7720      7.8646    146.7981
  1825.3000      8.7750   -148.2835      8.0004    145.8259
  1825.4000      8.7750   -148.2835      8.0004    145.0369
  1825.5000      9.3127   -148.8337      8.1978    144.4331
  1825.6000      9.3127   -148.8337      8.1978    143.9925
  1825.7000      9.3127   -148.8337      8.1978    143.6752
  1825.8000      9.7919   -149.3529      8.4474    143.4203
  1825.9000      9.7919   -149.3529      8.4474    143.1559
  1826.0000     10.0818   -149.7795      8.7327    142.7999
  1826.1000     10.0818   -149.7795      8.7327    142.2719
  1826.2000     10.0818   -149.7795      8.7327    141.5016
  1826.3000     10.1322   -150.0685      9.0302    140.4353
  1826.4000     10.1322   -150.0685      9.0302    139.0443
  1826.5000      9.9821   -150.1965      9.3142    137.3281
  1826.6000      9.9821   -150.1965      9.3142    135.3211
  1826.7000      9.9821   -150.1965      9.3142    133.0905
  1826.8000      9.7376   -150.1639      9.5649    130.7346
  1826.9000      9.7376   -150.1639      9.5649    128.3748
  1827.0000      9.5438   -149.9934      9.7783    126.1434
  1827.1000      9.5438   -149.9934      9.7783    124.1695
  1827.2000      9.5438   -149.9934      9.7783    122.5621
  1827.3000      9.5580   -149.7247      9.9704    121.3949
  1827.4000      9.5580   -149.7247      9.9704    120.6950
  1827.5000      9.9109   -149.4082     10.1731    120.4373
  1827.6000      9.9109   -149.4082     10.1731    120.5501
  1827.7000      9.9109   -149.4082     10.1731    120.9247
  1827.8000     10.6572   -149.0966     10.4230    121.4295
  1827.9000     10.6572   -149.0966     10.4230    121.9346
  1828.0000     11.7378   -148.8387     10.7496    122.3231
  1828.1000     11.7378   -148.8387     10.7496    122.5059
  1828.2000     11.7378   -148.8387     10.7496    122.4240
  1828.3000     12.9872   -148.6717     11.1666    122.0476
  1828.4000     12.9872   -148.6717     11.1666    121.3715
  1828.5000     14.1967   -148.6175     11.6696    120.4071
  1828.6000     14.1967   -148.6175     11.6696    119.1729
  1828.7000     14.1967   -148.6175     11.6696    117.6943
  1828.8000     15.2019   -148.6793     12.2378    116.0035
  1828.9000     15.2019   -148.6793     12.2378    114.1361
  1829.0000     15.9425   -148.8414     12.8421    112.1364
  1829.1000     15.9425   -148.8414     12.8421    110.0545
  1829.2000     15.9425   -148.8414     12.8421    107.9457
  1829.3000     16.4595   -149.0723     13.4538    105.8676
  1829.4000     16.4595   -149.0723     13.4538    103.8745
  1829.5000     16.8481   -149.3313     14.0553    102.0191
  1829.6000     16.8481   -149.3313     14.0553    100.3477
  1829.7000     16.8481   -149.3313     14.0553     98.9062
  1829.8000     17.2040   -149.5780     14.6451     97.7345
  1829.9000     17.2040   -149.5780     14.6451     96.8733
  1830.0000     17.5953   -149.7829     15.2358     96.3574
  1830.1000     17.5953   -149.7829     15.2358     96.2153
  1830.2000     17.5953   -149.7829     15.2358     96.4656
  1830.3000     18.0603   -149.9369     15.8449     97.1097
  1830.4000     18.0603   -149.9369     15.8449     98.1331
  1830.5000     18.6190   -150.0559     16.4857     99.5001
  1830.6000     18.6190   -150.0559     16.4857    101.1585
  1830.7000     18.6190   -150.0559     16.4857    103.0392
  1830.8000     19.2750   -150.1790     17.1601    105.0609
  1830.9000     19.2750   -150.1790     17.1601    107.1304
  1831.0000     20.0056   -150.3601     17.8570    109.1524
  1831.1000     20.0056   -150.3601     17.8570    111.0277
  1831.2000     20.0056   -150.3601     17.8570    112.6589
  1831.3000     20.7564   -150.6549     18.5527    113.9534
  1831.4000     20.7564   -150.6549     18.5527    114.8276
  1831.5000     21.4592   -151.1058     19.2130    115.2116
  1831.6000     21.4592   -151.1058     19.2130    115.0513
  1831.7000     21.4592   -151.1058     19.2130    114.3124
  1831.8000     22.0676   -151.7311     19.8006    112.9838
  1831.9000     22.0676   -151.7311     19.8006    111.0823
  1832.0000     22.5907   -152.5193     20.2870    108.6503
  1832.1000     22.5907   -152.5193     20.2870    105.7612
  1832.2000     22.5907   -152.5193     20.2870    102.5176
  1832.3000     23.1072   -153.4321     20.6680     99.0514
  1832.4000     23.1072   -153.4321     20.6680     95.5148
  1832.5000     23.7504   -154.4137     20.9724     92.0719
  1832.6000     23.7504   -154.4137     20.9724     88.8876
  1832.7000     23.7504   -154.4137     20.9724     86.1137
  1832.8000     24.6579   -155.4039     21.2614     83.8710
  1832.9000     24.6579   -155.4039     21.2614     82.2422
  1833.0000     25.8943   -156.3507     21.6144     81.2632
  1833.1000     25.8943   -156.3507     21.6144     80.9200
  1833.2000     25.8943   -156.3507     21.6144     81.1545
  1833.3000     27.3867   -157.2186     22.1063     81.8748
  1833.4000     27.3867   -157.2186     22.1063     82.9640
  1833.5000     28.9252   -157.9894     22.7803     84.2983
  1833.6000     28.9252   -157.9894     22.7803     85.7540
  1833.7000     28.9252   -157.9894     22.7803     87.2173
  1833.8000     30.2422   -158.6574     23.6211     88.5928
  1833.9000     30.2422   -158.6574     23.6211     89.8072
  1834.0000     31.1183   -159.2184     24.5408     90.8074
  1834.1000     31.1183   -159.2184     24.5408     91.5654
  1834.2000     31.1183   -159.2184     24.5408     92.0729
  1834.3000     31.4425   -159.6588     25.3893     92.3403
  1834.4000     31.4425   -159.6588     25.3893     92.3907
  1834.5000     31.2081   -159.9474     25.9961     92.2569
  1834.6000     31.2081   -159.9474     25.9961     91.9749
  1834.7000     31.2081   -159.9474     25.9961     91.5806
  1834.8000     30.4804   -160.0336     26.2209     91.1083
  1834.9000     30.4804   -160.0336     26.2209     90.5895
  1835.0000     29.3665   -159.8542     25.9835     90.0556
  1835.1000     29.3665   -159.8542     25.9835     89.5355
  1835.2000     29.3665   -159.8542     25.9835     89.0636
  1835.3000     27.9906   -159.3456     25.2691     88.6778
  1835.4000     27.9906   -159.3456     25.2691     88.4204
  1835.5000     26.4665   -158.4609     24.1272     88.3349
  1835.6000     26.4665   -158.4609     24.1272     88.4663
  1835.7000     26.4665   -158.4609     24.1272     88.8603
  1835.8000     24.8770   -157.1843     22.6684     89.5557
  1835.9000     24.8770   -157.1843     22.6684     90.5884
  1836.0000     23.2714   -155.5407     21.0415     91.9842
  1836.1000     23.2714   -155.5407     21.0415     93.7612
  1836.2000     23.2714   -155.5407     21.0415     95.9240
  1836.3000     21.6803   -153.5967     19.3954     98.4652
