~Version Information
VERS.                      2.0: CWLS Log ASCII Standard - VERSION 2.0
WRAP.                       NO: One line per depth step
~Well Information Block
STRT.FT                -4.0000: 
STOP.FT              2464.0000: 
STEP.FT                 0.2500: 
NULL.                -999.2500: 
COMP.          Pioneer Natural Resources: COMPANY
WELL.            Rancher 12-35: WELL
FLD.           Purgatorie River: FIELD
LOC.           2131' FNL & 297' FWL--: LOCATION
PROV.                       CO: PROVINCE
CNTY.               Las Animas: COUNTRY
SRVC.                         : SERVICE COMPANY
DATE.          Wed Oct 20 13:17:53 2004: LOG DATE
UWI.                          : UNIQUE WELL ID
~Curve Information Block
DEPT.FT            0 000 00 00: Depth
GR.GAPI                       : Gamma Ray
CCL.                          : Casing Collar Locator
TT3.usec                      : CBL 3' Travel Time
AMP3.mV                       : CBL 3' Amplitude
~Parameter Information Block
~A  Depth        GR         CCL         TT3         AMP3    
# ...
  1302.5000    146.0568      0.0000    713.6770      4.7985
  1302.7500    138.1818      0.0000    717.4043      4.8327
  1303.0000    128.8089      0.0000    720.0800      4.9573
  1303.2500    121.5329      0.0000    719.9045      5.1567
  1303.5000    119.2387      0.0000    716.2515      5.3775
  1303.7500    122.4307      0.0000    710.6243      5.5628
  1304.0000    128.7251      0.0000    706.0560      5.6804
  1304.2500    134.3556      0.0000    705.1653      5.7232
  1304.5000    136.9798      0.0000    708.7570      5.6995
  1304.7500    137.3308      0.0000    715.9523      5.6386
  1305.0000    137.9222      0.0000    724.7029      5.5967
  1305.2500    139.7369      0.0000    731.9988      5.6325
  1305.5000    140.2558      0.0000    735.0178      5.7598
  1305.7500    135.6399      0.0000    733.3215      5.9238
  1306.0000    125.1253      0.0000    729.5845      6.0298
  1306.2500    112.3019      0.0000    727.3824      6.0004
  1306.5000    101.8370      0.0000    728.2976      5.8231
  1306.7500     95.9892      0.0000    731.4259      5.5551
  1307.0000     94.5287      0.0000    735.0491      5.2863
  1307.2500     96.7659      0.0000    737.6730      5.0890
  1307.5000    102.4702      0.0000    737.4323      4.9895
  1307.7500    110.7722      0.0000    731.7218      4.9725
  1308.0000    119.1224      0.0000    718.9963      5.0040
  1308.2500    124.5271      0.0000    702.0656      5.0502
  1308.5000    126.1585      0.0000    689.1207      5.0857
  1308.7500    126.1755      0.0000    688.9263      5.0945
  1309.0000    127.5400      0.0000    703.2873      5.0731
  1309.2500    131.2855      0.0000    725.1531      5.0325
  1309.5000    136.1161      0.0000    744.6493      4.9967
  1309.7500    140.1626      0.0000    755.6857      4.9946
  1310.0000    142.3924      0.0000    757.0735      5.0446
  1310.2500    142.4798      0.0000    750.2357      5.1417
  1310.5000    140.2981      0.0000    737.6057      5.2584
  1310.7500    136.1515      0.0000    722.2609      5.3610
  1311.0000    131.1950      0.0000    707.7385      5.4273
  1311.2500    127.0686      0.0000    697.4628      5.4526
  1311.5000    124.9164      0.0000    693.4324      5.4449
  1311.7500    124.8783      0.0000    694.9050      5.4168
  1312.0000    126.5495      0.0000    698.8500      5.3823
  1312.2500    129.7225      0.0000    702.0563      5.3562
  1312.5000    134.4346      0.0000    702.8857      5.3509
  1312.7500    140.2928      0.0000    701.5785      5.3711
  1313.0000    145.9806      0.0000    699.7039      5.4100
  1313.2500    149.6953      0.0000    699.2413      5.4514
  1313.5000    150.2730      0.0000    701.5045      5.4773
  1313.7500    148.0648      0.0000    706.6776      5.4782
  1314.0000    144.8613      0.0000    714.2302      5.4609
  1314.2500    142.7562      0.0000    723.2756      5.4404
  1314.5000    142.6701      0.0000    732.4379      5.4239
  1314.7500    143.8999      0.0000    740.0653      5.4101
  1315.0000    145.2526      0.0000    745.0596      5.4017
  1315.2500    146.2977      0.0000    747.3433      5.4063
  1315.5000    147.1051      0.0000    747.5625      5.4179
  1315.7500    147.3769      0.0000    746.6831      5.4124
  1316.0000    146.6505      0.0000    745.6960      5.3700
  1316.2500    145.0495      0.0000    744.9809      5.2959
  1316.5000    143.3105      0.0000    743.8516      5.2127
  1316.7500    142.3772      0.0000    741.1812      5.1448
  1317.0000    143.0622      0.0000    736.4150      5.1102
  1317.2500    145.3030      0.0000    729.5972      5.1144
  1317.5000    147.4645      0.0000    720.9174      5.1432
  1317.7500    147.1799      0.0000    710.8770      5.1712
  1318.0000    143.2450      0.0000    700.6543      5.1815
  1318.2500    136.3549      0.0000    691.9433      5.1741
  1318.5000    128.2502      0.0000    686.5098      5.1628
  1318.7500    120.6411      0.0000    685.8902      5.1666
  1319.0000    114.6894      0.0000    691.1271      5.1956
  1319.2500    110.9173      0.0000    701.8605      5.2378
  1319.5000    109.3064      0.0000    715.0997      5.2646
  1319.7500    109.4396      0.0000    725.6027      5.2495
  1320.0000    110.6792      0.0000    728.7103      5.1749
  1320.2500    112.4825      0.0000    723.8611      5.0330
  1320.5000    114.5746      0.0000    716.2594      4.8469
  1320.7500    116.5724      0.0000    714.4718      4.6794
  1321.0000    117.5614      0.0000    723.8953      4.5921
  1321.2500    116.5119     -2.0000    741.1041      4.5988
  1321.5000    113.1697     -2.0000    755.9918      4.6686
  1321.7500    108.3518      0.0000    760.8732      4.7600
  1322.0000    103.5938      0.0000    756.9136      4.8455
  1322.2500    100.8549      0.0000    750.6907      4.9189
  1322.5000    102.0500      0.0000    745.3448      4.9875
  1322.7500    107.7020      0.0000    737.5704      5.0529
  1323.0000    115.6196      0.0000    724.7715      5.1126
  1323.2500    121.7045      0.0000    712.9543      5.1862
  1323.5000    122.9732      0.0000    713.2797      5.3125
  1323.7500    119.8613      0.0000    729.3458      5.5025
  1324.0000    115.2695      0.0000    750.7490      5.7170
  1324.2500    111.7183      0.0000    762.3167      5.9029
  1324.5000    109.9188      0.0000    758.3544      6.0322
  1324.7500    109.5055      0.0000    744.9011      6.1018
  1325.0000    109.9731      0.0000    730.4245      6.1161
  1325.2500    110.8391      0.0000    719.3439      6.0818
  1325.5000    111.8216      0.0000    713.5396      6.0148
  1325.7500    113.2152      0.0000    714.2944      5.9454
  1326.0000    115.5717      0.0000    720.9279      5.9090
  1326.2500    118.7417      0.0000    730.2305      5.9201
  1326.5000    121.3773      0.0000    738.2830      5.9540
  1326.7500    121.3966      0.0000    741.4904      5.9647
  1327.0000    117.1739      0.0000    736.9987      5.9312
  1327.2500    108.9999      0.0000    725.1845      5.8795
  1327.5000     99.5759      0.0000    711.9723      5.8524
  1327.7500     92.6383      0.0000    705.9304      5.8634
  1328.0000     90.8467      0.0000    711.6711      5.8858
  1328.2500     94.7914      0.0000    726.7917      5.8843
  1328.5000    103.2574      0.0000    744.7607      5.8515
  1328.7500    113.8673      0.0000    759.5501      5.8116
  1329.0000    123.7412      0.0000    768.4241      5.7931
  1329.2500    130.2958      0.0000    772.3401      5.8038
  1329.5000    132.0235      0.0000    774.2604      5.8338
  1329.7500    129.0082      0.0000    776.5279      5.8715
  1330.0000    122.8647      0.0000    779.4584      5.9067
  1330.2500    115.9870      0.0000    782.0942      5.9278
  1330.5000    110.5976      0.0000    783.6810      5.9286
  1330.7500    108.1989      0.0000    784.1540      5.9152
  1331.0000    109.2677      0.0000    783.6757      5.9017
  1331.2500    113.0284      0.0000    782.1678      5.9020
  1331.5000    117.7984      0.0000    779.3976      5.9230
  1331.7500    122.0540      0.0000    775.3616      5.9590
  1332.0000    125.2134      0.0000    770.4741      5.9919
  1332.2500    127.4983      0.0000    765.4969      6.0040
  1332.5000    129.3689      0.0000    761.4358      5.9913
  1332.7500    130.9837      0.0000    759.2716      5.9636
  1333.0000    131.8111      0.0000    759.3763      5.9326
  1333.2500    130.9348      0.0000    761.3278      5.8995
  1333.5000    128.2946      0.0000    764.5644      5.8545
  1333.7500    125.5504      0.0000    768.8500      5.7894
  1334.0000    124.9835      0.0000    773.8097      5.7106
  1334.2500    127.2866      0.0000    778.5400      5.6383
  1334.5000    130.8210      0.0000    782.1303      5.5941
  1334.7500    133.3363      0.0000    784.3252      5.5830
  1335.0000    134.0208      0.0000    785.4739      5.5813
  1335.2500    133.5706      0.0000    786.0360      5.5456
  1335.5000    132.9929      0.0000    786.1831      5.4455
  1335.7500    133.2050      0.0000    785.6169      5.2908
