~Version Information
VERS.                      2.0: CWLS Log ASCII Standard - VERSION 2.0
WRAP.                       NO: One line per depth step
~Well Information Block
STRT.FT               390.0000: 
STOP.FT              2768.7000: 
STEP.FT                 0.1000: 
NULL.                -999.2500: 
COMP.          Pioneer Natural Resources: COMPANY
WELL.              Lynch 43-30: WELL
FLD.           Purgatoire River: FIELD
LOC.           1438' FSL & 429' FEL: LOCATION
PROV.                 Colorado: PROVINCE
CNTY.               Las Animas: COUNTRY
SRVC.                Patterson: SERVICE COMPANY
DATE.          Wed Oct 27 08:22:00 2004: LOG DATE
UWI.           05 071 08170 00: UNIQUE WELL ID
~Curve Information Block
DEPT.FT            0 000 00 00: Depth
DCAL.in                       : CDL Caliper
DPOR.pu                       : CDL Density Porosity
NPOR.pu                       : Neutron Porosity
RHOB.g/cc                     : CDL Bulk Density
RHOC.g/cc                     : CDL Density Correction
GR.GAPI                       : Gamma Ray
~Parameter Information Block
~A  Depth       DCAL        DPOR        NPOR        RHOB        RHOC         GR     
# ...
   706.8000      8.2777      5.9602     27.8642      2.5517      0.0856    118.9593
   706.9000      8.2777      6.1625     28.1309      2.5483      0.0036    114.4087
   707.0000      8.2763      6.3301     28.4149      2.5456      0.0654    110.6392
   707.1000      8.2763      6.1590     28.1115      2.5484      0.0592    111.9929
   707.2000      8.2763      5.8436     27.3965      2.5536      0.0645    118.1607
   707.3000      8.2796      6.0383     26.8318      2.5504      0.0687    122.5534
   707.4000      8.2796      6.9723     26.4583      2.5350      0.0791    123.3804
   707.5000      8.2989      7.6849     26.2407      2.5232      0.0508    127.7885
   707.6000      8.2989      7.4218     26.1889      2.5275      0.0565    133.8403
   707.7000      8.2989      7.1999     26.1216      2.5312      0.1131    133.7428
   707.8000      8.3019      8.0007     25.9617      2.5180      0.0633    129.2081
   707.9000      8.3019      8.8025     25.7740      2.5048      0.0314    124.6784
   708.0000      8.3050      8.2467     25.7199      2.5139      0.0571    121.1287
   708.1000      8.3050      6.2396     25.8338      2.5470      0.1218    121.0314
   708.2000      8.3050      3.6385     25.9605      2.5900      0.1482    125.4130
   708.3000      8.3063      1.4698     26.0839      2.6257      0.1455    129.3632
   708.4000      8.3063     -0.0004     26.2311      2.6500      0.1156    129.5296
   708.5000      8.2995     -0.8606     26.4574      2.6642      0.1533    127.0910
   708.6000      8.2995     -0.6680     26.8963      2.6610      0.1143    122.6232
   708.7000      8.2995      0.6444     27.5366      2.6394      0.0779    117.0297
   708.8000      8.2996      2.4054     28.3072      2.6103      0.0956    114.1231
   708.9000      8.2996      3.8662     28.9335      2.5862      0.0868    116.0948
   709.0000      8.2693      4.4954     28.9983      2.5758      0.0407    122.7762
   709.1000      8.2693      4.2449     28.6071      2.5800      0.0849    130.0142
   709.2000      8.2693      3.3514     28.1728      2.5947      0.0153    130.5879
   709.3000      8.2261      2.2292     27.9244      2.6132      0.0865    125.3533
   709.4000      8.2261      1.5094     28.0118      2.6251      0.0672    119.0306
   709.5000      8.1582      0.9719     28.3955      2.6340      0.0551    114.5078
   709.6000      8.1582      0.1357     28.8139      2.6478      0.1402    116.3924
   709.7000      8.1582     -0.5784     29.1555      2.6595      0.1037    121.7800
   709.8000      8.1626     -1.0763     29.4741      2.6678      0.0661    122.9098
   709.9000      8.1626     -1.5319     29.9549      2.6753      0.0855    121.9980
   710.0000      8.1268     -1.4629     30.6082      2.6741      0.0504    124.6972
   710.1000      8.1268     -1.1499     30.9820      2.6690     -0.0459    127.8409
   710.2000      8.1268     -1.5465     30.8523      2.6755      0.0047    128.0455
   710.3000      8.1069     -2.0944     30.6969      2.6846      0.0300    128.0208
   710.4000      8.1069     -1.8742     30.8369      2.6809     -0.0141    128.1585
   710.5000      8.0949     -1.1760     30.8390      2.6694     -0.0440    126.7738
   710.6000      8.0949     -0.1873     30.2305      2.6531     -0.0095    124.9754
   710.7000      8.0949      1.4955     29.3057      2.6253     -0.0007    123.1231
   710.8000      8.1003      3.5585     28.9122      2.5913     -0.0274    122.5882
   710.9000      8.1003      4.7814     29.0135      2.5711     -0.0290    126.2334
   711.0000      8.0828      4.2231     28.8399      2.5803     -0.0418    131.3281
   711.1000      8.0828      2.4834     28.3358      2.6090      0.0354    133.4528
   711.2000      8.0828      1.6052     27.8831      2.6235      0.0218    131.5991
   711.3000      8.0834      2.5439     27.6785      2.6080     -0.0065    128.1938
   711.4000      8.0834      4.2605     27.7876      2.5797      0.0211    128.9218
   711.5000      8.0855      5.5694     28.0158      2.5581      0.0103    133.4637
   711.6000      8.0855      5.4847     28.0986      2.5595     -0.0284    137.5242
   711.7000      8.0855      3.6874     28.1586      2.5892     -0.0114    141.0125
   711.8000      8.0843      1.9816     28.5907      2.6173      0.0522    144.1902
   711.9000      8.0843      2.3006     29.2928      2.6120      0.0254    144.8542
   712.0000      8.0807      4.2507     29.8605      2.5799     -0.0181    141.5695
   712.1000      8.0807      6.6235     30.1574      2.5407     -0.0087    137.9244
   712.2000      8.0807      8.5984     30.5343      2.5081     -0.0443    136.5865
   712.3000      8.0831      9.3304     30.9524      2.4960     -0.0700    136.4598
   712.4000      8.0831      8.6672     30.9264      2.5070     -0.0158    140.1596
   712.5000      8.0835      7.4969     30.8354      2.5263     -0.0436    148.0059
   712.6000      8.0835      6.9424     30.9866      2.5354      0.0090    153.5886
   712.7000      8.0835      7.4647     30.8168      2.5268     -0.0261    155.4342
   712.8000      8.0832      7.9202     30.1174      2.5193     -0.0084    157.0430
   712.9000      8.0832      6.8995     29.1506      2.5362     -0.0200    159.5305
   713.0000      8.0814      5.2520     28.2657      2.5633      0.0724    160.3729
   713.1000      8.0814      5.1496     27.6248      2.5650      0.0075    158.7927
   713.2000      8.0814      6.5684     27.0237      2.5416      0.0005    158.7219
   713.3000      8.0821      8.1595     26.4633      2.5154     -0.0188    159.6497
   713.4000      8.0821      9.5423     26.0117      2.4926     -0.0136    156.5828
   713.5000      8.0824     10.5559     25.7482      2.4758     -0.0612    150.4047
   713.6000      8.0824     11.1365     25.7080      2.4662      0.0007    145.2705
   713.7000      8.0824     11.4423     25.4580      2.4612     -0.0269    141.2012
   713.8000      8.0830     10.9557     24.8417      2.4692     -0.0767    137.5083
   713.9000      8.0830      9.7323     24.5360      2.4894      0.0072    134.5641
   714.0000      8.0807      8.9488     24.9636      2.5023      0.0276    130.9395
   714.1000      8.0807      8.8431     25.6130      2.5041      0.0047    126.0971
   714.2000      8.0807      8.6130     25.8292      2.5079     -0.0003    120.8331
   714.3000      8.0831      8.1733     25.7567      2.5151      0.0150    116.2241
   714.4000      8.0831      7.8729     25.8895      2.5201     -0.0049    115.7518
   714.5000      8.0773      7.5551     26.1665      2.5253      0.0037    120.0413
   714.6000      8.0773      7.1539     26.0211      2.5320     -0.0054    127.5299
   714.7000      8.0773      7.2026     25.4684      2.5312      0.0185    136.2684
   714.8000      8.0887      7.9798     25.1034      2.5183      0.0164    142.3854
   714.9000      8.0887      8.7230     25.0258      2.5061     -0.0123    144.8535
   715.0000      8.1103      8.7018     24.8568      2.5064      0.0178    145.3842
   715.1000      8.1103      8.3846     24.6752      2.5117      0.0234    143.9879
   715.2000      8.1103      8.2072     24.6408      2.5146     -0.0136    141.3767
   715.3000      8.1071      7.7308     24.5459      2.5224     -0.0000    139.6978
   715.4000      8.1071      6.8615     24.1888      2.5368      0.0097    140.2902
   715.5000      8.1044      6.3232     23.5686      2.5457      0.0418    142.6474
   715.6000      8.1044      6.2328     22.9589      2.5472     -0.0191    143.0797
   715.7000      8.1044      5.7918     22.7177      2.5544      0.0124    137.0733
   715.8000      8.1012      5.3902     22.9152      2.5611      0.0695    128.2449
   715.9000      8.1012      5.9923     23.1704      2.5511      0.0249    123.3747
   716.0000      8.0775      7.3178     23.2849      2.5293      0.0279    120.6371
   716.1000      8.0775      8.5850     23.2499      2.5083     -0.0080    116.6041
   716.2000      8.0775      9.4529     22.9904      2.4940      0.0505    113.0598
   716.3000      8.0623      9.7577     22.7761      2.4890     -0.0233    112.6805
