~Version Information
VERS.                      2.0: CWLS Log ASCII Standard - VERSION 2.0
WRAP.                       NO: One line per depth step
~Well Information Block
STRT.FT               506.1000: 
STOP.FT              2140.0000: 
STEP.FT                 0.1000: 
NULL.                -999.2500: 
COMP.          Petrogulf Corporation: COMPANY
WELL.            Montoya 1-44R: WELL
FLD.           Purgatorie River: FIELD
LOC.           658' FSL & 1052' FWL: LOCATION
CNTY.               Las Animas: COUNTY
SRVC.                         : SERVICE COMPANY
DATE.          Tue Nov 16 04:33:40 2004: LOG DATE
UWI.           05 071 08239 00: UNIQUE WELL ID
STAT.                 Colorado: STATE
~Curve Information Block
DEPT.FT            0 000 00 00: Depth
DCAL.in                       : CDL Caliper
RHOB.g/cc                     : CDL Bulk Density
RHOC.g/cc                     : CDL Density Correction
DPOR.pu                       : CDL Density Porosity
GR.GAPI                       : Gamma Ray
NPOR.pu                       : Neutron Porosity
~Parameter Information Block
~A  Depth       DCAL        RHOB        RHOC        DPOR         GR         NPOR    
# ...
  1504.5000      8.0922      2.6127      0.0815      2.2608    110.5965     26.0571
  1504.6000      8.0922      2.6157      0.0629      2.0814    111.4124     26.3645
  1504.7000      8.0922      2.6087      0.0573      2.5033    114.3665     27.1376
  1504.8000      8.0885      2.6004      0.0598      3.0066    118.2679     27.8814
  1504.9000      8.0885      2.5957      0.0467      3.2885    121.7891     28.3848
  1505.0000      8.0779      2.5892      0.0570      3.6869    123.3638     28.4029
  1505.1000      8.0779      2.5770      0.0266      4.4242    125.3630     27.9123
  1505.2000      8.0779      2.5606      0.0235      5.4192    126.2143     27.4927
  1505.3000      8.0768      2.5415      0.0250      6.5741    125.9518     26.8600
  1505.4000      8.0768      2.5302     -0.0176      7.2611    128.1866     25.6573
  1505.5000      8.0881      2.5312      0.0491      7.2018    131.0216     25.0923
  1505.6000      8.0881      2.5298      0.0425      7.2860    132.9899     26.0058
  1505.7000      8.0881      2.5204      0.0337      7.8527    135.9499     27.4593
  1505.8000      8.1009      2.5178      0.0005      8.0096    138.7031     28.1323
  1505.9000      8.1009      2.5288      0.0431      7.3435    139.4613     27.8820
  1506.0000      8.1013      2.5372      0.0556      6.8336    137.9335     27.4446
  1506.1000      8.1013      2.5318      0.0372      7.1614    134.0009     27.0628
  1506.2000      8.1013      2.5252      0.0173      7.5627    128.8291     26.9044
  1506.3000      8.0960      2.5313      0.0199      7.1910    127.5709     27.0472
  1506.4000      8.0960      2.5467      0.0579      6.2595    133.9123     27.1243
  1506.5000      8.0927      2.5580      0.0661      5.5739    142.2335     27.4471
  1506.6000      8.0927      2.5565      0.0630      5.6665    142.4297     28.5353
  1506.7000      8.0927      2.5457      0.0205      6.3207    133.0976     29.5471
  1506.8000      8.0935      2.5368      0.0504      6.8579    122.3993     29.4990
  1506.9000      8.0935      2.5371      0.0122      6.8454    113.2243     28.5429
  1507.0000      8.1019      2.5473      0.0485      6.2253    104.6203     27.5857
  1507.1000      8.1019      2.5626      0.0482      5.2986    101.2245     26.9504
  1507.2000      8.1019      2.5743      0.0649      4.5908    105.5333     26.2642
  1507.3000      8.1158      2.5715      0.0716      4.7581    113.1667     26.1644
  1507.4000      8.1158      2.5448      0.0332      6.3774    117.3471     27.0465
  1507.5000      8.1246      2.4999      0.0146      9.0979    116.4517     27.8782
  1507.6000      8.1246      2.4526     -0.0007     11.9638    114.6408     28.4466
  1507.7000      8.1246      2.4135     -0.0108     14.3357    113.3931     28.8704
  1507.8000      8.1193      2.3906     -0.0509     15.7223    112.0454     28.9455
  1507.9000      8.1193      2.3909     -0.0252     15.7001    113.7963     29.0246
  1508.0000      8.1198      2.4071     -0.0073     14.7231    121.4176     29.0422
  1508.1000      8.1198      2.4160      0.0299     14.1788    130.7690     28.6242
  1508.2000      8.1198      2.4008      0.0142     15.1018    135.0624     28.2669
  1508.3000      8.1289      2.3695      0.0598     17.0029    132.2458     28.6633
  1508.4000      8.1289      2.3434      0.0684     18.5824    128.3488     29.4350
  1508.5000      8.1251      2.3264      0.1359     19.6131    129.3932     29.8011
  1508.6000      8.1251      2.2949      0.1517     21.5191    132.5817     29.5240
  1508.7000      8.1251      2.2314      0.1352     25.3703    133.3891     29.0628
  1508.8000      8.1185      2.1582      0.0465     29.8089    132.3786     29.1522
  1508.9000      8.1185      2.1179      0.0307     32.2505    130.3311     30.0755
  1509.0000      8.1405      2.1279      0.0573     31.6402    127.4202     31.4363
  1509.1000      8.1405      2.1799      0.1349     28.4932    125.1475     32.3058
  1509.2000      8.1405      2.2646      0.1940     23.3564    124.9762     32.3881
  1509.3000      8.1242      2.3679      0.3627     17.0998    125.9293     32.2097
  1509.4000      8.1242      2.4582      0.3875     11.6266    128.1067     31.7161
  1509.5000      8.0388      2.5145      0.3461      8.2108    132.9937     31.1433
  1509.6000      8.0388      2.5411      0.3258      6.5976    137.9448     31.1691
  1509.7000      8.0388      2.5497      0.2698      6.0807    139.4187     31.4738
  1509.8000      8.0041      2.5507      0.1843      6.0168    141.1696     31.1345
  1509.9000      8.0041      2.5516      0.1742      5.9648    148.5995     29.9730
  1510.0000      8.0180      2.5529      0.1790      5.8866    157.2698     29.0870
  1510.1000      8.0180      2.5597      0.1322      5.4729    162.3836     29.1667
  1510.2000      8.0180      2.5758      0.1509      4.4975    164.3522     29.4073
  1510.3000      8.0245      2.5902      0.1436      3.6226    159.8664     28.9787
  1510.4000      8.0245      2.6025      0.0981      2.8771    148.2829     27.9480
  1510.5000      8.0188      2.6223      0.1314      1.6766    136.4841     26.5364
  1510.6000      8.0188      2.6347      0.1372      0.9279    130.1971     24.6719
  1510.7000      8.0188      2.6209      0.1241      1.7660    129.7632     22.9832
  1510.8000      8.0019      2.5964      0.0928      3.2479    132.7030     22.3875
  1510.9000      8.0019      2.5866      0.1023      3.8421    134.3811     22.6698
  1511.0000      7.9737      2.5922      0.1236      3.5040    130.7569     22.9797
  1511.1000      7.9737      2.5981      0.0905      3.1475    122.6748     22.7567
  1511.2000      7.9737      2.5927      0.0969      3.4733    110.4944     21.7087
  1511.3000      7.9438      2.5749      0.0879      4.5521     97.5156     20.2578
  1511.4000      7.9438      2.5641      0.0110      5.2042     90.8763     19.1310
  1511.5000      7.9268      2.5801      0.0513      4.2390     92.5314     18.4935
  1511.6000      7.9268      2.6094      0.0737      2.4628     96.5112     17.8819
  1511.7000      7.9268      2.6300      0.0857      1.2108     95.8579     16.9599
  1511.8000      7.9194      2.6422      0.0856      0.4744     89.0806     15.9196
  1511.9000      7.9194      2.6505      0.1357     -0.0278     80.8878     14.8447
  1512.0000      7.9204      2.6536      0.1195     -0.2156     75.7199     13.9532
  1512.1000      7.9204      2.6538      0.1584     -0.2285     74.4248     13.9167
  1512.2000      7.9204      2.6485      0.1587      0.0899     74.6138     14.9304
  1512.3000      7.9224      2.6315      0.1743      1.1235     72.2652     16.2068
  1512.4000      7.9224      2.6092      0.1063      2.4722     69.7635     16.7030
  1512.5000      7.9277      2.6005      0.0697      2.9981     73.4064     16.0446
  1512.6000      7.9277      2.6094      0.0945      2.4629     82.6696     15.1059
  1512.7000      7.9277      2.6134      0.1102      2.2187     91.3484     15.2837
  1512.8000      7.9306      2.5973      0.0769      3.1959     95.7151     16.8465
  1512.9000      7.9306      2.5732      0.0660      4.6527     96.2081     18.5538
  1513.0000      7.9268      2.5556      0.0701      5.7184     93.7736     19.3871
  1513.1000      7.9268      2.5468      0.0828      6.2530     90.9268     19.7245
  1513.2000      7.9268      2.5442      0.0878      6.4144     90.4168     19.8392
  1513.3000      7.9195      2.5442      0.1014      6.4103     91.9456     19.6204
  1513.4000      7.9195      2.5466      0.1012      6.2655     94.3166     19.4905
  1513.5000      7.9101      2.5528      0.0807      5.8936     99.5855     19.9202
  1513.6000      7.9101      2.5668      0.0678      5.0447    108.6698     20.4697
  1513.7000      7.9101      2.5935      0.0952      3.4260    114.0674     20.7106
  1513.8000      7.9124      2.6282      0.1075      1.3208    112.2729     20.7663
  1513.9000      7.9124      2.6577      0.1529     -0.4640    109.0365     20.5327
  1514.0000      7.9247      2.6695      0.1670     -1.1796    110.2062     19.9329
