~Version Information
VERS.                      2.0: CWLS Log ASCII Standard - VERSION 2.0
WRAP.                       NO: One line per depth step
~Well Information Block
STRT.FT               720.0000: 
STOP.FT              2730.2000: 
STEP.FT                 0.1000: 
NULL.                -999.2500: 
COMP.          Evergreen Operating Corporation: COMPANY
WELL.            Rangely 22-28: WELL
FLD.           Purgatoire River: FIELD
LOC.           1741' FNL & 2335' FWL: LOCATION
PROV.                 Colorado: PROVINCE
CNTY.               Las Animas: COUNTRY
SRVC.                Patterson: SERVICE COMPANY
DATE.          Thu Sep 16 15:10:36 2004: LOG DATE
UWI.           05 071 08044 00: UNIQUE WELL ID
~Curve Information Block
DEPT.FT            0 000 00 00: Depth
DCAL.in                       : CDL Caliper
DPOR.pu                       : CDL Density Porosity
NPOR.pu                       : Neutron Porosity
RHOB.g/cc                     : CDL Bulk Density
RHOC.g/cc                     : CDL Density Correction
GR.GAPI                       : Gamma Ray
~Parameter Information Block
~A  Depth       DCAL        DPOR        NPOR        RHOB        RHOC         GR     
# ...
  2716.8000      8.0098     13.3226     13.3026      2.4302      0.0338   -999.2500
  2716.9000      8.0098     12.6639     13.5994      2.4410      0.0513   -999.2500
  2717.0000      8.0011     11.9917     13.8197      2.4521      0.0246   -999.2500
  2717.1000      8.0011     11.3881     13.5838      2.4621      0.0579   -999.2500
  2717.2000      8.0011     11.2457     13.0022      2.4644      0.0480   -999.2500
  2717.3000      7.9843     11.3476     12.5571      2.4628      0.0450   -999.2500
  2717.4000      7.9843     11.0368     12.4619      2.4679      0.0420   -999.2500
  2717.5000      7.9662     10.4752     12.7713      2.4772      0.0574   -999.2500
  2717.6000      7.9662     10.5235     13.5826      2.4764      0.0586   -999.2500
  2717.7000      7.9662     11.5725     16.4701      2.4591      0.0679   -999.2500
  2717.8000      7.9537     12.7899     25.1450      2.4390     -0.0313   -999.2500
  2717.9000      7.9537     12.8896     38.8732      2.4373      0.0163   -999.2500
  2718.0000      7.9420     11.8147     48.7383      2.4551      0.0232   -999.2500
  2718.1000      7.9420     10.6745     52.2300      2.4739      0.0664   -999.2500
  2718.2000      7.9420     10.3241     52.9070      2.4797      0.0329   -999.2500
  2718.3000      7.9272     10.4894     52.9785      2.4769      0.0502   -999.2500
  2718.4000      7.9272     10.7411     52.9826      2.4728      0.0414   -999.2500
  2718.5000      7.9125     10.9473   -999.2500      2.4694      0.0247   -999.2500
  2718.6000      7.9125     10.8697   -999.2500      2.4706      0.0387   -999.2500
  2718.7000      7.9125     10.3031   -999.2500      2.4800      0.0336   -999.2500
  2718.8000      7.9041      9.3233   -999.2500      2.4962      0.0495   -999.2500
  2718.9000      7.9041      8.4209   -999.2500      2.5111      0.0497   -999.2500
  2719.0000      7.8988      8.0209   -999.2500      2.5177      0.0637   -999.2500
  2719.1000      7.8988      8.2383   -999.2500      2.5141      0.0743   -999.2500
  2719.2000      7.8988      8.7509   -999.2500      2.5056      0.0325   -999.2500
  2719.3000      7.8925      9.0536   -999.2500      2.5006      0.0586   -999.2500
  2719.4000      7.8925      9.0982   -999.2500      2.4999      0.0220   -999.2500
  2719.5000      7.8900      9.0552   -999.2500      2.5006      0.0265   -999.2500
  2719.6000      7.8900      9.1904   -999.2500      2.4984      0.0436   -999.2500
  2719.7000      7.8900      9.6529   -999.2500      2.4907      0.0095   -999.2500
  2719.8000      7.8938     10.0112   -999.2500      2.4848      0.0149   -999.2500
  2719.9000      7.8938      9.8875   -999.2500      2.4869      0.0304   -999.2500
  2720.0000      7.9011      9.8634   -999.2500      2.4873      0.0507   -999.2500
  2720.1000      7.9011     10.6939   -999.2500      2.4736      0.0485   -999.2500
  2720.2000      7.9011     11.7839   -999.2500      2.4556     -0.0109   -999.2500
  2720.3000      7.9051     12.1845   -999.2500      2.4490      0.0358   -999.2500
  2720.4000      7.9051     12.1073   -999.2500      2.4502      0.0215   -999.2500
  2720.5000      7.9042     11.8551   -999.2500      2.4544      0.0657   -999.2500
  2720.6000      7.9042     11.2875   -999.2500      2.4638      0.0315   -999.2500
  2720.7000      7.9042     10.6090   -999.2500      2.4750      0.0728   -999.2500
  2720.8000      7.9010     10.4018   -999.2500      2.4784      0.0656   -999.2500
  2720.9000      7.9010     10.6586   -999.2500      2.4741      0.0241   -999.2500
  2721.0000      7.8942     10.7470   -999.2500      2.4727      0.0410   -999.2500
  2721.1000      7.8942     10.2122   -999.2500      2.4815      0.0255   -999.2500
  2721.2000      7.8942      9.2468   -999.2500      2.4974      0.0663   -999.2500
  2721.3000      7.8841      8.4327   -999.2500      2.5109      0.0790   -999.2500
  2721.4000      7.8841      7.7202   -999.2500      2.5226      0.0545   -999.2500
  2721.5000      7.8770      7.1309   -999.2500      2.5323      0.1006   -999.2500
  2721.6000      7.8770      7.2043   -999.2500      2.5311      0.0493   -999.2500
  2721.7000      7.8770      7.5285   -999.2500      2.5258      0.0480   -999.2500
  2721.8000      7.8737      7.1848   -999.2500      2.5315      0.0324   -999.2500
  2721.9000      7.8737      6.2881   -999.2500      2.5462      0.0386   -999.2500
  2722.0000      7.8753      5.8225   -999.2500      2.5539      0.0879   -999.2500
  2722.1000      7.8753      6.1930   -999.2500      2.5478      0.0828   -999.2500
  2722.2000      7.8753      6.7575   -999.2500      2.5385      0.0481   -999.2500
  2722.3000      7.8814      7.1557   -999.2500      2.5319      0.0648   -999.2500
  2722.4000      7.8814      7.6742   -999.2500      2.5234      0.0463   -999.2500
  2722.5000      7.8841      8.0923   -999.2500      2.5165      0.0258   -999.2500
  2722.6000      7.8841      7.7291   -999.2500      2.5225      0.0226   -999.2500
  2722.7000      7.8841      6.6612   -999.2500      2.5401      0.0393   -999.2500
  2722.8000      7.8771      5.8713   -999.2500      2.5531      0.0729   -999.2500
  2722.9000      7.8771      6.3968   -999.2500      2.5445      0.0727   -999.2500
  2723.0000      7.8715      8.2112   -999.2500      2.5145      0.0579   -999.2500
  2723.1000      7.8715      9.8861   -999.2500      2.4869      0.0019   -999.2500
  2723.2000      7.8715     10.2380   -999.2500      2.4811      0.0507   -999.2500
  2723.3000      7.8668      9.8122   -999.2500      2.4881      0.0731   -999.2500
  2723.4000      7.8668      9.6127   -999.2500      2.4914      0.0339   -999.2500
  2723.5000      7.8577      9.9468   -999.2500      2.4859      0.0270   -999.2500
  2723.6000      7.8577     10.7822   -999.2500      2.4721      0.0369   -999.2500
  2723.7000      7.8577     11.5987   -999.2500      2.4586      0.0419   -999.2500
  2723.8000      7.8500     11.6059   -999.2500      2.4585      0.0242   -999.2500
  2723.9000      7.8500     10.6293   -999.2500      2.4746      0.0379   -999.2500
  2724.0000      7.8492      9.1591   -999.2500      2.4989      0.0320   -999.2500
  2724.1000      7.8492      7.8393   -999.2500      2.5207      0.0740   -999.2500
  2724.2000      7.8492      7.2625   -999.2500      2.5302      0.0828   -999.2500
  2724.3000      7.8497      7.3215   -999.2500      2.5292      0.0804   -999.2500
  2724.4000      7.8497      7.1604   -999.2500      2.5319      0.0442   -999.2500
  2724.5000      7.8459      6.6309   -999.2500      2.5406      0.0801   -999.2500
  2724.6000      7.8459      6.3945   -999.2500      2.5445      0.0686   -999.2500
  2724.7000      7.8459      6.3820   -999.2500      2.5447      0.0622   -999.2500
  2724.8000      7.8430      6.1626   -999.2500      2.5483      0.0789   -999.2500
  2724.9000      7.8430      5.6167   -999.2500      2.5573      0.0412   -999.2500
  2725.0000      7.8436      5.0435   -999.2500      2.5668      0.0701   -999.2500
  2725.1000      7.8436      4.7473   -999.2500      2.5717      0.0630   -999.2500
  2725.2000      7.8436      2.9395   -999.2500      2.6015      0.0457   -999.2500
  2725.3000      7.8173     -3.4552   -999.2500      2.7070      0.0444   -999.2500
  2725.4000      7.8173     -6.3341   -999.2500      2.7545      0.1292   -999.2500
  2725.5000      7.4741     21.0664   -999.2500      2.3024      0.6239   -999.2500
  2725.6000      7.4741     81.6869   -999.2500      1.3022      0.0400   -999.2500
  2725.7000      7.4741    133.9411   -999.2500      0.4400      0.0400   -999.2500
  2725.8000      5.9380    155.5546   -999.2500      0.0833   -999.2500   -999.2500
  2725.9000      5.9380    160.0861   -999.2500      0.0086   -999.2500   -999.2500
  2726.0000      3.4069    160.5779   -999.2500      0.0005   -999.2500   -999.2500
  2726.1000      3.4069    160.6061   -999.2500      0.0000   -999.2500   -999.2500
  2726.2000      3.4069    160.6061   -999.2500      0.0000   -999.2500   -999.2500
  2726.3000      1.8719   -999.2500   -999.2500   -999.2500   -999.2500   -999.2500
