~Version Information
VERS.                      2.0: CWLS Log ASCII Standard - VERSION 2.0
WRAP.                       NO: One line per depth step
~Well Information Block
STRT.FT               454.0000: 
STOP.FT              1389.0000: 
STEP.FT                 0.1000: 
NULL.                -999.2500: 
COMP.          Pioneer Natural Resources: COMPANY
WELL.          Lorencito 6-3-34-66: WELL
FLD.           Purgatoire River: FIELD
LOC.           2545' FNL & 1914' FWL: LOCATION
STAT.                 Colorado: State
CNTY.               Las Animas: COUNTY
CTRY. USA : Country
SECT. 3 : Section
TOWN. 34S : Township
RANG. 66W : Range
SRVC.                Patterson: SERVICE COMPANY
DATE.          Mon Sep 12 07:20:37 2005: LOG DATE
API.        05 071 08369 00: UNIQUE WELL ID
~Curve Information Block
DEPT.FT            0 000 00 00: Depth
DCAL.in                       : CDL Caliper
RHOB.g/cc                     : CDL Bulk Density
RHOC.g/cc                     : CDL Density Correction
DPOR.pu                       : CDL Density Porosity
GR.GAPI                       : Gamma Ray
NPOR.pu                       : Neutron Porosity
~Parameter Information Block
~A  Depth       DCAL        RHOB        RHOC        DPOR         GR         NPOR    
# ...
  1318.0000      8.0012      2.4549      0.0207     11.8227     66.2170     20.4491
  1318.1000      8.0012      2.4543      0.0042     11.8632     61.9855     19.3947
  1318.2000      8.0012      2.4723      0.0353     10.7697     58.8080     18.6388
  1318.3000      7.9998      2.4986      0.0366      9.1780     59.5160     18.6607
  1318.4000      7.9998      2.5190      0.0806      7.9387     59.8715     18.6705
  1318.5000      7.9634      2.5182      0.0856      7.9849     56.9952     18.1871
  1318.6000      7.9634      2.4952      0.0292      9.3812     57.7815     17.7569
  1318.7000      7.9634      2.4770      0.0085     10.4844     66.3965     17.8809
  1318.8000      7.9974      2.4844      0.0025     10.0371     74.2392     18.3507
  1318.9000      7.9974      2.5013      0.0618      9.0125     74.7949     18.4042
  1319.0000      7.9816      2.5007      0.0664      9.0479     72.2364     17.7769
  1319.1000      7.9816      2.4827      0.0294     10.1368     69.1855     16.9859
  1319.2000      7.9816      2.4668     -0.0042     11.1040     64.7710     16.5134
  1319.3000      8.0856      2.4614      0.0168     11.4304     61.4794     16.7063
  1319.4000      8.0856      2.4616      0.0233     11.4154     62.2265     17.3515
  1319.5000      8.0018      2.4650      0.0183     11.2147     65.3636     17.9694
  1319.6000      8.0018      2.4664      0.0477     11.1283     66.6083     18.6351
  1319.7000      8.0018      2.4561      0.0079     11.7538     65.1560     19.4920
  1319.8000      7.9733      2.4394     -0.0159     12.7612     64.6579     20.4127
  1319.9000      7.9733      2.4312     -0.0500     13.2584     64.9050     21.0907
  1320.0000      7.9809      2.4340      0.0056     13.0918     62.1777     21.2301
  1320.1000      7.9809      2.4379      0.0203     12.8555     58.2831     21.1540
  1320.2000      7.9809      2.4353      0.0438     13.0121     58.0207     21.4980
  1320.3000      7.9800      2.4291      0.0148     13.3897     61.0175     22.0986
  1320.4000      7.9800      2.4284      0.0289     13.4277     63.7618     21.9095
  1320.5000      7.8731      2.4285      0.0659     13.4214     66.1962     20.4989
  1320.6000      7.8731      2.4170      0.0286     14.1214     69.0247     19.0822
  1320.7000      7.8731      2.4035     -0.0381     14.9421     71.0833     19.0971
  1320.8000      7.9344      2.4010      0.0470     15.0935     73.6023     20.0047
  1320.9000      7.9344      2.3937      0.0504     15.5347     77.3916     20.4247
  1321.0000      7.9996      2.3601      0.0663     17.5668     80.0207     20.3515
  1321.1000      7.9996      2.3079      0.0008     20.7307     78.7295     20.3897
  1321.2000      7.9996      2.2713     -0.0116     22.9497     74.8290     20.7776
  1321.3000      7.9903      2.2797     -0.0494     22.4417     72.7374     21.1075
  1321.4000      7.9903      2.3335      0.0467     19.1839     73.7232     21.1784
  1321.5000      7.9886      2.4074      0.0879     14.7023     75.7562     21.4849
  1321.6000      7.9886      2.4754      0.1142     10.5822     78.8210     22.1232
  1321.7000      7.9886      2.5245      0.2026      7.6074     82.9448     22.7906
  1321.8000      7.9828      2.5503      0.2939      6.0451     83.9101     23.4540
  1321.9000      7.9828      2.5566      0.3128      5.6601     80.8203     23.9117
  1322.0000      7.9797      2.5473      0.3191      6.2256     79.3643     23.5370
  1322.1000      7.9797      2.5174      0.2394      8.0361     80.0271     22.7227
  1322.2000      7.9797      2.4850      0.0641     10.0017     78.7176     22.6756
  1322.3000      7.9537      2.4832      0.1173     10.1087     76.7949     23.0559
  1322.4000      7.9537      2.5001      0.1525      9.0819     75.8126     23.0042
  1322.5000      7.9336      2.4998      0.0780      9.1051     74.2227     22.7314
  1322.6000      7.9336      2.4795      0.0618     10.3331     72.2643     22.5755
  1322.7000      7.9336      2.4616      0.0599     11.4212     71.0973     22.5600
  1322.8000      7.9545      2.4572      0.0326     11.6848     69.7235     22.1699
  1322.9000      7.9545      2.4521      0.0684     11.9952     66.8013     20.8173
  1323.0000      7.9810      2.4345      0.0058     13.0592     61.6995     19.3254
  1323.1000      7.9810      2.4223      0.0176     13.8011     55.6910     18.9992
  1323.2000      7.9810      2.4329      0.0054     13.1559     54.5411     19.5366
  1323.3000      7.9824      2.4598      0.0482     11.5255     61.8186     20.0583
  1323.4000      7.9824      2.4858      0.0714      9.9503     70.3732     20.1285
  1323.5000      8.0474      2.5002      0.0982      9.0772     71.2017     19.5671
  1323.6000      8.0474      2.5068      0.0246      8.6767     66.3998     19.0739
  1323.7000      8.0474      2.5149      0.0701      8.1869     63.1577     19.3772
  1323.8000      8.0131      2.5228      0.0504      7.7071     65.0490     19.8451
  1323.9000      8.0131      2.5231      0.0552      7.6890     70.1129     20.0801
  1324.0000      7.9387      2.5097      0.0516      8.5035     72.9708     20.4962
  1324.1000      7.9387      2.4898      0.0045      9.7070     71.6474     20.7284
  1324.2000      7.9387      2.4781      0.0186     10.4180     69.7066     20.4672
  1324.3000      7.9535      2.4735      0.0125     10.6991     69.7357     20.0497
  1324.4000      7.9535      2.4715      0.0247     10.8212     71.0147     19.9209
  1324.5000      7.9967      2.4745      0.0388     10.6344     74.2992     20.3324
  1324.6000      7.9967      2.4760      0.0533     10.5430     76.7808     20.9094
  1324.7000      7.9967      2.4702     -0.0143     10.8976     74.1575     21.3597
  1324.8000      7.9629      2.4698     -0.0015     10.9186     69.7814     21.9261
  1324.9000      7.9629      2.4875      0.0141      9.8462     67.9842     22.5766
  1325.0000      7.9721      2.5185      0.0585      7.9718     68.1668     22.6090
  1325.1000      7.9721      2.5458      0.0572      6.3139     68.7108     21.5758
  1325.2000      7.9721      2.5535      0.0875      5.8505     69.7934     20.2700
  1325.3000      7.9946      2.5404      0.0867      6.6427     70.1422     19.8361
  1325.4000      7.9946      2.5266      0.0406      7.4791     67.0385     20.1027
  1325.5000      7.9897      2.5274      0.0636      7.4276     62.1168     19.9248
  1325.6000      7.9897      2.5350      0.0538      6.9722     59.8251     19.2050
  1325.7000      7.9897      2.5380      0.0765      6.7855     62.2323     18.8450
  1325.8000      8.0504      2.5374      0.0431      6.8235     66.4028     18.8792
  1325.9000      8.0504      2.5323      0.0893      7.1344     69.0321     18.7175
  1326.0000      7.9470      2.5158      0.0529      8.1317     72.4195     18.3065
  1326.1000      7.9470      2.4947      0.0285      9.4123     78.2315     18.0947
  1326.2000      7.9470      2.4809     -0.0227     10.2484     82.5513     18.5205
  1326.3000      7.9659      2.4739      0.0127     10.6744     84.3748     19.5451
  1326.4000      7.9659      2.4662     -0.0289     11.1385     86.3752     20.6864
  1326.5000      7.9935      2.4586      0.0076     11.5990     87.2311     21.4971
  1326.6000      7.9935      2.4511      0.0081     12.0558     87.2897     21.5586
  1326.7000      7.9935      2.4418      0.0168     12.6209     87.8074     20.7631
  1326.8000      8.0930      2.4425     -0.0203     12.5733     87.5600     19.7218
  1326.9000      8.0930      2.4625      0.0319     11.3666     87.2563     18.9545
  1327.0000      8.0141      2.4860      0.0718      9.9419     86.4421     18.6157
  1327.1000      8.0141      2.4944      0.0256      9.4282     80.7488     18.8862
  1327.2000      8.0141      2.4940      0.0121      9.4567     71.6871     19.8585
  1327.3000      8.0246      2.5050      0.0340      8.7871     66.9577     21.1065
  1327.4000      8.0246      2.5271      0.0840      7.4471     68.7724     21.7742
  1327.5000      8.0112      2.5393      0.0699      6.7065     73.0060     21.6612
