~Version Information
VERS.                      2.0: CWLS Log ASCII Standard - VERSION 2.0
WRAP.                       NO: One line per depth step
~Well Information Block
STRT.FT               700.0000: 
STOP.FT              1869.5000: 
STEP.FT                 0.2500: 
NULL.                -999.2500: 
COMP.          Petrogulf Corporation: COMPANY
WELL.             State 16-24R: WELL
FLD.           Purgatorie River: FIELD
LOC.           541' FSL & 2371' FWL: LOCATION
PROV.                 Colorado: PROVINCE
CNTY.               Las Animas: COUNTRY
SRVC.                Patterson: SERVICE COMPANY
DATE.          Fri Aug 12 09:07:22 2005: LOG DATE
UWI.                071-08312 : UNIQUE WELL ID
~Curve Information Block
DEPT.FT            0 000 00 00: Depth
SP.mV                         : DIL Spontaneous Potential
RILD.Ohm-m                    : DIL Deep Resistivity
RILM.Ohm-m                    : DIL Medium Resistivity
RLL3.Ohm-m                    : DIL Shallow Resistivity
GR.GAPI                       : Gamma Ray
~Parameter Information Block
~A  Depth        SP         RILD        RILM        RLL3         GR     
# ...
  1456.0000    139.0998     14.9400     19.0062     15.6053    108.2675
  1456.2500    138.7618     15.2158     19.0629     14.6714    115.0000
  1456.5000    139.3734     14.7904     19.0504     14.5393    105.6748
  1456.7500    138.7467     14.2138     19.2733     15.2269    100.3940
  1457.0000    136.7812     13.9454     18.6642     17.3409    106.5581
  1457.2500    135.0814     13.5375     18.3144     17.4785    100.7413
  1457.5000    136.7787     12.9936     17.6651     15.5999    107.3989
  1457.7500    136.3950     12.8520     16.9572     15.4942    111.0566
  1458.0000    135.7600     11.9467     16.4518     16.1913    116.8750
  1458.2500    134.3729     11.7462     15.8853     16.3123    119.2334
  1458.5000    133.8181     11.3913     15.1698     15.5883    129.7727
  1458.7500    131.7336     10.8042     14.4522     14.8743    131.5357
  1459.0000    132.2422     10.5648     14.1022     13.6859    135.6898
  1459.2500    130.9583     10.7556     13.2014     13.1843    130.9984
  1459.5000    130.5739     11.0353     12.3122     12.4562    138.6541
  1459.7500    129.4261     11.1280     12.0645     12.0927    143.9733
  1460.0000    128.6132     11.1435     11.7523     11.4635    140.3079
  1460.2500    127.1106     11.0312     11.6955     11.1675    144.1830
  1460.5000    126.5033     11.1745     12.0229     10.9939    141.8757
  1460.7500    126.3898     11.2962     12.4135     11.0391    130.0175
  1461.0000    126.8993     11.6029     12.7877     11.5587    133.4118
  1461.2500    127.4142     11.7795     13.5780     12.8531    114.6709
  1461.5000    128.9823     11.7797     14.0206     17.6446     91.8728
  1461.7500    131.1296     11.6339     15.2144     23.6337     96.7107
  1462.0000    135.1773     12.0509     15.7751     23.9373     96.0594
  1462.2500    139.9798     12.3562     16.5446     21.1370     98.2677
  1462.5000    144.4143     12.7553     17.8615     23.1230     91.1297
  1462.7500    145.2968     12.9370     18.3993     28.8979     86.5158
  1463.0000    144.8118     13.6256     17.8630     33.2617     91.6794
  1463.2500    147.1816     14.0952     17.4623     27.0622     98.3521
  1463.5000    147.4038     15.0704     17.4523     18.4023    112.5862
  1463.7500    148.2851     15.7635     17.5693     14.8346    114.2738
  1464.0000    147.7864     16.4562     17.9145     15.0137    108.6511
  1464.2500    149.5592     17.1882     18.4554     16.9120    106.9750
  1464.5000    149.4064     17.3170     18.7592     17.6973    118.1412
  1464.7500    149.2747     17.4333     18.9253     15.3037    116.5277
  1465.0000    149.3944     17.5457     19.3826     13.8854    101.8534
  1465.2500    149.2818     17.4827     21.0563     15.8322     95.2037
  1465.5000    148.2669     18.1009     22.3197     22.4121     89.4503
  1465.7500    147.3271     17.9641     23.2706     32.1131     81.7121
  1466.0000    147.7363     18.7257     23.6821     40.4283     84.8304
  1466.2500    147.6356     18.8927     25.2526     40.4892     86.6295
  1466.5000    147.1501     19.2915     26.3150     32.4801     80.1445
  1466.7500    146.3592     20.1725     28.1347     28.9950     67.0331
  1467.0000    146.2127     20.8784     28.6112     31.2217     62.1752
  1467.2500    144.5330     21.5349     29.2477     35.4913     64.7352
  1467.5000    144.8770     21.2089     30.0155     41.4810     62.6650
  1467.7500    143.9661     21.0003     30.8962     47.3637     66.1186
  1468.0000    144.0445     20.4187     30.5782     50.2552     74.3870
  1468.2500    143.5677     18.8445     30.8099     52.2206     73.3618
  1468.5000    143.3508     17.7595     30.8644     51.6007     72.4009
  1468.7500    146.5706     17.1389     28.8286     38.6431     78.0381
  1469.0000    146.7526     17.6969     26.5511     27.6388     94.9302
  1469.2500    148.0531     16.7006     22.8350     22.5284    107.2716
  1469.5000    146.1780     16.1637     21.2780     18.7908    112.6881
  1469.7500    146.4982     15.2928     19.4737     16.4825    115.7550
  1470.0000    143.7919     14.6719     17.8484     14.9400    123.8417
  1470.2500    147.6946     14.8138     16.8538     13.2674    120.0336
  1470.5000    149.5674     13.9463     15.8953     11.8117    129.7733
  1470.7500    148.9945     13.5104     15.4710     11.7419    125.3805
  1471.0000    147.7949     12.9881     15.1936     13.3799    115.4213
  1471.2500    147.3770     12.4830     14.9208     16.3799    102.0173
  1471.5000    146.6873     12.3926     14.4415     21.0455    112.8223
  1471.7500    147.6719     12.2571     14.3025     19.9280    128.0215
  1472.0000    149.2914     11.7829     13.6708     14.6301    141.2709
  1472.2500    149.3909     12.0665     13.6480     12.7837    144.0648
  1472.5000    150.1494     12.6557     13.4493     11.2485    133.9834
  1472.7500    147.8911     13.0573     13.3523     11.2197    123.8755
  1473.0000    150.9633     13.3272     14.0440     12.8092    109.9215
  1473.2500    148.9054     13.7595     14.8268     14.3804    107.9614
  1473.5000    149.4239     14.2868     16.0613     17.2518    105.1109
  1473.7500    146.9017     14.3064     17.7815     18.0602     98.4033
  1474.0000    147.4489     14.3505     18.1270     19.5377     90.5761
  1474.2500    152.7099     15.7432     19.6368     20.8923     83.9553
  1474.5000    155.7803     15.7148     21.0438     24.3847     84.1572
  1474.7500    157.0516     15.8077     22.6971     27.7150     83.9128
  1475.0000    158.3070     15.5200     24.4566     38.1325     75.5544
  1475.2500    154.9514     15.6780     25.7259     65.4058     70.1896
  1475.5000    153.8842     15.6168     25.9844     89.4908     73.9661
  1475.7500    155.9058     14.9094     26.4716     81.3007     78.9257
  1476.0000    156.9600     14.0688     24.5301     60.3751     89.6293
  1476.2500    160.1242     14.1729     21.8454     33.9260    108.8744
  1476.5000    161.3748     13.5871     19.5113     21.7493    121.6119
  1476.7500    165.2552     13.2499     18.0950     14.1606    119.2572
  1477.0000    165.5630     12.4480     16.6747     12.7879    126.7790
  1477.2500    167.2568     11.9945     15.4542     13.1501    135.1029
  1477.5000    167.9311     11.0309     14.2424     13.1921    141.9315
  1477.7500    168.7304     10.8039     13.6529     12.4632    134.2882
  1478.0000    167.8458     10.3254     12.1421     11.9198    131.4827
  1478.2500    166.2101      9.8272     11.5860     11.5046    132.7513
  1478.5000    165.0603      9.7099     10.7808     11.0287    146.4899
  1478.7500    162.6135      9.6805     10.3878     10.6207    154.7253
  1479.0000    162.1619      9.7157     10.0866     10.1716    139.8968
  1479.2500    160.6129      9.9066     10.0102     10.0314    137.5312
  1479.5000    160.4790     10.2566     10.3615     10.0655    133.5354
  1479.7500    158.5901     10.4614     11.0607     10.4019    136.4774
  1480.0000    157.0938     10.3001     11.6253     11.7602    122.0229
  1480.2500    155.2716     10.6484     12.7333     13.0692    117.3215
  1480.5000    155.8334     11.1927     13.8818     17.6364     97.8558
  1480.7500    155.2132     11.6961     15.8073     26.0654     88.9302
  1481.0000    157.9197     12.3930     16.7313     53.5928     70.4907
  1481.2500    158.9215     12.9851     19.1765     71.9658     64.4047
  1481.5000    162.3585     13.3182     20.1675     76.7447     69.9281
  1481.7500    165.0171     13.9780     21.8790     64.8974     69.9725
  1482.0000    167.6338     13.7403     22.9898     46.9086     75.3335
  1482.2500    168.5921     14.6654     23.7997     33.8665     77.7265
  1482.5000    171.0464     14.7517     23.7705     31.0316     85.5858
  1482.7500    174.4400     14.3755     22.6538     29.0705     89.7016
  1483.0000    175.8273     14.4995     21.7928     26.2597    109.6116
  1483.2500    176.2303     13.4873     19.8525     18.5849    126.6721
  1483.5000    176.2378     13.1190     18.2567     15.8777    117.0107
  1483.7500    177.0081     12.1818     17.2699     12.5264    131.4254
