~Version Information
VERS.                      2.0: CWLS Log ASCII Standard - VERSION 2.0
WRAP.                       NO: One line per depth step
~Well Information Block
STRT.FT               550.0000: 
STOP.FT              2359.0000: 
STEP.FT                 0.1000: 
NULL.                -999.2500: 
COMP.          Pioneer Natural Resources: COMPANY
WELL.              Whinny 42-2: WELL
FLD.           Purgatoire River: FIELD
LOC.           1836' FNL & 466' FEL: LOCATION
PROV.                 Colorado: PROVINCE
CNTY.               Las Animas: COUNTRY
SRVC.                Patterson: SERVICE COMPANY
DATE.          Mon Aug 22 07:28:42 2005: LOG DATE
UWI.           05 071 08406 00: UNIQUE WELL ID
~Curve Information Block
DEPT.FT            0 000 00 00: Depth
DCAL.in                       : CDL Caliper
RHOB.g/cc                     : CDL Bulk Density
RHOC.g/cc                     : CDL Density Correction
DPOR.pu                       : CDL Density Porosity
GR.GAPI                       : Gamma Ray
NPOR.pu                       : Neutron Porosity
~Parameter Information Block
~A  Depth       DCAL        RHOB        RHOC        DPOR         GR         NPOR    
# ...
  1990.0000      8.3309      2.4686      0.0726     10.9955    102.9568     29.2688
  1990.1000      8.3309      2.4697      0.0955     10.9254    101.5211     29.4831
  1990.2000      8.3309      2.4430      0.0348     12.5471    110.4044     29.7855
  1990.3000      8.3970      2.4167     -0.0021     14.1390    118.0242     30.1381
  1990.4000      8.3970      2.4024      0.0843     15.0074    113.4205     30.7874
  1990.5000      8.4115      2.3921      0.0643     15.6278    102.6163     31.2725
  1990.6000      8.4115      2.3841      0.0353     16.1124     98.6638     31.2296
  1990.7000      8.4115      2.3704      0.0571     16.9464    104.5006     30.9064
  1990.8000      8.4279      2.3312      0.0727     19.3182    111.6143     30.6405
  1990.9000      8.4279      2.2645      0.0061     23.3645    111.0677     30.6556
  1991.0000      8.4466      2.1918     -0.0066     27.7671    104.2443     30.8962
  1991.1000      8.4466      2.1290     -0.0224     31.5732     99.8491     31.0208
  1991.2000      8.4466      2.0752     -0.0366     34.8372     98.1168     31.1954
  1991.3000      8.4763      2.0258     -0.0126     37.8295     92.8556     31.6345
  1991.4000      8.4763      1.9795     -0.0048     40.6388     86.1208     31.9457
  1991.5000      8.4848      1.9335      0.0163     43.4264     82.2775     31.7345
  1991.6000      8.4848      1.8745      0.0199     47.0009     78.0096     31.1331
  1991.7000      8.4848      1.7909      0.0034     52.0687     74.9783     30.6774
  1991.8000      8.4570      1.7008     -0.0741     57.5277     76.8319     30.7852
  1991.9000      8.4570      1.6414     -0.0029     61.1257     79.2835     31.3672
  1992.0000      8.4573      1.6310     -0.0565     61.7549     79.8193     32.0818
  1992.1000      8.4573      1.6652     -0.0095     59.6827     79.5054     32.5486
  1992.2000      8.4573      1.7354     -0.0038     55.4288     82.2963     32.8402
  1992.3000      8.4356      1.8398      0.0125     49.1057     89.4377     33.1603
  1992.4000      8.4356      1.9585      0.1881     41.9075     95.9166     32.9528
  1992.5000      8.4614      2.0572      0.2083     35.9273    101.1685     31.9408
  1992.6000      8.4614      2.1433      0.1756     30.7091    106.0563     30.9842
  1992.7000      8.4614      2.2568      0.1519     23.8298    108.1687     30.7152
  1992.8000      8.6352      2.3895      0.2325     15.7883    105.5044     30.8781
  1992.9000      8.6352      2.4825      0.1605     10.1504    100.8077     30.7309
  1993.0000      8.6440      2.5206      0.0810      7.8453    101.5179     30.3088
  1993.1000      8.6440      2.5354      0.1183      6.9451    105.8973     30.3795
  1993.2000      8.6440      2.5386      0.0930      6.7496    107.1234     30.4717
  1993.3000      8.5087      2.5287      0.0430      7.3496    105.1358     29.9649
  1993.4000      8.5087      2.5144      0.0433      8.2169    102.9506     29.5339
  1993.5000      8.4318      2.5045      0.0265      8.8203    104.5921     29.7078
  1993.6000      8.4318      2.4988      0.0900      9.1623    110.5105     29.9239
  1993.7000      8.4318      2.4918      0.0624      9.5849    112.9081     29.7015
  1993.8000      8.4013      2.4929      0.0499      9.5186    106.2600     29.4768
  1993.9000      8.4013      2.5170      0.0436      8.0580     97.1384     29.6937
  1994.0000      8.4130      2.5463      0.0865      6.2852     93.1603     29.7659
  1994.1000      8.4130      2.5431      0.1116      6.4798     94.7837     29.1239
  1994.2000      8.4130      2.5072      0.0355      8.6576     98.4800     28.1323
  1994.3000      8.4169      2.4720      0.0454     10.7898    101.4384     27.4244
  1994.4000      8.4169      2.4517      0.0742     12.0172    103.9461     27.3985
  1994.5000      8.4240      2.4377      0.0171     12.8656    105.8642     27.9268
  1994.6000      8.4240      2.4188      0.0753     14.0127    108.9421     28.4923
  1994.7000      8.4240      2.3979     -0.0394     15.2789    114.9796     28.8884
  1994.8000      8.3914      2.3921      0.0070     15.6287    121.4712     29.3630
  1994.9000      8.3914      2.3927      0.0864     15.5915    125.2937     30.0189
  1995.0000      8.3411      2.3779      0.1265     16.4893    125.9898     30.8486
  1995.1000      8.3411      2.3561      0.0935     17.8095    123.4296     31.4263
  1995.2000      8.3411      2.3423      0.1605     18.6490    118.7282     30.9705
  1995.3000      8.3680      2.3235      0.1544     19.7872    116.8790     29.7769
  1995.4000      8.3680      2.2865      0.1292     22.0294    118.4886     28.9618
  1995.5000      8.6076      2.2342      0.1136     25.2008    120.3792     28.9716
  1995.6000      8.6076      2.1796      0.0645     28.5099    124.9469     29.6879
  1995.7000      8.6076      2.1414      0.0799     30.8230    133.2746     30.7365
  1995.8000      8.7207      2.1271      0.1155     31.6933    140.0240     31.5397
  1995.9000      8.7207      2.1275      0.0848     31.6684    138.8927     31.6113
  1996.0000      8.9711      2.1376      0.1530     31.0526    131.7658     31.0490
  1996.1000      8.9711      2.1736      0.2004     28.8723    125.8059     30.4741
  1996.2000      8.9711      2.2551      0.2691     23.9361    121.1491     30.3135
  1996.3000      9.3678      2.3633      0.3545     17.3779    115.1137     30.5720
  1996.4000      9.3678      2.4529      0.3838     11.9472    109.5011     31.1062
  1996.5000      9.3010      2.5051      0.3990      8.7839    106.1340     31.7264
  1996.6000      9.3010      2.5287      0.3884      7.3513    105.2278     32.4815
  1996.7000      9.3010      2.5360      0.4023      6.9089    103.8386     33.1837
  1996.8000      9.4374      2.5416      0.2993      6.5708    101.1147     33.2599
  1996.9000      9.4374      2.5514      0.2445      5.9774    101.6833     32.5540
  1997.0000      9.4368      2.5530      0.2091      5.8815    105.2339     31.6230
  1997.1000      9.4368      2.5342      0.2150      7.0208    107.1315     31.0448
  1997.2000      9.4368      2.5049      0.1330      8.7966    106.9819     31.0018
  1997.3000      8.9310      2.4927      0.1397      9.5314    107.3287     31.0714
  1997.4000      8.9310      2.4993      0.2276      9.1363    107.0066     30.9749
  1997.5000      8.8396      2.4987      0.2167      9.1683    103.8219     31.3624
  1997.6000      8.8396      2.4861      0.2131      9.9323     97.2836     32.1485
  1997.7000      8.8396      2.4862      0.1419      9.9276     88.3126     32.2610
  1997.8000      8.6227      2.5113      0.2214      8.4075     82.5977     31.6962
  1997.9000      8.6227      2.5348      0.2226      6.9814     82.1764     31.1206
  1998.0000      8.5620      2.5328      0.2237      7.1032     82.7708     30.8835
  1998.1000      8.5620      2.5061      0.1338      8.7208     81.4334     30.7722
  1998.2000      8.5620      2.4644      0.0957     11.2491     78.6172     30.5280
  1998.3000      8.4913      2.4225      0.0059     13.7863     75.8493     30.5429
  1998.4000      8.4913      2.3971      0.0300     15.3294     76.8575     30.6771
  1998.5000      8.4255      2.3883      0.0178     15.8590     86.2750     30.3541
  1998.6000      8.4255      2.3871      0.0322     15.9338    100.0836     29.6664
  1998.7000      8.4255      2.3947     -0.0006     15.4740    107.4479     29.3083
  1998.8000      8.3674      2.4163      0.0773     14.1622    103.6664     29.7990
  1998.9000      8.3674      2.4459      0.0876     12.3707     97.1713     30.9477
  1999.0000      8.3382      2.4669      0.1577     11.0981     97.7186     31.8458
  1999.1000      8.3382      2.4635      0.2085     11.3055    102.7081     32.0218
  1999.2000      8.3382      2.4438      0.1736     12.4992    103.8438     32.0862
  1999.3000      8.3900      2.4227      0.2313     13.7757    101.8376     32.2778
  1999.4000      8.3900      2.3922      0.2263     15.6233    103.0639     32.1691
  1999.5000      8.7009      2.3555      0.1567     17.8499    107.1277     31.8439
