~Version Information
VERS.                      2.0: CWLS Log ASCII Standard - VERSION 2.0
WRAP.                       NO: One line per depth step
~Well Information Block
STRT.FT               605.6000: 
STOP.FT              1938.0000: 
STEP.FT                 0.1000: 
NULL.                -999.2500: 
COMP.          Petrogulf Corporation: COMPANY
WELL.              Graff 9-31R: WELL
FLD.           Purgatorie River: FIELD
LOC.           707' FNL & 1713' FEL: LOCATION
CNTY.               Las Animas: COUNTY
SRVC.                         : SERVICE COMPANY
DATE.          Mon Oct 25 06:13:30 2004: LOG DATE
UWI.           05 071 08037 00: UNIQUE WELL ID
STAT.                 Colorado: STATE
~Curve Information Block
DEPT.FT            0 000 00 00: Depth
DCAL.in                       : CDL Caliper
RHOB.g/cc                     : CDL Bulk Density
RHOC.g/cc                     : CDL Density Correction
DPOR.pu                       : CDL Density Porosity
GR.GAPI                       : Gamma Ray
NPOR.pu                       : Neutron Porosity
~Parameter Information Block
~A  Depth       DCAL        RHOB        RHOC        DPOR         GR         NPOR    
# ...
  1143.2000      8.0812      2.5364     -0.0073      6.8858    102.3223     19.0086
  1143.3000      8.0822      2.5457      0.0077      6.3234     96.9933     19.2614
  1143.4000      8.0822      2.5507      0.0754      6.0178     92.5217     19.4852
  1143.5000      8.0929      2.5546      0.0315      5.7847     87.3613     19.7708
  1143.6000      8.0929      2.5660      0.0469      5.0903     83.0627     19.7765
  1143.7000      8.0929      2.5772      0.0652      4.4150     82.4507     19.2753
  1143.8000      8.0931      2.5714      0.0548      4.7661     85.6215     18.5934
  1143.9000      8.0931      2.5537      0.0336      5.8358     89.4251     18.2326
  1144.0000      8.0985      2.5437      0.0030      6.4440     90.9958     18.1980
  1144.1000      8.0985      2.5406      0.0592      6.6291     89.1567     18.0973
  1144.2000      8.0985      2.5279      0.0369      7.3989     82.5516     17.6969
  1144.3000      8.1018      2.5095      0.0239      8.5160     75.4737     17.0544
  1144.4000      8.1018      2.4999      0.0660      9.0971     71.7527     16.2600
  1144.5000      8.1035      2.4953      0.0604      9.3771     68.1044     15.6785
  1144.6000      8.1035      2.4917      0.0297      9.5958     64.4479     15.7300
  1144.7000      8.1035      2.4907      0.0549      9.6556     63.9375     16.0291
  1144.8000      8.1035      2.4851      0.0219      9.9948     64.2859     15.9669
  1144.9000      8.1035      2.4747      0.0527     10.6217     61.4185     15.5395
  1145.0000      8.1056      2.4666      0.0452     11.1164     56.9825     15.0475
  1145.1000      8.1056      2.4603      0.0506     11.4988     54.4092     14.8361
  1145.2000      8.1056      2.4511      0.0598     12.0559     53.3128     14.9340
  1145.3000      8.1073      2.4342      0.0876     13.0772     50.1123     15.1751
  1145.4000      8.1073      2.4153      0.0287     14.2251     45.3519     15.3195
  1145.5000      8.1045      2.4152      0.0155     14.2307     43.9018     15.0668
  1145.6000      8.1045      2.4395      0.0327     12.7563     44.4478     14.5645
  1145.7000      8.1045      2.4632      0.0830     11.3201     43.3089     14.2989
  1145.8000      8.1060      2.4710      0.0328     10.8485     43.4033     14.4981
  1145.9000      8.1060      2.4770      0.0536     10.4828     47.2536     15.0255
  1146.0000      8.1068      2.4937      0.0735      9.4755     50.0412     15.5153
  1146.1000      8.1068      2.5152      0.0995      8.1679     46.9477     15.5973
  1146.2000      8.1068      2.5247      0.1091      7.5955     42.5099     15.3619
  1146.3000      8.1068      2.5154      0.0688      8.1575     41.5933     15.0787
  1146.4000      8.1068      2.5018      0.0461      8.9806     41.6119     14.7193
  1146.5000      8.1023      2.4957      0.0651      9.3536     39.6603     14.2636
  1146.6000      8.1023      2.5003     -0.0099      9.0741     37.1092     13.9462
  1146.7000      8.1023      2.5140      0.0596      8.2427     36.6130     13.8286
  1146.8000      8.1051      2.5236      0.0965      7.6633     39.0110     13.6478
  1146.9000      8.1051      2.5257      0.0456      7.5305     43.1754     13.5428
  1147.0000      8.1395      2.5357      0.0643      6.9252     45.5962     13.9455
  1147.1000      8.1395      2.5502      0.1134      6.0503     45.5802     14.6296
  1147.2000      8.1395      2.5491      0.0834      6.1152     45.3989     15.1698
  1147.3000      8.1044      2.5381      0.0439      6.7815     45.7337     15.7096
  1147.4000      8.1044      2.5400      0.0775      6.6639     47.7745     16.2737
  1147.5000      8.0895      2.5603      0.1166      5.4371     53.2935     16.4273
  1147.6000      8.0895      2.5876      0.1542      3.7794     59.5065     16.0740
  1147.7000      8.0895      2.6111      0.1406      2.3571     61.0321     15.9877
  1147.8000      8.1001      2.6328      0.1416      1.0434     57.2922     16.6592
  1147.9000      8.1001      2.6581      0.0907     -0.4893     52.7999     17.4802
  1148.0000      8.0878      2.6784      0.0995     -1.7217     51.8143     17.8823
  1148.1000      8.0878      2.6839      0.0784     -2.0563     54.6628     18.1432
  1148.2000      8.0878      2.6811      0.0863     -1.8867     58.6467     18.4239
  1148.3000      8.0788      2.6869      0.0674     -2.2360     62.1895     18.5649
  1148.4000      8.0788      2.7030      0.1212     -3.2125     65.8006     18.6584
  1148.5000      8.0615      2.7067      0.1028     -3.4393     69.4526     18.9228
  1148.6000      8.0615      2.6933      0.0255     -2.6223     71.6474     19.1573
  1148.7000      8.0615      2.6807      0.0873     -1.8626     73.9353     19.0973
  1148.8000      8.0672      2.6698      0.0377     -1.2000     81.4204     18.8538
  1148.9000      8.0672      2.6530      0.0293     -0.1814     94.0658     18.4810
  1149.0000      8.0683      2.6365      0.0280      0.8198    103.5898     18.3810
  1149.1000      8.0683      2.6341      0.0107      0.9657    104.9257     19.0151
  1149.2000      8.0683      2.6417      0.0372      0.5001    103.9448     19.8672
  1149.3000      8.0772      2.6348      0.0718      0.9218    107.6666     20.5365
  1149.4000      8.0772      2.6129      0.0406      2.2483    118.0636     21.1421
  1149.5000      8.0893      2.6027      0.0189      2.8656    130.0090     21.4706
  1149.6000      8.0893      2.6069      0.0575      2.6135    134.3533     21.6042
  1149.7000      8.0893      2.5996      0.0857      3.0547    132.6290     21.7304
  1149.8000      8.1016      2.5676      0.0035      4.9914    133.8422     21.8384
  1149.9000      8.1016      2.5321     -0.0341      7.1470    138.7241     22.0602
  1150.0000      8.1062      2.5191      0.0127      7.9316    140.8564     22.4347
  1150.1000      8.1062      2.5283      0.0786      7.3745    138.1099     22.7855
  1150.2000      8.1062      2.5460      0.0667      6.3013    133.7346     22.8610
  1150.3000      8.1062      2.5620      0.0898      5.3306    131.7755     22.9388
  1150.4000      8.1062      2.5710      0.0758      4.7865    133.7041     23.3164
  1150.5000      8.1090      2.5761      0.1197      4.4794    137.4530     23.6286
  1150.6000      8.1090      2.5776      0.1213      4.3879    141.6234     23.8538
  1150.7000      8.1090      2.5672      0.1209      5.0169    144.6685     24.1912
  1150.8000      8.1033      2.5474      0.0688      6.2160    145.7280     24.5437
  1150.9000      8.1033      2.5378      0.0689      6.8002    146.3106     24.8260
  1151.0000      8.1104      2.5447      0.0574      6.3828    146.8726     25.0234
  1151.1000      8.1104      2.5518      0.0950      5.9535    148.4258     25.2463
  1151.2000      8.1104      2.5561      0.0352      5.6938    152.6485     25.5302
  1151.3000      8.1123      2.5756      0.0157      4.5087    154.7389     25.6845
  1151.4000      8.1123      2.5969      0.1128      3.2190    150.1894     25.8601
  1151.5000      8.0969      2.5842      0.0907      3.9852    144.4239     26.1547
  1151.6000      8.0969      2.5477      0.0424      6.1998    144.9773     26.1817
  1151.7000      8.0969      2.5252     -0.0078      7.5609    149.9051     26.0350
  1151.8000      8.0919      2.5256      0.0124      7.5414    153.0157     26.3199
  1151.9000      8.0919      2.5259      0.0847      7.5210    153.3016     27.0168
  1152.0000      8.0925      2.5146      0.0187      8.2044    149.3160     27.3171
  1152.1000      8.0925      2.5088     -0.0039      8.5580    140.7005     26.8867
  1152.2000      8.0925      2.5225      0.0538      7.7252    133.9263     26.3019
  1152.3000      8.1047      2.5543      0.0235      5.8011    131.8979     25.8440
  1152.4000      8.1047      2.5892      0.1117      3.6850    131.3221     25.4645
  1152.5000      8.1197      2.6106      0.0821      2.3908    130.1601     25.3934
  1152.6000      8.1197      2.6213      0.1043      1.7421    128.0120     25.3765
  1152.7000      8.1197      2.6270      0.1088      1.3950    128.7094     24.8964
