~Version Information
VERS.                      2.0: CWLS Log ASCII Standard - VERSION 2.0
WRAP.                       NO: One line per depth step
~Well Information Block
STRT.FT                -6.7500: 
STOP.FT              1766.5000: 
STEP.FT                 0.2500: 
NULL.                -999.2500: 
COMP.          Pioneer Natural Resources: COMPANY
WELL.            Hill 33-22 Tr: WELL
FLD.           Purgatorie River: FIELD
LOC.           1573' FSL & 1585' FEL: LOCATION
PROV.                 Colorado: PROVINCE
CNTY.               Las Animas: COUNTRY
SRVC.          Patterson Wireline: SERVICE COMPANY
DATE.          Tue Apr 19 09:26:19 2005: LOG DATE
UWI.           05-071-08316-00: UNIQUE WELL ID
~Curve Information Block
DEPT.FT            0 000 00 00: Depth
CCL.                          : Casing Collar Locator
TT3.usec                      : CBL 3' Travel Time
AMP3.mV                       : CBL 3' Amplitude
GR.GAPI                       : Gamma Ray
~Parameter Information Block
~A  Depth       CCL         TT3         AMP3         GR     
# ...
  1165.7500      0.0000    793.8497      4.0602    133.6562
  1166.0000      0.0000    790.2815      3.9388    133.4509
  1166.2500      0.0000    785.1033      3.8109    132.0352
  1166.5000      0.0000    778.7449      3.6794    130.5931
  1166.7500      0.0000    771.9031      3.5643    129.9026
  1167.0000      0.0000    765.3603      3.4949    129.5702
  1167.2500      0.0000    759.9248      3.4871    127.6572
  1167.5000      0.0000    756.1378      3.5238    121.9515
  1167.7500      0.0000    753.9446      3.5638    112.2886
  1168.0000      0.0000    752.8316      3.5722    101.1395
  1168.2500      0.0000    752.3242      3.5468     91.3838
  1168.5000      0.0000    752.3234      3.5207     83.8813
  1168.7500      0.0000    753.0839      3.5425     77.5088
  1169.0000      0.0000    754.9587      3.6383     70.8936
  1169.2500      0.0000    757.9675      3.7737     63.5409
  1169.5000      0.0000    761.4308      3.8550     55.8159
  1169.7500      0.0000    764.0668      3.7881     48.6066
  1170.0000      0.0000    764.5542      3.5717     42.8998
  1170.2500      0.0000    762.1782      3.3396     39.1382
  1170.5000      0.0000    757.4708      3.2706     36.9065
  1170.7500      0.0000    752.4614      3.4213     35.4672
  1171.0000      0.0000    749.5232      3.6659     34.6055
  1171.2500      0.0000    749.4730      3.8322     34.9510
  1171.5000      0.0000    751.2866      3.8681     37.5434
  1171.7500      0.0000    753.7081      3.8491     42.9955
  1172.0000      0.0000    756.4410      3.8676     50.8184
  1172.2500      0.0000    759.6785      3.9607     59.3258
  1172.5000      0.0000    763.1296      4.1183     66.2009
  1172.7500      0.0000    766.0257      4.3120     69.7261
  1173.0000      0.0000    768.0673      4.5074     70.0857
  1173.2500      0.0000    770.0545      4.6723     69.3424
  1173.5000      0.0000    773.7234      4.7874     69.6869
  1173.7500      0.0000    780.9907      4.8524     71.6560
  1174.0000      0.0000    792.3467      4.8860     73.9339
  1174.2500      0.0000    805.0508      4.9148     74.5030
  1174.5000      0.0000    814.0095      4.9570     72.1067
  1174.7500      0.0000    815.9119      5.0117     67.1029
  1175.0000      0.0000    812.0268      5.0644     61.0235
  1175.2500      0.0000    806.2337      5.1023     55.1944
  1175.5000      0.0000    801.1896      5.1229     49.8979
  1175.7500      0.0000    797.0684      5.1314     44.9123
  1176.0000      0.0000    793.0753      5.1338     40.4720
  1176.2500      0.0000    789.1046      5.1336     37.4814
  1176.5000      0.0000    785.8821      5.1327     37.1255
  1176.7500      0.0000    784.0505      5.1336     40.5276
  1177.0000      0.0000    783.6480      5.1401     48.3462
  1177.2500      0.0000    784.2925      5.1534     60.0869
  1177.5000      0.0000    785.3283      5.1682     73.8279
  1177.7500      0.0000    786.0008      5.1746     87.0639
  1178.0000      0.0000    786.1891      5.1660     97.9878
  1178.2500      0.0000    786.7451      5.1457    105.9764
  1178.5000      0.0000    788.5029      5.1226    111.0946
  1178.7500      0.0000    791.2010      5.1009    113.3969
  1179.0000      0.0000    793.8053      5.0793    112.7540
  1179.2500      0.0000    795.5728      5.0564    109.4196
  1179.5000      0.0000    796.4351      5.0351    104.8209
  1179.7500      0.0000    796.6221      5.0197    101.5078
  1180.0000      0.0000    796.2131      5.0154    101.8006
  1180.2500      0.0000    794.9313      5.0279    106.1791
  1180.5000      0.0000    792.2450      5.0619    112.9159
  1180.7500      0.0000    787.9058      5.1188    119.2447
  1181.0000      0.0000    782.6902      5.1952    123.0460
  1181.2500      0.0000    778.3188      5.2815    123.7800
  1181.5000      0.0000    776.0455      5.3632    122.0776
  1181.7500      0.0000    775.4316      5.4287    118.7712
  1182.0000      0.0000    775.2073      5.4760    114.6219
  1182.2500      0.0000    775.0798      5.5128    110.6892
  1182.5000      0.0000    775.7195      5.5475    108.3440
  1182.7500      0.0000    777.1667      5.5794    108.6627
  1183.0000      0.0000    778.4738      5.5984    111.6327
  1183.2500      0.0000    779.0540      5.5936    115.6965
  1183.5000      0.0000    779.3928      5.5657    118.2745
  1183.7500      0.0000    780.1572      5.5287    117.3835
  1184.0000      0.0000    781.2722      5.4942    113.0630
  1184.2500      0.0000    782.1883      5.4513    107.1673
  1184.5000      0.0000    782.5968      5.3670    101.8202
  1184.7500      0.0000    782.4733      5.2160     98.0764
  1185.0000      0.0000    781.6512      5.0191     95.7773
  1185.2500      0.0000    779.8291      4.8443     94.4807
  1185.5000      0.0000    777.2783      4.7380     94.4298
  1185.7500      0.0000    775.8568      4.6459     96.3624
  1186.0000      0.0000    778.7958      4.4512    100.1835
  1186.2500      0.0000    787.7534      4.1215    104.2064
  1186.5000      0.0000    799.5933      3.7683    106.1177
  1186.7500      0.0000    807.8521      3.5288    104.7589
  1187.0000      0.0000    808.6505      3.4319    101.0761
  1187.2500     -5.0000    804.2503      3.4063     97.5048
  1187.5000      5.0000    800.5933      3.3773     96.2533
  1187.7500      0.0000    802.9825      3.3320     97.8230
  1188.0000      0.0000    813.5583      3.3198    100.8609
  1188.2500      0.0000    829.2449      3.4051    103.2950
  1188.5000      0.0000    841.2761      3.6035    103.8457
  1188.7500      0.0000    840.9164      3.8729    102.8288
  1189.0000      0.0000    828.0275      4.1815    101.6141
  1189.2500      0.0000    811.5283      4.5512    101.3300
  1189.5000      0.0000    800.4155      4.9984    102.0438
  1189.7500      0.0000    796.7782      5.4728    102.9090
  1190.0000      0.0000    797.4215      5.8878    102.8208
  1190.2500      0.0000    798.8611      6.1834    101.0191
  1190.5000      0.0000    799.5170      6.3435     97.3625
  1190.7500      0.0000    799.0671      6.3850     92.4288
  1191.0000      0.0000    797.3687      6.3470     87.5769
  1191.2500      0.0000    794.0027      6.2750     84.5376
  1191.5000      0.0000    788.6023      6.2022     84.4335
  1191.7500      0.0000    781.7955      6.1454     87.2324
  1192.0000      0.0000    775.7706      6.1144     92.2596
  1192.2500      0.0000    773.3227      6.1209     98.8099
  1192.5000      0.0000    775.7622      6.1737    106.0403
  1192.7500      0.0000    781.7095      6.2688    112.7758
  1193.0000      0.0000    788.0653      6.3855    117.8091
  1193.2500      0.0000    792.0029      6.4966    120.4110
  1193.5000      0.0000    792.0881      6.5824    120.4789
  1193.7500      0.0000    788.3094      6.6335    118.2300
  1194.0000      0.0000    782.0565      6.6443    114.0006
  1194.2500      0.0000    776.0561      6.6077    108.5448
  1194.5000      0.0000    773.2323      6.5216    103.2749
  1194.7500      0.0000    774.6793      6.4010     99.7071
  1195.0000      0.0000    778.7762      6.2771     98.6154
  1195.2500      0.0000    782.7732      6.1806    100.0483
  1195.5000      0.0000    785.3054      6.1258    104.0405
  1195.7500      0.0000    787.0836      6.1122    110.5517
  1196.0000      0.0000    789.2685      6.1371    118.4896
  1196.2500      0.0000    791.8278      6.2024    125.4995
  1196.5000      0.0000    793.6606      6.3078    129.2666
  1196.7500      0.0000    793.8058      6.4457    128.9803
  1197.0000      0.0000    792.2905      6.6088    125.5716
  1197.2500      0.0000    790.1089      6.8007    120.9649
  1197.5000      0.0000    788.3406      7.0315    117.0875
  1197.7500      0.0000    786.8958      7.3031    115.0400
  1198.0000      0.0000    784.3072      7.6023    114.8480
  1198.2500      0.0000    779.2710      7.9082    115.8767
  1198.5000      0.0000    772.3291      8.2017    117.1526
  1198.7500      0.0000    765.6788      8.4656    117.4872
  1199.0000      0.0000    761.5470      8.6785    116.2849
