~Version Information
VERS.                      2.0: CWLS Log ASCII Standard - VERSION 2.0
WRAP.                       NO: One line per depth step
~Well Information Block
STRT.FT                -7.5000: 
STOP.FT               872.5000: 
STEP.FT                 0.5000: 
NULL.                -999.2500: 
COMP.          Pioneer Natural Resources: COMPANY
WELL.          New Mexico 21-5: WELL
FLD.           Purgatorie River: FIELD
LOC.           175' FNL & 1700' FWL: LOCATION
PROV.                 Colorado: PROVINCE
CNTY.               Las Animas: COUNTRY
SRVC.          Patterson Wireline: SERVICE COMPANY
DATE.          Fri Dec 17 09:32:01 2004: LOG DATE
UWI.           05-071-08234-00: UNIQUE WELL ID
~Curve Information Block
DEPT.FT            0 000 00 00: Depth
CCL.                          : Casing Collar Locator
TT3.usec                      : CBL 3' Travel Time
AMP3.mV                       : CBL 3' Amplitude
GR.GAPI                       : Gamma Ray
~Parameter Information Block
~A  Depth       CCL         TT3         AMP3         GR     
# ...
   327.5000      0.0000    779.6039      6.6312    136.0105
   328.0000      0.0000    783.4886      6.5266    132.0188
   328.5000      0.0000    787.8051      6.3921    131.6707
   329.0000      0.0000    790.5823      6.3386    130.2475
   329.5000      0.0000    785.0008      6.3516    120.0669
   330.0000      0.0000    776.6174      6.3919    114.7487
   330.5000      0.0000    779.4142      6.4366    125.0995
   331.0000      0.0000    783.4926      6.5752    137.3865
   331.5000      0.0000    773.1978      6.9070    144.3111
   332.0000      0.0000    773.9547      7.3799    151.0946
   332.5000      0.0000    798.6290      7.8086    159.9545
   333.0000      0.0000    805.6065      8.0487    161.8482
   333.5000      0.0000    781.8176      8.1237    160.7847
   334.0000      0.0000    756.8055      8.1063    169.6478
   334.5000      0.0000    738.4515      8.0364    178.0235
   335.0000      0.0000    726.8328      7.8463    177.6037
   335.5000      0.0000    746.2291      7.6015    172.7252
   336.0000      0.0000    777.2844      7.3977    161.9426
   336.5000      0.0000    770.6907      7.3063    140.8130
   337.0000      0.0000    749.8187      7.2757    118.0528
   337.5000      0.0000    748.0632      7.2272    110.8419
   338.0000      0.0000    753.0679      7.0137    117.9139
   338.5000      0.0000    757.9720      6.7398    124.3005
   339.0000      0.0000    757.0920      6.5622    116.5859
   339.5000      0.0000    752.3916      6.4132    108.5887
   340.0000      0.0000    750.5733      6.3119    107.6180
   340.5000      0.0000    746.7162      6.3230    108.4585
   341.0000      0.0000    744.9503      6.4247    110.7074
   341.5000      0.0000    747.2366      6.5805    111.5633
   342.0000      0.0000    748.6046      6.7072    113.1259
   342.5000      0.0000    748.0982      6.8059    116.2465
   343.0000      0.0000    744.7676      6.8708    119.5693
   343.5000      0.0000    736.0322      6.8818    124.5849
   344.0000      0.0000    727.7826      6.7190    126.7090
   344.5000      0.0000    725.8068      6.5453    123.0892
   345.0000      0.0000    735.2174      6.3333    112.2611
   345.5000      0.0000    759.1846      5.9734     98.6925
   346.0000      0.0000    776.5973      5.7408     95.1044
   346.5000      0.0000    783.9605      5.8110    101.1609
   347.0000      0.0000    792.2205      6.0586    108.5457
   347.5000      0.0000    791.5225      6.6525    113.0786
   348.0000      0.0000    772.9847      7.6912    125.9410
   348.5000      0.0000    757.1279      8.3551    146.4028
   349.0000      0.0000    752.4344      8.4262    151.8462
   349.5000      0.0000    752.4267      8.3559    135.2994
   350.0000      0.0000    753.3489      8.2376    115.6891
   350.5000      0.0000    756.7414      7.9844    104.6661
   351.0000      0.0000    767.9798      7.7312     92.8421
   351.5000      0.0000    781.1922      7.4370     79.3605
   352.0000      0.0000    792.8118      7.1550     73.6785
   352.5000      0.0000    812.7573      6.9436     74.9415
   353.0000      0.0000    829.6392      6.7815     78.3531
   353.5000      0.0000    834.8868      6.6574     84.5249
   354.0000      0.0000    833.1785      6.5565     88.8407
   354.5000      0.0000    828.5096      6.4472     89.0539
   355.0000      0.0000    828.1992      6.3483     94.0914
   355.5000      0.0000    831.1333      6.2363     99.5020
   356.0000      0.0000    831.0176      6.1150     98.7448
   356.5000      0.0000    826.4410      6.0452     98.5590
   357.0000      0.0000    815.2876      6.0107     97.3942
   357.5000      0.0000    808.8275      5.9419     93.3005
   358.0000      0.0000    808.8106      5.8573     91.7369
   358.5000      0.0000    798.4986      5.8190     99.8074
   359.0000      0.0000    789.0410      5.8513    112.7018
   359.5000      0.0000    792.0832      5.9775    109.2400
   360.0000      0.0000    796.8179      6.1283     91.3604
   360.5000      0.0000    793.3054      6.2313     78.2805
   361.0000      0.0000    795.6646      6.3295     75.4786
   361.5000      0.0000    797.1935      6.5528     77.8912
   362.0000      0.0000    792.4442      6.8328     83.8783
   362.5000      0.0000    782.9052      7.0123     96.2906
   363.0000      0.0000    772.7242      7.1491    122.5203
   363.5000      0.0000    771.9482      7.2810    155.3839
   364.0000      0.0000    776.8175      7.3024    169.7973
   364.5000      0.0000    780.8011      7.2257    169.4239
   365.0000      0.0000    779.2903      7.1073    171.4865
   365.5000      0.0000    776.9944      6.9684    168.6340
   366.0000      0.0000    782.2075      6.9637    150.9469
   366.5000      0.0000    793.9277      7.1921    127.1658
   367.0000      0.0000    801.2239      7.4757    114.4815
   367.5000      0.0000    802.5925      7.6457    116.5452
   368.0000      0.0000    802.1940      7.6624    126.9578
   368.5000      0.0000    797.6699      7.6991    141.4925
   369.0000      0.0000    782.9352      7.9324    154.2347
   369.5000      0.0000    768.9608      8.2024    163.6677
   370.0000      0.0000    766.9489      8.1812    162.8717
   370.5000      0.0000    774.8080      7.8078    151.7723
   371.0000      0.0000    789.0153      7.3290    145.3923
   371.5000      0.0000    790.4150      7.1591    147.0162
   372.0000      0.0000    782.5699      7.3567    147.1086
   372.5000      0.0000    791.9399      7.6396    146.8448
   373.0000      0.0000    815.1675      7.9925    156.3545
   373.5000      0.0000    830.0652      8.4722    172.0443
   374.0000      0.0000    834.6508      9.0536    175.8813
   374.5000      0.0000    828.8349      9.7687    160.6165
   375.0000      0.0000    822.7369     10.3120    140.4708
   375.5000      0.0000    830.5424     10.3611    125.4084
   376.0000      0.0000    845.2344     10.1255    115.4935
   376.5000      0.0000    861.5227      9.9047    110.1304
   377.0000      0.0000    870.7014      9.6835    106.4182
   377.5000      0.0000    864.5945      9.4139    105.1750
   378.0000      0.0000    850.8829      9.1328    109.0263
   378.5000      0.0000    835.6011      8.9245    110.8786
   379.0000      0.0000    809.7882      8.8243    106.4791
   379.5000      0.0000    779.0627      8.6444    101.1846
   380.0000      0.0000    774.7399      8.2839    108.7325
   380.5000      0.0000    797.8401      7.8628    135.5344
   381.0000      0.0000    805.9224      7.5512    164.5832
   381.5000      0.0000    784.5656      7.4056    170.4248
   382.0000      0.0000    760.8221      7.4104    158.8248
   382.5000      0.0000    751.0951      7.3531    148.3586
   383.0000      0.0000    748.8935      7.1345    142.4048
   383.5000      0.0000    745.3564      7.0116    136.0163
   384.0000      0.0000    742.0995      7.1127    124.3086
   384.5000      0.0000    745.2308      7.3267    104.3528
   385.0000      0.0000    748.8917      7.5845     90.2998
   385.5000      0.0000    750.0908      7.8169     94.7358
   386.0000      0.0000    749.0223      7.9255    106.5596
   386.5000      0.0000    741.4118      7.9023    117.9250
   387.0000      0.0000    730.7892      7.8275    131.2262
   387.5000      0.0000    702.8760      7.6753    138.1151
   388.0000      0.0000    680.6899      7.2952    136.6965
   388.5000      0.0000    721.7316      6.6954    132.9668
   389.0000      0.0000    770.0247      6.1608    122.5923
   389.5000      5.0000    780.7739      5.8779    107.0928
   390.0000      0.0000    781.3518      5.7568     96.7515
   390.5000      0.0000    786.3908      5.9322     97.5153
   391.0000      0.0000    783.4771      6.7431    102.6814
   391.5000      0.0000    770.4703      7.5876    100.7423
   392.0000      0.0000    755.7744      7.6490     94.1945
   392.5000      0.0000    749.0585      7.5459     89.1904
   393.0000      0.0000    750.7938      7.5999     90.7699
   393.5000      0.0000    760.9122      7.7910    100.8928
   394.0000      0.0000    772.0037      7.8723    113.2965
