~Version Information
VERS.                      2.0: CWLS Log ASCII Standard - VERSION 2.0
WRAP.                       NO: One line per depth step
~Well Information Block
STRT.FT               682.0000: 
STOP.FT              2190.5000: 
STEP.FT                 0.1000: 
NULL.                -999.2500: 
COMP.          Pioneer Natural Resources: COMPANY
WELL.               King 22-13: WELL
FLD.           Purgatoire River: FIELD
LOC.           2419' FNL & 1806' FWL----: LOCATION
PROV.                 Colorado: PROVINCE
CNTY.               Las Animas: COUNTRY
SRVC.                Patterson: SERVICE COMPANY
DATE.          Fri Apr 01 07:38:12 2005: LOG DATE
UWI.           05 071 08318 00: UNIQUE WELL ID
~Curve Information Block
DEPT.FT            0 000 00 00: Depth
DCAL.in                       : CDL Caliper
RHOB.g/cc                     : CDL Bulk Density
RHOC.g/cc                     : CDL Density Correction
DPOR.pu                       : CDL Density Porosity
NPOR.pu                       : Neutron Porosity
GR.GAPI                       : Gamma Ray
~Parameter Information Block
~A  Depth       DCAL        RHOB        RHOC        DPOR        NPOR         GR     
# ...
   883.6000      8.0712      2.5557      0.0507      5.7171     19.2551    105.7631
   883.7000      8.0712      2.5650      0.0844      5.1518     18.7766    103.6334
   883.8000      8.0733      2.5656      0.0745      5.1159     17.7665    100.7918
   883.9000      8.0733      2.5572      0.0706      5.6260     16.9338     95.3039
   884.0000      8.0735      2.5479      0.0428      6.1883     16.5337     88.1790
   884.1000      8.0735      2.5466      0.0425      6.2645     16.3114     84.6628
   884.2000      8.0735      2.5500      0.0688      6.0583     16.2031     85.8160
   884.3000      8.0718      2.5507      0.0684      6.0210     16.1535     85.4823
   884.4000      8.0718      2.5544      0.0357      5.7912     16.0604     82.8113
   884.5000      8.0700      2.5659      0.1097      5.0969     16.0790     81.3427
   884.6000      8.0700      2.5734      0.1106      4.6453     16.4623     81.4714
   884.7000      8.0700      2.5775      0.0498      4.3966     16.9628     80.8344
   884.8000      8.0694      2.5944      0.0468      3.3673     17.0376     79.9811
   884.9000      8.0694      2.6184      0.1144      1.9124     16.8953     83.9051
   885.0000      8.0695      2.6307      0.0838      1.1718     17.1441     91.5686
   885.1000      8.0695      2.6328      0.1030      1.0396     17.6649     94.9883
   885.2000      8.0695      2.6329      0.1120      1.0341     17.9355     90.0510
   885.3000      8.0681      2.6358      0.0580      0.8624     17.8192     81.2323
   885.4000      8.0681      2.6459      0.1039      0.2483     17.6253     76.1734
   885.5000      8.0680      2.6525      0.0745     -0.1528     17.5025     78.6049
   885.6000      8.0680      2.6419      0.0534      0.4879     17.2678     85.1551
   885.7000      8.0680      2.6201      0.0857      1.8127     16.7985     87.3868
   885.8000      8.0692      2.6071      0.0197      2.6028     16.2860     84.2671
   885.9000      8.0692      2.6111      0.0624      2.3601     16.1591     81.7198
   886.0000      8.0688      2.6103      0.0978      2.4064     16.4787     80.8798
   886.1000      8.0688      2.5909      0.0273      3.5797     16.8703     82.1360
   886.2000      8.0688      2.5686      0.0487      4.9325     17.1671     87.2059
   886.3000      8.0714      2.5545      0.0013      5.7879     17.3780     91.1576
   886.4000      8.0714      2.5535      0.0127      5.8490     17.4111     88.1902
   886.5000      8.0796      2.5690      0.0112      4.9094     17.1186     83.0925
   886.6000      8.0796      2.5961      0.0495      3.2670     16.8466     83.2560
   886.7000      8.0796      2.6239      0.0564      1.5802     17.1271     85.6649
   886.8000      8.0866      2.6430      0.0346      0.4222     17.5076     85.3638
   886.9000      8.0866      2.6458      0.0536      0.2566     17.2612     83.3779
   887.0000      8.0869      2.6210      0.0980      1.7553     16.6781     80.6633
   887.1000      8.0869      2.5764     -0.0209      4.4588     16.5545     78.2111
   887.2000      8.0869      2.5465      0.0098      6.2757     17.0008     78.2020
   887.3000      8.0822      2.5430     -0.0119      6.4830     17.5469     79.4761
   887.4000      8.0822      2.5473      0.0282      6.2244     17.7974     78.0919
   887.5000      8.0786      2.5426      0.0466      6.5090     17.7009     72.7793
   887.6000      8.0786      2.5282      0.0354      7.3801     17.7895     67.2961
   887.7000      8.0786      2.5077      0.0259      8.6260     18.1478     66.1111
   887.8000      8.0762      2.4730      0.0226     10.7248     18.2015     69.5446
   887.9000      8.0762      2.4195     -0.0000     13.9683     18.1245     73.3486
   888.0000      8.0742      2.3606     -0.0234     17.5395     18.3653     73.8242
   888.1000      8.0742      2.3105     -0.0347     20.5737     18.7440     72.8686
   888.2000      8.0742      2.2724     -0.0490     22.8823     18.7111     73.4569
   888.3000      8.0731      2.2465     -0.0043     24.4563     17.7593     74.2250
   888.4000      8.0731      2.2331      0.0256     25.2645     16.2575     73.3749
   888.5000      8.0744      2.2296      0.0238     25.4778     15.0775     70.6666
   888.6000      8.0744      2.2311      0.0468     25.3905     14.3261     67.3780
   888.7000      8.0744      2.2389      0.0197     24.9148     13.7360     64.6167
   888.8000      8.0779      2.2602      0.0341     23.6267     13.3732     62.6740
   888.9000      8.0779      2.2939      0.0892     21.5794     13.4153     62.8774
   889.0000      8.0815      2.3349      0.0508     19.0955     13.9638     64.8545
   889.1000      8.0815      2.3773      0.0713     16.5279     14.9093     66.4660
   889.2000      8.0815      2.4115      0.0433     14.4560     15.8962     67.8075
   889.3000      8.0856      2.4356      0.0715     12.9918     16.1560     68.1472
   889.4000      8.0856      2.4576      0.0130     11.6580     15.4445     67.4016
   889.5000      8.0876      2.4815      0.0422     10.2091     14.7191     68.7359
   889.6000      8.0876      2.5002      0.0196      9.0792     14.7479     69.8110
   889.7000      8.0876      2.5064      0.0442      8.7012     15.3055     66.5558
   889.8000      8.0818      2.4973      0.0419      9.2553     15.3651     61.4759
   889.9000      8.0818      2.4747      0.0132     10.6272     14.5003     57.5818
   890.0000      8.0756      2.4485      0.0012     12.2136     13.5299     55.6069
   890.1000      8.0756      2.4377     -0.0196     12.8692     13.1846     55.9309
   890.2000      8.0756      2.4519      0.0199     12.0070     13.2227     56.1159
   890.3000      8.0757      2.4753      0.0529     10.5872     12.8186     55.4276
   890.4000      8.0757      2.4888      0.0187      9.7708     11.8604     55.2064
   890.5000      8.0822      2.4887      0.0598      9.7729     11.1443     55.2633
   890.6000      8.0822      2.4827      0.0205     10.1396     10.9898     55.4552
   890.7000      8.0822      2.4801      0.0513     10.2970     10.8865     54.8251
   890.8000      8.0906      2.4789      0.0395     10.3701     10.6087     53.6973
   890.9000      8.0906      2.4726      0.0456     10.7516     10.8275     55.0290
   891.0000      8.0954      2.4641      0.0411     11.2690     11.6883     59.6521
   891.1000      8.0954      2.4695      0.0100     10.9413     12.2620     64.8944
   891.2000      8.0954      2.4972      0.0252      9.2593     12.1227     67.4723
   891.3000      8.0965      2.5246      0.0748      7.6017     11.6883     67.4083
   891.4000      8.0965      2.5245      0.0355      7.6037     11.3575     65.6718
   891.5000      8.0938      2.5041      0.0334      8.8446     11.2364     61.8341
   891.6000      8.0938      2.4846      0.0035     10.0243     11.3933     57.0601
   891.7000      8.0938      2.4767      0.0078     10.5008     11.8917     54.1288
   891.8000      8.0891      2.4779      0.0422     10.4307     12.5796     55.7608
   891.9000      8.0891      2.4816      0.0303     10.2083     13.2469     59.9150
   892.0000      8.0877      2.4840      0.0093     10.0619     13.6540     62.0095
   892.1000      8.0877      2.4746      0.0484     10.6288     13.9103     62.3895
   892.2000      8.0877      2.4515     -0.0204     12.0275     14.4142     63.5350
   892.3000      8.0880      2.4394      0.0012     12.7614     15.1836     65.7891
   892.4000      8.0880      2.4471      0.0290     12.2957     16.0059     68.5468
   892.5000      8.0839      2.4624     -0.0056     11.3706     16.5339     70.6766
   892.6000      8.0839      2.4830      0.0412     10.1183     16.5821     71.2848
   892.7000      8.0839      2.5058      0.0604      8.7407     16.4403     72.6170
   892.8000      8.0767      2.5192      0.0755      7.9247     16.2837     76.7008
   892.9000      8.0767      2.5174      0.0681      8.0374     15.9808     78.4759
   893.0000      8.0719      2.5055      0.0364      8.7581     15.7160     75.3986
   893.1000      8.0719      2.4943      0.0454      9.4353     15.8536     72.2611
