~Version Information
VERS.                      2.0: CWLS Log ASCII Standard - VERSION 2.0
WRAP.                       NO: One line per depth step
~Well Information Block
STRT.FT               230.0000: 
STOP.FT              1527.0000: 
STEP.FT                 0.1000: 
NULL.                -999.2500: 
COMP.          Pioneer Natural Resources: COMPANY
WELL.              Border 21-3: WELL
FLD.           Purgatorie River: FIELD
LOC.           865' FNL & 1415' FWL: LOCATION
PROV.                 Colorado: PROVINCE
CNTY.               Las Animas: COUNTRY
SRVC.                         : SERVICE COMPANY
DATE.          Thu Dec 09 16:57:34 2004: LOG DATE
UWI.           05 071 08169 00: UNIQUE WELL ID
~Curve Information Block
DEPT.FT            0 000 00 00: Depth
LTEN.lb                       : Surface Line Tension
DCAL.in                       : CDL Caliper
RHOB.g/cc                     : CDL Bulk Density
RHOC.g/cc                     : CDL Density Correction
DPOR.pu                       : CDL Density Porosity
GR.GAPI                       : Gamma Ray
NPOR.pu                       : Neutron Porosity
~Parameter Information Block
~A  Depth       LTEN        DCAL        RHOB        RHOC        DPOR         GR         NPOR    
# ...
  1515.2000   1118.6893      7.5898      2.5481      0.0819      6.1764   -999.2500   -999.2500
  1515.3000   1087.0009      7.5918      2.5467      0.0958      6.2596   -999.2500   -999.2500
  1515.4000   1087.0009      7.5918      2.5555      0.0871      5.7295   -999.2500   -999.2500
  1515.5000   1067.8336      7.5735      2.5682      0.0944      4.9550   -999.2500   -999.2500
  1515.6000   1067.8336      7.5735      2.5838      0.1032      4.0110   -999.2500   -999.2500
  1515.7000   1067.8336      7.5735      2.5985      0.1165      3.1196   -999.2500   -999.2500
  1515.8000   1106.4313      7.5687      2.6028      0.1421      2.8605   -999.2500   -999.2500
  1515.9000   1106.4313      7.5687      2.5903      0.1431      3.6174   -999.2500   -999.2500
  1516.0000   1089.8605      7.4926      2.5648      0.1436      5.1624   -999.2500   -999.2500
  1516.1000   1089.8605      7.4926      2.5377      0.1610      6.8035   -999.2500   -999.2500
  1516.2000   1089.8605      7.4926      2.5227      0.1098      7.7122   -999.2500   -999.2500
  1516.3000   1098.5549      7.4990      2.5288      0.1138      7.3437   -999.2500   -999.2500
  1516.4000   1098.5549      7.4990      2.5508      0.1090      6.0103   -999.2500   -999.2500
  1516.5000   1077.0780      7.5207      2.5756      0.1307      4.5117   -999.2500   -999.2500
  1516.6000   1077.0780      7.5207      2.5978      0.1546      3.1634   -999.2500   -999.2500
  1516.7000   1077.0780      7.5207      2.6090      0.1830      2.4861   -999.2500   -999.2500
  1516.8000   1065.2230      7.5631      2.5951      0.1422      3.3246   -999.2500   -999.2500
  1516.9000   1065.2230      7.5631      2.5707      0.0874      4.8031   -999.2500   -999.2500
  1517.0000   1110.3464      7.5705      2.5633      0.1063      5.2570   -999.2500   -999.2500
  1517.1000   1110.3464      7.5705      2.5769      0.0868      4.4318   -999.2500   -999.2500
  1517.2000   1110.3464      7.5705      2.6012      0.1128      2.9596   -999.2500   -999.2500
  1517.3000   1031.0963      7.5643      2.6225      0.1172      1.6689   -999.2500   -999.2500
  1517.4000   1031.0963      7.5643      2.6349      0.1277      0.9137   -999.2500   -999.2500
  1517.5000   1082.3163      7.5102      2.6373      0.1713      0.7703   -999.2500   -999.2500
  1517.6000   1082.3163      7.5102      2.6223      0.1219      1.6779   -999.2500   -999.2500
  1517.7000   1082.3163      7.5102      2.5943      0.0722      3.3738   -999.2500   -999.2500
  1517.8000   1010.1218      7.5603      2.5747      0.0439      4.5620   -999.2500   -999.2500
  1517.9000   1010.1218      7.5603      2.5781      0.0682      4.3572   -999.2500   -999.2500
  1518.0000   1091.0959      7.5280      2.5927      0.1182      3.4735   -999.2500   -999.2500
  1518.1000   1091.0959      7.5280      2.6013      0.1107      2.9485   -999.2500   -999.2500
  1518.2000   1091.0959      7.5280      2.6006      0.1258      2.9912   -999.2500   -999.2500
  1518.3000   1110.2471      7.5266      2.5910      0.1266      3.5739   -999.2500   -999.2500
  1518.4000   1110.2471      7.5266      2.5775      0.1018      4.3962   -999.2500   -999.2500
  1518.5000   1050.5742      7.5663      2.5666      0.1375      5.0526   -999.2500   -999.2500
  1518.6000   1050.5742      7.5663      2.5580      0.1204      5.5755   -999.2500   -999.2500
  1518.7000   1050.5742      7.5663      2.5488      0.0895      6.1313   -999.2500   -999.2500
  1518.8000   1111.4738      7.6231      2.5392      0.0869      6.7148   -999.2500   -999.2500
  1518.9000   1111.4738      7.6231      2.5363      0.0778      6.8888   -999.2500   -999.2500
  1519.0000   1056.3608      7.6617      2.5493      0.0674      6.1037   -999.2500   -999.2500
  1519.1000   1056.3608      7.6617      2.5698      0.1240      4.8614   -999.2500   -999.2500
  1519.2000   1056.3608      7.6617      2.5786      0.1168      4.3269   -999.2500   -999.2500
  1519.3000   1050.2441      7.6569      2.5714      0.0905      4.7618   -999.2500   -999.2500
  1519.4000   1050.2441      7.6569      2.5564      0.1234      5.6708   -999.2500   -999.2500
  1519.5000   1097.4659      7.6383      2.5436      0.1037      6.4456   -999.2500   -999.2500
  1519.6000   1097.4659      7.6383      2.5431      0.0915      6.4812   -999.2500   -999.2500
  1519.7000   1097.4659      7.6383      2.5517      0.1174      5.9565   -999.2500   -999.2500
  1519.8000   1069.4684      7.6667      2.5578      0.1111      5.5863   -999.2500   -999.2500
  1519.9000   1069.4684      7.6667      2.5621      0.0676      5.3258   -999.2500   -999.2500
  1520.0000   1115.2596      7.6654      2.5735      0.0997      4.6374   -999.2500   -999.2500
  1520.1000   1115.2596      7.6654      2.5900      0.0935      3.6373   -999.2500   -999.2500
  1520.2000   1115.2596      7.6654      2.6019      0.1289      2.9138   -999.2500   -999.2500
  1520.3000   1040.0740      7.6645      2.6015      0.1082      2.9414   -999.2500   -999.2500
  1520.4000   1040.0740      7.6645      2.5911      0.0986      3.5694   -999.2500   -999.2500
  1520.5000   1137.7034      7.6296      2.5820      0.0923      4.1194   -999.2500   -999.2500
  1520.6000   1137.7034      7.6296      2.5835      0.0793      4.0286   -999.2500   -999.2500
  1520.7000   1137.7034      7.6296      2.5937      0.1069      3.4119   -999.2500   -999.2500
  1520.8000   1081.1913      7.6118      2.6002      0.0774      3.0207   -999.2500   -999.2500
  1520.9000   1081.1913      7.6118      2.6011      0.0616      2.9615   -999.2500   -999.2500
  1521.0000   1007.4228      7.5893      2.6110      0.0797      2.3634   -999.2500   -999.2500
  1521.1000   1007.4228      7.5893      2.6319      0.1507      1.0975   -999.2500   -999.2500
  1521.2000   1007.4228      7.5893      2.6465      0.1218      0.2127   -999.2500   -999.2500
  1521.3000   1075.8127      7.5703      2.6442      0.1404      0.3528   -999.2500   -999.2500
  1521.4000   1075.8127      7.5703      2.6303      0.1074      1.1917   -999.2500   -999.2500
  1521.5000   1080.7183      7.5689      2.6175      0.0730      1.9682   -999.2500   -999.2500
  1521.6000   1080.7183      7.5689      2.6127      0.1027      2.2585   -999.2500   -999.2500
  1521.7000   1080.7183      7.5689      2.6116      0.1072      2.3276   -999.2500   -999.2500
  1521.8000   1081.2329      7.5702      2.6058      0.0925      2.6759   -999.2500   -999.2500
  1521.9000   1081.2329      7.5702      2.5915      0.0605      3.5436   -999.2500   -999.2500
  1522.0000   1065.1519      7.5863      2.5742      0.0592      4.5946   -999.2500   -999.2500
  1522.1000   1065.1519      7.5863      2.5650      0.0444      5.1528   -999.2500   -999.2500
  1522.2000   1065.1519      7.5863      2.5661      0.0833      5.0878   -999.2500   -999.2500
  1522.3000   1053.3491      7.5904      2.5668      0.0753      5.0449   -999.2500   -999.2500
  1522.4000   1053.3491      7.5904      2.5646      0.0720      5.1747   -999.2500   -999.2500
  1522.5000   1041.9856      7.5985      2.5682      0.0819      4.9580   -999.2500   -999.2500
  1522.6000   1041.9856      7.5985      2.5745      0.1062      4.5748   -999.2500   -999.2500
  1522.7000   1041.9856      7.5985      2.5741      0.0653      4.5973   -999.2500   -999.2500
  1522.8000   1055.5198      7.6487      2.5730      0.0607      4.6640   -999.2500   -999.2500
  1522.9000   1055.5198      7.6487      2.5812      0.0966      4.1700   -999.2500   -999.2500
  1523.0000   1045.7712      7.5446      2.5921      0.1115      3.5106   -999.2500   -999.2500
  1523.1000   1045.7712      7.5446      2.5917      0.1194      3.5309   -999.2500   -999.2500
  1523.2000   1045.7712      7.5446      2.5822      0.0993      4.1121   -999.2500   -999.2500
  1523.3000   1058.5848      7.5166      2.5776      0.1162      4.3899   -999.2500   -999.2500
  1523.4000   1058.5848      7.5166      2.5816      0.1033      4.1436   -999.2500   -999.2500
  1523.5000   1048.6427      7.5069      2.5878      0.1197      3.7716   -999.2500   -999.2500
