~Version Information
VERS.                      2.0: CWLS Log ASCII Standard - VERSION 2.0
WRAP.                       NO: One line per depth step
~Well Information Block
STRT.FT               665.0000: 
STOP.FT              1972.5000: 
STEP.FT                 0.1000: 
NULL.                -999.2500: 
COMP.          Petrogulf Corporation: COMPANY
WELL.          Great Plains 22-21V: WELL
FLD.           Purgatorie River: FIELD
LOC.           63' FNL & 1895' FWL: LOCATION
PROV.                 Colorado: PROVINCE
CNTY.               Las Animas: COUNTRY
SRVC.                Patterson: SERVICE COMPANY
DATE.          Thu Sep 01 07:39:43 2005: LOG DATE
UWI.                          : UNIQUE WELL ID
~Curve Information Block
DEPT.FT            0 000 00 00: Depth
DCAL.in                       : CDL Caliper
RHOB.g/cc                     : CDL Bulk Density
RHOC.g/cc                     : CDL Density Correction
DPOR.pu                       : CDL Density Porosity
GR.GAPI                       : Gamma Ray
NPOR.pu                       : Neutron Porosity
~Parameter Information Block
~A  Depth       DCAL        RHOB        RHOC        DPOR         GR         NPOR    
# ...
  1788.2000      8.0734      2.4776      0.0099     10.4491    115.3928     28.1053
  1788.3000      8.0793      2.4708      0.0219     10.8617    118.2363     28.1706
  1788.4000      8.0793      2.4759      0.0225     10.5512    120.0927     28.2491
  1788.5000      8.0626      2.4799      0.0617     10.3111    119.7212     28.2016
  1788.6000      8.0626      2.4740      0.0326     10.6659    118.4341     27.9212
  1788.7000      8.0626      2.4675      0.0387     11.0609    118.6609     27.5319
  1788.8000      8.0305      2.4683      0.0315     11.0104    120.3094     27.3353
  1788.9000      8.0305      2.4741      0.0511     10.6629    121.6712     27.4262
  1789.0000      8.0446      2.4850      0.0751     10.0008    122.2852     27.5773
  1789.1000      8.0446      2.5030      0.0660      8.9098    120.9185     27.6622
  1789.2000      8.0446      2.5173      0.1136      8.0408    118.3141     27.6580
  1789.3000      8.0489      2.5177      0.0661      8.0163    116.3846     27.6137
  1789.4000      8.0489      2.5153      0.0662      8.1613    113.4749     27.6062
  1789.5000      8.0531      2.5235      0.0869      7.6637    110.4505     27.5757
  1789.6000      8.0531      2.5367      0.1168      6.8693    111.1655     27.3426
  1789.7000      8.0531      2.5419      0.0833      6.5512    115.6193     26.9615
  1789.8000      8.0538      2.5369      0.1022      6.8547    120.2398     26.7873
  1789.9000      8.0538      2.5270      0.1058      7.4544    122.3129     26.9776
  1790.0000      8.0594      2.5199      0.0569      7.8856    123.4368     27.2196
  1790.1000      8.0594      2.5172      0.1026      8.0500    125.7904     27.2655
  1790.2000      8.0594      2.5102      0.0917      8.4737    126.7543     27.3745
  1790.3000      8.0931      2.4943      0.0721      9.4361    123.0380     27.7632
  1790.4000      8.0931      2.4772      0.0674     10.4751    117.9504     28.1264
  1790.5000      8.1138      2.4730      0.0407     10.7260    117.2050     28.0042
  1790.6000      8.1138      2.4862      0.0739      9.9254    119.7499     27.5996
  1790.7000      8.1138      2.5046      0.0900      8.8146    121.0303     27.5887
  1790.8000      8.1241      2.5209      0.1007      7.8224    121.0547     27.9435
  1790.9000      8.1241      2.5408      0.0682      6.6193    122.1765     28.0406
  1791.0000      8.1513      2.5666      0.1257      5.0546    122.5698     27.7580
  1791.1000      8.1513      2.5865      0.1479      3.8485    118.8318     27.2502
  1791.2000      8.1513      2.5870      0.1382      3.8202    113.2742     26.7016
  1791.3000      8.1935      2.5766      0.0837      4.4498    111.1900     26.4513
  1791.4000      8.1935      2.5734      0.1054      4.6418    112.5655     26.5548
  1791.5000      8.1893      2.5719      0.1168      4.7308    113.8667     26.9073
  1791.6000      8.1893      2.5610      0.0897      5.3928    115.5840     27.4744
  1791.7000      8.1893      2.5488      0.0671      6.1320    117.0763     27.9664
  1791.8000      8.1779      2.5449      0.0602      6.3719    114.8447     28.1305
  1791.9000      8.1779      2.5500      0.0359      6.0627    110.1014     27.9867
  1792.0000      8.1313      2.5585      0.0838      5.5468    107.4722     27.6870
  1792.1000      8.1313      2.5561      0.0707      5.6914    108.1389     27.6451
  1792.2000      8.1313      2.5377      0.0836      6.8075    110.8196     27.9710
  1792.3000      8.1211      2.5197      0.0227      7.8983    115.1017     28.2662
  1792.4000      8.1211      2.5190      0.0536      7.9410    119.5791     28.1997
  1792.5000      8.1006      2.5263      0.0871      7.4994    120.4247     27.8512
  1792.6000      8.1006      2.5250      0.0698      7.5784    116.8600     27.6518
  1792.7000      8.1006      2.5186      0.0641      7.9612    112.5977     27.6967
  1792.8000      8.0896      2.5194      0.0501      7.9124    110.3795     27.7909
  1792.9000      8.0896      2.5265      0.0859      7.4860    110.7670     27.8284
  1793.0000      8.0620      2.5311      0.0707      7.2088    111.3479     27.7646
  1793.1000      8.0620      2.5347      0.0725      6.9870    109.1945     27.6178
  1793.2000      8.0620      2.5414      0.0646      6.5798    107.0539     27.4070
  1793.3000      8.0242      2.5449      0.0628      6.3689    110.5391     27.2113
  1793.4000      8.0242      2.5400      0.0665      6.6639    116.8926     27.0885
  1793.5000      8.0122      2.5321      0.0650      7.1475    119.7591     26.8636
  1793.6000      8.0122      2.5265      0.0510      7.4874    120.6730     26.5964
  1793.7000      8.0122      2.5219      0.0548      7.7656    122.7808     26.7066
  1793.8000      7.9952      2.5172      0.0635      8.0500    124.5669     27.0667
  1793.9000      7.9952      2.5179      0.0421      8.0059    125.0197     27.1213
  1794.0000      7.9923      2.5246      0.0693      7.5991    124.9892     26.7836
  1794.1000      7.9923      2.5231      0.1073      7.6899    124.5501     26.3231
  1794.2000      7.9923      2.5048      0.0677      8.7970    122.4597     25.9585
  1794.3000      8.0163      2.4822      0.0510     10.1722    118.9537     25.8434
  1794.4000      8.0163      2.4701      0.0144     10.9026    116.0811     25.7766
  1794.5000      8.0322      2.4758     -0.0222     10.5576    114.7621     25.3955
  1794.6000      8.0322      2.4948      0.0594      9.4087    114.7337     24.9673
  1794.7000      8.0322      2.5103      0.0779      8.4654    115.4286     25.0266
  1794.8000      8.0762      2.5180      0.0558      8.0015    115.4020     25.6460
  1794.9000      8.0762      2.5259      0.0809      7.5229    113.5694     26.5189
  1795.0000      8.0591      2.5344      0.1107      7.0052    110.7675     27.2271
  1795.1000      8.0591      2.5397      0.0697      6.6843    108.6579     27.4478
  1795.2000      8.0591      2.5396      0.0599      6.6926    106.9086     27.1961
  1795.3000      8.0391      2.5336      0.0817      7.0550    104.6690     26.6352
  1795.4000      8.0391      2.5332      0.0265      7.0787    102.3969     26.0528
  1795.5000      8.0353      2.5494      0.0713      6.0993    101.3069     25.6911
  1795.6000      8.0353      2.5658      0.1029      5.1030    103.9881     25.5220
  1795.7000      8.0353      2.5664      0.0200      5.0671    109.8112     25.4644
  1795.8000      8.0341      2.5578      0.0657      5.5851    114.7032     25.4437
  1795.9000      8.0341      2.5444      0.0657      6.3977    117.3386     25.3092
  1796.0000      8.0373      2.5314      0.0223      7.1887    117.6392     24.9793
  1796.1000      8.0373      2.5281      0.0548      7.3886    116.0888     24.6950
  1796.2000      8.0373      2.5296      0.0395      7.2951    115.2501     24.7682
  1796.3000      8.0406      2.5246      0.0849      7.5998    115.4570     25.0954
  1796.4000      8.0406      2.5120      0.0156      8.3648    114.7401     25.3428
  1796.5000      8.0290      2.5050      0.0292      8.7903    112.7010     25.4067
  1796.6000      8.0290      2.5151      0.0006      8.1772    110.8796     25.3055
  1796.7000      8.0290      2.5400      0.0750      6.6671    110.9805     24.8730
  1796.8000      8.0643      2.5612      0.1062      5.3809    112.2212     24.3191
  1796.9000      8.0643      2.5634      0.1029      5.2464    113.2796     24.1798
  1797.0000      8.0812      2.5538      0.0441      5.8278    113.7696     24.4639
  1797.1000      8.0812      2.5469      0.0495      6.2515    113.0138     24.9165
  1797.2000      8.0812      2.5436      0.0715      6.4514    112.0886     25.2926
  1797.3000      8.0571      2.5428      0.0397      6.4974    113.0091     25.4798
  1797.4000      8.0571      2.5454      0.0671      6.3383    115.9537     25.5069
  1797.5000      8.0504      2.5416      0.0617      6.5670    119.1335     25.3230
  1797.6000      8.0504      2.5242      0.0502      7.6234    118.9606     25.1764
  1797.7000      8.0504      2.5034      0.0183      8.8851    113.9960     25.2822
