~Version Information
VERS.                      2.0: CWLS Log ASCII Standard - VERSION 2.0
WRAP.                       NO: One line per depth step
~Well Information Block
STRT.FT               583.0000: 
STOP.FT              1700.0000: 
STEP.FT                 0.1000: 
NULL.                -999.2500: 
COMP.          Pioneer Natural Resources: COMPANY
WELL.          Scott Canyon 11-18 Tr: WELL
FLD.           Purgatoire River: FIELD
LOC.           411' FNL & 580' FWL: LOCATION
PROV.                 Colorado: PROVINCE
CNTY.               Las Animas: COUNTRY
SRVC.                Patterson: SERVICE COMPANY
DATE.          Thu Feb 17 15:41:32 2005: LOG DATE
UWI.           05 071 08286 00: UNIQUE WELL ID
~Curve Information Block
DEPT.FT            0 000 00 00: Depth
DCAL.in                       : CDL Caliper
RHOB.g/cc                     : CDL Bulk Density
RHOC.g/cc                     : CDL Density Correction
DPOR.pu                       : CDL Density Porosity
GR.GAPI                       : Gamma Ray
NPOR.pu                       : Neutron Porosity
~Parameter Information Block
~A  Depth       DCAL        RHOB        RHOC        DPOR         GR         NPOR    
# ...
   880.6000      8.1599      2.5405      0.1422      6.6358    120.2779     29.9059
   880.7000      8.1599      2.5148      0.0637      8.1941    125.1474     29.7990
   880.8000      8.1773      2.4959      0.0315      9.3413    129.0012     29.7110
   880.9000      8.1773      2.5148      0.0453      8.1968    128.9025     29.9258
   881.0000      8.1858      2.5604      0.0866      5.4303    124.6422     30.3161
   881.1000      8.1858      2.5828      0.1154      4.0747    117.7601     30.8020
   881.2000      8.1858      2.5628      0.0554      5.2820    111.7628     31.2783
   881.3000      8.1943      2.5355      0.0596      6.9371    108.5664     31.2998
   881.4000      8.1943      2.5339      0.0609      7.0372    107.1316     30.7264
   881.5000      8.1958      2.5501      0.0834      6.0520    105.0862     29.9522
   881.6000      8.1958      2.5564      0.0994      5.6715    100.1601     29.4768
   881.7000      8.1958      2.5453      0.0328      6.3432     95.9797     29.3585
   881.8000      8.1955      2.5304      0.0571      7.2456     98.6603     29.2987
   881.9000      8.1955      2.5113      0.0858      8.4040    105.4673     29.2210
   882.0000      8.2061      2.4740      0.0813     10.6672    110.6510     29.0341
   882.1000      8.2061      2.4229      0.0563     13.7632    114.8406     29.0468
   882.2000      8.2061      2.3963     -0.0132     15.3729    119.1044     29.8808
   882.3000      8.2345      2.4203      0.0408     13.9204    120.1866     30.7691
   882.4000      8.2345      2.4623      0.1497     11.3753    118.6553     30.5486
   882.5000      8.2531      2.4803      0.1254     10.2829    119.3101     30.1104
   882.6000      8.2531      2.4771      0.1020     10.4782    118.5186     30.9241
   882.7000      8.2531      2.4630      0.1415     11.3333    110.2133     32.3473
   882.8000      8.2567      2.4170      0.1338     14.1207    101.8585     32.8472
   882.9000      8.2567      2.3153      0.1205     20.2824    103.3172     32.4092
   883.0000      8.2578      2.1752      0.0426     28.7747    108.9127     31.9062
   883.1000      8.2578      2.0457      0.0555     36.6270    109.2072     31.5857
   883.2000      8.2578      1.9554     -0.0345     42.0951    104.0881     31.1267
   883.3000      8.2584      1.8941      0.0336     45.8094     98.8960     30.7738
   883.4000      8.2584      1.8342     -0.0266     49.4419     97.9171     31.2574
   883.5000      8.2522      1.7668      0.0230     53.5246    100.4477     32.3465
   883.6000      8.2522      1.6981      0.0090     57.6903    103.2154     33.0380
   883.7000      8.2522      1.6290      0.0423     61.8818    103.7923     33.1660
   883.8000      8.2738      1.5608      0.0176     66.0111    100.8358     33.2330
   883.9000      8.2738      1.4994      0.0086     69.7335     94.4507     33.6185
   884.0000      8.2803      1.4462     -0.0527     72.9573     87.5088     34.4201
   884.1000      8.2803      1.4066     -0.1369     75.3590     80.9891     35.1080
   884.2000      8.2803      1.3842     -0.0998     76.7127     73.7774     34.9939
   884.3000      8.2630      1.3638     -0.0685     77.9519     66.5184     34.4121
   884.4000      8.2630      1.3296     -0.0574     80.0270     59.5384     34.0270
   884.5000      8.3159      1.2936     -0.0870     82.2050     54.8820     33.8924
   884.6000      8.3159      1.2825     -0.0346     82.8816     53.3138     34.1712
   884.7000      8.3159      1.3059     -0.0405     81.4596     52.0605     34.7947
   884.8000      8.3455      1.3489     -0.0163     78.8571     49.3260     34.9840
   884.9000      8.3455      1.3834     -0.0148     76.7635     46.3681     34.4583
   885.0000      8.3538      1.3944     -0.0096     76.0993     45.2220     33.8365
   885.1000      8.3538      1.3905      0.0137     76.3330     44.9924     33.6833
   885.2000      8.3538      1.3981     -0.0449     75.8757     44.9593     33.9773
   885.3000      8.4074      1.4382     -0.0328     73.4402     46.2383     34.2050
   885.4000      8.4074      1.4954     -0.0243     69.9769     48.3390     34.2534
   885.5000      8.4345      1.5347     -0.0436     67.5955     50.8076     34.4280
   885.6000      8.4345      1.5551     -0.1905     66.3571     53.9624     34.6152
   885.7000      8.4345      1.5942     -0.1996     63.9890     56.4495     34.1404
   885.8000      8.4419      1.6718     -0.0730     59.2864     56.5290     32.8097
   885.9000      8.4419      1.7567      0.0454     54.1400     56.3992     31.6078
   886.0000      8.4305      1.8008      0.0508     51.4637     59.9086     31.1202
   886.1000      8.4305      1.7906     -0.0112     52.0857     64.1420     30.8563
   886.2000      8.4305      1.7449     -0.0520     54.8576     64.7336     30.7733
   886.3000      8.3434      1.6777     -0.0352     58.9302     62.6548     31.2293
   886.4000      8.3434      1.5911     -0.1399     64.1753     59.9482     31.8700
   886.5000      8.3319      1.4899     -0.1433     70.3112     58.7369     32.1542
   886.6000      8.3319      1.3863     -0.1972     76.5904     60.5969     32.3416
   886.7000      8.3319      1.3075     -0.2161     81.3642     63.8167     32.7507
   886.8000      8.3350      1.2743     -0.1385     83.3758     64.9698     33.0928
   886.9000      8.3350      1.2775     -0.0449     83.1803     63.3763     33.5316
   887.0000      8.3266      1.3007     -0.0140     81.7787     60.9456     34.4425
   887.1000      8.3266      1.3400      0.0252     79.3956     57.3937     35.0714
   887.2000      8.3266      1.4024      0.0171     75.6150     53.1867     34.9641
   887.3000      8.2269      1.5043      0.0059     69.4352     54.3868     35.1535
   887.4000      8.2269      1.6474      0.0873     60.7659     62.5965     35.8002
   887.5000      8.1969      1.8028      0.1416     51.3466     71.2223     35.7865
   887.6000      8.1969      1.9521      0.1599     42.2969     76.9134     35.0093
   887.7000      8.1969      2.1013      0.1669     33.2574     82.5697     34.2778
   887.8000      8.0775      2.2394      0.2288     24.8835     89.0139     33.7317
   887.9000      8.0775      2.3373      0.2413     18.9496     94.1016     32.8434
   888.0000      8.0594      2.3912      0.1646     15.6821    100.1510     31.6604
   888.1000      8.0594      2.4269      0.0596     13.5221    108.4613     30.5289
   888.2000      8.0594      2.4648      0.0180     11.2254    114.9611     29.3392
   888.3000      8.0576      2.5012      0.0631      9.0178    116.5305     28.5352
   888.4000      8.0576      2.5233      0.0292      7.6794    114.2472     28.3188
   888.5000      8.0589      2.5306      0.0221      7.2340    116.0977     27.3575
   888.6000      8.0589      2.5284      0.0251      7.3695    125.8474     25.1685
   888.7000      8.0589      2.5178      0.0282      8.0150    133.1993     23.0211
   888.8000      8.0567      2.5119     -0.0307      8.3710    129.0291     21.8926
   888.9000      8.0567      2.5255      0.0260      7.5447    118.1006     21.6974
   889.0000      8.0521      2.5438      0.0300      6.4358    109.8011     21.8193
   889.1000      8.0521      2.5434      0.0096      6.4605    105.0828     21.7046
   889.2000      8.0521      2.5256     -0.0210      7.5367    100.3668     21.3006
   889.3000      8.0551      2.5115      0.0201      8.3950     97.2383     20.7366
   889.4000      8.0551      2.5157     -0.0059      8.1368     98.1107     20.1741
   889.5000      8.0544      2.5267      0.1034      7.4757     99.7305     19.9109
   889.6000      8.0544      2.5258      0.0382      7.5278     97.4662     19.8531
   889.7000      8.0544      2.5220      0.0447      7.7572     93.5886     19.6634
   889.8000      8.0530      2.5256      0.0483      7.5386     91.5741     19.3248
   889.9000      8.0530      2.5290      0.0549      7.3317     89.4734     19.1076
   890.0000      8.0538      2.5276      0.0200      7.4161     86.6569     19.1813
   890.1000      8.0538      2.5278      0.0369      7.4054     84.6945     19.3930
