~Version Information
VERS.                      2.0: CWLS Log ASCII Standard - VERSION 2.0
WRAP.                       NO: One line per depth step
~Well Information Block
STRT.FT               -10.3000: 
STOP.FT              1936.7000: 
STEP.FT                 0.1000: 
NULL.                -999.2500: 
COMP.          Petrogulf Corporation: COMPANY
WELL.              Graff 9-31R: WELL
FLD.           Purgatorie River: FIELD
LOC.           707' FNL & 1713' FEL------: LOCATION
CNTY.               Las Animas: COUNTY
SRVC.                         : SERVICE COMPANY
DATE.          Wed Nov 17 13:41:51 2004: LOG DATE
UWI.                          : UNIQUE WELL ID
STAT.                       CO: STATE
~Curve Information Block
DEPT.FT            0 000 00 00: Depth
GR.GAPI                       : Gamma Ray
CCL.                          : Casing Collar Locator
TT3.usec                      : CBL 3' Travel Time
AMP3.mV                       : CBL 3' Amplitude
~Parameter Information Block
~A  Depth        GR         CCL         TT3         AMP3    
# ...
   632.9000    108.4773      0.0000    691.0162     21.7771
   633.0000    100.9367      0.0000    738.5809     21.6269
   633.1000    100.9367      0.0000    738.5809     21.6269
   633.2000    100.9367      0.0000    738.5809     21.6269
   633.3000     92.8608      0.0000    738.5864     22.0330
   633.4000     92.8608      0.0000    738.5864     22.0330
   633.5000     85.8086      0.0000    690.9315     22.9885
   633.6000     85.8086      0.0000    690.9315     22.9885
   633.7000     85.8086      0.0000    690.9315     22.9885
   633.8000     80.8619      0.0000    605.9887     24.3147
   633.9000     80.8619      0.0000    605.9887     24.3147
   634.0000     78.8369      0.0000    505.6944     25.7000
   634.1000     78.8369      0.0000    505.6944     25.7000
   634.2000     78.8369      0.0000    505.6944     25.7000
   634.3000     79.8730      0.0000    416.4487     26.8083
   634.4000     79.8730      0.0000    416.4487     26.8083
   634.5000     82.6971      0.0000    355.6998     27.4043
   634.6000     82.6971      0.0000    355.6998     27.4043
   634.7000     82.6971      0.0000    355.6998     27.4043
   634.8000     84.9207      0.0000    326.1957     27.4361
   634.9000     84.9207      0.0000    326.1957     27.4361
   635.0000     84.6496      0.0000    323.3130     27.0402
   635.1000     84.6496      0.0000    323.3130     27.0402
   635.2000     84.6496      0.0000    323.3130     27.0402
   635.3000     81.8409      0.0000    345.3172     26.4592
   635.4000     81.8409      0.0000    345.3172     26.4592
   635.5000     78.0703      0.0000    394.7042     25.9137
   635.6000     78.0703      0.0000    394.7042     25.9137
   635.7000     78.0703      0.0000    394.7042     25.9137
   635.8000     75.0398      0.0000    469.5862     25.5135
   635.9000     75.0398      0.0000    469.5862     25.5135
   636.0000     73.2884      0.0000    555.1458     25.2568
   636.1000     73.2884      0.0000    555.1458     25.2568
   636.2000     73.2884      0.0000    555.1458     25.2568
   636.3000     72.1726      0.0000    627.5873     25.0788
   636.4000     72.1726      0.0000    627.5873     25.0788
   636.5000     70.7400      0.0000    670.6996     24.8835
   636.6000     70.7400      0.0000    670.6996     24.8835
   636.7000     70.7400      0.0000    670.6996     24.8835
   636.8000     68.3283      0.0000    688.7897     24.5533
   636.9000     68.3283      0.0000    688.7897     24.5533
   637.0000     64.6631      0.0000    700.5432     23.9807
   637.1000     64.6631      0.0000    700.5432     23.9807
   637.2000     64.6631      0.0000    700.5432     23.9807
   637.3000     60.1455      0.0000    720.0792     23.1241
   637.4000     60.1455      0.0000    720.0792     23.1241
   637.5000     56.0395      0.0000    747.0651     22.0394
   637.6000     56.0395      0.0000    747.0651     22.0394
   637.7000     56.0395      0.0000    747.0651     22.0394
   637.8000     53.6872      0.0000    774.4429     20.8646
   637.9000     53.6872      0.0000    774.4429     20.8646
   638.0000     53.4154      0.0000    799.2332     19.7659
   638.1000     53.4154      0.0000    799.2332     19.7659
   638.2000     53.4154      0.0000    799.2332     19.7659
   638.3000     54.6205      0.0000    822.7803     18.8659
   638.4000     54.6205      0.0000    822.7803     18.8659
   638.5000     56.7201      0.0000    844.9465     18.1927
   638.6000     56.7201      0.0000    844.9465     18.1927
   638.7000     56.7201      0.0000    844.9465     18.1927
   638.8000     59.4252      0.0000    862.3091     17.6976
   638.9000     59.4252      0.0000    862.3091     17.6976
   639.0000     62.1518      0.0000    871.5306     17.3243
   639.1000     62.1518      0.0000    871.5306     17.3243
   639.2000     62.1518      0.0000    871.5306     17.3243
   639.3000     63.8126      0.0000    872.7868     17.0576
   639.4000     63.8126      0.0000    872.7868     17.0576
   639.5000     63.5630      0.0000    869.9251     16.9100
   639.6000     63.5630      0.0000    869.9251     16.9100
   639.7000     63.5630      0.0000    869.9251     16.9100
   639.8000     61.5600      0.0000    867.4390     16.8732
   639.9000     61.5600      0.0000    867.4390     16.8732
   640.0000     58.7249      0.0000    866.3665     16.8987
   640.1000     58.7249      0.0000    866.3665     16.8987
   640.2000     58.7249      0.0000    866.3665     16.8987
   640.3000     55.8860      0.0000    863.4312     16.9335
   640.4000     55.8860      0.0000    863.4312     16.9335
   640.5000     53.3901      0.0000    855.4102     16.9717
   640.6000     53.3901      0.0000    855.4102     16.9717
   640.7000     53.3901      0.0000    855.4102     16.9717
   640.8000     51.2838      0.0000    844.3370     17.0573
   640.9000     51.2838      0.0000    844.3370     17.0573
   641.0000     49.3902      0.0000    836.8346     17.2324
   641.1000     49.3902      0.0000    836.8346     17.2324
   641.2000     49.3902      0.0000    836.8346     17.2324
   641.3000     47.2337      0.0000    837.6065     17.4873
   641.4000     47.2337      0.0000    837.6065     17.4873
   641.5000     44.3685      0.0000    844.5385     17.7630
   641.6000     44.3685      0.0000    844.5385     17.7630
   641.7000     44.3685      0.0000    844.5385     17.7630
   641.8000     41.0191      0.0000    850.8441     17.9972
   641.9000     41.0191      0.0000    850.8441     17.9972
   642.0000     38.1853      0.0000    851.2105     18.1722
   642.1000     38.1853      0.0000    851.2105     18.1722
   642.2000     38.1853      0.0000    851.2105     18.1722
   642.3000     36.8714      0.0000    845.5511     18.3210
   642.4000     36.8714      0.0000    845.5511     18.3210
   642.5000     37.1600      0.0000    838.3450     18.4750
   642.6000     37.1600      0.0000    838.3450     18.4750
   642.7000     37.1600      0.0000    838.3450     18.4750
   642.8000     38.1357      0.0000    835.3549     18.6010
   642.9000     38.1357      0.0000    835.3549     18.6010
   643.0000     38.8067      0.0000    839.4898     18.6155
   643.1000     38.8067      0.0000    839.4898     18.6155
   643.2000     38.8067      0.0000    839.4898     18.6155
   643.3000     39.0607      0.0000    848.2695     18.4824
   643.4000     39.0607      0.0000    848.2695     18.4824
   643.5000     39.6022      0.0000    855.8914     18.2793
   643.6000     39.6022      0.0000    855.8914     18.2793
   643.7000     39.6022      0.0000    855.8914     18.2793
   643.8000     41.0522      0.0000    858.2293     18.1361
   643.9000     41.0522      0.0000    858.2293     18.1361
   644.0000     43.3698      0.0000    854.8836     18.1114
   644.1000     43.3698      0.0000    854.8836     18.1114
   644.2000     43.3698      0.0000    854.8836     18.1114
   644.3000     46.0880      0.0000    846.8414     18.1481
   644.4000     46.0880      0.0000    846.8414     18.1481
   644.5000     48.6235      0.0000    834.9960     18.1518
   644.6000     48.6235      0.0000    834.9960     18.1518
   644.7000     48.6235      0.0000    834.9960     18.1518
   644.8000     50.1682      0.0000    822.1559     18.0950
   644.9000     50.1682      0.0000    822.1559     18.0950
   645.0000     49.9067      0.0000    813.9981     18.0404
   645.1000     49.9067      0.0000    813.9981     18.0404
   645.2000     49.9067      0.0000    813.9981     18.0404
   645.3000     47.8082      0.0000    815.2908     18.0648
   645.4000     47.8082      0.0000    815.2908     18.0648
   645.5000     44.9074      0.0000    825.1081     18.1676
   645.6000     44.9074      0.0000    825.1081     18.1676
   645.7000     44.9074      0.0000    825.1081     18.1676
   645.8000     42.5227      0.0000    837.1617     18.2630
   645.9000     42.5227      0.0000    837.1617     18.2630
   646.0000     41.3294      0.0000    845.7260     18.2584
   646.1000     41.3294      0.0000    845.7260     18.2584
   646.2000     41.3294      0.0000    845.7260     18.2584
