~Version Information
VERS.                      2.0: CWLS Log ASCII Standard - VERSION 2.0
WRAP.                       NO: One line per depth step
~Well Information Block
STRT.FT              1727.9000: 
STOP.FT              1961.0000: 
STEP.FT                 0.1000: 
NULL.                -999.2500: 
COMP.          Petrogulf Corporation: COMPANY
WELL.              Royal 8-33R: WELL
FLD.           Purgatorie River: FIELD
LOC.           2401' FSL & 2270' FEL: LOCATION
CNTY.               Las Animas: COUNTY
SRVC.                         : SERVICE COMPANY
DATE.          Mon Apr 26 06:57:24 2004: LOG DATE
UWI.           05 071 08041 00: UNIQUE WELL ID
STAT.                 Colorado: STATE
~Curve Information Block
DEPT.FT            0 000 00 00: Depth
DCAL.in                       : CDL Caliper
RHOB.g/cc                     : CDL Bulk Density
RHOC.g/cc                     : CDL Density Correction
DPOR.pu                       : CDL Density Porosity
GR.GAPI                       : Gamma Ray
~Parameter Information Block
~A  Depth       DCAL        RHOB        RHOC        DPOR         GR     
# ...
  1783.9000      7.8571      2.4713      0.0785     10.8284    111.4149
  1784.0000      7.8582      2.5032      0.0848      8.8969    101.1350
  1784.1000      7.8582      2.5160      0.0907      8.1220    112.2617
  1784.2000      7.8582      2.5210      0.0765      7.8155    137.2529
  1784.3000      7.8644      2.5279      0.1210      7.4002    150.8206
  1784.4000      7.8644      2.5360      0.1401      6.9116    143.1093
  1784.5000      7.8599      2.5472      0.1020      6.2317    130.6766
  1784.6000      7.8599      2.5490      0.1594      6.1194    126.6844
  1784.7000      7.8599      2.5181      0.0726      7.9951    126.3950
  1784.8000      7.8487      2.4695      0.0431     10.9416    123.3748
  1784.9000      7.8487      2.4409      0.0269     12.6706    117.7146
  1785.0000      7.8487      2.4383      0.0879     12.8286    111.7345
  1785.1000      7.8487      2.4432      0.0737     12.5332    105.5327
  1785.2000      7.8487      2.4467      0.0464     12.3237    106.2456
  1785.3000      7.8532      2.4573      0.0655     11.6790    115.8678
  1785.4000      7.8532      2.4825      0.0566     10.1533    120.5333
  1785.5000      7.8554      2.5014      0.1348      9.0034    113.1499
  1785.6000      7.8554      2.5044      0.0214      8.8240    100.9316
  1785.7000      7.8554      2.5250      0.0635      7.5759    100.7693
  1785.8000      7.8475      2.5705      0.0516      4.8165    117.8948
  1785.9000      7.8475      2.6041      0.1755      2.7826    134.4914
  1786.0000      7.8588      2.5976      0.1597      3.1779    134.0302
  1786.1000      7.8588      2.5803      0.0063      4.2254    117.9725
  1786.2000      7.8588      2.6023      0.1090      2.8889    103.6505
  1786.3000      7.8663      2.6389      0.1294      0.6717    106.1007
  1786.4000      7.8663      2.6346      0.1305      0.9361    124.9016
  1786.5000      7.8666      2.5893      0.0663      3.6816    144.8632
  1786.6000      7.8666      2.5360      0.1099      6.9105    149.3184
  1786.7000      7.8666      2.5007      0.0187      9.0465    143.5123
  1786.8000      7.8622      2.5001      0.0374      9.0874    140.7837
  1786.9000      7.8622      2.5380      0.0215      6.7871    145.0437
  1787.0000      7.8594      2.5992      0.0738      3.0760    156.3846
  1787.1000      7.8594      2.6412      0.1397      0.5332    169.1328
  1787.2000      7.8594      2.6328      0.0907      1.0450    180.4194
  1787.3000      7.8639      2.5909      0.0586      3.5842    191.9762
  1787.4000      7.8639      2.5475      0.0393      6.2098    193.5984
  1787.5000      7.8634      2.5172      0.0600      8.0455    183.6267
  1787.6000      7.8634      2.5067     -0.0200      8.6822    179.7232
  1787.7000      7.8634      2.5125      0.0311      8.3363    181.6567
  1787.8000      7.8557      2.5093      0.0380      8.5282    179.6682
  1787.9000      7.8557      2.4940      0.0634      9.4523    174.6257
  1788.0000      7.8631      2.4970      0.0454      9.2721    163.3119
  1788.1000      7.8631      2.5138      0.1189      8.2525    149.9112
  1788.2000      7.8631      2.4990      0.0540      9.1501    141.6414
  1788.3000      7.8625      2.4478     -0.0394     12.2555    131.9153
  1788.4000      7.8625      2.4093     -0.0361     14.5873    117.0930
  1788.5000      7.8638      2.4139     -0.0349     14.3120    102.3797
  1788.6000      7.8638      2.4442      0.0695     12.4735     93.5708
  1788.7000      7.8638      2.4690      0.0730     10.9684     96.5378
  1788.8000      7.8664      2.4813      0.0819     10.2264    110.5647
  1788.9000      7.8664      2.4999      0.0817      9.0968    120.7372
  1789.0000      7.8548      2.5358      0.1203      6.9231    126.8828
  1789.1000      7.8548      2.5724      0.1094      4.7021    138.4394
  1789.2000      7.8548      2.5830      0.2009      4.0593    140.4182
  1789.3000      7.8438      2.5555      0.1344      5.7268    127.1480
  1789.4000      7.8438      2.5097      0.0201      8.5002    116.3056
  1789.5000      7.8377      2.4736      0.0577     10.6885    114.5612
  1789.6000      7.8377      2.4447      0.1075     12.4450    114.8617
  1789.7000      7.8377      2.4174      0.0715     14.0966    104.6034
  1789.8000      7.8378      2.4254     -0.0421     13.6142     82.7410
  1789.9000      7.8378      2.4907      0.0581      9.6574     66.9985
  1790.0000      7.8466      2.5635      0.1655      5.2414     63.8180
  1790.1000      7.8466      2.5898      0.0710      3.6476     65.2906
  1790.2000      7.8466      2.5892      0.0370      3.6834     73.5743
  1790.3000      7.8685      2.5936      0.0658      3.4211     91.0112
  1790.4000      7.8685      2.5905      0.1389      3.6032    106.4083
  1790.5000      7.8746      2.5743      0.0627      4.5894    111.7454
  1790.6000      7.8746      2.5632      0.1056      5.2610    108.2524
  1790.7000      7.8746      2.5606      0.0867      5.4170     95.8519
  1790.8000      7.8763      2.5571      0.0837      5.6311     77.6797
  1790.9000      7.8763      2.5389      0.1099      6.7331     68.2012
  1791.0000      7.8641      2.5049      0.0242      8.7910     70.7009
  1791.1000      7.8641      2.4907     -0.0226      9.6545     77.0212
  1791.2000      7.8641      2.5195      0.1141      7.9099     86.6205
  1791.3000      7.8646      2.5577      0.1067      5.5968     99.7189
  1791.4000      7.8646      2.5598      0.1515      5.4682    120.4313
  1791.5000      7.8646      2.5239      0.1134      7.6404    153.7390
  1791.6000      7.8646      2.4838      0.0429     10.0750    185.6756
  1791.7000      7.8646      2.4612      0.0623     11.4415    199.7997
  1791.8000      7.8482      2.4552      0.0498     11.8090    200.0044
  1791.9000      7.8482      2.4573      0.1117     11.6808    195.7536
  1792.0000      7.8467      2.4480      0.2313     12.2429    189.2546
  1792.1000      7.8467      2.4220      0.1714     13.8161    184.5118
  1792.2000      7.8467      2.4096      0.1177     14.5705    186.5441
  1792.3000      7.8440      2.4304      0.1677     13.3107    194.3153
  1792.4000      7.8440      2.4739      0.1562     10.6743    204.8128
  1792.5000      7.8380      2.5208      0.2802      7.8273    210.6677
  1792.6000      7.8380      2.5518      0.2561      5.9527    200.5558
  1792.7000      7.8380      2.5437      0.3333      6.4448    183.1595
  1792.8000      7.8419      2.4650      0.3030     11.2124    178.3435
  1792.9000      7.8419      2.3282      0.1505     19.5010    183.8428
  1793.0000      7.8707      2.1898      0.1356     27.8911    186.2775
  1793.1000      7.8707      2.0816      0.0502     34.4480    188.0229
  1793.2000      7.8707      2.0171     -0.0241     38.3598    195.8493
  1793.3000      7.8841      2.0111     -0.0065     38.7217    198.0325
  1793.4000      7.8841      2.0591      0.0173     35.8112    184.2391
  1793.5000      7.8999      2.1212      0.1937     32.0457    169.6714
  1793.6000      7.8999      2.1569      0.1489     29.8839    169.5582
  1793.7000      7.8999      2.1851      0.1173     28.1763    176.8766
  1793.8000      7.9197      2.2479      0.1805     24.3714    176.2256
  1793.9000      7.9197      2.3349      0.2409     19.0995    171.2074
  1794.0000      7.9627      2.4054      0.1101     14.8226    180.1898
  1794.1000      7.9627      2.4477      0.1037     12.2608    194.4136
  1794.2000      7.9627      2.4653      0.1748     11.1936    188.0608
  1794.3000      8.0201      2.4618      0.0907     11.4042    168.0399
  1794.4000      8.0201      2.4475      0.1688     12.2744    157.8483
  1794.5000      7.8974      2.4267      0.1434     13.5346    156.8082
  1794.6000      7.8974      2.4057      0.1076     14.8090    155.3403
  1794.7000      7.8974      2.3936      0.0357     15.5377    157.5125
  1794.8000      7.8760      2.3876      0.1129     15.9043    166.0089
  1794.9000      7.8760      2.3801      0.0630     16.3571    174.0335
  1795.0000      7.8569      2.3758      0.0771     16.6158    173.1725
