~Version Information
VERS.                      2.0: CWLS Log ASCII Standard - VERSION 2.0
WRAP.                       NO: One line per depth step
~Well Information Block
STRT.FT                -3.2500: 
STOP.FT              1637.5000: 
STEP.FT                 0.2500: 
NULL.                -999.2500: 
COMP.          Pioneer Natural Resources: COMPANY
WELL.            Mad Dog 42-31: WELL
FLD.           Purgatorie River: FIELD
LOC.           2064' FNL & 479' FEL--: LOCATION
PROV.                       CO: PROVINCE
CNTY.               Las Animas: COUNTRY
SRVC.                         : SERVICE COMPANY
DATE.          Fri Oct 15 16:13:39 2004: LOG DATE
UWI.          005 071 08195   : UNIQUE WELL ID
~Curve Information Block
DEPT.FT            0 000 00 00: Depth
HVOLTA.V                      : Head Voltage Apparent
GR.GAPI                       : Gamma Ray
CCL.                          : Casing Collar Locator
TT3.usec                      : CBL 3' Travel Time
AMP3.mV                       : CBL 3' Amplitude
~Parameter Information Block
~A  Depth      HVOLTA        GR         CCL         TT3         AMP3    
# ...
   976.7500     97.1194    158.2110      0.0000    755.9194      6.4266
   977.0000     97.1469    160.8156      0.0000    755.2526      6.3355
   977.2500     97.1230    162.9984      0.0000    754.6116      6.2047
   977.5000     97.0991    164.3464      0.0000    754.1415      6.0944
   977.7500     97.2831    163.3497      0.0000    753.9023      6.0517
   978.0000     97.2460    158.6890      0.0000    753.8687      6.0814
   978.2500     97.3930    150.7010      0.0000    753.9450      6.1503
   978.5000     97.3416    141.5000      0.0000    754.0040      6.2194
   978.7500     97.1636    133.7917      0.0000    753.9409      6.2708
   979.0000     97.2425    129.4301      0.0000    753.7174      6.3092
   979.2500     97.3416    128.5143      0.0000    753.3941      6.3446
   979.5000     97.1672    129.5612      0.0000    753.1343      6.3764
   979.7500     97.1469    130.8393      0.0000    753.2434      6.3926
   980.0000     97.1540    131.5741      0.0000    754.2888      6.3835
   980.2500     97.2567    131.7120      0.0000    757.2782      6.3538
   980.5000     97.4169    130.9789      0.0000    763.3296      6.3204
   980.7500     97.2389    128.6814      0.0000    772.1851      6.3010
   981.0000     97.3655    124.2221      0.0000    780.6312      6.3059
   981.2500     97.2425    117.6332      0.0000    783.6156      6.3341
   981.5000     97.3894    110.0447      0.0000    778.4345      6.3691
   981.7500     97.3762    103.6968      0.0000    767.5748      6.3804
   982.0000     97.2521    100.6975      0.0000    756.6591      6.3411
   982.2500     97.2114    101.0760      0.0000    750.0333      6.2503
   982.5000     97.3488    102.2669      0.0000    748.6150      6.1456
   982.7500     97.3345    101.1252      0.0000    750.9865      6.0921
   983.0000     97.3177     96.7361      0.0000    755.5067      6.1533
   983.2500     97.2771     91.2285      0.0000    761.1384      6.3465
   983.5000     97.4108     88.0125      0.0000    766.6891      6.6120
   983.7500     97.1123     89.4042      0.0000    770.2418      6.8282
   984.0000     97.3858     95.7412      0.0000    770.1708      6.8794
   984.2500     97.2221    106.0647      0.0000    766.6781      6.7299
   984.5000     97.0955    118.9999      0.0000    761.7228      6.4483
   984.7500     97.2400    132.9011      0.0000    757.4138      6.1587
   985.0000     97.2746    145.7874      0.0000    754.7458      5.9619
   985.2500     97.2664    155.8441      0.0000    753.5623      5.8919
   985.5000     97.2328    162.2732      0.0000    753.1070      5.9226
   985.7500     97.1743    165.6280      0.0000    752.4845      5.9965
   986.0000     97.3284    167.3081      0.0000    751.0380      6.0506
   986.2500     97.3523    168.6194      0.0000    748.8027      6.0292
   986.5000     97.2795    170.1290      0.0000    746.8010      5.8842
   986.7500     97.4133    171.6588      0.0000    746.6458      5.5767
   987.0000     97.1672    172.7735      0.0000    749.3886      5.1095
   987.2500     97.3238    173.4971      0.0000    754.5819      4.5751
   987.5000     97.3823    174.7600      0.0000    760.5849      4.1418
   987.7500     97.2496    177.8023      0.0000    765.8578      3.9395
   988.0000     97.2460    182.5987      0.0000    769.8726      3.9568
   988.2500     97.1840    187.0752      0.0000    772.6230      4.0808
   988.5000     97.1875    188.6855      0.0000    773.5211      4.2150
   988.7500     97.2795    186.7958      0.0000    771.5826      4.3238
   989.0000     97.2556    182.8732      0.0000    767.0117      4.3985
   989.2500     97.4001    178.4752      2.0000    762.2051      4.4387
   989.5000     97.2114    174.0532      0.0000    760.6923      4.4621
   989.7500     97.0299    169.8957      0.0000    764.4418      4.5108
   990.0000     97.2186    167.1680      0.0000    771.4860      4.6417
   990.2500     97.0884    167.1732      0.0000    776.6232      4.8929
   990.5000     97.2628    170.0056      0.0000    775.6375      5.2318
   990.7500     97.3309    174.4019      0.0000    768.9481      5.5550
   991.0000     97.3141    178.3857      0.0000    760.6883      5.7799
   991.2500     97.2114    179.7608      0.0000    754.6979      5.9186
   991.5000     97.3284    177.0062      0.0000    751.8899      6.0326
   991.7500     97.2150    170.5105      0.0000    750.7347      6.1490
   992.0000     97.3990    162.6163      0.0000    749.1760      6.2580
   992.2500     97.1123    156.0386      0.0000    746.1530      6.3598
   992.5000     97.2699    152.1996      0.0000    742.3015      6.4723
   992.7500     97.1230    150.9027      0.0000    739.6014      6.6029
   993.0000     97.2699    151.0383      0.0000    739.7495      6.7336
   993.2500     96.9153    151.1514      0.0000    742.4507      6.8350
   993.5000     96.8871    149.8402      0.0000    745.5558      6.8930
   993.7500     97.3106    146.7033      0.0000    747.0896      6.9234
   994.0000     97.2735    143.2693      0.0000    746.8991      6.9556
   994.2500     97.3249    142.2758      0.0000    746.2062      6.9992
   994.5000     97.1397    145.3841      0.0000    745.9007      7.0300
   994.7500     97.1529    151.5906      0.0000    745.8083      7.0154
   995.0000     97.3452    157.8495      0.0000    745.6276      6.9509
   995.2500     97.1540    160.8417      0.0000    745.8082      6.8663
   995.5000     97.2806    158.2974      0.0000    747.0154      6.7953
   995.7500     97.2903    149.6389      0.0000    749.2705      6.7477
   996.0000     97.1779    136.2831      0.0000    752.2714      6.7135
   996.2500     97.2938    121.3759      0.0000    756.2692      6.6845
   996.5000     97.2079    108.6484      0.0000    762.0325      6.6626
   996.7500     97.3238    100.7450      0.0000    769.8178      6.6470
   997.0000     97.2485     97.9629      0.0000    778.7816      6.6241
   997.2500     97.1911     98.4009      0.0000    787.5347      6.5805
   997.5000     97.3488     99.5668      0.0000    794.7046      6.5236
   997.7500     97.0991     99.8598      0.0000    798.5549      6.4787
   998.0000     97.2460     98.5974      0.0000    797.2964      6.4632
   998.2500     97.1027     95.4232      0.0000    791.3173      6.4693
   998.5000     97.3356     90.4121      0.0000    784.3374      6.4726
   998.7500     97.2699     84.4926      0.0000    780.5358      6.4551
   999.0000     97.2090     79.3570      0.0000    780.5847      6.4183
   999.2500     97.1947     76.8823      0.0000    781.3885      6.3771
   999.5000     97.1815     78.2711      0.0000    779.3120      6.3415
   999.7500     97.3010     83.2652      0.0000    773.0633      6.3054
  1000.0000     97.1505     90.3738      0.0000    763.9402      6.2515
  1000.2500     97.3559     98.2124      0.0000    754.0610      6.1637
  1000.5000     97.2878    106.2832      0.0000    744.6824      6.0369
  1000.7500     97.4001    114.2396      0.0000    736.1553      5.8798
  1001.0000     97.1408    120.9569      0.0000    729.0747      5.7145
  1001.2500     97.1743    124.9251      0.0000    724.7269      5.5750
  1001.5000     97.1683    125.5683      0.0000    724.1113      5.5017
  1001.7500     97.2221    123.8461      0.0000    726.7740      5.5243
  1002.0000     97.3965    121.3668      0.0000    730.9283      5.6377
  1002.2500     97.3965    119.2308      0.0000    734.7258      5.7993
  1002.5000     97.2903    118.1333      0.0000    737.0652      5.9561
  1002.7500     97.2460    119.0671      0.0000    737.2083      6.0763
  1003.0000     97.4133    122.7997      0.0000    734.6608      6.1568
  1003.2500     97.2018    128.4288      0.0000    730.3203      6.2096
  1003.5000     97.3213    133.4056      0.0000    726.8813      6.2484
  1003.7500     97.0991    135.7326      0.0000    726.7628      6.2776
  1004.0000     97.3427    135.9324      0.0000    729.8557      6.2867
  1004.2500     97.3284    136.4570      0.0000    734.1528      6.2582
  1004.5000     97.2806    139.2542      0.0000    738.0103      6.1870
