~Version Information
VERS.                      2.0: CWLS Log ASCII Standard - VERSION 2.0
WRAP.                       NO: One line per depth step
~Well Information Block
STRT.FT                -8.0000: 
STOP.FT              1540.2500: 
STEP.FT                 0.2500: 
NULL.                -999.2500: 
COMP.          Pioneer Natural Resources: COMPANY
WELL.           Telna 24-22 Tr: WELL
FLD.           Purgatorie River: FIELD
LOC.           748' FSL & 1931' FWL--: LOCATION
PROV.                       CO: PROVINCE
CNTY.               Las Animas: COUNTRY
SRVC.          Patterson Wireline: SERVICE COMPANY
DATE.          Fri May 06 12:29:21 2005: LOG DATE
UWI.           05 071 08304 00: UNIQUE WELL ID
~Curve Information Block
DEPT.FT            0 000 00 00: Depth
CCL.                          : Casing Collar Locator
TT3.usec                      : CBL 3' Travel Time
AMP3.mV                       : CBL 3' Amplitude
GR.GAPI                       : Gamma Ray
~Parameter Information Block
~A  Depth       CCL         TT3         AMP3         GR     
# ...
   494.5000      0.0000    892.1196      5.4876     78.9062
   494.7500      0.0000    884.3281      5.5276     79.1051
   495.0000      0.0000    879.5418      5.4613     80.6692
   495.2500      0.0000    877.9027      5.2693     82.8617
   495.5000      0.0000    877.9898      4.9794     84.7940
   495.7500      0.0000    877.7327      4.6688     85.8255
   496.0000      0.0000    875.9269      4.4344     86.0977
   496.2500      0.0000    873.0344      4.3485     86.2956
   496.5000      0.0000    870.4407      4.4297     86.8569
   496.7500      0.0000    869.2707      4.6451     87.8125
   497.0000      0.0000    869.9631      4.9320     89.2886
   497.2500      0.0000    872.3707      5.2162     91.5258
   497.5000      0.0000    875.8361      5.4248     94.2521
   497.7500      0.0000    879.5449      5.5016     96.5909
   498.0000      0.0000    883.1833      5.4265     97.9515
   498.2500      0.0000    886.9581      5.2259     98.7776
   498.5000      0.0000    890.8831      4.9679    100.0793
   498.7500      0.0000    894.6397      4.7420    102.3245
   499.0000      0.0000    898.1669      4.6259    104.9023
   499.2500      0.0000    901.6744      4.6570    106.6290
   499.5000      0.0000    905.0208      4.8256    106.7551
   499.7500      0.0000    907.6877      5.0917    105.4975
   500.0000      0.0000    909.4354      5.4003    103.8340
   500.2500      0.0000    910.6570      5.6838    103.0084
   500.5000      0.0000    912.1292      5.8678    103.7011
   500.7500      0.0000    914.5099      5.8964    104.9358
   501.0000      0.0000    917.7734      5.7624    104.2155
   501.2500      0.0000    920.8906      5.5151     99.6779
   501.5000      0.0000    922.3865      5.2397     92.0219
   501.7500      0.0000    921.6741      5.0236     83.7901
   502.0000      0.0000    919.8410      4.9244     77.0566
   502.2500      0.0000    919.0021      4.9483     72.2805
   502.5000      0.0000    921.0692      5.0524     69.0561
   502.7500      0.0000    926.8123      5.1705     67.2407
   503.0000      0.0000    935.2140      5.2471     67.0059
   503.2500      0.0000    943.5540      5.2578     68.2083
   503.5000      0.0000    949.1600      5.2113     70.3548
   503.7500      0.0000    951.8502      5.1413     73.0496
   504.0000      0.0000    954.3442      5.0894     75.9779
   504.2500      0.0000    959.6301      5.0786     78.7029
   504.5000      0.0000    967.4290      5.0970     81.0307
   504.7500      0.0000    973.2439      5.1087     83.2357
   505.0000      0.0000    971.5236      5.0796     85.4507
   505.2500      0.0000    960.1033      4.9923     87.2439
   505.5000      0.0000    941.6702      4.8467     88.2228
   505.7500      0.0000    921.8711      4.6651     88.6176
   506.0000      0.0000    906.6332      4.4966     88.7464
   506.2500      0.0000    899.4153      4.3997     88.3425
   506.5000      0.0000    898.7029      4.4051     87.1018
   506.7500      0.0000    898.0522      4.4906     85.6484
   507.0000      0.0000    890.0374      4.5866     85.1329
   507.2500      0.0000    871.2211      4.6081     85.8044
   507.5000      0.0000    844.4072      4.4962     86.5154
   507.7500      0.0000    817.0214      4.2493     85.9392
   508.0000      0.0000    796.7650      3.9264     84.1142
   508.2500      0.0000    786.9752      3.6207     82.4992
   508.5000      0.0000    784.5735      3.4178     82.4827
   508.7500      0.0000    782.1347      3.3587     84.0032
   509.0000      0.0000    773.0223      3.4287     85.5767
   509.2500      0.0000    756.2949      3.5764     85.3654
   509.5000      0.0000    737.7361      3.7438     82.3266
   509.7500      0.0000    725.6907      3.8860     76.8273
   510.0000      0.0000    724.8495      3.9744     70.3071
   510.2500      0.0000    733.4019      3.9918     64.2736
   510.5000      0.0000    746.0842      3.9282     59.7236
   510.7500      0.0000    759.4888      3.7860     57.3291
   511.0000      0.0000    773.4406      3.5938     57.3978
   511.2500      0.0000    787.3309      3.4105     59.3484
   511.5000      0.0000    797.3401      3.3011     61.7682
   511.7500      0.0000    798.6581      3.3030     63.4359
   512.0000      0.0000    789.4764      3.4083     64.0753
   512.2500      0.0000    772.3287      3.5738     64.0347
   512.5000      0.0000    752.5745      3.7423     63.5936
   512.7500      0.0000    735.7571      3.8609     62.7344
   513.0000      0.0000    725.3417      3.8903     61.2403
   513.2500      0.0000    722.1293      3.8091     58.8617
   513.5000      0.0000    725.2787      3.6195     55.7544
   513.7500      0.0000    733.2616      3.3526     52.8932
   514.0000      0.0000    744.0354      3.0679     51.5100
   514.2500      0.0000    755.2542      2.8359     51.8012
   514.5000      0.0000    765.0825      2.7059     52.6215
   514.7500      0.0000    773.1690      2.6799     52.7575
   515.0000      0.0000    781.0026      2.7161     52.0783
   515.2500      0.0000    790.9281      2.7535     51.1909
   515.5000      0.0000    804.0604      2.7400     50.4607
   515.7500      0.0000    818.8385      2.6530     49.7813
   516.0000      0.0000    831.5324      2.5138     49.0054
   516.2500      0.0000    838.0208      2.3831     48.2269
   516.5000      0.0000    835.4700      2.3304     47.7003
   516.7500      0.0000    823.3539      2.3916     47.6678
   517.0000      0.0000    803.7534      2.5415     48.3174
   517.2500      0.0000    780.5947      2.7017     49.9824
   517.5000      0.0000    757.8344      2.7831     53.2211
   517.7500      0.0000    737.5267      2.7387     58.2169
   518.0000      0.0000    719.0627      2.5983     64.0901
   518.2500      0.0000    700.5129      2.4522     69.6218
   518.5000      0.0000    681.8369      2.3910     74.8309
   518.7500      0.0000    667.3008      2.4438     80.8037
   519.0000      0.0000    663.6632      2.5661     87.5577
   519.2500      0.0000    674.6235      2.6796     93.0198
   519.5000      0.0000    696.9864      2.7271     94.7198
   519.7500      0.0000    722.9044      2.7061     92.1568
   520.0000      0.0000    746.1074      2.6706     87.3688
   520.2500      0.0000    766.1599      2.6982     83.3478
   520.5000      0.0000    787.4437      2.8366     81.7582
   520.7500      0.0000    815.0116      3.0720     82.0424
   521.0000      0.0000    851.2557      3.3524     82.6728
   521.2500      0.0000    894.5767      3.6378     82.8678
   521.5000      0.0000    938.9011      3.9177     82.8054
   521.7500      0.0000    974.9639      4.1917     82.6110
   522.0000      0.0000    995.1257      4.4605     81.8033
   522.2500      0.0000    998.4982      4.7327     79.8831
   522.5000      0.0000    991.1362      5.0095     77.2009
   522.7500     -2.0000    982.0609      5.2546     74.9968
   523.0000      2.0000    978.7540      5.3988     74.3727
   523.2500      2.0000    982.8970      5.3870     75.1424
   523.5000      0.0000    988.2206      5.2311     75.9623
   523.7500      0.0000    984.8475      5.0260     75.7303
   524.0000      0.0000    968.3156      4.8999     74.6538
   524.2500      0.0000    943.8607      4.9209     73.8357
   524.5000      0.0000    921.3888      5.0460     74.0279
   524.7500      0.0000    907.5876      5.1756     74.9945
   525.0000      0.0000    902.6790      5.2481     75.9565
   525.2500      0.0000    902.5303      5.2618     76.4400
   525.5000      0.0000    902.7186      5.2282     76.7021
   525.7500      0.0000    901.2892      5.1403     77.3782
   526.0000      0.0000    898.6667      4.9823     78.8218
   526.2500      0.0000    895.6600      4.7491     81.0011
   526.5000      0.0000    891.8723      4.4555     83.8628
   526.7500      0.0000    886.0800      4.1400     87.1920
   527.0000      0.0000    877.9484      3.8625     89.9556
   527.2500      0.0000    869.0416      3.6844     90.4442
   527.5000      0.0000    861.9734      3.6382     87.6442
   527.7500      0.0000    858.4678      3.7124     82.3197
