~Version Information
VERS.                      2.0: CWLS Log ASCII Standard - VERSION 2.0
WRAP.                       NO: One line per depth step
~Well Information Block
STRT.FT               706.1000: 
STOP.FT              2370.0000: 
STEP.FT                 0.1000: 
NULL.                -999.2500: 
COMP.          Petrogulf Corporation: COMPANY
WELL.             State 16-12V: WELL
FLD.           Purgatorie River: FIELD
LOC.           1992' FNL & 1237' FWL: LOCATION
CNTY.               Las Animas: COUNTY
SRVC.                         : SERVICE COMPANY
DATE.          Thu Aug 04 09:34:25 2005: LOG DATE
UWI.           05-071-08016-00: UNIQUE WELL ID
STAT.                 Colorado: STATE
~Curve Information Block
DEPT.FT            0 000 00 00: Depth
DCAL.in                       : CDL Caliper
DPOR.pu                       : CDL Density Porosity
GR.GAPI                       : Gamma Ray
NPOR.pu                       : Neutron Porosity
RHOB.g/cc                     : CDL Bulk Density
RHOC.g/cc                     : CDL Density Correction
~Parameter Information Block
~A  Depth       DCAL        DPOR         GR         NPOR        RHOB        RHOC    
# ...
   821.3000      8.1487     10.3123     82.2061     19.2993      2.4798      0.0793
   821.4000      8.1487     10.0018     82.7020     19.3285      2.4850      0.0869
   821.5000      8.1613      9.7914     83.5278     19.4761      2.4884      0.0840
   821.6000      8.1613      9.8425     83.3464     19.6217      2.4876      0.0950
   821.7000      8.1613      9.9686     82.5399     19.7832      2.4855      0.0492
   821.8000      8.1716      9.7910     83.5646     20.0620      2.4884      0.0738
   821.9000      8.1716      9.2392     87.6650     20.4649      2.4976      0.0671
   822.0000      8.1774      8.8900     91.8415     20.8985      2.5033      0.0780
   822.1000      8.1774      9.1982     92.2560     21.1849      2.4982      0.0251
   822.2000      8.1774      9.6385     88.6881     21.2799      2.4910      0.0089
   822.3000      8.1761      9.7728     85.6298     21.2657      2.4887      0.0741
   822.4000      8.1761     10.0797     85.1646     21.1265      2.4837      0.0521
   822.5000      8.1923     10.5934     85.2769     20.9103      2.4752      0.0001
   822.6000      8.1923     10.7326     85.7768     20.7648      2.4729      0.0256
   822.7000      8.1923     10.3012     87.0551     20.4734      2.4800      0.0263
   822.8000      8.2131      9.5888     87.1377     19.9611      2.4918      0.0595
   822.9000      8.2131      9.0658     85.6196     19.7366      2.5004      0.0582
   823.0000      8.2292      8.7833     84.6243     19.7988      2.5051      0.0550
   823.1000      8.2292      8.5375     83.7954     19.6490      2.5091      0.0772
   823.2000      8.2292      8.7313     82.0055     19.3712      2.5059      0.1127
   823.3000      8.2412      9.5842     80.6626     19.2607      2.4919      0.0820
   823.4000      8.2412     10.2041     81.2681     19.3813      2.4816      0.0463
   823.5000      8.2767     10.1315     83.4297     19.6324      2.4828      0.0818
   823.6000      8.2767     10.2098     84.7534     19.6799      2.4815      0.0859
   823.7000      8.2767     10.7801     83.8225     19.2965      2.4721      0.0408
   823.8000      8.2644     11.4676     83.5209     18.6894      2.4608      0.0826
   823.9000      8.2644     12.1772     86.3300     18.2877      2.4491      0.0533
   824.0000      8.2404     12.3428     88.5034     18.3641      2.4463      0.0305
   824.1000      8.2404     11.1267     86.4636     18.8798      2.4664      0.0520
   824.2000      8.2404      8.8751     82.3377     19.6297      2.5036      0.1049
   824.3000      8.2297      6.7833     79.4123     20.1489      2.5381      0.1088
   824.4000      8.2297      5.7637     78.9969     20.1731      2.5549      0.1526
   824.5000      8.2157      6.3174     80.0054     20.0021      2.5458      0.1218
   824.6000      8.2157      8.1011     80.1215     19.9255      2.5163      0.0972
   824.7000      8.2157      9.8466     78.2335     19.9857      2.4875      0.0699
   824.8000      8.1198     10.6408     76.7912     20.0113      2.4744      0.0620
   824.9000      8.1198     10.5683     78.3918     19.8687      2.4756      0.0636
   825.0000      8.1058      9.9826     80.4400     19.7223      2.4853      0.0433
   825.1000      8.1058      9.3128     80.7625     19.6635      2.4963      0.0575
   825.2000      8.1058      9.1777     80.4318     19.6096      2.4986      0.0408
   825.3000      8.1081      9.4863     80.0083     19.6519      2.4935      0.0582
   825.4000      8.1081      9.6969     79.8318     19.9451      2.4900      0.0503
   825.5000      8.1078      9.8008     80.0177     20.4022      2.4883      0.0456
   825.6000      8.1078      9.5989     80.1947     20.6737      2.4916      0.0133
   825.7000      8.1078      8.6681     80.4956     20.6108      2.5070      0.0245
   825.8000      8.1129      7.7052     80.0587     20.3726      2.5229      0.0671
   825.9000      8.1129      7.7249     78.3059     20.1164      2.5225      0.0688
   826.0000      8.1106      8.4201     78.1122     20.1639      2.5111      0.0423
   826.1000      8.1106      8.9852     80.5141     20.6643      2.5017      0.0658
   826.2000      8.1106      9.5982     83.2097     21.1690      2.4916      0.0873
   826.3000      8.0910     10.3081     84.7663     21.2355      2.4799      0.0044
   826.4000      8.0910     10.2296     84.0045     20.9567      2.4812      0.0168
   826.5000      8.1069      9.2256     81.3534     20.7382      2.4978      0.0466
   826.6000      8.1069      8.2802     79.6173     20.7164      2.5134      0.0802
   826.7000      8.1069      8.1006     80.7392     20.5740      2.5163      0.0496
   826.8000      8.1045      8.5212     83.7508     20.0532      2.5094      0.0595
   826.9000      8.1045      9.0228     86.4030     19.4342      2.5011      0.0420
   827.0000      8.1039      9.3172     86.7722     19.3305      2.4963      0.0395
   827.1000      8.1039      9.5078     83.6195     19.7755      2.4931      0.0424
   827.2000      8.1039      9.8328     78.6424     19.9839      2.4878      0.0552
   827.3000      8.0957     10.3389     75.7944     19.6359      2.4794      0.0451
   827.4000      8.0957     10.6062     76.7580     19.2248      2.4750      0.0143
   827.5000      8.1021     10.3550     80.6742     19.0765      2.4791      0.0471
   827.6000      8.1021     10.0018     85.1044     18.9986      2.4850      0.0545
   827.7000      8.1021      9.7711     87.4871     18.9689      2.4888      0.0294
   827.8000      8.1094      9.5555     87.5429     19.1634      2.4923      0.0694
   827.9000      8.1094      9.3293     87.0241     19.4812      2.4961      0.0412
   828.0000      8.0998      9.0198     87.4061     19.6180      2.5012      0.0728
   828.1000      8.0998      8.8389     89.2109     19.4673      2.5042      0.0737
   828.2000      8.0998      8.9558     90.5593     19.2980      2.5022      0.0795
   828.3000      8.0978      8.8944     89.7716     19.4255      2.5032      0.0558
   828.4000      8.0978      8.1582     87.5814     19.9044      2.5154      0.0803
   828.5000      8.1061      7.3330     85.3178     20.4936      2.5290      0.1036
   828.6000      8.1061      7.4612     84.3247     20.7275      2.5269      0.0807
   828.7000      8.1061      8.8212     84.3779     20.4633      2.5044      0.0542
   828.8000      8.1336     10.7512     84.3188     20.1462      2.4726     -0.0054
   828.9000      8.1336     12.0007     84.8569     20.1415      2.4520     -0.0192
   829.0000      8.1627     11.9835     86.4366     20.1992      2.4523     -0.0031
   829.1000      8.1627     11.5380     88.2306     19.9550      2.4596      0.0407
   829.2000      8.1627     11.5508     89.0275     19.5653      2.4594      0.0255
   829.3000      8.1919     11.6080     88.0941     19.4139      2.4585      0.0004
   829.4000      8.1919     11.0301     84.6239     19.5065      2.4680      0.0644
   829.5000      8.2667      9.9683     79.7933     19.4962      2.4855      0.0685
   829.6000      8.2667      9.0148     77.5844     19.2157      2.5013      0.0720
   829.7000      8.2667      8.8900     78.2883     18.9364      2.5033      0.1005
   829.8000      8.3297      9.6267     78.9527     18.7876      2.4912      0.0470
   829.9000      8.3297     10.5165     78.7345     18.6240      2.4765      0.1008
   830.0000      8.3531     11.5390     77.9966     18.5059      2.4596      0.0746
   830.1000      8.3531     12.9153     77.6462     18.5885      2.4369      0.0426
   830.2000      8.3531     14.1188     78.7999     18.8094      2.4170      0.0339
   830.3000      8.3132     14.4652     80.3660     18.9100      2.4113      0.0420
   830.4000      8.3132     13.6144     80.4879     18.8081      2.4254      0.0440
   830.5000      8.3112     11.6523     80.2918     18.7524      2.4577      0.0817
   830.6000      8.3112      9.5247     81.7721     18.8272      2.4928      0.1246
   830.7000      8.3112      8.6948     85.0560     18.9322      2.5065      0.1415
   830.8000      8.3150      9.1890     88.5269     19.0878      2.4984      0.0956
