~Version Information
VERS.                      2.0: CWLS Log ASCII Standard - VERSION 2.0
WRAP.                       NO: One line per depth step
~Well Information Block
STRT.FT                -8.5000: 
STOP.FT              1597.7500: 
STEP.FT                 0.2500: 
NULL.                -999.2500: 
COMP.          Pioneer Natural Resources: COMPANY
WELL.          Dude Canyon 22-32 Tr: WELL
FLD.           Purgatorie River: FIELD
LOC.           1741' FnL & 2331' FWL--: LOCATION
PROV.                       CO: PROVINCE
CNTY.               Las Animas: COUNTRY
SRVC.          Patterson Wireline: SERVICE COMPANY
DATE.          Fri Jul 15 14:44:37 2005: LOG DATE
UWI.           05 071 08421 00: UNIQUE WELL ID
~Curve Information Block
DEPT.FT            0 000 00 00: Depth
CCL.                          : Casing Collar Locator
TT3.usec                      : CBL 3' Travel Time
AMP3.mV                       : CBL 3' Amplitude
GR.GAPI                       : Gamma Ray
~Parameter Information Block
~A  Depth       CCL         TT3         AMP3         GR     
# ...
  1264.5000      0.0000    544.1457      5.9473    128.7876
  1264.7500      0.0000    544.3998      5.9572    130.2393
  1265.0000      0.0000    545.2325      6.0113    127.6327
  1265.2500      0.0000    546.2135      6.1022    122.8378
  1265.5000      0.0000    547.0103      6.1985    119.0506
  1265.7500      0.0000    547.3887      6.2630    118.1300
  1266.0000      0.0000    547.1354      6.2681    119.7330
  1266.2500      0.0000    545.9858      6.2058    122.4308
  1266.5000      0.0000    543.7266      6.0901    125.1589
  1266.7500      0.0000    540.3793      5.9525    128.0309
  1267.0000      0.0000    536.1895      5.8321    132.0934
  1267.2500      0.0000    531.4731      5.7643    137.9734
  1267.5000      0.0000    526.7080      5.7647    144.6154
  1267.7500      0.0000    522.7693      5.8185    149.5339
  1268.0000      0.0000    520.8252      5.8924    150.4491
  1268.2500      0.0000    521.9096      5.9638    146.8837
  1268.5000      0.0000    526.4673      6.0342    140.5546
  1268.7500      0.0000    533.8955      6.1119    134.3458
  1269.0000      0.0000    542.3817      6.1890    130.7132
  1269.2500      0.0000    549.6198      6.2425    130.7155
  1269.5000      0.0000    554.0733      6.2554    133.9615
  1269.7500      0.0000    555.6353      6.2305    138.7336
  1270.0000      0.0000    555.2260      6.1827    142.2166
  1270.2500      0.0000    553.9877      6.1244    141.7277
  1270.5000      0.0000    552.7392      6.0658    136.6987
  1270.7500      0.0000    551.8351      6.0177    129.4566
  1271.0000      0.0000    551.2941      5.9828    123.7018
  1271.2500      0.0000    551.0122      5.9549    122.1160
  1271.5000      0.0000    550.8952      5.9356    125.0703
  1271.7500      0.0000    550.8520      5.9385    130.8951
  1272.0000      0.0000    550.7266      5.9664    137.0009
  1272.2500      0.0000    550.2296      5.9966    141.3094
  1272.5000      0.0000    548.9659      6.0029    143.5462
  1272.7500      0.0000    546.6468      5.9860    145.2905
  1273.0000      0.0000    543.2172      5.9700    148.1161
  1273.2500      0.0000    538.3784      5.9746    151.6168
  1273.5000      0.0000    530.9277      6.0067    153.8334
  1273.7500      0.0000    519.3971      6.0698    153.3957
  1274.0000      0.0000    504.0162      6.1629    150.5894
  1274.2500      0.0000    487.5231      6.2727    146.5918
  1274.5000      0.0000    473.2730      6.3808    142.4410
  1274.7500      0.0000    462.6626      6.4786    138.6560
  1275.0000      0.0000    454.5622      6.5673    135.3206
  1275.2500      0.0000    446.7979      6.6445    132.3619
  1275.5000      0.0000    437.8587      6.7013    129.4580
  1275.7500      0.0000    427.5363      6.7348    125.7319
  1276.0000      0.0000    416.3985      6.7544    120.4044
  1276.2500      0.0000    404.9973      6.7695    114.2365
  1276.5000      0.0000    393.9347      6.7831    109.6969
  1276.7500      0.0000    384.4812      6.8020    109.0499
  1277.0000      0.0000    378.3116      6.8332    112.2310
  1277.2500      0.0000    376.2956      6.8651    116.7971
  1277.5000      0.0000    378.0471      6.8693    120.0070
  1277.7500      0.0000    382.8351      6.8319    120.9377
  1278.0000      0.0000    390.2839      6.7712    120.6010
  1278.2500      0.0000    399.8134      6.7122    120.2696
  1278.5000      0.0000    410.0651      6.6507    120.1905
  1278.7500      0.0000    419.9829      6.5540    119.8649
  1279.0000      0.0000    430.1373      6.3896    118.7918
  1279.2500      0.0000    441.2480      6.1445    116.5391
  1279.5000      0.0000    450.8590      5.8367    112.5630
  1279.7500      0.0000    453.7558      5.5276    106.6589
  1280.0000      0.0000    447.4319      5.3012     99.6617
  1280.2500      0.0000    435.6069      5.2018     93.2331
  1280.5000      0.0000    425.0853      5.1951     88.6525
  1280.7500      2.0000    420.8624      5.1982     85.9966
  1281.0000      2.0000    425.1503      5.1458     84.5403
  1281.2500      0.0000    438.8053      5.0350     83.5721
  1281.5000      0.0000    461.3085      4.9249     82.7211
  1281.7500      0.0000    489.1706      4.8846     81.9300
  1282.0000      0.0000    515.6166      4.9282     81.3667
  1282.2500      0.0000    533.4982      5.0128     81.2993
  1282.5000      0.0000    539.6376      5.1077     81.9201
  1282.7500      0.0000    536.3482      5.2387     83.0815
  1283.0000      0.0000    528.6646      5.4406     84.1335
  1283.2500      0.0000    520.8428      5.6919     84.4005
  1283.5000      0.0000    515.4440      5.9144     84.1776
  1283.7500      0.0000    513.9650      6.0213     84.9795
  1284.0000      0.0000    516.8642      5.9614     88.2574
  1284.2500      0.0000    523.6038      5.7426     93.8147
  1284.5000      0.0000    533.8939      5.4130     99.5401
  1284.7500      0.0000    548.6418      5.0099    102.5569
  1285.0000      0.0000    568.7004      4.5407    100.9346
  1285.2500      0.0000    592.5543      4.0181     94.9201
  1285.5000      0.0000    616.1625      3.4918     86.5294
  1285.7500      0.0000    636.0948      3.0301     77.7140
  1286.0000      0.0000    652.9182      2.6838     69.2857
  1286.2500      0.0000    670.6729      2.4731     61.8311
  1286.5000      0.0000    692.2381      2.3908     56.9378
  1286.7500      0.0000    714.9337      2.4061     56.7489
  1287.0000      0.0000    731.1159      2.4735     62.2887
  1287.2500      0.0000    734.1691      2.5538     72.4440
  1287.5000      0.0000    724.4086      2.6351     84.4916
  1287.7500      0.0000    708.8549      2.7344     95.5393
  1288.0000      0.0000    695.3912      2.8833    103.7960
  1288.2500      0.0000    687.0092      3.1113    109.0162
  1288.5000      0.0000    680.7764      3.4326    112.1165
  1288.7500      0.0000    672.0776      3.8394    114.3929
  1289.0000      0.0000    660.2526      4.2971    116.6987
  1289.2500      0.0000    649.4427      4.7470    118.8459
  1289.5000      0.0000    643.6282      5.1272    119.7734
  1289.7500      0.0000    642.5605      5.4022    118.5333
  1290.0000      0.0000    643.3011      5.5731    115.0957
  1290.2500      0.0000    643.7182      5.6680    110.3363
  1290.5000      0.0000    643.2713      5.7254    105.6701
  1290.7500      0.0000    641.6615      5.7780    102.6773
  1291.0000      0.0000    638.0956      5.8362    102.4965
  1291.2500      0.0000    632.0461      5.8932    105.3203
  1291.5000      0.0000    624.1468      5.9444    110.5787
  1291.7500      0.0000    615.5087      5.9865    117.3763
  1292.0000      0.0000    605.9803      6.0029    124.4405
  1292.2500      0.0000    594.1943      5.9761    130.1029
  1292.5000      0.0000    579.8627      5.9182    133.0730
  1292.7500      0.0000    564.8196      5.8669    133.4111
  1293.0000      0.0000    551.3115      5.8410    132.4327
  1293.2500      0.0000    540.5062      5.8181    131.5033
  1293.5000      0.0000    533.1772      5.7672    130.8765
  1293.7500      0.0000    530.6537      5.6935    129.6835
  1294.0000      0.0000    534.3726      5.6360    127.0808
  1294.2500      0.0000    545.0045      5.6245    123.2968
  1294.5000      0.0000    562.1960      5.6531    119.3933
  1294.7500      0.0000    584.3859      5.7010    116.1012
  1295.0000      0.0000    608.6251      5.7663    113.1253
  1295.2500      0.0000    631.4042      5.8633    109.7464
  1295.5000      0.0000    650.1160      5.9903    105.9058
  1295.7500      0.0000    663.4409      6.1172    102.3063
  1296.0000      0.0000    670.4296      6.2123     99.6211
  1296.2500      0.0000    670.0279      6.2700     98.1633
  1296.5000      0.0000    662.2156      6.3018     98.1246
  1296.7500      0.0000    649.8986      6.3111     99.3303
  1297.0000      0.0000    638.8915      6.2900    100.6549
  1297.2500      0.0000    634.0942      6.2407    100.5399
  1297.5000      0.0000    634.5862      6.1872     98.5509
  1297.7500      0.0000    633.5696      6.1668     96.1097
