~Version Information
VERS.                      2.0: CWLS Log ASCII Standard - VERSION 2.0
WRAP.                       NO: One line per depth step
~Well Information Block
STRT.FT                -5.7500: 
STOP.FT              1965.7500: 
STEP.FT                 0.2500: 
NULL.                -999.2500: 
COMP.          Pioneer Natural Resources: COMPANY
WELL.          Easton 12-30 Tr: WELL
FLD.           Purgatorie River: FIELD
LOC.           549' FWL & 2416' FNL--: LOCATION
PROV.                       CO: PROVINCE
CNTY.               Las Animas: COUNTRY
SRVC.          Patterson Wireline: SERVICE COMPANY
DATE.          Mon Jun 06 16:13:03 2005: LOG DATE
UWI.           05 071 08379 00: UNIQUE WELL ID
~Curve Information Block
DEPT.FT            0 000 00 00: Depth
CCL.                          : Casing Collar Locator
TT3.usec                      : CBL 3' Travel Time
AMP3.mV                       : CBL 3' Amplitude
GR.GAPI                       : Gamma Ray
~Parameter Information Block
~A  Depth       CCL         TT3         AMP3         GR     
# ...
   396.2500      0.0000    737.7250      8.8652     74.5914
   396.5000      0.0000    685.6212      8.9019     74.8218
   396.7500      0.0000    622.0048      8.8713     74.5955
   397.0000      0.0000    561.9432      8.8037     74.0207
   397.2500      0.0000    524.9185      8.7237     73.6792
   397.5000      0.0000    526.5384      8.6441     74.0375
   397.7500      0.0000    568.4079      8.5740     75.2878
   398.0000      0.0000    635.0798      8.5257     77.6051
   398.2500      0.0000    703.4697      8.5055     81.0439
   398.5000      0.0000    756.6339      8.5000     85.0295
   398.7500      0.0000    788.7975      8.4786     88.3951
   399.0000      0.0000    800.7973      8.4167     90.1275
   399.2500      0.0000    795.7983      8.3177     89.8592
   399.5000      0.0000    779.3257      8.2166     87.8904
   399.7500      0.0000    759.0151      8.1645     85.3159
   400.0000      0.0000    741.9097      8.2029     83.7985
   400.2500      0.0000    732.0046      8.3344     84.4498
   400.5000      0.0000    729.7303      8.5123     87.1967
   400.7500      0.0000    732.7362      8.6682     91.6021
   401.0000      0.0000    737.5906      8.7592     97.3912
   401.2500      0.0000    741.7182      8.7903    103.5257
   401.5000      0.0000    744.3439      8.7962    107.8622
   401.7500      0.0000    746.0771      8.8075    108.9406
   402.0000      0.0000    747.9051      8.8340    107.7916
   402.2500      0.0000    750.2623      8.8752    107.2545
   402.5000      0.0000    752.4634      8.9398    109.5332
   402.7500      0.0000    753.0120      9.0470    114.4617
   403.0000      0.0000    750.7666      9.2042    119.6783
   403.2500      0.0000    746.0332      9.3868    122.4190
   403.5000      0.0000    740.5269      9.5461    121.6972
   403.7500      0.0000    736.1108      9.6431    118.9793
   404.0000      0.0000    733.2726      9.6729    116.5727
   404.2500      0.0000    731.0235      9.6593    115.4593
   404.5000      0.0000    728.7142      9.6315    114.7810
   404.7500      0.0000    727.4097      9.6066    113.1791
   405.0000      0.0000    728.6328      9.5870    110.3324
   405.2500      0.0000    732.0990      9.5650    107.1782
   405.5000      0.0000    735.5587      9.5274    104.9454
   405.7500      0.0000    736.8091      9.4630    104.3237
   406.0000      0.0000    735.3821      9.3712    105.4007
   406.2500      0.0000    732.3399      9.2652    107.8130
   406.5000      0.0000    728.8701      9.1655    110.5622
   406.7500      0.0000    725.3127      9.0891    112.0647
   407.0000      0.0000    721.4172      9.0458    111.0553
   407.2500      0.0000    717.2300      9.0388    107.5325
   407.5000      0.0000    713.4933      9.0655    102.5311
   407.7500      0.0000    711.2649      9.1159     97.0631
   408.0000      0.0000    711.4658      9.1722     91.5718
   408.2500      0.0000    714.7711      9.2159     86.4497
   408.5000      0.0000    721.3042      9.2329     82.7051
   408.7500      0.0000    729.9089      9.2141     81.4861
   409.0000      0.0000    738.2560      9.1539     82.7040
   409.2500      0.0000    744.6620      9.0562     84.6987
   409.5000      0.0000    749.8259      8.9417     85.7083
   409.7500      0.0000    755.8494      8.8456     85.3224
   410.0000      0.0000    763.4692      8.8055     84.1946
   410.2500      0.0000    771.0471      8.8446     82.8186
   410.5000      0.0000    776.6646      8.9632     80.9322
   410.7500      0.0000    780.7692      9.1410     77.8399
   411.0000      0.0000    786.4362      9.3456     73.1480
   411.2500      0.0000    796.9211      9.5438     67.4248
   411.5000      0.0000    812.8575      9.7088     62.1505
   411.7500      0.0000    831.7338      9.8239     58.7265
   412.0000      0.0000    849.7251      9.8838     57.4281
   412.2500      0.0000    863.8151      9.8985     57.3203
   412.5000      0.0000    872.8833      9.8936     56.9801
   412.7500      0.0000    877.6353      9.8990     55.2603
   413.0000      0.0000    879.6738      9.9322     51.8249
   413.2500      0.0000    880.4257      9.9897     47.4245
   413.5000      0.0000    880.6423     10.0514     43.5466
   413.7500      0.0000    880.4421     10.0911     41.4005
   414.0000      0.0000    879.4459     10.0868     41.0962
   414.2500      0.0000    876.8698     10.0304     41.8899
   414.5000      0.0000    871.9498      9.9313     43.2018
   414.7500      0.0000    864.7549      9.8127     45.2962
   415.0000      0.0000    856.7567      9.7044     49.1790
   415.2500      0.0000    850.3761      9.6318     56.2530
   415.5000      0.0000    847.7521      9.6014     67.8730
   415.7500      0.0000    849.7141      9.5957     84.3130
   416.0000      0.0000    855.4542      9.5883    103.5648
   416.2500      0.0000    862.8552      9.5669    121.6125
   416.5000      0.0000    869.4042      9.5410    134.5482
   416.7500      0.0000    873.2488      9.5265    140.6034
   417.0000      0.0000    873.6691      9.5282    140.5228
   417.2500      0.0000    871.0438      9.5363    136.7448
   417.5000      0.0000    866.9031      9.5380    132.1718
   417.7500      0.0000    863.6747      9.5250    128.9045
   418.0000      0.0000    863.2710      9.4949    127.6112
   418.2500      0.0000    865.3377      9.4499    127.9260
   418.5000      0.0000    867.2365      9.3982    129.0281
   418.7500      0.0000    866.1403      9.3522    129.8214
   419.0000      0.0000    861.2285      9.3252    129.3813
   419.2500      0.0000    854.0668      9.3286    127.7426
   419.5000      0.0000    847.1727      9.3649    125.8776
   419.7500      0.0000    842.3125      9.4205    124.7047
   420.0000      0.0000    839.9684      9.4714    124.4365
   420.2500      0.0000    840.0184      9.4995    124.9136
   420.5000      0.0000    842.5225      9.5011    126.0486
   420.7500      0.0000    847.6990      9.4817    127.7499
   421.0000      0.0000    855.1809      9.4486    129.7181
   421.2500      0.0000    863.5125      9.4125    131.4799
   421.5000      0.0000    870.6725      9.3894    132.6590
   421.7500      0.0000    875.2100      9.3931    133.4537
   422.0000      0.0000    876.8034      9.4242    134.6883
   422.2500      0.0000    875.9603      9.4693    136.8737
   422.5000      0.0000    873.6779      9.5127    139.5102
   422.7500      0.0000    871.4047      9.5494    141.9537
   423.0000      0.0000    870.5919      9.5834    144.3720
   423.2500      0.0000    871.5368      9.6091    146.8784
   423.5000      0.0000    872.3204      9.5889    148.3232
   423.7500      0.0000    868.7404      9.4557    147.0308
   424.0000      0.0000    855.3278      9.1650    142.7232
   424.2500      0.0000    828.6986      8.7685    137.2578
   424.5000      0.0000    793.6795      8.4116    133.2595
   424.7500      0.0000    766.1325      8.2101    131.9000
   425.0000      0.0000    763.7916      8.1407    131.9309
   425.2500      0.0000    789.9615      8.0973    130.8843
   425.5000      0.0000    829.1515      8.0261    127.3224
   425.7500      0.0000    861.4553      7.9510    122.1943
   426.0000      0.0000    878.1971      7.8999    118.1003
   426.2500      0.0000    882.1042      7.8703    116.9128
   426.5000      2.0000    877.1339      7.8607    118.0301
   426.7500      0.0000    862.1909      7.9108    119.0475
   427.0000      0.0000    834.4340      8.1089    117.9631
   427.2500      0.0000    797.8295      8.5364    114.6031
   427.5000      0.0000    767.4996      9.1604    110.3748
   427.7500      0.0000    761.4005      9.8000    107.0119
   428.0000      0.0000    784.1378     10.2569    105.4215
   428.2500      0.0000    821.7833     10.4733    105.4011
   428.5000      0.0000    855.1799     10.5243    106.3038
   428.7500      0.0000    875.2584     10.4948    107.8814
   429.0000      0.0000    884.2773     10.4189    110.4884
   429.2500      0.0000    887.5085     10.3076    114.5802
   429.5000      0.0000    887.7680     10.1767    120.0877
