~Version Information
 VERS.                                  2.0 : CWLS LAS VERSION
 WRAP.                                   NO : WRAPING MODE
 SWARE .                 MController 2.5.0J : SOFTWARE VERSION
~Well Information
 WELL.                          Silva 1-43R : WELL
 COMP.                Petrogulf Corporation : COMPANY
 FLD.                       Purgatory River : FIELD
 LOC.                  NE/SE sec1 T33S R68W : LOCATION
 DATE.                    6/16/06 - 6/17/06 : DATE(S) LOGGED
 SRVC.      Blanco Geological Services, LLC : SERVICE COMPANY
 STAT.                             Colorado : STATE
 CNTY.                           Las Animas : COUNTY
 CTRY.                                  USA : COUNTRY
 API.                       05-071-08372-00 : API NUMBER
 STRT.FT                              12.00 : START DEPTH
 STOP.FT                            2210.00 : STOP DEPTH
 STEP.FT                               1.00 : DEPTH INCREMENT
 NULL.                                -9999 : NULL VALUE
~Curve information
 DEPTH.FT                                   :
 ROP.MIN/FT                                 :
 GAS.UNITS                                  :
~ASCII Log data
# ...
       812.0         0.27        177.6 
       813.0         0.13        171.7 
       814.0         0.17        150.3 
       815.0         0.30        116.3 
       816.0         0.27         96.2 
       817.0         0.30         77.1 
       818.0         0.27         63.9 
       819.0         0.27         52.5 
       820.0         0.30         44.3 
       821.0         0.27         39.7 
       822.0         0.32         36.7 
       823.0         0.30         33.9 
       824.0         0.27         32.2 
       825.0         0.20         31.6 
       826.0         0.23         31.8 
       827.0         0.20         32.3 
       828.0         0.30         31.2 
       829.0         0.27         30.3 
       830.0         0.30         29.0 
       831.0         0.23         28.1 
       832.0         0.27         27.9 
       833.0         0.27         29.1 
       834.0         0.32         30.5 
       835.0         0.33         31.1 
       836.0         1.57          8.4 
       837.0         0.33         12.7 
       838.0         0.33         15.8 
       839.0         0.33         91.6 
       840.0         0.30        152.2 
       841.0         0.45        131.2 
       842.0         0.30        100.5 
       843.0         0.40         70.1 
       844.0         0.63         48.1 
       845.0         0.50         39.2 
       846.0         0.50         30.1 
       847.0         0.43         32.0 
       848.0         0.32         33.0 
       849.0         0.23         34.0 
       850.0         0.27         33.6 
       851.0         0.27         32.8 
       852.0         0.27         32.6 
       853.0         0.27         30.6 
       854.0         0.27         28.9 
       855.0         0.30         27.6 
       856.0         0.27         26.9 
       857.0         0.27         28.5 
       858.0         0.23         29.6 
       859.0         0.30         30.0 
       860.0         0.27         30.3 
       861.0         0.25         30.2 
       862.0         0.30         28.7 
       863.0         0.30         28.2 
       864.0         0.27         26.5 
       865.0         0.27         24.9 
       866.0         1.33         21.8 
       867.0         0.23         29.8 
       868.0         0.27         37.9 
       869.0         0.25         92.0 
       870.0         0.23        173.8 
       871.0         0.33        181.9 
       872.0         0.33        131.7 
       873.0         0.40         93.7 
       874.0         0.60         59.3 
       875.0         0.27         50.2 
       876.0         0.27         44.7 
       877.0         0.27         41.4 
       878.0         0.27         37.7 
       879.0         0.28         33.9 
       880.0         0.27         32.0 
       881.0         0.27         31.3 
       882.0         0.23         30.6 
       883.0         0.27         29.8 
       884.0         0.23         29.5 
       885.0         0.20         28.4 
       886.0         0.23         28.9 
       887.0         0.20         29.3 
       888.0         0.23         29.3 
       889.0         0.23         28.5 
       890.0         0.20         27.9 
       891.0         0.33         26.3 
       892.0         0.20         25.2 
       893.0         0.20         24.0 
       894.0         0.22         22.9 
       895.0         0.27         21.2 
       896.0         1.10         10.1 
       897.0         0.23         13.3 
       898.0         0.17         15.6 
       899.0         0.40         20.5 
       900.0         0.33         58.0 
       901.0         0.33        204.8 
       902.0         0.38        187.1 
       903.0         0.30        135.2 
       904.0         0.33         93.6 
       905.0         0.30         70.2 
       906.0         0.30         55.4 
       907.0         0.30         46.7 
       908.0         0.27         41.5 
       909.0         0.23         39.0 
       910.0         0.27         35.9 
       911.0         0.27         34.1 
       912.0         0.23         32.8 
       913.0         0.40         27.9 
       914.0         0.25         25.3 
       915.0         0.27         23.2 
       916.0         0.30         23.5 
       917.0         0.30         26.3 
       918.0         0.27         27.9 
       919.0         0.30         26.1 
       920.0         0.30         25.3 
       921.0         0.27         26.6 
       922.0         0.30         26.4 
       923.0         0.30         26.0 
       924.0         0.53         23.8 
       925.0         1.22          8.0 
       926.0         0.33         12.0 
       927.0         0.23         16.0 
       928.0         0.40         23.3 
       929.0         0.43        145.4 
       930.0         0.27        180.3 
       931.0         0.23        156.5 
       932.0         0.32        121.5 
       933.0         0.27         96.1 
       934.0         0.27         76.0 
       935.0         0.23         62.2 
       936.0         0.27         49.3 
       937.0         0.23         41.8 
       938.0         0.23         37.2 
       939.0         0.27         33.8 
       940.0         0.30         30.7 
       941.0         0.27         28.2 
       942.0         0.30         25.3 
       943.0         0.33         24.9 
       944.0         0.38         27.0 
       945.0         0.33         26.7 
       946.0         0.30         28.1 
       947.0         0.33         29.9 
       948.0         0.33         30.9 
       949.0         0.30         30.0 
       950.0         0.30         29.8 
       951.0         0.33         29.6 
       952.0         0.33         29.3 
       953.0         0.30         28.7 
       954.0         0.30         27.2 
       955.0         0.22         22.4 
       956.0         1.20         12.4 
       957.0         0.33         23.7 
       958.0         0.23         30.5 
       959.0         0.30         53.1 
       960.0         0.43        195.9 
       961.0         0.40        173.5 
       962.0         0.55        102.3 
       963.0         0.43         68.3 
       964.0         0.23         56.9 
       965.0         0.13         52.0 
       966.0         0.23         46.5 
       967.0         0.27         42.4 
       968.0         0.27         41.3 
       969.0         0.23         37.6 
       970.0         0.20         33.3 
       971.0         0.23         28.5 
       972.0         0.23         26.0 
       973.0         0.23         25.3 
       974.0         0.23         23.7 
       975.0         0.15         22.8 
       976.0         0.10         21.6 
       977.0         0.23         19.3 
       978.0         0.20         19.2 
       979.0         0.13         19.5 
       980.0         0.10         19.6 
       981.0         0.17         19.4 
       982.0         0.27         15.7 
       983.0         0.23         13.1 
       984.0         0.20         11.5 
       985.0         0.30         10.9 
       986.0         1.30          6.9 
       987.0         0.35         14.3 
       988.0         0.47         47.6 
       989.0         0.37        195.8 
       990.0         0.33        200.0 
       991.0         0.37        163.0 
       992.0         0.30        126.6 
       993.0         0.33         90.8 
       994.0         0.37         63.5 
       995.0         0.33         48.3 
       996.0         0.28         40.7 
       997.0         0.30         42.0 
       998.0         0.30         41.5 
       999.0         0.27         41.5 
      1000.0         0.27         44.7 
      1001.0         0.27         46.3 
      1002.0         0.23         45.1 
      1003.0         0.27         43.0 
      1004.0         0.27         42.6 
      1005.0         0.30         41.3 
      1006.0         0.30         38.1 
      1007.0         0.30         35.5 
      1008.0         0.22         33.6 
      1009.0         0.27         34.9 
      1010.0         0.27         36.2 
      1011.0         0.37         29.6 
