~Version Information
VERS.                      2.0: CWLS Log ASCII Standard - VERSION 2.0
WRAP.                       NO: One line per depth step
~Well Information Block
STRT.FT               375.0000: 
STOP.FT              2795.7000: 
STEP.FT                 0.1000: 
NULL.                -999.2500: 
COMP.          Pioneer Natural Resources: COMPANY
WELL.              Getem 21-23: WELL
FLD.           Purgatoire River: FIELD
LOC.           2623' FWL & 790' FNL--: LOCATION
PROV.                 Colorado: PROVINCE
CNTY.               Las Animas: COUNTRY
SRVC.                Patterson: SERVICE COMPANY
DATE.          Mon Jun 20 07:26:21 2005: LOG DATE
UWI.           05 071 08411 00: UNIQUE WELL ID
~Curve Information Block
DEPT.FT            0 000 00 00: Depth
DCAL.in                       : CDL Caliper
RHOB.g/cc                     : CDL Bulk Density
RHOC.g/cc                     : CDL Density Correction
DPOR.pu                       : CDL Density Porosity
NPOR.pu                       : Neutron Porosity
GR.GAPI                       : Gamma Ray
~Parameter Information Block
~A  Depth       DCAL        RHOB        RHOC        DPOR        NPOR         GR     
# ...
  1008.6000      8.8885      2.3463      0.5967     18.4050     21.3140    123.1007
  1008.7000      8.8885      2.3740      0.5106     16.7274     21.4228    112.3422
  1008.8000      8.5282      2.3979      0.4470     15.2778     21.3821    108.9918
  1008.9000      8.5282      2.3908      0.3487     15.7086     20.8140    111.5572
  1009.0000      8.2884      2.3639      0.2442     17.3413     19.9356    116.4477
  1009.1000      8.2884      2.3602      0.1854     17.5659     19.5040    121.1255
  1009.2000      8.2884      2.3876      0.2156     15.9059     19.5918    125.5452
  1009.3000      8.2161      2.4113      0.2572     14.4685     19.7422    130.5320
  1009.4000      8.2161      2.4103      0.1938     14.5301     19.9858    133.2153
  1009.5000      8.2068      2.3961      0.1773     15.3853     20.6632    132.4007
  1009.6000      8.2068      2.3715      0.1449     16.8795     21.7308    132.4205
  1009.7000      8.2068      2.3203      0.0965     19.9843     22.7214    135.9128
  1009.8000      8.2071      2.2512     -0.0155     24.1706     23.4830    138.9781
  1009.9000      8.2071      2.2084     -0.0516     26.7610     24.1947    136.3459
  1010.0000      8.2071      2.2198      0.0120     26.0708     24.8092    129.9063
  1010.1000      8.2071      2.2704      0.1304     23.0034     25.1373    126.4902
  1010.2000      8.2071      2.3418      0.1620     18.6770     25.4072    127.7019
  1010.3000      8.2065      2.4419      0.2511     12.6150     26.0802    128.6396
  1010.4000      8.2065      2.5646      0.4344      5.1779     27.1897    127.1945
  1010.5000      8.2055      2.6636      0.5151     -0.8257     28.2580    126.1121
  1010.6000      8.2055      2.7024      0.4652     -3.1750     28.7982    127.8498
  1010.7000      8.2055      2.6962      0.3242     -2.8029     28.8813    131.7578
  1010.8000      8.2039      2.6914      0.2767     -2.5077     28.7927    133.9640
  1010.9000      8.2039      2.7141      0.2198     -3.8844     28.6434    131.7521
  1011.0000      8.1995      2.7462      0.2400     -5.8311     28.6641    126.1156
  1011.1000      8.1995      2.7475      0.2541     -5.9101     28.8981    121.4571
  1011.2000      8.1995      2.7124      0.1473     -3.7798     29.0114    122.1428
  1011.3000      8.1952      2.6720      0.1193     -1.3350     28.9154    126.2940
  1011.4000      8.1952      2.6379      0.1478      0.7330     29.1375    128.8077
  1011.5000      8.1945      2.6081      0.0797      2.5366     29.8632    128.0496
  1011.6000      8.1945      2.5968      0.0596      3.2254     30.5399    124.9650
  1011.7000      8.1945      2.6065      0.0892      2.6364     30.7103    122.2834
  1011.8000      8.1986      2.6218      0.0825      1.7070     30.4592    121.6931
  1011.9000      8.1986      2.6327      0.0986      1.0455     30.2917    122.6878
  1012.0000      8.2062      2.6344      0.0257      0.9448     30.4854    126.2071
  1012.1000      8.2062      2.6197      0.0917      1.8341     30.5397    128.5217
  1012.2000      8.2062      2.5861      0.0197      3.8698     30.1630    125.5312
  1012.3000      8.2113      2.5454      0.0532      6.3394     29.7093    122.2470
  1012.4000      8.2113      2.5109      0.0554      8.4327     29.3108    124.5226
  1012.5000      8.2126      2.4938      0.0405      9.4694     28.7060    130.7108
  1012.6000      8.2126      2.4916      0.0442      9.6020     27.8062    136.1190
  1012.7000      8.2126      2.4857      0.0142      9.9555     26.8906    137.4178
  1012.8000      8.2118      2.4736      0.0317     10.6900     26.3135    134.9824
  1012.9000      8.2118      2.4607      0.0657     11.4726     25.9903    132.6684
  1013.0000      8.2097      2.4432      0.1094     12.5351     25.5221    131.9249
  1013.1000      8.2097      2.4251      0.0616     13.6319     24.9031    133.2785
  1013.2000      8.2097      2.4183      0.1129     14.0446     24.5440    136.3885
  1013.3000      8.2073      2.4337      0.0634     13.1073     24.5584    140.0681
  1013.4000      8.2073      2.4772      0.0908     10.4746     24.5597    144.0999
  1013.5000      8.2064      2.5191      0.1992      7.9351     24.3217    144.6658
  1013.6000      8.2064      2.5183      0.1779      7.9821     24.2647    138.1628
  1013.7000      8.2064      2.4935      0.0911      9.4862     24.7164    130.6018
  1013.8000      8.2104      2.5032      0.1415      8.8961     25.3012    126.8328
  1013.9000      8.2104      2.5624      0.2071      5.3115     25.5736    123.4259
  1014.0000      8.2247      2.6408      0.2116      0.5570     25.7388    120.0051
  1014.1000      8.2247      2.7162      0.2343     -4.0132     26.1176    118.8421
  1014.2000      8.2247      2.7766      0.2828     -7.6704     26.6813    119.6942
  1014.3000      8.2495      2.7985      0.3375     -8.9991     27.3546    119.4612
  1014.4000      8.2495      2.7669      0.2465     -7.0844     28.1703    116.6602
  1014.5000      8.2603      2.7130      0.1210     -3.8186     29.1362    115.8344
  1014.6000      8.2603      2.6817      0.1866     -1.9224     30.0047    118.8991
  1014.7000      8.2603      2.6756      0.2415     -1.5495     30.5286    121.6910
  1014.8000      8.2397      2.6702      0.1875     -1.2219     30.8502    121.3595
  1014.9000      8.2397      2.6507      0.1184     -0.0443     31.1938    118.0002
  1015.0000      8.2201      2.6165      0.0292      2.0321     31.3948    112.2278
  1015.1000      8.2201      2.5705      0.0140      4.8184     31.1348    108.7911
  1015.2000      8.2201      2.5180      0.0154      7.9985     30.5697    111.1921
  1015.3000      8.2152      2.4676      0.0337     11.0574     30.0295    114.9350
  1015.4000      8.2152      2.4307      0.0425     13.2885     29.5926    115.3220
  1015.5000      8.2145      2.4151      0.0758     14.2360     29.1515    115.1554
  1015.6000      8.2145      2.4164      0.1075     14.1602     28.2818    119.7273
  1015.7000      8.2145      2.4282      0.0926     13.4424     26.8784    126.8680
  1015.8000      8.2136      2.4420      0.1498     12.6074     25.6854    131.1227
  1015.9000      8.2136      2.4352      0.2037     13.0200     25.1825    130.4515
  1016.0000      8.2119      2.3972      0.1560     15.3198     25.0086    130.1039
  1016.1000      8.2119      2.3596      0.1033     17.5978     24.7293    136.5416
  1016.2000      8.2119      2.3593      0.1307     17.6209     24.1221    144.9344
  1016.3000      8.2104      2.3840      0.1949     16.1217     23.4581    147.0102
  1016.4000      8.2104      2.3999      0.1726     15.1597     23.1371    143.3616
  1016.5000      8.2081      2.4063      0.1793     14.7690     23.0019    140.2387
  1016.6000      8.2081      2.4203      0.2066     13.9189     22.7382    139.4121
  1016.7000      8.2081      2.4422      0.2173     12.5967     22.3943    138.8726
  1016.8000      8.2025      2.4597      0.2738     11.5335     21.9282    137.9291
  1016.9000      8.2025      2.4637      0.2263     11.2934     21.1671    135.3266
  1017.0000      8.1929      2.4592      0.1607     11.5621     20.4823    130.6798
  1017.1000      8.1929      2.4683      0.1401     11.0125     20.1363    125.2355
  1017.2000      8.1929      2.5029      0.1912      8.9145     19.7308    118.3544
  1017.3000      8.1849      2.5456      0.2345      6.3259     19.2694    108.9128
  1017.4000      8.1849      2.5793      0.1875      4.2867     19.2649    103.5437
  1017.5000      8.1836      2.6070      0.1598      2.6061     19.8828    107.9928
  1017.6000      8.1836      2.6270      0.1863      1.3947     20.8107    114.6369
  1017.7000      8.1836      2.6344      0.1142      0.9460     21.9502    115.9161
  1017.8000      8.1855      2.6392      0.0905      0.6554     23.5942    115.3287
  1017.9000      8.1855      2.6485      0.0763      0.0916     25.5345    116.4812
  1018.0000      8.1883      2.6613      0.0751     -0.6839     27.2477    115.9134
  1018.1000      8.1883      2.6808      0.0537     -1.8666     28.2936    109.7539
