~Version Information
VERS.                      2.0: CWLS Log ASCII Standard - VERSION 2.0
WRAP.                       NO: One line per depth step
~Well Information Block
STRT.FT               745.0000: 
STOP.FT              2945.7500: 
STEP.FT                 0.2500: 
NULL.                -999.2500: 
COMP.          Pioneer Natural Resources: COMPANY
WELL.          Old Yeller 31-32: WELL
FLD.           Purgatoire River: FIELD
LOC.           1832' FEL & 793' FNL--: LOCATION
STAT.                 Colorado: State
CNTY.               Las Animas: COUNTY
CTRY. USA : Country
SECT. 32 : Section
TOWN. 32S : Township
RANG. 67W : Range
SRVC.                Patterson: SERVICE COMPANY
DATE.          Sun Aug 28 20:20:00 2005: LOG DATE
API.           05 071 08356 00: UNIQUE WELL ID
~Curve Information Block
DEPT.FT            0 000 00 00: Depth
SN.Ohm-m                      : IEL Short Normal
SP.mV                         : IEL Spontaneous Potential
DIR.Ohm-m                     : IEL Induction Resistivity
GR.GAPI                       : Gamma Ray
~Parameter Information Block
~A  Depth        SN          SP         DIR          GR     
# ...
  2487.0000     13.0518     -1.6416     12.3946    119.0620
  2487.2500     12.3210     -0.9981     11.7891    121.7717
  2487.5000     11.7304     -0.4807     11.2853    124.5187
  2487.7500     11.2817     -0.0772     10.8911    125.3841
  2488.0000     10.9630      0.2274     10.6060    125.1744
  2488.2500     10.7473      0.4493     10.4194    124.0477
  2488.5000     10.5993      0.6040     10.3128    121.2339
  2488.7500     10.4896      0.7075     10.2633    119.0926
  2489.0000     10.4058      0.7753     10.2483    116.2642
  2489.2500     10.3504      0.8232     10.2500    114.6443
  2489.5000     10.3300      0.8670     10.2592    112.0279
  2489.7500     10.3436      0.9215     10.2742    110.1067
  2490.0000     10.3792      0.9992     10.2972    107.9981
  2490.2500     10.4180      1.1093     10.3279    107.8816
  2490.5000     10.4406      1.2564     10.3594    109.9137
  2490.7500     10.4321      1.4401     10.3788    112.2555
  2491.0000     10.3851      1.6556     10.3717    116.3052
  2491.2500     10.2998      1.8944     10.3284    118.9939
  2491.5000     10.1830      2.1462     10.2481    122.2519
  2491.7500     10.0436      2.4013     10.1386    123.3416
  2492.0000      9.8884      2.6518     10.0115    123.0815
  2492.2500      9.7201      2.8928      9.8771    122.2533
  2492.5000      9.5423      3.1230      9.7412    121.5670
  2492.7500      9.3640      3.3437      9.6048    121.7841
  2493.0000      9.1983      3.5581      9.4667    122.3099
  2493.2500      9.0532      3.7696      9.3252    122.3430
  2493.5000      8.9260      3.9810      9.1800    122.4969
  2493.7500      8.8074      4.1930      9.0328    123.5193
  2494.0000      8.6911      4.4043      8.8880    127.0900
  2494.2500      8.5795      4.6109      8.7530    130.2087
  2494.5000      8.4823      4.8064      8.6371    133.9374
  2494.7500      8.4084      4.9829      8.5494    134.9133
  2495.0000      8.3576      5.1319      8.4950    134.1381
  2495.2500      8.3210      5.2454      8.4728    132.7794
  2495.5000      8.2877      5.3179      8.4759    130.5616
  2495.7500      8.2537      5.3470      8.4947    129.2006
  2496.0000      8.2255      5.3337      8.5217    127.1198
  2496.2500      8.2197      5.2817      8.5549    125.4936
  2496.5000      8.2573      5.1966      8.5985    122.6464
  2496.7500      8.3548      5.0842      8.6610    120.7187
  2497.0000      8.5167      4.9491      8.7513    118.5852
  2497.2500      8.7319      4.7946      8.8746    118.1486
  2497.5000      8.9782      4.6229      9.0297    119.1714
  2497.7500      9.2311      4.4355      9.2083    120.5789
  2498.0000      9.4709      4.2338      9.3973    122.7422
  2498.2500      9.6837      4.0195      9.5840    123.8311
  2498.5000      9.8614      3.7938      9.7609    124.8670
  2498.7500     10.0021      3.5569      9.9285    125.2248
  2499.0000     10.1142      3.3071     10.0951    124.9929
  2499.2500     10.2186      3.0418     10.2731    123.9326
  2499.5000     10.3466      2.7576     10.4745    120.4439
  2499.7500     10.5322      2.4534     10.7072    116.9492
  2500.0000     10.7966      2.1316     10.9717    110.9100
  2500.2500     11.1323      1.8009     11.2589    107.0303
  2500.5000     11.4941      1.4761     11.5496    102.0114
  2500.7500     11.8104      1.1772     11.8171     99.1881
  2501.0000     12.0155      0.9268     12.0333     95.8467
  2501.2500     12.0815      0.7463     12.1782     94.6085
  2501.5000     12.0280      0.6523     12.2469     95.0811
  2501.7500     11.9047      0.6537     12.2510     97.2079
  2502.0000     11.7629      0.7501     12.2113    102.8561
  2502.2500     11.6333      0.9320     12.1472    107.6944
  2502.5000     11.5168      1.1832     12.0675    115.2343
  2502.7500     11.3899      1.4826     11.9690    119.8591
  2503.0000     11.2224      1.8082     11.8424    125.8440
  2503.2500     10.9984      2.1391     11.6823    129.1046
  2503.5000     10.7276      2.4580     11.4939    132.5362
  2503.7500     10.4416      2.7522     11.2938    133.7957
  2504.0000     10.1804      3.0136     11.1040    134.7978
  2504.2500      9.9790      3.2387     10.9452    135.4140
  2504.5000      9.8613      3.4274     10.8310    136.6274
  2504.7500      9.8376      3.5830     10.7661    137.4692
  2505.0000      9.9009      3.7107     10.7465    138.3115
  2505.2500     10.0229      3.8177     10.7611    138.3712
  2505.5000     10.1585      3.9129     10.7948    137.3420
  2505.7500     10.2650      4.0059     10.8316    135.5520
  2506.0000     10.3225      4.1069     10.8572    130.4176
  2506.2500     10.3394      4.2255     10.8611    125.2144
  2506.5000     10.3395      4.3695     10.8384    115.9389
  2506.7500     10.3433      4.5442     10.7911    110.2535
  2507.0000     10.3597      4.7519     10.7264    104.9979
  2507.2500     10.3884      4.9913     10.6541    104.3614
  2507.5000     10.4262      5.2582     10.5822    106.9364
  2507.7500     10.4683      5.5456     10.5163    109.6884
  2508.0000     10.5059      5.8449     10.4592    113.0278
  2508.2500     10.5263      6.1456     10.4118    114.1489
  2508.5000     10.5195      6.4371     10.3734    114.8333
  2508.7500     10.4854      6.7090     10.3432    115.3245
  2509.0000     10.4356      6.9526     10.3215    116.6300
  2509.2500     10.3897      7.1628     10.3116    117.7648
  2509.5000     10.3679      7.3391     10.3186    119.5477
  2509.7500     10.3839      7.4852     10.3478    120.5737
  2510.0000     10.4398      7.6089     10.4010    121.0752
  2510.2500     10.5262      7.7193     10.4757    120.1350
  2510.5000     10.6291      7.8246     10.5659    116.7869
  2510.7500     10.7379      7.9292     10.6663    114.2477
  2511.0000     10.8508      8.0324     10.7747    112.4490
  2511.2500     10.9746      8.1277     10.8927    113.4203
  2511.5000     11.1207      8.2036     11.0238    117.4335
  2511.7500     11.3001      8.2452     11.1726    120.5159
  2512.0000     11.5214      8.2362     11.3453    123.6259
  2512.2500     11.7936      8.1609     11.5496    124.2151
  2512.5000     12.1281      8.0062     11.7943    123.3254
  2512.7500     12.5398      7.7630     12.0876    121.9314
  2513.0000     13.0431      7.4271     12.4371    118.7686
  2513.2500     13.6450      7.0007     12.8512    115.9188
  2513.5000     14.3442      6.4926     13.3396    110.8302
  2513.7500     15.1371      5.9185     13.9103    107.2345
  2514.0000     16.0239      5.3006     14.5659    102.1737
  2514.2500     17.0044      4.6665     15.2987     99.3895
  2514.5000     18.0687      4.0459     16.0920     96.3710
  2514.7500     19.1964      3.4673     16.9252    110.6898
  2515.0000     20.3631      2.9536     17.7786    108.1181
  2515.2500     21.5469      2.5190     18.6349    106.3735
  2515.5000     22.7277      2.1665     19.4754    104.6480
  2515.7500     23.8857      1.8884     20.2792    119.5163
  2516.0000     25.0056      1.6678     21.0269    120.6702
  2516.2500     26.0802      1.4831     21.7082    121.2479
  2516.5000     27.1089      1.3107     22.3282    120.4645
  2516.7500     28.0947      1.1294     22.9081    118.8505
  2517.0000     29.0534      0.9212     23.4821    115.6770
  2517.2500     30.0294      0.6722     24.0914    113.4849
  2517.5000     31.0979      0.3717     24.7779    110.2724
  2517.7500     32.3434      0.0111     25.5756    108.1795
  2518.0000     33.8277     -0.4167     26.4997    105.3776
  2518.2500     35.5672     -0.9174     27.5391    104.1205
  2518.5000     37.5316     -1.4950     28.6575    103.7343
  2518.7500     39.6620     -2.1499     29.8115    104.2414
  2519.0000     41.8949     -2.8774     30.9768    104.3599
  2519.2500     44.1807     -3.6662     32.1645    102.7650
  2519.5000     46.4904     -4.4966     33.4071     97.2209
  2519.7500     48.8145     -5.3406     34.7174     92.2795
  2520.0000     51.1472     -6.1627     36.0515     85.4068
  2520.2500     53.4606     -6.9229     37.3094     82.1377
