~Version Information
VERS.                      2.0: CWLS Log ASCII Standard - VERSION 2.0
WRAP.                       NO: One line per depth step
~Well Information Block
STRT.FT               545.0000: 
STOP.FT              1920.5000: 
STEP.FT                 0.1000: 
NULL.                -999.2500: 
COMP.          Pioneer Natural Resources: COMPANY
WELL.            Summers 21-19: WELL
FLD.           Purgatoire River: FIELD
LOC.           900' FNL & 1950' FWL: LOCATION
PROV.                 Colorado: PROVINCE
CNTY.               Las Animas: COUNTRY
SRVC.                Patterson: SERVICE COMPANY
DATE.          Mon Oct 17 07:05:22 2005: LOG DATE
UWI.           05 071 08315 00: UNIQUE WELL ID
~Curve Information Block
DEPT.FT            0 000 00 00: Depth
DCAL.in                       : CDL Caliper
RHOB.g/cc                     : CDL Bulk Density
RHOC.g/cc                     : CDL Density Correction
DPOR.pu                       : CDL Density Porosity
GR.GAPI                       : Gamma Ray
NPOR.pu                       : Neutron Porosity
~Parameter Information Block
~A  Depth       DCAL        RHOB        RHOC        DPOR         GR         NPOR    
   545.0000      4.9021      1.6141      2.0000     -0.0207    123.0043     22.8562
   545.1000      4.9021      2.0502      2.0000     -0.0120    125.5003     23.2249
   545.2000      4.9021      2.4226      2.0000     -0.0046    126.4956     23.2610
   545.3000      4.9191      2.7062      2.0000      0.0011    124.2814     23.4042
   545.4000      4.9191      2.8412      2.0000      0.0038    120.6805     23.7458
   545.5000      4.9460      2.7936      2.0000      0.0029    124.7566     24.4471
   545.6000      4.9460      2.5850      2.0000     -0.0013    137.6823     25.5131
   545.7000      4.9460      2.2618      2.0000     -0.0078    146.4830     26.3669
   545.8000      4.9590      1.8481      2.0000     -0.0160    145.5944     26.9389
   545.9000      4.9590      1.3687     -0.4337     -0.0256    141.0088     27.6658
   546.0000      4.9572      0.9007     -0.4744     -0.0350    138.4338     28.4417
   546.1000      4.9572      0.5379     -0.4976     -0.0423    136.2188     29.2583
   546.2000      4.9572      0.3274     -0.4318     -0.0465    130.7108     30.6121
   546.3000      4.9459      0.2735     -0.4388     -0.0476    124.6951     32.4158
   546.4000      4.9459      0.3764     -0.3732    137.7944    119.3338     33.7442
   546.5000      4.9106      0.6014     -0.0535    124.1552    113.7124     34.1066
   546.6000      4.9106      0.8397      0.2296    109.7164    111.4439     34.1675
   546.7000      4.9106      0.9953      0.0690    100.2868    112.2415     34.2986
   546.8000      4.8956      1.0918     -0.2127     94.4386    111.2935     34.1078
   546.9000      4.8956      1.2579     -0.3702     84.3727    109.6511     33.4165
   547.0000      4.8956      1.6590     -0.3832     60.0580    112.0170     32.1656
   547.1000      4.8956      2.3670     -0.0656     17.1509    117.5669     30.2815
   547.2000      4.8956      3.1936      0.4946    -32.9469    116.9369     28.5661
   547.3000      6.1529      3.8115      0.8753    -70.3943    106.7724     28.1332
   547.4000      6.1529      4.0793      1.0042    -86.6257     96.5988     28.6370
   547.5000     14.4852      4.0455      1.0925    -84.5740     90.8701     28.4965
   547.6000     14.4852      3.7501      1.0084    -66.6735     86.7948     27.2549
   547.7000     14.4852      3.2533      0.4336    -36.5637     86.8549     26.0752
   547.8000      9.1264      2.7368     -0.4131     -5.2629     92.2772     25.6416
   547.9000      9.1264      2.3917     -0.6690     15.6545     94.6857     25.6430
   548.0000      8.2334      2.2624     -0.7542     23.4904     93.1820     25.4885
   548.1000      8.2334      2.2756     -0.6158     22.6882     95.5019     24.6395
   548.2000      8.2334      2.3344     -0.4893     19.1266     98.7479     23.2016
   548.3000      8.2334      2.3866     -0.4728     15.9622     97.5995     22.0832
   548.4000      8.2334      2.4332     -0.4522     13.1370     96.3036     21.4690
   548.5000      8.2315      2.4708     -0.4383     10.8585     98.3260     20.4122
   548.6000      8.2315      2.4720     -0.4151     10.7900     99.8433     18.9278
   548.7000      8.2315      2.4336     -0.4746     13.1143     97.4571     17.5720
   548.8000      8.2314      2.3914     -0.4820     15.6720     93.9343     16.7608
   548.9000      8.2314      2.3585     -0.4688     17.6672     95.1675     17.3887
   549.0000      8.2303      2.3145     -0.4765     20.3307    102.3834     19.0021
   549.1000      8.2303      2.2538     -0.5526     24.0123    110.7505     19.8522
   549.2000      8.2303      2.1939     -0.5390     27.6395    114.3525     19.6599
   549.3000      8.2342      2.1530     -0.5799     30.1235    114.2835     19.5508
   549.4000      8.2342      2.1453     -0.5913     30.5896    118.3759     20.1529
   549.5000      8.2285      2.1673     -0.5011     29.2568    126.0627     21.4042
   549.6000      8.2285      2.1910     -0.4967     27.8181    131.6224     22.6285
   549.7000      8.2285      2.1972     -0.4510     27.4397    135.3983     23.0321
   549.8000      8.2318      2.1910     -0.5413     27.8183    136.3342     23.0753
   549.9000      8.2318      2.1876     -0.5225     28.0252    131.5477     23.4154
   550.0000      8.2324      2.1907     -0.5460     27.8374    125.0885     24.2654
   550.1000      8.2324      2.1899     -0.4917     27.8842    124.6283     25.8344
   550.2000      8.2324      2.1896     -0.5915     27.9006    131.9562     27.2251
   550.3000      8.2296      2.2075     -0.5349     26.8186    141.2457     27.5682
   550.4000      8.2296      2.2353     -0.4721     25.1357    143.5652     27.2466
   550.5000      8.2283      2.2562     -0.4719     23.8640    136.7809     26.3059
   550.6000      8.2283      2.2614     -0.4226     23.5525    130.1454     24.8650
   550.7000      8.2283      2.2464     -0.4612     24.4578    128.4567     23.8072
   550.8000      8.2319      2.2341     -0.5606     25.2063    126.6332     23.3932
   550.9000      8.2319      2.2450     -0.5640     24.5480    121.0382     23.1028
   551.0000      8.2335      2.2535     -0.5408     24.0313    117.9206     23.0457
   551.1000      8.2335      2.2298     -0.4978     25.4678    120.9523     23.3839
   551.2000      8.2335      2.1881     -0.5123     27.9967    123.0321     23.9797
   551.3000      8.2344      2.1640     -0.5648     29.4570    121.7712     24.7952
   551.4000      8.2344      2.1571     -0.4912     29.8716    123.2320     25.2901
   551.5000      8.2305      2.1445     -0.5698     30.6336    129.3288     24.7924
   551.6000      8.2305      2.1327     -0.5841     31.3504    134.7322     23.6758
   551.7000      8.2305      2.1308     -0.5316     31.4695    133.0197     23.1820
   551.8000      8.2334      2.1398     -0.6039     30.9238    126.1364     23.8420
   551.9000      8.2334      2.1648     -0.5242     29.4075    121.0205     24.8723
   552.0000      8.2325      2.1813     -0.4495     28.4058    120.4425     25.3631
   552.1000      8.2325      2.1583     -0.5001     29.7998    124.2182     25.2465
   552.2000      8.2325      2.1139     -0.5746     32.4895    127.5615     24.9016
   552.3000      8.2319      2.0861     -0.5672     34.1754    129.1480     24.7962
   552.4000      8.2319      2.0811     -0.5552     34.4773    135.9301     24.9027
   552.5000      8.2241      2.0837     -0.5479     34.3193    141.5272     24.7464
   552.6000      8.2241      2.0817     -0.5489     34.4408    136.5475     24.6764
   552.7000      8.2241      2.0752     -0.5606     34.8362    131.1865     24.9041
   552.8000      8.2173      2.0807     -0.6164     34.5052    130.7598     24.7574
   552.9000      8.2173      2.1005     -0.4996     33.3051    128.1428     24.4672
   553.0000      8.2278      2.1121     -0.5378     32.5998    124.0832     24.9662
   553.1000      8.2278      2.1123     -0.5837     32.5849    121.7739     26.1768
   553.2000      8.2278      2.1309     -0.6654     31.4619    119.0950     27.3706
   553.3000      8.2325      2.1875     -0.5646     28.0330    115.0376     28.3176
   553.4000      8.2325      2.2571     -0.5165     23.8107    112.0245     28.6781
   553.5000      8.2304      2.3075     -0.5234     20.7579    111.4066     27.4918
   553.6000      8.2304      2.3258     -0.4302     19.6459    111.9833     25.0312
   553.7000      8.2304      2.3190     -0.5178     20.0612    110.4582     23.0732
   553.8000      8.2340      2.3153     -0.5568     20.2839    105.8201     22.8132
   553.9000      8.2340      2.3266     -0.4495     19.6023    102.4747     23.9137
   554.0000      8.2342      2.3354     -0.4894     19.0644    104.0836     25.2033
   554.1000      8.2342      2.3381     -0.5023     18.9017    107.0755     25.6174
   554.2000      8.2342      2.3548     -0.5379     17.8923    106.1958     24.7425
   554.3000      8.2343      2.4008     -0.5212     15.1009     99.2571     23.4638
   554.4000      8.2343      2.4626     -0.4584     11.3586     90.6003     22.6061
   554.5000      8.2326      2.5123     -0.4645      8.3429     86.6970     21.7481
