~Version Information
VERS.                      2.0: CWLS Log ASCII Standard - VERSION 2.0
WRAP.                       NO: One line per depth step
~Well Information Block
STRT.FT               -11.0000: 
STOP.FT              2634.5000: 
STEP.FT                 0.2500: 
NULL.                -999.2500: 
COMP.          Evergreen Operating Corporation: COMPANY
WELL.          Sand PebbleS 13-33: WELL
FLD.           Purgatorie River: FIELD
LOC.           1883' FSL & 63' FWL--: LOCATION
PROV.                 Colorado: PROVINCE
CNTY.               Las Animas: COUNTRY
SRVC.          Patterson Wireline: SERVICE COMPANY
DATE.          Fri Mar 18 09:37:20 2005: LOG DATE
UWI.          005 071 08224 : UNIQUE WELL ID
~Curve Information Block
DEPT.FT            0 000 00 00: Depth
CCL.                          : Casing Collar Locator
TT3.usec                      : CBL 3' Travel Time
AMP3.mV                       : CBL 3' Amplitude
GR.GAPI                       : Gamma Ray
~Parameter Information Block
~A  Depth       CCL         TT3         AMP3         GR     
# ...
   525.0000      0.0000    665.8771      4.0960     65.1441
   525.2500      0.0000    663.4361      4.2521     63.0726
   525.5000      0.0000    662.6890      4.3773     60.7945
   525.7500      0.0000    663.3127      4.4090     59.3083
   526.0000      0.0000    664.1921      4.3482     58.8925
   526.2500      0.0000    664.5880      4.2427     59.1355
   526.5000      0.0000    664.6357      4.1477     59.3774
   526.7500      0.0000    664.5263      4.0945     59.2177
   527.0000      0.0000    663.8363      4.0858     58.8143
   527.2500      0.0000    662.1677      4.1109     58.5866
   527.5000      0.0000    660.0206      4.1647     58.6109
   527.7500      0.0000    658.5804      4.2525     58.5382
   528.0000      0.0000    658.7589      4.3840     58.0319
   528.2500      0.0000    660.5034      4.5641     57.0018
   528.5000      0.0000    662.7601      4.7844     55.5455
   528.7500      0.0000    664.2039      5.0183     53.9748
   529.0000      0.0000    664.4978      5.2288     52.7665
   529.2500      0.0000    664.8935      5.3818     52.1916
   529.5000      0.0000    667.2369      5.4558     52.1792
   529.7500      0.0000    672.2205      5.4467     52.7373
   530.0000      0.0000    678.7589      5.3667     54.1421
   530.2500      0.0000    685.1284      5.2326     56.4058
   530.5000      0.0000    690.5854      5.0531     58.9967
   530.7500      0.0000    695.6111      4.8278     61.6369
   531.0000      0.0000    700.2233      4.5610     65.1373
   531.2500      0.0000    701.8105      4.2716     70.7770
   531.5000      0.0000    694.5729      3.9880     78.6736
   531.7500      0.0000    671.5968      3.7359     86.9823
   532.0000      0.0000    629.2198      3.5297     92.9512
   532.2500      0.0000    572.1050      3.3689     94.8826
   532.5000      0.0000    515.3622      3.2398     93.0787
   532.7500      0.0000    479.4225      3.1253     89.0899
   533.0000      0.0000    478.7558      3.0159     84.5620
   533.2500      0.0000    512.4347      2.9119     81.0082
   533.5000      0.0000    564.5093      2.8167     80.0209
   533.7500      0.0000    614.3804      2.7353     82.6371
   534.0000      0.0000    648.6966      2.6788     88.2762
   534.2500      0.0000    665.0504      2.6659     94.8989
   534.5000      0.0000    667.4686      2.7144    100.4451
   534.7500      0.0000    662.1449      2.8309    103.7859
   535.0000      0.0000    657.2668      3.0062    104.4332
   535.2500      0.0000    661.5137      3.2184    102.0781
   535.5000      0.0000    678.2580      3.4404     96.9728
   535.7500      0.0000    702.4134      3.6508     90.5688
   536.0000      0.0000    725.1745      3.8358     85.1845
   536.2500      0.0000    740.7746      3.9850     82.6140
   536.5000      0.0000    748.2018      4.0905     83.0082
   536.7500      0.0000    748.9479      4.1521     85.0496
   537.0000      0.0000    744.8824      4.1789     87.0116
   537.2500      0.0000    737.4050      4.1795     87.6938
   537.5000      0.0000    727.5830      4.1489     87.0234
   537.7500      0.0000    716.7086      4.0704     86.2616
   538.0000      0.0000    706.3735      3.9383     87.1103
   538.2500      0.0000    697.8986      3.7764     89.9816
   538.5000      0.0000    692.0976      3.6293     93.3447
   538.7500      0.0000    689.3719      3.5330     95.0053
   539.0000      0.0000    689.4712      3.4961     93.6421
   539.2500      0.0000    691.2419      3.5025     89.0743
   539.5000      0.0000    693.1722      3.5270     81.8034
   539.7500      0.0000    694.2922      3.5496     72.8038
   540.0000      0.0000    694.4619      3.5616     63.5463
   540.2500      0.0000    694.0136      3.5641     55.7954
   540.5000      0.0000    693.3428      3.5631     51.0238
   540.7500      0.0000    692.6761      3.5655     49.7806
   541.0000      0.0000    691.9484      3.5741     51.6135
   541.2500      0.0000    690.8774      3.5843     55.7765
   541.5000      0.0000    689.2987      3.5899     62.0136
   541.7500      0.0000    687.4380      3.5901     70.3663
   542.0000      0.0000    685.8312      3.5900     80.2129
   542.2500      0.0000    685.0416      3.5926     89.9460
   542.5000      0.0000    685.5265      3.5940     97.8623
   542.7500      0.0000    687.5591      3.5882    103.3038
   543.0000      0.0000    690.8521      3.5736    106.9737
   543.2500      0.0000    694.1456      3.5545    110.3044
   543.5000      0.0000    695.6774      3.5361    114.3580
   543.7500      0.0000    694.5797      3.5217    119.0756
   544.0000      0.0000    691.6741      3.5135    123.4937
   544.2500      0.0000    688.6340      3.5146    126.4725
   544.5000      0.0000    686.6073      3.5276    126.9652
   544.7500      0.0000    685.7773      3.5523    124.0120
   545.0000      0.0000    685.8130      3.5870    117.2605
   545.2500      0.0000    686.3673      3.6330    107.7407
   545.5000      0.0000    687.2377      3.6945     97.8077
   545.7500      0.0000    688.2761      3.7730     89.9614
   546.0000      0.0000    689.2620      3.8614     85.5317
   546.2500      0.0000    689.9235      3.9454     84.4095
   546.5000      0.0000    690.1290      4.0124     85.8075
   546.7500      0.0000    690.0145      4.0567     89.0525
   547.0000      0.0000    689.8741      4.0795     93.7829
   547.2500      0.0000    689.9293      4.0848     99.6376
   547.5000      0.0000    690.2052      4.0775    105.6923
   547.7500      0.0000    690.5809      4.0641    110.2578
   548.0000      0.0000    690.7861      4.0543    111.8146
   548.2500      0.0000    690.1942      4.0580    110.4881
   548.5000      0.0000    687.5020      4.0780    108.2763
   548.7500      0.0000    680.9857      4.1067    107.4718
   549.0000      0.0000    670.0568      4.1339    108.8877
   549.2500      0.0000    657.1985      4.1554    111.5360
   549.5000      0.0000    647.4543      4.1730    113.5085
   549.7500      0.0000    644.6570      4.1854    112.9147
   550.0000      0.0000    648.4335      4.1880    108.5934
   550.2500      0.0000    655.6108      4.1786    100.8392
   550.5000      0.0000    663.5564      4.1594     91.6713
   550.7500      0.0000    671.0218      4.1329     84.0321
   551.0000      0.0000    676.7118      4.0996     80.2452
   551.2500      0.0000    678.8425      4.0616     80.9149
   551.5000      0.0000    676.5756      4.0237     84.9661
   551.7500      0.0000    671.1616      3.9905     90.5411
   552.0000      0.0000    665.1188      3.9640     95.9710
   552.2500      0.0000    660.4243      3.9446    100.1474
   552.5000      0.0000    657.5923      3.9323    102.2844
   552.7500      0.0000    656.1440      3.9259    101.7931
   553.0000      0.0000    655.4625      3.9231     98.8665
   553.2500      0.0000    655.1993      3.9209     95.0465
   553.5000      0.0000    655.2253      3.9189     92.4641
   553.7500      0.0000    655.4650      3.9186     92.1435
   554.0000      0.0000    655.8141      3.9213     93.2719
   554.2500      0.0000    656.1434      3.9257     94.1176
   554.5000      0.0000    656.3514      3.9292     93.5014
   554.7500      0.0000    656.4100      3.9296     91.6569
   555.0000      0.0000    656.3726      3.9258     89.9058
   555.2500      0.0000    656.3323      3.9177     89.4005
   555.5000      0.0000    656.3477      3.9077     90.1072
   555.7500      0.0000    656.3853      3.9008     91.0401
   556.0000      0.0000    656.2482      3.8992     91.2659
   556.2500      0.0000    655.4741      3.8989     90.3894
   556.5000      0.0000    653.2323      3.8946     88.3591
   556.7500      0.0000    648.6244      3.8879     85.4751
   557.0000      0.0000    641.7805      3.8842     82.6337
   557.2500      0.0000    634.9479      3.8834     80.9548
   557.5000      0.0000    631.5923      3.8778     80.8798
   557.7500      0.0000    633.3585      3.8609     81.9587
   558.0000      0.0000    638.1152      3.8348     83.6220
   558.2500      0.0000    641.5807      3.8081     85.6244
