~Version Information
VERS.                      2.0: CWLS Log ASCII Standard - VERSION 2.0
WRAP.                       NO: One line per depth step
~Well Information Block
STRT.FT                15.0000: 
STOP.FT              2565.5000: 
STEP.FT                 0.2500: 
NULL.                -999.2500: 
COMP.          Pioneer Natural Resources: COMPANY
WELL.           Costello 44-24: WELL
FLD.           Purgatoire River: FIELD
LOC.           327' FSL & 378' FEL: LOCATION
PROV.                 Colorado: PROVINCE
CNTY.               Las Animas: COUNTRY
SRVC.                Patterson: SERVICE COMPANY
DATE.          Mon Jul 25 10:15:19 2005: LOG DATE
UWI.           05 071 08413 00: UNIQUE WELL ID
~Curve Information Block
DEPT.FT            0 000 00 00: Depth
GR.GAPI                       : Gamma Ray
CCL.                          : Casing Collar Locator
TT3.usec                      : CBL 3' Travel Time
AMP3.mV                       : CBL 3' Amplitude
~Parameter Information Block
~A  Depth        GR         CCL         TT3         AMP3    
# ...
   852.5000    131.2229      0.0000    695.6608      6.3004
   852.7500    130.8995      0.0000    689.4825      6.2363
   853.0000    131.9190      0.0000    684.1393      6.1787
   853.2500    133.2929      0.0000    680.2590      6.1181
   853.5000    134.5857      0.0000    677.2137      6.0677
   853.7500    136.3578      0.0000    674.0044      6.0500
   854.0000    139.4730      0.0000    670.2699      6.0763
   854.2500    143.7575      0.0000    666.6362      6.1360
   854.5000    147.4476      0.0000    663.9223      6.2021
   854.7500    148.4436      0.0000    661.4102      6.2442
   855.0000    146.2648      0.0000    655.9900      6.2419
   855.2500    142.4086      0.0000    643.9730      6.1942
   855.5000    138.8741      0.0000    624.5829      6.1201
   855.7500    136.8415      0.0000    601.6508      6.0480
   856.0000    136.6187      0.0000    581.2758      5.9976
   856.2500    137.9033      0.0000    567.5654      5.9692
   856.5000    139.7406      0.0000    560.7788      5.9493
   856.7500    140.7075      0.0000    559.1815      5.9285
   857.0000    139.5693      0.0000    562.0632      5.9154
   857.2500    136.0191      0.0000    570.9417      5.9309
   857.5000    131.0530      0.0000    587.7742      5.9886
   857.7500    126.5889      0.0000    611.2991      6.0786
   858.0000    124.2891      0.0000    635.1918      6.1718
   858.2500    124.4361      0.0000    651.5798      6.2398
   858.5000    125.9813      0.0000    657.7297      6.2739
   858.7500    127.6581      0.0000    658.4647      6.2832
   859.0000    128.8387      0.0000    660.7608      6.2771
   859.2500    129.4117      0.0000    666.4699      6.2515
   859.5000    129.3118      0.0000    671.4671      6.1951
   859.7500    128.4658      0.0000    671.2519      6.1079
   860.0000    127.1560      0.0000    665.6660      6.0101
   860.2500    126.1673      0.0000    658.1197      5.9306
   860.5000    126.1568      0.0000    651.9099      5.8866
   860.7500    126.7279      0.0000    648.1308      5.8752
   861.0000    126.5130      0.0000    646.2276      5.8823
   861.2500    124.4689      0.0000    645.3386      5.8975
   861.5000    120.9651      0.0000    644.9787      5.9203
   861.7500    117.5871      0.0000    645.0646      5.9527
   862.0000    116.0445      0.0000    645.8143      5.9890
   862.2500    117.1058      0.0000    647.8369      6.0182
   862.5000    120.1267      0.0000    652.1578      6.0339
   862.7500    123.4600      0.0000    659.6619      6.0370
   863.0000    125.5269      0.0000    669.6865      6.0312
   863.2500    125.8301      0.0000    678.8744      6.0192
   863.5000    125.1589      0.0000    682.4170      6.0022
   863.7500    124.7460      0.0000    678.2080      5.9802
   864.0000    125.0679      0.0000    670.3473      5.9508
   864.2500    125.5363      0.0000    667.2319      5.9121
   864.5000    125.3682      0.0000    674.7805      5.8685
   864.7500    124.4285      0.0000    691.4854      5.8318
   865.0000    123.0333      0.0000    710.2862      5.8140
   865.2500    121.3251      0.0000    724.7117      5.8171
   865.5000    119.3008      0.0000    733.0181      5.8335
   865.7500    117.3248      0.0000    737.3511      5.8546
   866.0000    116.2398      0.0000    740.1312      5.8766
   866.2500    116.9962      0.0000    741.7512      5.8996
   866.5000    120.2030      0.0000    741.3803      5.9259
   866.7500    125.6539      0.0000    738.9500      5.9598
   867.0000    131.9552      0.0000    735.4009      6.0056
   867.2500    136.8660      0.0000    731.2906      6.0632
   867.5000    138.5627      0.0000    726.2955      6.1272
   867.7500    136.9792      0.0000    720.4362      6.1875
   868.0000    134.0158      0.0000    714.9721      6.2297
   868.2500    132.2951      0.0000    711.5663      6.2377
   868.5000    133.3309      0.0000    710.9352      6.2033
   868.7500    136.3209      0.0000    712.5833      6.1332
   869.0000    138.5876      0.0000    715.4878      6.0471
   869.2500    137.8163      0.0000    718.6798      5.9690
   869.5000    134.2962      0.0000    721.2227      5.9189
   869.7500    130.6234      0.0000    722.0375      5.9019
   870.0000    128.9601      0.0000    720.3252      5.9062
   870.2500    128.9263      0.0000    716.4713      5.9139
   870.5000    128.4342      0.0000    712.2808      5.9134
   870.7500    126.3223      0.0000    709.5640      5.9006
   871.0000    123.7017      0.0000    708.1417      5.8749
   871.2500    122.7535      0.0000    705.8234      5.8384
   871.5000    124.6406      0.0000    700.9616      5.7987
   871.7500    128.6817      0.0000    694.5681      5.7667
   872.0000    133.1449      0.0000    689.2100      5.7521
   872.2500    136.4612      0.0000    686.1085      5.7617
   872.5000    137.8247      0.0000    684.2121      5.7969
   872.7500    137.2034      0.0000    682.1632      5.8505
   873.0000    135.2140      0.0000    680.2539      5.9091
   873.2500    132.8830      0.0000    679.9288      5.9621
   873.5000    131.2840      0.0000    681.5935      6.0109
   873.7500    131.3222      0.0000    683.1759      6.0663
   874.0000    133.4854      0.0000    681.2230      6.1362
   874.2500    137.3091      0.0000    674.3584      6.2120
   874.5000    141.3076      0.0000    665.7360      6.2642
   874.7500    144.1359      0.0000    660.7144      6.2583
   875.0000    145.8750      0.0000    661.5540      6.1825
   875.2500    147.6929      0.0000    665.6008      6.0626
   875.5000    150.2838      0.0000    669.0065      5.9440
   875.7500    153.1859      0.0000    670.5817      5.8589
   876.0000    155.4377      0.0000    671.4413      5.8136
   876.2500    156.3371      0.0000    672.6976      5.8044
   876.5000    155.8256      0.0000    674.7211      5.8319
   876.7500    154.5334      0.0000    677.8871      5.8916
   877.0000    153.1787      0.0000    683.0132      5.9577
   877.2500    151.7909      0.0000    690.8530      5.9896
   877.5000    149.8838      0.0000    701.2754      5.9617
   877.7500    147.4725      0.0000    713.0887      5.8795
   878.0000    145.4718      0.0000    724.4410      5.7667
   878.2500    144.7227      0.0000    733.0080      5.6481
   878.5000    144.7999      0.0000    736.3026      5.5469
   878.7500    144.2489      0.0000    733.4121      5.4856
   879.0000    142.1319      0.0000    726.9927      5.4757
   879.2500    138.9312      0.0000    722.3600      5.5110
   879.5000    135.7132      0.0000    723.1909      5.5746
   879.7500    132.9921      0.0000    728.0528      5.6509
   880.0000    130.9955      0.0000    731.8014      5.7326
   880.2500    130.4947      0.0000    730.2718      5.8151
   880.5000    132.4408      0.0000    723.0142      5.8901
   880.7500    136.7707      0.0000    712.2028      5.9463
   881.0000    142.1190      0.0000    700.4987      5.9770
   881.2500    146.7396      0.0000    690.1170      5.9860
   881.5000    149.3869      0.0000    682.4637      5.9870
   881.7500    149.4505      0.0000    677.7890      5.9978
   882.0000    146.8685      0.0000    675.3980      6.0309
   882.2500    142.2665      0.0000    674.3208      6.0842
   882.5000    136.9256      0.0000    673.7134      6.1403
   882.7500    132.3423      0.0000    672.8492      6.1793
   883.0000    129.6278      0.0000    671.1558      6.1933
   883.2500    128.8010      0.0000    668.7017      6.1874
   883.5000    128.5644      0.0000    666.6746      6.1691
   883.7500    127.4973      0.0000    666.9326      6.1445
   884.0000    125.7139      0.0000    670.3027      6.1216
   884.2500    124.6110      0.0000    675.1519      6.1088
   884.5000    124.8612      0.0000    678.2038      6.1075
   884.7500    125.4840      0.0000    677.4407      6.1107
   885.0000    125.1771      0.0000    674.1794      6.1124
   885.2500    123.7454      0.0000    671.7885      6.1152
   885.5000    121.7574      0.0000    672.6707      6.1252
   885.7500    119.4293      0.0000    677.2319      6.1427
