~Version Information
VERS.                      2.0: CWLS Log ASCII Standard - VERSION 2.0
WRAP.                       NO: One line per depth step
~Well Information Block
STRT.FT                15.0000: 
STOP.FT              2265.2500: 
STEP.FT                 0.2500: 
NULL.                -999.2500: 
COMP.          Pioneer Natural Resources: COMPANY
WELL.             Vector 33-23: WELL
FLD.           Purgatoire River: FIELD
LOC.           1988' FSL & 1560' FEL: LOCATION
PROV.                 Colorado: PROVINCE
CNTY.               Las Animas: COUNTRY
SRVC.                Patterson: SERVICE COMPANY
DATE.          Fri Apr 01 13:14:24 2005: LOG DATE
UWI.           05 071 08336 00: UNIQUE WELL ID
~Curve Information Block
DEPT.FT            0 000 00 00: Depth
GR.GAPI                       : Gamma Ray
CCL.                          : Casing Collar Locator
TT3.usec                      : CBL 3' Travel Time
AMP3.mV                       : CBL 3' Amplitude
AMP5.mV                       : CBL 5' Amplitude
~Parameter Information Block
~A  Depth        GR         CCL         TT3         AMP3        AMP5    
# ...
   155.0000     60.2762      0.0000   1350.0000     27.2425      7.2397
   155.2500     58.5343      0.0000   1350.0000     26.8489      7.1127
   155.5000     58.5211      0.0000   1350.0000     26.4714      6.9923
   155.7500     60.4009      0.0000   1350.0000     26.1226      6.8918
   156.0000     63.7784      0.0000   1350.0000     25.8058      6.8194
   156.2500     67.9100      0.0000   1350.0000     25.5251      6.7749
   156.5000     71.5639      0.0000   1350.0000     25.3048      6.7519
   156.7500     73.1559      0.0000   1350.0000     25.1868      6.7399
   157.0000     71.7571      0.0000   1350.0000     25.1964      6.7243
   157.2500     68.0180      0.0000   1350.0000     25.3107      6.6894
   157.5000     63.6819      0.0000   1350.0000     25.4622      6.6232
   157.7500     60.2535      0.0000   1350.0000     25.5704      6.5162
   158.0000     58.4834      0.0000   1350.0000     25.5720      6.3608
   158.2500     58.7946      0.0000   1350.0000     25.4304      6.1581
   158.5000     61.4052      0.0000   1350.0000     25.1226      5.9279
   158.7500     65.7777      0.0000   1350.0000     24.6279      5.7051
   159.0000     70.2956      0.0000   1350.0000     23.9439      5.5173
   159.2500     72.8866      0.0000   1350.0000     23.1238      5.3679
   159.5000     72.2817      0.0000   1350.0000     22.2855      5.2427
   159.7500     68.9579      0.0000   1350.0000     21.5563      5.1303
   160.0000     64.8464      0.0000   1350.0000     20.9951      5.0332
   160.2500     61.9328      0.0000   1350.0000     20.5720      4.9611
   160.5000     61.0228      0.0000   1350.0000     20.2248      4.9194
   160.7500     61.6047      0.0000   1350.0000     19.9197      4.9020
   161.0000     62.5485      0.0000   1350.0000     19.6639      4.8957
   161.2500     62.9635      0.0000   1350.0000     19.4838      4.8887
   161.5000     62.7487      0.0000   1350.0000     19.4056      4.8768
   161.7500     62.5027      0.0000   1350.0000     19.4495      4.8639
   162.0000     62.8069      0.0000   1350.0000     19.6404      4.8570
   162.2500     63.5815      0.0000   1350.0000     20.0189      4.8615
   162.5000     64.2107      0.0000   1350.0000     20.6178      4.8798
   162.7500     64.1780      0.0000   1350.0000     21.4001      4.9150
   163.0000     63.4260      0.0000   1350.0000     22.2335      4.9792
   163.2500     62.2087      0.0000   1350.0000     22.9608      5.0951
   163.5000     60.8928      0.0000   1350.0000     23.4994      5.2814
   163.7500     60.0606      0.0000   1350.0000     23.8718      5.5302
   164.0000     60.5351      0.0000   1350.0000     24.1633      5.8035
   164.2500     62.8638      0.0000   1350.0000     24.4666      6.0616
   164.5000     66.6945      0.0000   1350.0000     24.8308      6.2905
   164.7500     70.9251      0.0000   1350.0000     25.2302      6.4958
   165.0000     74.5966      0.0000   1350.0000     25.5974      6.6766
   165.2500     77.5586      0.0000   1350.0000     25.9093      6.8157
   165.5000     80.3618      0.0000   1350.0000     26.2200      6.8977
   165.7500     83.5259      0.0000   1350.0000     26.5789      6.9273
   166.0000     86.7406      0.0000   1350.0000     26.9254      6.9287
   166.2500     88.9999      0.0000   1350.0000     27.1064      6.9314
   166.5000     89.7052      0.0000   1350.0000     27.0196      6.9564
   166.7500     89.1764      0.0000   1350.0000     26.7306      7.0051
   167.0000     87.9368      0.0000   1350.0000     26.4360      7.0571
   167.2500     86.0773      0.0000   1350.0000     26.3070      7.0804
   167.5000     83.4677      0.0000   1350.0000     26.3556      7.0506
   167.7500     80.2276      0.0000   1350.0000     26.4400      6.9647
   168.0000     76.9859      0.0000   1350.0000     26.3933      6.8399
   168.2500     74.7457      0.0000   1350.0000     26.1501      6.6958
   168.5000     74.1554      0.0000   1350.0000     25.7527      6.5383
   168.7500     74.9449      0.0000   1350.0000     25.2620      6.3627
   169.0000     76.4725      0.0000   1350.0000     24.6905      6.1737
   169.2500     78.5449      0.0000   1350.0000     24.0217      5.9950
   169.5000     81.0927      0.0000   1350.0000     23.2761      5.8546
   169.7500     83.2884      0.0000   1350.0000     22.5533      5.7616
   170.0000     83.7824      0.0000   1350.0000     22.0013      5.7001
   170.2500     82.0426      0.0000   1350.0000     21.7284      5.6446
   170.5000     79.0721      0.0000   1350.0000     21.7247      5.5781
   170.7500     76.5210      0.0000   1350.0000     21.8623      5.5009
   171.0000     75.1969      0.0000   1350.0000     21.9789      5.4269
   171.2500     74.5544      0.0000   1350.0000     21.9746      5.3753
   171.5000     73.4886      0.0000   1350.0000     21.8477      5.3584
   171.7500     71.5283      0.0000   1350.0000     21.6610      5.3679
   172.0000     69.4196      0.0000   1350.0000     21.4937      5.3716
   172.2500     68.6036      0.0000   1350.0000     21.4195      5.3294
   172.5000     69.9061      0.0000   1350.0000     21.4982      5.2230
   172.7500     72.6571      0.0000   1350.0000     21.7536      5.0709
   173.0000     75.2157      0.0000   1350.0000     22.1468      4.9147
   173.2500     76.3909      0.0000   1350.0000     22.5851      4.7905
   173.5000     76.3555      0.0000   1350.0000     22.9784      4.7091
   173.7500     76.2461      0.0000   1350.0000     23.2939      4.6606
   174.0000     76.7932      0.0000   1350.0000     23.5534      4.6322
   174.2500     77.4352      0.0000   1350.0000     23.7716      4.6214
   174.5000     77.1297      0.0000   1350.0000     23.8879      4.6294
   174.7500     75.9224      0.0000   1350.0000     23.7607      4.6361
   175.0000     75.1440      0.0000   1350.0000     23.2297      4.5814
   175.2500     75.9913      0.0000   1350.0000     22.2131      4.3949
   175.5000     78.3412      0.0000   1350.0000     20.7791      4.0654
   175.7500     80.9745      0.0000   1350.0000     19.1247      3.6739
   176.0000     82.5663      0.0000   1350.0000     17.4518      3.3374
   176.2500     82.4367      0.0000   1350.0000     15.8773      3.1245
   176.5000     80.7336      0.0000   1350.0000     14.4893      3.0294
   176.7500     78.1301      0.0000   1350.0000     13.4177      3.0060
   177.0000     75.3418      0.0000   1350.0000     12.7657      3.0105
   177.2500     72.8094      0.0000   1350.0000     12.5073      3.0197
   177.5000     70.6401     -2.4939   1350.0000     12.5251      3.0306
   177.7500     68.7461     -2.7454   1350.0000     12.7439      3.0504
   178.0000     67.1604      0.0000   1350.0000     13.2442      3.0859
   178.2500     66.2014      0.0000   1350.0000     14.2768      3.1386
   178.5000     66.0529      0.0000   1350.0000     16.1034      3.2094
   178.7500     66.1619      0.0000   1350.0000     18.7034      3.3127
   179.0000     65.4299      0.0000   1350.0000     21.6330      3.4904
   179.2500     63.3032      0.0000   1350.0000     24.2844      3.8075
   179.5000     60.6387      0.0000   1350.0000     26.2866      4.3117
   179.7500     59.2637      0.0000   1350.0000     27.6234      4.9795
   180.0000     60.4589      0.0000   1350.0000     28.4643      5.7098
   180.2500     63.7724      0.0000   1350.0000     28.9925      6.3900
   180.5000     67.3270      0.0000   1350.0000     29.3439      6.9582
   180.7500     69.2551      0.0000   1350.0000     29.6084      7.4003
   181.0000     68.8210      0.0000   1350.0000     29.8519      7.7225
   181.2500     66.5178      0.0000   1350.0000     30.1271      7.9440
   181.5000     63.5599      0.0000   1350.0000     30.4608      8.0965
   181.7500     61.1846      0.0000   1350.0000     30.8490      8.2115
   182.0000     59.9426      0.0000   1350.0000     31.2814      8.3134
   182.2500     59.4522      0.0000   1350.0000     31.7484      8.4190
   182.5000     58.8973      0.0000   1350.0000     32.2167      8.5323
   182.7500     57.8112      0.0000   1350.0000     32.6206      8.6403
