~Version Information
VERS.                      2.0: CWLS Log ASCII Standard - VERSION 2.0
WRAP.                       NO: One line per depth step
~Well Information Block
STRT.FT               -19.2500: 
STOP.FT              2421.5000: 
STEP.FT                 0.2500: 
NULL.                -999.2500: 
COMP.          Petrogulf Corporation: COMPANY
WELL.           Montoya 13-41V: WELL
FLD.           Purgatorie River: FIELD
LOC.           449' FNL & 891' FEL: LOCATION
CNTY.               Las Animas: COUNTY
SRVC.                         : SERVICE COMPANY
DATE.          Mon Sep 13 13:48:36 2004: LOG DATE
UWI.                       N/A: UNIQUE WELL ID
STAT.                 Colorado: STATE
~Curve Information Block
DEPT.FT            0 000 00 00: Depth
TT3.usec                      : CBL 3' Travel Time
AMP3.mV                       : CBL 3' Amplitude
GR.GAPI                       : Gamma Ray
CCL.                          : Casing Collar Locator
~Parameter Information Block
~A  Depth       TT3         AMP3         GR         CCL     
# ...
   784.7500    314.2786     25.3164     70.4972      0.0000
   785.0000    314.2573     25.5031     69.2502      0.0000
   785.2500    314.1014     25.6764     66.7283      0.0000
   785.5000    313.8515     25.8162     63.0876      0.0000
   785.7500    313.6074     25.9176     59.3358      0.0000
   786.0000    313.3829     26.0982     56.6056      0.0000
   786.2500    313.1046     26.5310     55.1951      0.0000
   786.5000    312.7511     27.2383     54.2746      0.0000
   786.7500    312.4042     28.0311     52.6878      0.0000
   787.0000    312.1628     28.6988     50.0996      0.0000
   787.2500    312.0544     29.1706     47.2272      0.0000
   787.5000    312.0536     29.4018     45.0755      0.0000
   787.7500    312.1565     29.2247     44.2743      0.0000
   788.0000    312.3782     28.4826     45.0185      0.0000
   788.2500    312.7008     27.2193     47.0271      0.0000
   788.5000    313.1505     25.6496     49.3694      0.0000
   788.7500    314.0607     24.0318     50.8188      0.0000
   789.0000    316.4177     22.5630     50.7972      0.0000
   789.2500    321.8887     21.3033     49.8911      0.0000
   789.5000    331.3353     20.1785     49.2928      0.0000
   789.7500    342.4879     19.0742     49.9073      0.0000
   790.0000    351.1340     17.9615     52.0527      0.0000
   790.2500    355.4898     16.9236     55.6374      0.0000
   790.5000    357.4677     16.0328     60.3249      0.0000
   790.7500    361.7054     15.2288     65.7170      0.0000
   791.0000    378.6356     14.3460     71.4795      0.0000
   791.2500    427.1226     13.2601     77.1724      0.0000
   791.5000    518.2639     11.9942     82.2131      0.0000
   791.7500    628.7772     10.6694     86.4125      0.0000
   792.0000    715.5196      9.4226     90.4198      0.0000
   792.2500    761.3566      8.3852     95.2131      0.0000
   792.5000    778.3543      7.6250    101.1535      0.0000
   792.7500    776.8031      7.0896    107.6786      0.0000
   793.0000    752.7185      6.6751    113.6598      0.0000
   793.2500    698.9868      6.3399    117.9032      0.0000
   793.5000    626.8994      6.1144    119.8748      0.0000
   793.7500    565.9853      6.0185    120.5624      0.0000
   794.0000    532.5986      6.0130    122.3243      0.0000
   794.2500    517.6041      6.0398    127.0639      0.0000
   794.5000    506.3345      6.0718    134.2252      0.0000
   794.7500    494.1539      6.1283    140.8913      0.0000
   795.0000    484.1058      6.2617    144.1286      0.0000
   795.2500    478.5904      6.5201    143.1609      0.0000
   795.5000    476.6621      6.9175    139.3962      0.0000
   795.7500    476.3049      7.4195    134.9376      0.0000
   796.0000    476.2045      7.9498    131.3029      0.0000
   796.2500    476.1801      8.4283    129.0046      0.0000
   796.5000    476.7052      8.8093    127.7041      0.0000
   796.7500    477.5277      9.1230    126.6747      0.0000
   797.0000    475.8749      9.4904    125.4012      0.0000
   797.2500    465.6036     10.0367    124.0531      0.0000
   797.5000    441.8470     10.8120    123.4355      0.0000
   797.7500    409.8207     11.8266    124.2746      0.0000
   798.0000    382.6212     13.0706    126.4976      0.0000
   798.2500    367.4063     14.4598    129.3458      0.0000
   798.5000    361.2929     15.8100    132.0159      0.0000
   798.7500    359.5146     16.8138    133.8417      0.0000
   799.0000    362.9025     17.0973    134.1530      0.0000
   799.2500    381.5527     16.6144    132.5641      0.0000
   799.5000    426.4754     15.7710    129.4076      0.0000
   799.7500    482.6768     14.8267    125.5531      0.0000
   800.0000    508.0093     13.9377    121.8133      0.0000
   800.2500    491.5588     13.5590    118.6297      0.0000
   800.5000    480.1062     13.6931    116.1908      0.0000
   800.7500    506.3052     13.6696    114.6923      0.0000
   801.0000    542.4621     13.1639    114.4664      3.0106
   801.2500    571.1185     12.4140    115.8700      0.0000
   801.5000    628.6474     11.5736    119.0731      0.0000
   801.7500    724.5977     10.6143    123.9686      0.0000
   802.0000    806.2999      9.7631    130.1894      0.0000
   802.2500    834.6125      9.4107    137.0148      0.0000
   802.5000    821.7554      9.5040    143.2078      0.0000
   802.7500    797.3715      9.7188    147.2090      0.0000
   803.0000    776.5810     10.0435    147.9571      0.0000
   803.2500    753.6866     10.4992    145.7795      0.0000
   803.5000    707.5585     10.8938    142.4068      0.0000
   803.7500    621.4052     11.1970    139.8671      0.0000
   804.0000    513.3463     11.6070    139.1383      0.0000
   804.2500    426.4953     12.2387    139.7951      0.0000
   804.5000    381.5163     13.0572    140.8800      0.0000
   804.7500    365.7508     14.0598    141.9288      0.0000
   805.0000    360.0974     15.3431    143.1080      0.0000
   805.2500    353.8900     16.9883    144.6635      0.0000
   805.5000    343.5438     18.9877    146.6175      0.0000
   805.7500    330.8533     21.3207    149.0789      0.0000
   806.0000    320.4500     23.9912    152.4925      0.0000
   806.2500    314.7704     26.8195    157.0644      0.0000
   806.5000    312.6739     29.3065    161.9754      0.0000
   806.7500    312.1639     30.9195    165.6757      0.0000
   807.0000    312.1711     31.4602    167.1714      0.0000
   807.2500    312.3771     31.1145    166.7404      0.0000
   807.5000    312.6778     30.2675    165.4088      0.0000
   807.7500    313.0003     29.2852    164.0771      0.0000
   808.0000    313.3295     28.3795    163.1459      0.0000
   808.2500    313.6984     27.6100    162.6291      0.0000
   808.5000    314.3529     26.9205    162.4063      0.0000
   808.7500    316.3711     26.1118    162.2624      0.0000
   809.0000    322.1510     24.8881    161.7875      0.0000
   809.2500    335.1719     23.0407    160.5270      0.0000
   809.5000    361.8081     20.6018    158.3989      0.0000
   809.7500    415.5497     17.8276    155.8791      0.0000
   810.0000    506.9353     15.0383    153.5875      0.0000
   810.2500    618.4953     12.4728    151.6820      0.0000
   810.5000    711.1271     10.2744    149.8237      0.0000
   810.7500    763.9846      8.5279    147.8749      0.0000
   811.0000    785.3531      7.2399    146.5542      0.0000
   811.2500    791.1306      6.3207    147.1421      0.0000
   811.5000    791.4236      5.6428    150.3293      0.0000
   811.7500    790.5529      5.1227    155.3586      0.0000
   812.0000    789.6351      4.7360    160.2634      0.0000
   812.2500    788.5915      4.4832    162.9373      0.0000
   812.5000    787.1803      4.3622    162.4272      0.0000
   812.7500    785.0889      4.3446    159.6486      0.0000
   813.0000    781.6370      4.3808    156.5596      0.0000
   813.2500    774.7451      4.4511    154.3051      0.0000
   813.5000    759.2661      4.6047    152.4331      0.0000
   813.7500    729.0076      4.9316    149.9607      0.0000
   814.0000    690.2687      5.4914    146.7541      0.0000
   814.2500    670.9945      6.2700    143.6120      0.0000
   814.5000    690.2354      7.1795    141.2332      0.0000
   814.7500    725.8383      8.1014    139.4919      0.0000
   815.0000    738.8346      8.9700    137.7234      0.0000
   815.2500    704.6238      9.8187    135.3562      0.0000
   815.5000    619.2994     10.7186    132.1736      0.0000
   815.7500    510.3141     11.6689    128.3342      0.0000
   816.0000    422.7166     12.6280    124.3741      0.0000
   816.2500    375.9413     13.6766    120.9920      0.0000
   816.5000    355.6296     15.0334    118.5896      0.0000
   816.7500    342.5377     16.8532    116.9890      0.0000
   817.0000    330.1390     19.0261    115.5975      0.0000
   817.2500    320.7098     21.1500    113.9182      0.0000
   817.5000    316.3706     22.7286    111.9083      0.0000
   817.7500    317.0888     23.4341    109.7322      0.0000
   818.0000    324.8929     23.1592    107.3076      0.0000
