~Version Information
VERS.                      2.0: CWLS Log ASCII Standard - VERSION 2.0
WRAP.                       NO: One line per depth step
~Well Information Block
STRT.FT               745.0000: 
STOP.FT              2945.7500: 
STEP.FT                 0.2500: 
NULL.                -999.2500: 
COMP.          Pioneer Natural Resources: COMPANY
WELL.          Old Yeller 31-32: WELL
FLD.           Purgatoire River: FIELD
LOC.           1832' FEL & 793' FNL--: LOCATION
STAT.                 Colorado: State
CNTY.               Las Animas: COUNTY
CTRY. USA : Country
SECT. 32 : Section
TOWN. 32S : Township
RANG. 67W : Range
SRVC.                Patterson: SERVICE COMPANY
DATE.          Sun Aug 28 20:20:00 2005: LOG DATE
API.           05 071 08356 00: UNIQUE WELL ID
~Curve Information Block
DEPT.FT            0 000 00 00: Depth
SN.Ohm-m                      : IEL Short Normal
SP.mV                         : IEL Spontaneous Potential
DIR.Ohm-m                     : IEL Induction Resistivity
GR.GAPI                       : Gamma Ray
~Parameter Information Block
~A  Depth        SN          SP         DIR          GR     
# ...
  2788.5000     19.8854     -4.6425     15.6345    108.9051
  2788.7500     19.6010     -5.1580     15.2409    110.1661
  2789.0000     19.4836     -5.7426     15.0007    111.0472
  2789.2500     19.5421     -6.4073     14.9219    110.8060
  2789.5000     19.7894     -7.1692     15.0048    109.2082
  2789.7500     20.2608     -8.0524     15.2510    107.0579
  2790.0000     21.0422     -9.0869     15.6727    101.4006
  2790.2500     22.2957    -10.3050     16.2957     95.9596
  2790.5000     24.2750    -11.7351     17.1591     86.6674
  2790.7500     27.3119    -13.3963     18.3100     80.9171
  2791.0000     31.7565    -15.2931     19.7980     73.9805
  2791.2500     37.8697    -17.4133     21.6678     70.0896
  2791.5000     45.7154    -19.7271     23.9483     63.9459
  2791.7500     55.1250    -22.1887     26.6368     59.1747
  2792.0000     65.7723    -24.7399     29.6825     51.4663
  2792.2500     77.2904    -27.3138     32.9795     46.8346
  2792.5000     89.3007    -29.8405     36.3784     42.3351
  2792.7500    101.3250    -32.2528     39.7091     41.5115
  2793.0000    112.7127    -34.4913     42.7998     43.3035
  2793.2500    122.7335    -36.5086     45.4896     45.8383
  2793.5000    130.8027    -38.2721     47.6499     49.8960
  2793.7500    136.6611    -39.7631     49.2188     51.6152
  2794.0000    140.3679    -40.9736     50.2245     51.3765
  2794.2500    142.1278    -41.9007     50.7775     49.3618
  2794.5000    142.0969    -42.5393     51.0278     44.7337
  2794.7500    140.2976    -42.8766     51.1012     41.3956
  2795.0000    136.6532    -42.8871     51.0248     36.9260
  2795.2500    131.0610    -42.5320     50.6746     34.4926
  2795.5000    123.4511    -41.7624     49.7807     31.5682
  2795.7500    113.8504    -40.5257     48.0208     29.9912
  2796.0000    102.5014    -38.7751     45.1852     28.3446
  2796.2500     90.0040    -36.4810     41.3426     28.1552
  2796.5000     77.3321    -33.6420     36.8775     30.3444
  2796.7500     65.5981    -30.2943     32.3351     33.9999
  2797.0000     55.6463    -26.5164     28.1834     43.0732
  2797.2500     47.7524    -22.4289     24.6756     51.3416
  2797.5000     41.6544    -18.1860     21.8616     66.4811
  2797.7500     36.8495    -13.9614     19.6729     77.8739
  2798.0000     32.9043     -9.9291     17.9986     95.5392
  2798.2500     29.5909     -6.2444     16.7305    106.6461
  2798.5000     26.8586     -3.0271     15.7814    120.3134
  2798.7500     24.7475     -0.3518     15.0898    126.3997
  2799.0000     23.3183      1.7538     14.6208    130.1815
  2799.2500     22.6040      3.3035     14.3625    129.4720
  2799.5000     22.5769      4.3422     14.3197    124.9919
  2799.7500     23.1347      4.9328     14.5046    120.4081
  2800.0000     24.1246      5.1457     14.9271    111.3894
  2800.2500     25.3962      5.0501     15.5875    103.8811
  2800.5000     26.8525      4.7104     16.4728     91.0413
  2800.7500     28.4659      4.1858     17.5547     82.4281
  2801.0000     30.2468      3.5319     18.7892     71.2420
  2801.2500     32.1833      2.8030     20.1166     65.5800
  2801.5000     34.1798      2.0534     21.4582     60.1341
  2801.7500     36.0351      1.3371     22.7133     58.4126
  2802.0000     37.4881      0.7059     23.7601     57.7488
  2802.2500     38.3145      0.2055     24.4743     57.7157
  2802.5000     38.4143     -0.1292     24.7666     57.3249
  2802.7500     37.8320     -0.2783     24.6243     57.1310
  2803.0000     36.7079     -0.2399     24.1212     58.5862
  2803.2500     35.2095     -0.0315     23.3849     61.5203
  2803.5000     33.4811      0.3117     22.5455     68.6130
  2803.7500     31.6247      0.7420     21.6977     74.0665
  2804.0000     29.7061      1.2056     20.8868     81.2137
  2804.2500     27.7811      1.6512     20.1143     84.5621
  2804.5000     25.9255      2.0374     19.3546     87.3285
  2804.7500     24.2414      2.3379     18.5770     87.9677
  2805.0000     22.8300      2.5416     17.7661     87.9626
  2805.2500     21.7461      2.6489     16.9311     88.0398
  2805.5000     20.9672      2.6633     16.1012     89.7044
  2805.7500     20.4046      2.5830     15.3133     92.3265
  2806.0000     19.9471      2.3944     14.5994     98.0375
  2806.2500     19.5043      2.0708     13.9772    102.1929
  2806.5000     19.0200      1.5768     13.4471    107.8423
  2806.7500     18.4626      0.8784     12.9950    111.1939
  2807.0000     17.8174     -0.0456     12.6003    116.0922
  2807.2500     17.0889     -1.1924     12.2463    119.2716
  2807.5000     16.3052     -2.5280     11.9274    123.1291
  2807.7500     15.5192     -3.9856     11.6522    124.6141
  2808.0000     14.8107     -5.4714     11.4383    125.0918
  2808.2500     14.2858     -6.8753     11.3048    124.5353
  2808.5000     14.0570     -8.0879     11.2635    123.0360
  2808.7500     14.2005     -9.0172     11.3131    121.8936
  2809.0000     14.7112     -9.6053     11.4380    120.2989
  2809.2500     15.4876     -9.8386     11.6106    119.4674
  2809.5000     16.3623     -9.7520     11.7980    118.8531
  2809.7500     17.1672     -9.4234     11.9697    118.9982
  2810.0000     17.7976     -8.9623     12.1046    119.9523
  2810.2500     18.2388     -8.4925     12.1965    120.7121
  2810.5000     18.5436     -8.1331     12.2570    121.0467
  2810.7500     18.7845     -7.9804     12.3129    120.3328
  2811.0000     19.0115     -8.0928     12.3983    118.0527
  2811.2500     19.2311     -8.4827     12.5436    116.1500
  2811.5000     19.4017     -9.1144     12.7636    112.9270
  2811.7500     19.4375     -9.9106     13.0494    110.0914
  2812.0000     19.2311    -10.7646     13.3674    103.7777
  2812.2500     18.7052    -11.5554     13.6678     97.9509
  2812.5000     17.8836    -12.1649     13.9023     87.3521
  2812.7500     16.9290    -12.4918     14.0452     79.9371
  2813.0000     16.0884    -12.4639     14.1007     70.5284
  2813.2500     15.5567    -12.0456     14.0921     66.7194
  2813.5000     15.3508    -11.2417     14.0384     65.9027
  2813.7500     15.2988    -10.0960     13.9358     68.4045
  2814.0000     15.1589     -8.6853     13.7581     75.2779
  2814.2500     14.7785     -7.1089     13.4755     81.0695
  2814.5000     14.1768     -5.4740     13.0803     90.7029
  2814.7500     13.5108     -3.8821     12.5983     97.4092
  2815.0000     12.9730     -2.4163     12.0788    106.9065
  2815.2500     12.6901     -1.1335     11.5732    112.0954
  2815.5000     12.6711     -0.0624     11.1191    117.2338
  2815.7500     12.8162      0.7938     10.7350    118.8788
  2816.0000     12.9725      1.4506     10.4229    119.4774
  2816.2500     13.0041      1.9342     10.1743    119.3086
  2816.5000     12.8418      2.2746      9.9743    119.1233
  2816.7500     12.4976      2.4996      9.8060    119.2307
  2817.0000     12.0479      2.6322      9.6536    119.3737
  2817.2500     11.5975      2.6900      9.5062    119.0434
  2817.5000     11.2419      2.6855      9.3604    117.6151
  2817.7500     11.0409      2.6285      9.2206    116.2502
  2818.0000     11.0080      2.5273      9.0957    113.8619
  2818.2500     11.1153      2.3904      8.9948    111.9321
  2818.5000     11.3099      2.2274      8.9229    108.6930
  2818.7500     11.5313      2.0486      8.8781    106.9422
  2819.0000     11.7243      1.8647      8.8506    105.9605
  2819.2500     11.8447      1.6853      8.8231    106.2863
  2819.5000     11.8685      1.5176      8.7749    107.1754
  2819.7500     11.7987      1.3645      8.6888    107.6384
  2820.0000     11.6628      1.2237      8.5582    108.3664
  2820.2500     11.5002      1.0867      8.3912    109.2143
  2820.5000     11.3468      0.9402      8.2090    111.1871
  2820.7500     11.2285      0.7667      8.0385    112.5386
  2821.0000     11.1581      0.5476      7.9064    113.1533
  2821.2500     11.1335      0.2658      7.8335    111.8989
  2821.5000     11.1340     -0.0907      7.8327    107.5031
  2821.7500     11.1213     -0.5254      7.9077    103.4178
