~Version Information
 VERS.                                  2.0 : CWLS LAS VERSION
 WRAP.                                   NO : WRAPING MODE
 SWARE .                 MController 2.5.0N : SOFTWARE VERSION
~Well Information
 WELL.                   Blackjack 32-11 Tr : WELL
 COMP.  Pioneer Natural Resources USA, Inc. : COMPANY
 FLD.                      Purgatoire River : FIELD
 LOC.               SW/NE Sec 11 T32S  R66W : LOCATION
 DATE.                             08/14/05 : DATE(S) LOGGED
 SRVC.       BLANCO Geological Services LLC : SERVICE COMPANY
 STAT.                                   CO : STATE
 CNTY.                           Las Animas : COUNTY
 CTRY.                                  USA : COUNTRY
 API.                       05-071-08310-00 : API NUMBER
 STRT.FT                             521.00 : START DEPTH
 STOP.FT                            1862.00 : STOP DEPTH
 STEP.FT                               1.00 : DEPTH INCREMENT
 NULL.                                -9999 : NULL VALUE
~Curve information
 DEPTH.FT                                   :
 ROP.MIN/FT                                 :
 GAS.UNITS                                  :
~ASCII Log data
# ...
      1521.0         0.23         95.6 
      1522.0         0.30         91.2 
      1523.0         0.43         84.8 
      1524.0         0.10         80.2 
      1525.0         0.30         76.9 
      1526.0         4.55        353.0 
      1527.0         0.13        315.3 
      1528.0         0.33        304.3 
      1529.0         0.32        236.9 
      1530.0         0.33        187.0 
      1531.0         0.27        134.7 
      1532.0         0.20        115.0 
      1533.0         0.23        103.6 
      1534.0         0.23         97.0 
      1535.0         0.23         88.4 
      1536.0         0.27         84.8 
      1537.0         0.23         84.5 
      1538.0         0.13         84.8 
      1539.0         0.20         85.5 
      1540.0         0.23         85.8 
      1541.0         0.23         85.8 
      1542.0         0.23         83.0 
      1543.0         0.28         78.2 
      1544.0         0.23         72.1 
      1545.0         0.10         70.0 
      1546.0         0.17         67.4 
      1547.0         0.17         65.3 
      1548.0         0.23         63.3 
      1549.0         0.23         64.2 
      1550.0         0.27         74.6 
      1551.0         0.23         88.3 
      1552.0         0.23         89.9 
      1553.0         0.17         90.3 
      1554.0         0.17         86.4 
      1555.0         0.23         80.2 
      1556.0         2.72        111.2 
      1557.0         0.27        139.8 
      1558.0         0.03        150.9 
      1559.0         0.17        165.1 
      1560.0         0.33        214.3 
      1561.0         0.30        254.4 
      1562.0         0.27        270.5 
      1563.0         0.28        284.1 
      1564.0         0.30        287.0 
      1565.0         0.40        274.0 
      1566.0         0.27        227.4 
      1567.0         0.23        187.9 
      1568.0         0.23        167.3 
      1569.0         0.20        140.7 
      1570.0         0.23        125.5 
      1571.0         0.17        114.3 
      1572.0         0.17        105.3 
      1573.0         0.30        100.4 
      1574.0         0.27         97.8 
      1575.0         0.20         98.5 
      1576.0         0.13        100.4 
      1577.0         0.22         99.7 
      1578.0         0.27        100.8 
      1579.0         0.27        101.1 
      1580.0         0.23        101.5 
      1581.0         0.20        100.8 
      1582.0         0.27         97.2 
      1583.0         0.23         93.4 
      1584.0         0.20         95.7 
      1585.0         0.20         95.3 
      1586.0         3.68        140.8 
      1587.0         0.43        207.1 
      1588.0         0.43        260.9 
      1589.0         0.35        288.4 
      1590.0         0.30        297.6 
      1591.0         0.30        296.7 
      1592.0         0.30        278.4 
      1593.0         0.27        232.0 
      1594.0         0.27        192.1 
      1595.0         0.20        159.1 
      1596.0         0.20        152.5 
      1597.0         0.20        133.3 
      1598.0         0.23        118.3 
      1599.0         0.27        106.6 
      1600.0         0.27         98.3 
      1601.0         0.25         95.1 
      1602.0         0.27         93.6 
      1603.0         0.27         93.8 
      1604.0         0.27         93.9 
      1605.0         0.27         93.3 
      1606.0         0.23         92.5 
      1607.0         0.27         90.1 
      1608.0         0.20         86.3 
      1609.0         0.27         83.5 
      1610.0         0.23         80.6 
      1611.0         0.27         78.3 
      1612.0         0.23         74.8 
      1613.0         0.27         77.0 
      1614.0         0.27         82.6 
      1615.0         0.28         83.0 
      1616.0         3.08        116.7 
      1617.0         0.33        150.8 
      1618.0         0.27        185.7 
      1619.0         0.57        264.2 
      1620.0         0.50        290.6 
      1621.0         0.43        292.7 
      1622.0         0.40        265.9 
      1623.0         0.47        225.4 
      1624.0         0.38        148.9 
      1625.0         0.30        105.8 
      1626.0         0.30         43.1 
      1627.0         0.30         18.7 
      1628.0         0.30          5.6 
      1629.0         0.23          3.2 
      1630.0         0.23          1.0 
      1631.0         0.27          0.3 
      1632.0         0.23          0.5 
      1633.0         0.23          1.6 
      1634.0         0.27          0.3 
      1635.0         0.33          0.4 
      1636.0         0.32          1.0 
      1637.0         0.33          1.8 
      1638.0         0.33          1.2 
      1639.0         0.40          1.2 
      1640.0         0.30          1.3 
      1641.0         0.27          1.3 
      1642.0         0.33          1.0 
      1643.0         0.43          1.1 
      1644.0         0.27          0.9 
      1645.0         0.23          0.9 
      1646.0         3.62          3.1 
      1647.0         0.35          0.1 
      1648.0         0.43          0.3 
      1649.0         0.30          0.4 
      1650.0         0.30          0.1 
      1651.0         0.27          0.4 
      1652.0         0.23          0.0 
      1653.0         0.20          0.7 
      1654.0         0.33          1.1 
      1655.0         0.37          0.1 
      1656.0         0.27          0.8 
      1657.0         0.38          0.4 
      1658.0         0.23          1.0 
      1659.0         0.27          0.1 
      1660.0         0.23          0.8 
      1661.0         0.30          0.6 
      1662.0         0.17          0.9 
      1663.0         0.17          0.2 
      1664.0         0.23          0.9 
      1665.0         0.27          0.9 
      1666.0         0.23          1.2 
      1667.0         0.23          0.6 
      1668.0         0.17          0.3 
      1669.0         0.20          1.3 
      1670.0         0.20          1.0 
      1671.0         0.13          1.7 
      1672.0         0.13          1.3 
      1673.0         0.25          0.2 
      1674.0         0.23          1.4 
      1675.0         0.23          1.0 
      1676.0         4.22          4.9 
      1677.0         0.57          3.7 
      1678.0         0.50          3.4 
      1679.0         0.33          3.2 
      1680.0         0.33          4.1 
      1681.0         0.35          2.5 
      1682.0         0.33          2.6 
      1683.0         0.33          2.4 
      1684.0         0.33          3.0 
      1685.0         0.30          4.0 
      1686.0         0.23          2.5 
      1687.0         0.27          1.6 
      1688.0         0.23          2.2 
      1689.0         0.23          1.9 
      1690.0         0.20          1.5 
      1691.0         0.20          5.7 
      1692.0         0.20          6.7 
      1693.0         0.25         12.7 
      1694.0         0.30         11.2 
      1695.0         0.43          7.5 
      1696.0         0.43          2.9 
      1697.0         0.23          1.7 
      1698.0         0.33          2.8 
      1699.0         0.17          1.6 
      1700.0         0.17          2.0 
      1701.0         0.20          1.8 
      1702.0         0.20          2.1 
      1703.0         0.20          2.0 
      1704.0         0.17          3.5 
      1705.0         0.17          1.6 
      1706.0         2.52          3.6 
      1707.0         0.60          3.4 
      1708.0         0.27          2.5 
      1709.0         0.20          2.7 
      1710.0         0.25          2.8 
      1711.0         0.33          2.8 
      1712.0         0.40          2.2 
      1713.0         0.40          3.0 
      1714.0         0.47          2.4 
      1715.0         0.60          2.2 
      1716.0         0.40          1.9 
      1717.0         0.47          1.6 
      1718.0         0.42          1.6 
      1719.0         0.37          1.6 
      1720.0         0.27          1.5 
