~Version Information
VERS.                      2.0: CWLS Log ASCII Standard - VERSION 2.0
WRAP.                       NO: One line per depth step
~Well Information Block
STRT.FT               780.0000: 
STOP.FT              2866.2000: 
STEP.FT                 0.1000: 
NULL.                -999.2500: 
COMP.          Pioneer Natural Resources: COMPANY
WELL.            Sebring 42-29: WELL
FLD.           Purgatoire River: FIELD
LOC.           1751' FNL & 584' FEL--: LOCATION
PROV.                 Colorado: PROVINCE
CNTY.               Las Animas: COUNTRY
SRVC.                Patterson: SERVICE COMPANY
DATE.          Mon Aug 15 07:11:37 2005: LOG DATE
UWI.           05 071 08293 00: UNIQUE WELL ID
~Curve Information Block
DEPT.FT            0 000 00 00: Depth
DCAL.in                       : CDL Caliper
RHOB.g/cc                     : CDL Bulk Density
RHOC.g/cc                     : CDL Density Correction
DPOR.pu                       : CDL Density Porosity
NPOR.pu                       : Neutron Porosity
GR.GAPI                       : Gamma Ray
~Parameter Information Block
~A  Depth       DCAL        RHOB        RHOC        DPOR        NPOR         GR     
# ...
  1461.6000      8.1036      2.5981      0.0162      3.1476     15.8905     60.0121
  1461.7000      8.1036      2.5801      0.0202      4.2367     15.8809     59.8907
  1461.8000      8.1033      2.5575     -0.0066      5.6063     16.4988     63.0286
  1461.9000      8.1033      2.5552     -0.0224      5.7459     17.4920     64.5393
  1462.0000      8.1028      2.5800      0.0051      4.2436     18.2320     63.0458
  1462.1000      8.1028      2.6079      0.0626      2.5514     18.4984     61.3975
  1462.2000      8.1028      2.6210      0.0168      1.7581     18.5285     62.0461
  1462.3000      8.1015      2.6141      0.0676      2.1741     18.4379     65.4962
  1462.4000      8.1015      2.5872      0.0079      3.8056     18.4844     70.2536
  1462.5000      8.1017      2.5631     -0.0306      5.2680     19.2303     74.6316
  1462.6000      8.1017      2.5574      0.0481      5.6111     20.4885     78.6522
  1462.7000      8.1017      2.5563     -0.0126      5.6760     21.3606     81.3087
  1462.8000      8.1027      2.5584      0.0055      5.5541     21.6469     83.8721
  1462.9000      8.1027      2.5750      0.0040      4.5427     21.7599     90.7705
  1463.0000      8.1029      2.6012      0.0463      2.9598     21.8167     99.1118
  1463.1000      8.1029      2.6180      0.0726      1.9413     21.9457    103.2444
  1463.2000      8.1029      2.6108      0.0657      2.3765     22.3984    103.2377
  1463.3000      8.1025      2.5846      0.0568      3.9648     23.0040    102.4754
  1463.4000      8.1025      2.5589      0.0634      5.5232     23.3206    103.5054
  1463.5000      8.1027      2.5416      0.0392      6.5700     23.4337    105.9779
  1463.6000      8.1027      2.5326      0.0365      7.1175     23.8823    108.0326
  1463.7000      8.1027      2.5350      0.0185      6.9710     24.7428    107.9754
  1463.8000      8.1027      2.5389      0.0560      6.7342     25.7439    110.5558
  1463.9000      8.1027      2.5203      0.0090      7.8584     26.9215    118.4413
  1464.0000      8.1018      2.4621      0.0363     11.3901     28.0684    123.2951
  1464.1000      8.1018      2.3611      0.0149     17.5065     28.8610    117.4562
  1464.2000      8.1018      2.2414     -0.0761     24.7657     29.6414    107.4748
  1464.3000      8.1032      2.1343     -0.0925     31.2573     30.7751    107.9175
  1464.4000      8.1032      2.0319     -0.0734     37.4578     31.7519    115.7497
  1464.5000      8.1070      1.9127     -0.1534     44.6838     32.1228    118.2652
  1464.6000      8.1070      1.7942     -0.2026     51.8667     32.1851    116.2205
  1464.7000      8.1070      1.7143     -0.2199     56.7065     31.9720    113.7923
  1464.8000      8.1112      1.6898     -0.1371     58.1932     31.1499    107.9744
  1464.9000      8.1112      1.7116     -0.0783     56.8722     29.8366     96.0159
  1465.0000      8.1160      1.7704     -0.0481     53.3066     28.6926     82.4263
  1465.1000      8.1160      1.8642      0.0676     47.6247     28.1633     76.2232
  1465.2000      8.1160      1.9833      0.1587     40.4061     28.1682     78.7131
  1465.3000      8.1190      2.1090      0.2192     32.7849     27.7818     82.8280
  1465.4000      8.1190      2.2260      0.2675     25.6980     26.2982     85.5462
  1465.5000      8.1181      2.3343      0.2671     19.1307     24.4375     89.1702
  1465.6000      8.1181      2.4351      0.2772     13.0226     22.9107     96.8466
  1465.7000      8.1181      2.5068      0.3002      8.6764     21.9252    106.5520
  1465.8000      8.1145      2.5314      0.1983      7.1858     21.5637    110.1178
  1465.9000      8.1145      2.5259      0.1332      7.5190     21.5268    105.0117
  1466.0000      8.1090      2.5209      0.0899      7.8234     21.6587     98.7938
  1466.1000      8.1090      2.5316      0.0313      7.1733     21.9649     96.6455
  1466.2000      8.1090      2.5509      0.0619      6.0073     22.0767     97.0518
  1466.3000      8.1051      2.5627      0.0725      5.2921     22.0229     98.0521
  1466.4000      8.1051      2.5664      0.0368      5.0659     21.9549     98.7369
  1466.5000      8.1038      2.5702      0.0556      4.8367     21.4738     97.1887
  1466.6000      8.1038      2.5697      0.0640      4.8682     20.9068     94.1014
  1466.7000      8.1038      2.5585      0.0242      5.5485     20.8670     92.2675
  1466.8000      8.1031      2.5428      0.0345      6.4943     21.0459     91.1592
  1466.9000      8.1031      2.5280      0.0096      7.3910     21.2768     85.5140
  1467.0000      8.1025      2.5146      0.0089      8.2065     21.6711     76.7766
  1467.1000      8.1025      2.5069     -0.0066      8.6711     22.0131     74.8724
  1467.2000      8.1025      2.5104      0.0174      8.4617     22.1043     83.1901
  1467.3000      8.1020      2.5234      0.0490      7.6737     21.8198     93.3328
  1467.4000      8.1020      2.5382      0.0729      6.7740     21.4227     96.8319
  1467.5000      8.1016      2.5480      0.0498      6.1835     21.4631     94.4662
  1467.6000      8.1016      2.5564      0.0580      5.6737     21.9127     90.9549
  1467.7000      8.1016      2.5643      0.1278      5.1947     22.2228     89.6141
  1467.8000      8.1011      2.5674      0.0479      5.0042     22.2334     92.5913
  1467.9000      8.1011      2.5751      0.0372      4.5396     22.1419     99.0581
  1468.0000      8.1007      2.5949      0.0865      3.3396     21.9465    103.3733
  1468.1000      8.1007      2.6184      0.0629      1.9143     21.9105    103.6097
  1468.2000      8.1007      2.6320      0.0931      1.0923     22.2442    103.1523
  1468.3000      8.1013      2.6294      0.0644      1.2491     22.4934    102.0814
  1468.4000      8.1013      2.6194      0.0805      1.8544     22.5603     98.3816
  1468.5000      8.1015      2.6121      0.0241      2.2971     22.5904     93.8977
  1468.6000      8.1015      2.6043      0.0407      2.7700     22.4964     90.6533
  1468.7000      8.1015      2.5875     -0.0109      3.7903     22.4131     87.4877
  1468.8000      8.1006      2.5750     -0.0842      4.5443     22.1646     84.4965
  1468.9000      8.1006      2.5824      0.0010      4.0998     21.4596     84.8502
  1469.0000      8.0999      2.5927      0.0131      3.4709     20.7495     91.5456
  1469.1000      8.0999      2.5901     -0.0225      3.6279     20.3683    102.0199
  1469.2000      8.0999      2.5846      0.0210      3.9651     20.2438    107.6717
  1469.3000      8.0993      2.5877      0.0518      3.7752     20.2956    104.8451
  1469.4000      8.0993      2.5986      0.0585      3.1128     20.5342    102.5816
  1469.5000      8.0971      2.6101      0.0510      2.4201     20.9895    107.2806
  1469.6000      8.0971      2.6089      0.1062      2.4919     21.4413    110.5518
  1469.7000      8.0971      2.5916      0.0254      3.5372     21.7477    107.2540
  1469.8000      8.0960      2.5814      0.0242      4.1550     21.9373    104.1936
  1469.9000      8.0960      2.5981      0.0438      3.1463     22.2192    103.4554
  1470.0000      8.0985      2.6337      0.0544      0.9895     22.8204    101.6565
  1470.1000      8.0985      2.6679      0.0633     -1.0851     23.4315    101.4018
  1470.2000      8.0985      2.6885      0.0957     -2.3334     23.3820    103.8210
  1470.3000      8.1028      2.6970      0.0742     -2.8514     22.8478    103.0228
  1470.4000      8.1028      2.6950      0.0886     -2.7281     22.8408     97.8227
  1470.5000      8.1059      2.6841      0.0406     -2.0668     23.4341     95.5775
  1470.6000      8.1059      2.6779      0.0356     -1.6927     23.5654     98.3916
  1470.7000      8.1059      2.6740      0.0353     -1.4560     22.7856    101.5205
  1470.8000      8.1064      2.6525      0.0016     -0.1509     21.9429    105.0325
  1470.9000      8.1064      2.6194     -0.0477      1.8575     21.9514    111.9162
  1471.0000      8.1044      2.5969     -0.0367      3.2194     22.7303    118.8639
  1471.1000      8.1044      2.5794      0.0074      4.2789     23.6418    120.2565
