~Version Information
VERS.                      2.0: CWLS Log ASCII Standard - VERSION 2.0
WRAP.                       NO: One line per depth step
~Well Information Block
STRT.FT               430.0000: 
STOP.FT              1910.2000: 
STEP.FT                 0.1000: 
NULL.                -999.2500: 
COMP.          Pioneer Natural Resources: COMPANY
WELL.          Formula 23-11 Tr: WELL
FLD.           Purgatoire River: FIELD
LOC.           1976' FSL & 1935' FWL--: LOCATION
PROV.                 Colorado: PROVINCE
CNTY.               Las Animas: COUNTRY
SRVC.                Patterson: SERVICE COMPANY
DATE.          Mon Jun 13 07:32:15 2005: LOG DATE
UWI.           05 071 08399 00: UNIQUE WELL ID
~Curve Information Block
DEPT.FT            0 000 00 00: Depth
DCAL.in                       : CDL Caliper
RHOB.g/cc                     : CDL Bulk Density
RHOC.g/cc                     : CDL Density Correction
DPOR.pu                       : CDL Density Porosity
NPOR.pu                       : Neutron Porosity
GR.GAPI                       : Gamma Ray
~Parameter Information Block
~A  Depth       DCAL        RHOB        RHOC        DPOR        NPOR         GR     
# ...
  1783.6000      7.8681      2.5665      0.0329      5.0629     29.2588    147.9447
  1783.7000      7.8681      2.5706      0.0808      4.8095     29.2020    146.2267
  1783.8000      7.8682      2.5718      0.1061      4.7409     29.3424    145.8590
  1783.9000      7.8682      2.5593      0.0532      5.4968     29.3375    147.8408
  1784.0000      7.8703      2.5434      0.0587      6.4613     29.0875    151.0602
  1784.1000      7.8703      2.5288      0.0693      7.3466     28.6850    153.7105
  1784.2000      7.8703      2.5109      0.0537      8.4301     28.7132    155.1740
  1784.3000      7.8713      2.4898      0.0522      9.7083     29.5525    158.4842
  1784.4000      7.8713      2.4689      0.0545     10.9729     30.3332    163.2529
  1784.5000      7.8706      2.4543      0.0362     11.8613     30.2762    164.2136
  1784.6000      7.8706      2.4510      0.0775     12.0610     29.8617    162.5246
  1784.7000      7.8706      2.4552      0.0492     11.8077     29.5198    163.8583
  1784.8000      7.8687      2.4628      0.0806     11.3445     29.1384    167.5866
  1784.9000      7.8687      2.4751      0.0617     10.5987     28.8224    172.7182
  1785.0000      7.8693      2.4887      0.0742      9.7783     28.6817    179.0907
  1785.1000      7.8693      2.4912      0.0863      9.6261     28.6354    178.8281
  1785.2000      7.8693      2.4830      0.0433     10.1240     28.7572    167.2852
  1785.3000      7.8711      2.4820      0.0624     10.1806     29.0892    152.2014
  1785.4000      7.8711      2.4952      0.0863      9.3798     29.2839    141.6747
  1785.5000      7.8674      2.5151      0.0792      8.1759     28.8822    135.5326
  1785.6000      7.8674      2.5313      0.0821      7.1927     28.1286    131.9759
  1785.7000      7.8674      2.5303      0.1272      7.2540     27.7283    130.4055
  1785.8000      7.8575      2.5171      0.0348      8.0562     27.6476    127.1974
  1785.9000      7.8575      2.5181      0.0495      7.9945     27.4078    119.0078
  1786.0000      7.8463      2.5347      0.0745      6.9859     26.7990    110.4717
  1786.1000      7.8463      2.5379      0.0975      6.7947     25.9759    107.1679
  1786.2000      7.8463      2.5194      0.0399      7.9175     25.3362    108.0053
  1786.3000      7.8386      2.5051      0.0560      8.7797     25.0535    110.1177
  1786.4000      7.8386      2.5096      0.1040      8.5076     24.9115    112.6832
  1786.5000      7.8331      2.5241      0.0522      7.6286     24.3948    114.3859
  1786.6000      7.8331      2.5432      0.0701      6.4711     23.4876    114.6284
  1786.7000      7.8331      2.5696      0.0570      4.8722     22.8951    113.9179
  1786.8000      7.8256      2.5974      0.1245      3.1883     22.9084    111.0966
  1786.9000      7.8256      2.6149      0.0894      2.1281     22.9151    106.4268
  1787.0000      7.8198      2.6226      0.0929      1.6583     22.6427    103.1286
  1787.1000      7.8198      2.6218      0.1318      1.7064     22.5286    104.7780
  1787.2000      7.8198      2.6177      0.0958      1.9575     22.5813    111.4730
  1787.3000      7.8190      2.6231      0.1047      1.6311     22.4486    116.6125
  1787.4000      7.8190      2.6359      0.0991      0.8567     21.9963    113.6573
  1787.5000      7.8248      2.6431      0.1211      0.4198     21.0814    106.7653
  1787.6000      7.8248      2.6406      0.0481      0.5704     19.9847    101.9006
  1787.7000      7.8248      2.6326      0.0945      1.0538     19.5840     98.0738
  1787.8000      7.8359      2.6169      0.0715      2.0033     20.4131     95.6436
  1787.9000      7.8359      2.5966      0.0427      3.2354     22.0558     94.4311
  1788.0000      7.8416      2.5903      0.0545      3.6174     23.3949     91.7250
  1788.1000      7.8416      2.6116      0.0940      2.3257     24.0584     91.3742
  1788.2000      7.8416      2.6536      0.0909     -0.2184     24.2991     96.8079
  1788.3000      7.8417      2.7029      0.1143     -3.2049     24.1175    102.8388
  1788.4000      7.8417      2.7590      0.1147     -6.6082     23.7432    101.0876
  1788.5000      7.8420      2.8340      0.1033    -11.1544     23.4460     90.3082
  1788.6000      7.8420      2.9282      0.1592    -16.8587     23.4158     81.9755
  1788.7000      7.8420      3.0189      0.1861    -22.3557     23.7836     85.9112
  1788.8000      7.8435      3.0853      0.2036    -26.3830     24.3332     95.4939
  1788.9000      7.8435      3.1170      0.1976    -28.3012     24.7475     97.0710
  1789.0000      7.8454      3.1083      0.1510    -27.7761     24.9646     88.1815
  1789.1000      7.8454      3.0634      0.0767    -25.0519     25.2620     77.2951
  1789.2000      7.8454      2.9923      0.0274    -20.7437     25.3069     70.0701
  1789.3000      7.8446      2.9070     -0.0383    -15.5776     24.6619     68.6258
  1789.4000      7.8446      2.8210     -0.1025    -10.3640     24.0942     70.7148
  1789.5000      7.8421      2.7486     -0.1757     -5.9736     24.3745     72.2368
  1789.6000      7.8421      2.6951     -0.1595     -2.7323     25.2118     74.7272
  1789.7000      7.8421      2.6464     -0.0987      0.2177     25.7729     78.5492
  1789.8000      7.8407      2.5908     -0.1324      3.5896     25.5136     80.8636
  1789.9000      7.8407      2.5418     -0.0841      6.5605     24.8479     82.7818
  1790.0000      7.8400      2.5177     -0.0513      8.0155     24.3698     88.2663
  1790.1000      7.8400      2.5154      0.0517      8.1558     24.2412     98.7981
  1790.2000      7.8400      2.5191      0.0524      7.9305     24.3452    109.7551
  1790.3000      7.8410      2.5224      0.0540      7.7315     24.4440    116.5698
  1790.4000      7.8410      2.5245      0.0643      7.6061     24.7088    120.1817
  1790.5000      7.8435      2.5245      0.0417      7.6038     25.3206    122.4957
  1790.6000      7.8435      2.5201      0.0840      7.8727     26.1377    125.3502
  1790.7000      7.8435      2.5118      0.0392      8.3765     27.1168    129.8267
  1790.8000      7.8456      2.5081      0.0263      8.6029     27.7592    133.6054
  1790.9000      7.8456      2.5084      0.0580      8.5819     27.4704    134.5814
  1791.0000      7.8449      2.5058      0.0702      8.7412     26.8731    131.6538
  1791.1000      7.8449      2.5060      0.0613      8.7250     26.3854    125.4782
  1791.2000      7.8449      2.5217      0.0649      7.7751     25.3515    121.4996
  1791.3000      7.8426      2.5576      0.0939      5.5983     24.1871    120.2466
  1791.4000      7.8426      2.6030      0.0979      2.8506     24.0904    117.4136
  1791.5000      7.8422      2.6340      0.1561      0.9702     24.9371    113.8567
  1791.6000      7.8422      2.6392      0.0860      0.6523     25.5264    112.0406
  1791.7000      7.8422      2.6283      0.1313      1.3160     25.2023    112.8142
  1791.8000      7.8425      2.6140      0.0687      2.1836     24.5523    114.0238
  1791.9000      7.8425      2.6022      0.1001      2.8980     24.2560    111.3059
  1792.0000      7.8421      2.5917      0.0415      3.5353     23.9562    104.6754
  1792.1000      7.8421      2.5822      0.0616      4.1075     23.2631     98.1726
  1792.2000      7.8421      2.5733      0.0483      4.6506     22.9929     92.6270
  1792.3000      7.8410      2.5657      0.0724      5.1093     23.4689     88.4263
  1792.4000      7.8410      2.5709      0.0248      4.7922     23.9565     86.7983
  1792.5000      7.8401      2.5961      0.0548      3.2661     24.3447     88.0576
  1792.6000      7.8401      2.6181      0.0869      1.9311     24.8386     92.7168
  1792.7000      7.8401      2.6090      0.0999      2.4859     25.4797    100.2055
  1792.8000      7.8412      2.5761      0.0826      4.4762     26.2706    107.6388
  1792.9000      7.8412      2.5474      0.0510      6.2169     26.8303    112.5670
  1793.0000      7.8436      2.5281      0.0975      7.3857     26.9606    114.9293
  1793.1000      7.8436      2.5079      0.0444      8.6091     27.0165    113.7442
