~Version Information
VERS.                      2.0: CWLS Log ASCII Standard - VERSION 2.0
WRAP.                       NO: One line per depth step
~Well Information Block
STRT.FT               298.0000: 
STOP.FT              1325.5000: 
STEP.FT                 0.2500: 
NULL.                -999.2500: 
COMP.          Pioneer Natural Resources: COMPANY
WELL.          Santa Fe 43-27 Tr: WELL
FLD.           Purgatoire River: FIELD
LOC.           2018' FSL & 534' FEL: LOCATION
PROV.                 Colorado: PROVINCE
CNTY.               Las Animas: COUNTRY
SRVC.                Patterson: SERVICE COMPANY
DATE.          Tue Mar 08 10:44:11 2005: LOG DATE
UWI.           05 071 08303 00: UNIQUE WELL ID
~Curve Information Block
DEPT.FT            0 000 00 00: Depth
SN.Ohm-m                      : IEL Short Normal
SP.mV                         : IEL Spontaneous Potential
DIR.Ohm-m                     : IEL Induction Resistivity
GR.GAPI                       : Gamma Ray
~Parameter Information Block
~A  Depth        SN          SP         DIR          GR     
# ...
   968.0000     11.2174     20.1099      9.7680    157.6002
   968.2500     10.9960     20.0957      9.5141    157.2023
   968.5000     10.8426     20.0357      9.3356    156.7387
   968.7500     10.7306     19.9372      9.2602    156.8473
   969.0000     10.6421     19.8202      9.2965    157.7514
   969.2500     10.5939     19.7236      9.4341    158.4714
   969.5000     10.6359     19.6960      9.6502    158.3756
   969.7500     10.8046     19.7706      9.9195    156.6163
   970.0000     11.0867     19.9456     10.2206    150.4087
   970.2500     11.4631     20.1867     10.5372    143.8782
   970.5000     11.9579     20.4496     10.8555    131.6259
   970.7500     12.5974     20.7033     11.1663    123.0132
   971.0000     13.3709     20.9416     11.4709    111.6369
   971.2500     14.2503     21.1794     11.7876    106.0004
   971.5000     15.1880     21.4361     12.1476    101.2190
   971.7500     16.0976     21.7199     12.5839    100.6103
   972.0000     16.8991     22.0195     13.1203    103.2343
   972.2500     17.5765     22.3063     13.7651    106.6163
   972.5000     18.1331     22.5424     14.5055    112.1564
   972.7500     18.5199     22.6886     15.2967    115.0870
   973.0000     18.6825     22.7144     16.0530    117.4539
   973.2500     18.6647     22.6132     16.6593    117.7264
   973.5000     18.6074     22.4167     17.0136    116.7657
   973.7500     18.6448     22.1882     17.0768    115.6070
   974.0000     18.8141     21.9941     16.8891    113.5779
   974.2500     19.0682     21.8701     16.5392    112.1595
   974.5000     19.3484     21.8100     16.1212    110.0042
   974.7500     19.5795     21.7814     15.7077    108.6369
   975.0000     19.6522     21.7541     15.3484    107.2486
   975.2500     19.5170     21.7200     15.0791    107.3869
   975.5000     19.2331     21.6912     14.9263    110.1969
   975.7500     18.8830     21.6830     14.9028    113.7922
   976.0000     18.4976     21.6962     15.0019    120.2392
   976.2500     18.0872     21.7122     15.1945    123.9068
   976.5000     17.7195     21.7014     15.4353    126.8675
   976.7500     17.5195     21.6419     15.6746    127.0042
   977.0000     17.5784     21.5341     15.8736    124.9672
   977.2500     17.8922     21.4001     16.0187    122.3642
   977.5000     18.4003     21.2718     16.1294    116.8278
   977.7500     19.0618     21.1765     16.2551    112.2975
   978.0000     19.8949     21.1281     16.4578    104.9674
   978.2500     20.9553     21.1227     16.7909    100.2060
   978.5000     22.2792     21.1416     17.2830     94.1147
   978.7500     23.8461     21.1632     17.9352     91.2430
   979.0000     25.5904     21.1773     18.7301     89.0753
   979.2500     27.4426     21.1886     19.6460     88.7119
   979.5000     29.3640     21.2109     20.6646     88.3971
   979.7500     31.3466     21.2561     21.7678     87.4475
   980.0000     33.3715     21.3270     22.9276     83.9906
   980.2500     35.3807     21.4178     24.0986     80.4439
   980.5000     37.3225     21.5196     25.2178     74.6922
   980.7500     39.1868     21.6248     26.2081     71.7037
   981.0000     40.9347     21.7271     26.9863     69.5566
   981.2500     42.4091     21.8198     27.4778     69.3900
   981.5000     43.3756     21.8957     27.6423     69.5726
   981.7500     43.6720     21.9500     27.4928     69.2733
   982.0000     43.3069     21.9815     27.0949     68.0986
   982.2500     42.4185     21.9951     26.5421     67.4250
   982.5000     41.1544     22.0029     25.9213     67.9647
   982.7500     39.5864     22.0235     25.2886     69.9374
   983.0000     37.7109     22.0764     24.6576     75.4942
   983.2500     35.5331     22.1735     23.9983     80.4925
   983.5000     33.1788     22.3134     23.2484     88.2356
   983.7500     30.8905     22.4813     22.3402     92.2848
   984.0000     28.8580     22.6550     21.2382     95.0307
   984.2500     27.0883     22.8131     19.9656     94.4302
   984.5000     25.4844     22.9412     18.6025     90.9176
   984.7500     23.9770     23.0337     17.2568     88.0750
   985.0000     22.5079     23.0921     16.0263     85.7649
   985.2500     20.9803     23.1216     14.9719     87.0325
   985.5000     19.3702     23.1295     14.1088     94.5718
   985.7500     17.8190     23.1263     13.4149    103.0026
   986.0000     16.4929     23.1264     12.8462    118.0489
   986.2500     15.4077     23.1491     12.3531    127.6535
   986.5000     14.4590     23.2145     11.8934    139.1937
   986.7500     13.5800     23.3345     11.4408    144.6988
   987.0000     12.7954     23.5041     10.9869    149.7159
   987.2500     12.1516     23.7011     10.5379    150.7412
   987.5000     11.6641     23.8974     10.1058    148.9183
   987.7500     11.2997     24.0748      9.7017    146.2440
   988.0000     10.9800     24.2353      9.3331    142.1056
   988.2500     10.6260     24.4001      9.0042    140.1699
   988.5000     10.2180     24.5976      8.7174    138.8015
   988.7500      9.8032     24.8469      8.4731    138.5961
   989.0000      9.4462     25.1467      8.2692    139.1151
   989.2500      9.1782     25.4732      8.1005    140.3546
   989.5000      8.9861     25.7873      7.9588    144.1044
   989.7500      8.8343     26.0432      7.8343    147.5229
   990.0000      8.6896     26.1993      7.7174    152.3821
   990.2500      8.5341     26.2355      7.6031    154.5137
   990.5000      8.3689     26.1702      7.4926    155.5117
   990.7500      8.2109     26.0630      7.3909    155.1197
   991.0000      8.0744     25.9879      7.3027    154.2513
   991.2500      7.9604     25.9940      7.2289    153.9767
   991.5000      7.8632     26.0832      7.1660    153.6472
   991.7500      7.7779     26.2231      7.1104    152.8041
   992.0000      7.7014     26.3752      7.0617    149.9644
   992.2500      7.6326     26.5167      7.0235    147.4176
   992.5000      7.5687     26.6445      7.0014    144.1820
   992.7500      7.5073     26.7638      7.0000    143.2074
   993.0000      7.4642     26.8707      7.0215    144.0561
   993.2500      7.4687     26.9439      7.0668    146.1751
   993.5000      7.5316     26.9557      7.1347    151.3639
   993.7500      7.6356     26.8924      7.2213    155.5067
   994.0000      7.7532     26.7678      7.3188    160.7936
   994.2500      7.8581     26.6214      7.4177    162.6656
   994.5000      7.9326     26.4987      7.5105    162.3962
   994.7500      7.9768     26.4299      7.5941    160.4466
   995.0000      8.0121     26.4165      7.6700    155.9130
   995.2500      8.0660     26.4333      7.7416    152.6457
   995.5000      8.1436     26.4404      7.8106    148.9159
   995.7500      8.2290     26.4024      7.8764    147.7984
   996.0000      8.3402     26.3062      7.9356    148.1732
   996.2500      8.5433     26.1679      7.9838    149.4005
   996.5000      8.8422     26.0245      8.0156    152.0975
   996.7500      9.1187     25.9146      8.0257    154.2233
   997.0000      9.2674     25.8618      8.0103    157.3956
   997.2500      9.2910     25.8668      7.9693    159.0998
   997.5000      9.2388     25.9110      7.9074    160.5202
   997.7500      9.1454     25.9690      7.8335    160.7169
   998.0000      9.0237     26.0223      7.7586    160.5030
   998.2500      8.8797     26.0624      7.6937    160.5624
   998.5000      8.7298     26.0819      7.6469    161.6501
   998.7500      8.5898     26.0720      7.6206    163.0527
   999.0000      8.4544     26.0302      7.6109    165.3403
   999.2500      8.3031     25.9648      7.6081    166.1595
   999.5000      8.1116     25.8867      7.6016    165.0572
   999.7500      7.8674     25.7977      7.5845    162.5884
  1000.0000      7.5983     25.6868      7.5582    157.2400
  1000.2500      7.3739     25.5372      7.5322    153.4120
  1000.5000      7.2840     25.3380      7.5207    147.9751
  1000.7500      7.4260     25.0926      7.5353    144.4669
  1001.0000      7.8393     24.8181      7.5799    139.4513
  1001.2500      8.4068     24.5365      7.6501    136.7787
