~Version Information
VERS.                      2.0: CWLS Log ASCII Standard - VERSION 2.0
WRAP.                       NO: One line per depth step
~Well Information Block
STRT.FT               768.0000: 
STOP.FT              2637.5000: 
STEP.FT                 0.2500: 
NULL.                -999.2500: 
COMP.          Pioneer Natural Resources: COMPANY
WELL.               Zink 44-10: WELL
FLD.           Purgatoire River: FIELD
LOC.           548' FSL & 473' FEL: LOCATION
PROV.                 Colorado: PROVINCE
CNTY.               Las Animas: COUNTRY
SRVC.                Patterson: SERVICE COMPANY
DATE.          Mon May 30 05:59:42 2005: LOG DATE
UWI.           05 071 08380 00: UNIQUE WELL ID
~Curve Information Block
DEPT.FT            0 000 00 00: Depth
SN.Ohm-m                      : IEL Short Normal
SP.mV                         : IEL Spontaneous Potential
DIR.Ohm-m                     : IEL Induction Resistivity
GR.GAPI                       : Gamma Ray
~Parameter Information Block
~A  Depth        SN          SP         DIR          GR     
# ...
  1739.5000     14.6358    -97.9561     13.4380    117.3703
  1739.7500     14.0692    -98.3872     13.2034    117.5435
  1740.0000     13.5486    -98.9753     12.9334    118.6918
  1740.2500     13.2103    -99.7252     12.6479    119.8091
  1740.5000     13.0587   -100.6408     12.3661    121.1446
  1740.7500     12.9921   -101.7192     12.1012    121.4985
  1741.0000     12.8854   -102.9418     11.8592    121.6223
  1741.2500     12.6874   -104.2732     11.6419    122.0109
  1741.5000     12.4325   -105.6674     11.4493    123.6130
  1741.7500     12.1794   -107.0730     11.2799    125.1333
  1742.0000     11.9849   -108.4361     11.1310    127.2930
  1742.2500     11.8912   -109.7036     10.9982    128.4080
  1742.5000     11.8683   -110.8328     10.8768    129.6972
  1742.7500     11.8237   -111.8019     10.7610    130.4518
  1743.0000     11.7280   -112.6112     10.6454    131.6806
  1743.2500     11.6597   -113.2713     10.5273    132.7589
  1743.5000     11.6796   -113.7908     10.4087    134.8659
  1743.7500     11.7430   -114.1727     10.2956    136.1852
  1744.0000     11.7762   -114.4136     10.1936    136.7815
  1744.2500     11.7561   -114.5001     10.1060    135.9655
  1744.5000     11.6756   -114.4153     10.0339    134.1020
  1744.7500     11.5150   -114.1621      9.9798    133.6423
  1745.0000     11.2981   -113.7836      9.9474    135.3998
  1745.2500     11.1158   -113.3550      9.9390    138.0337
  1745.5000     11.0449   -112.9468      9.9515    142.6817
  1745.7500     11.0598   -112.5918      9.9787    145.1964
  1746.0000     11.0394   -112.2775     10.0176    147.0829
  1746.2500     10.8623   -111.9631     10.0745    147.4017
  1746.5000     10.5152   -111.6022     10.1629    148.6136
  1746.7500     10.1215   -111.1646     10.2966    151.4625
  1747.0000      9.8678   -110.6501     10.4828    159.7791
  1747.2500      9.9270   -110.0830     10.7209    166.5518
  1747.5000     10.4184   -109.4860     11.0059    172.8285
  1747.7500     11.3366   -108.8541     11.3326    170.9129
  1748.0000     12.5414   -108.1469     11.6983    156.5561
  1748.2500     13.9053   -107.3068     12.1033    141.1089
  1748.5000     15.4489   -106.2899     12.5490    115.9466
  1748.7500     17.3143   -105.0949     13.0367    102.0484
  1749.0000     19.6330   -103.7694     13.5664     89.9495
  1749.2500     22.2714   -102.3888     14.1358     88.0354
  1749.5000     24.6049   -101.0270     14.7374     91.8456
  1749.7500     25.8610    -99.7405     15.3515     96.6174
  1750.0000     25.8405    -98.5718     15.9373    104.1031
  1750.2500     25.0347    -97.5527     16.4302    108.6158
  1750.5000     24.0608    -96.6975     16.7550    115.0223
  1750.7500     23.2263    -95.9953     16.8573    119.3867
  1751.0000     22.5542    -95.4152     16.7373    125.5332
  1751.2500     21.9559    -94.9227     16.4576    128.4829
  1751.5000     21.3225    -94.4931     16.1155    130.3242
  1751.7500     20.6070    -94.1127     15.8031    130.4380
  1752.0000     19.9026    -93.7729     15.5821    131.3302
  1752.2500     19.3724    -93.4681     15.4787    133.4536
  1752.5000     19.0642    -93.1949     15.4878    138.5673
  1752.7500     18.8653    -92.9524     15.5808    142.0237
  1753.0000     18.6578    -92.7404     15.7148    145.0415
  1753.2500     18.4530    -92.5603     15.8438    144.7854
  1753.5000     18.3624    -92.4182     15.9296    140.2476
  1753.7500     18.4770    -92.3253     15.9471    134.2270
  1754.0000     18.7742    -92.2938     15.8854    121.0622
  1754.2500     19.1520    -92.3248     15.7478    110.5852
  1754.5000     19.5548    -92.4009     15.5490     95.5491
  1754.7500     20.0292    -92.4881     15.3110     87.9768
  1755.0000     20.6355    -92.5490     15.0583     82.3045
  1755.2500     21.3174    -92.5580     14.8153     82.4118
  1755.5000     21.8561    -92.5112     14.6019     87.5169
  1755.7500     21.9844    -92.4256     14.4274     93.4908
  1756.0000     21.5727    -92.3287     14.2864    104.7458
  1756.2500     20.7008    -92.2457     14.1631    112.6710
  1756.5000     19.5753    -92.1921     14.0413    123.4733
  1756.7500     18.4026    -92.1728     13.9126    129.3656
  1757.0000     17.3143    -92.1851     13.7767    136.0574
  1757.2500     16.3790    -92.2225     13.6344    139.3012
  1757.5000     15.6464    -92.2792     13.4824    142.7041
  1757.7500     15.1492    -92.3473     13.3165    143.9206
  1758.0000     14.8824    -92.4126     13.1379    143.6812
  1758.2500     14.8035    -92.4573     12.9590    142.1329
  1758.5000     14.8477    -92.4733     12.8020    138.6264
  1758.7500     14.9404    -92.4694     12.6943    136.2656
  1759.0000     15.0290    -92.4627     12.6622    133.7321
  1759.2500     15.1273    -92.4652     12.7250    133.0622
  1759.5000     15.3026    -92.4797     12.8919    133.6449
  1759.7500     15.5977    -92.5051     13.1619    134.7459
  1760.0000     15.9844    -92.5427     13.5269    136.3802
  1760.2500     16.3938    -92.5993     13.9741    136.7161
  1760.5000     16.7648    -92.6878     14.4874    135.0092
  1760.7500     17.0752    -92.8259     15.0459    132.2480
  1761.0000     17.3666    -93.0306     15.6244    126.7769
  1761.2500     17.7548    -93.3110     16.1971    123.3505
  1761.5000     18.3785    -93.6635     16.7460    119.7677
  1761.7500     19.2854    -94.0736     17.2697    118.2989
  1762.0000     20.3726    -94.5209     17.7866    116.3952
  1762.2500     21.4760    -94.9826     18.3283    114.7133
  1762.5000     22.5186    -95.4379     18.9245    111.0797
  1762.7500     23.5238    -95.8793     19.5877    108.0230
  1763.0000     24.5018    -96.3234     20.3064    103.3542
  1763.2500     25.4106    -96.8095     21.0491    100.9092
  1763.5000     26.2224    -97.3835     21.7763     99.0800
  1763.7500     26.9503    -98.0774     22.4506     99.0396
  1764.0000     27.5884    -98.9006     23.0449     99.9898
  1764.2500     28.0657    -99.8435     23.5482    100.8741
  1764.5000     28.3110   -100.8856     23.9661    102.3458
  1764.7500     28.3345   -102.0023     24.3114    103.4276
  1765.0000     28.2108   -103.1695     24.5877    104.8831
  1765.2500     28.0417   -104.3651     24.7830    105.3020
  1765.5000     27.9285   -105.5683     24.8801    104.4176
  1765.7500     27.9001   -106.7565     24.8766    102.7655
  1766.0000     27.8912   -107.9018     24.7910     99.2658
  1766.2500     27.8473   -108.9714     24.6520     96.8616
  1766.5000     27.8004   -109.9351     24.4827     94.4129
  1766.7500     27.7973   -110.7763     24.2974     94.1879
  1767.0000     27.8385   -111.4983     24.1113     96.2564
  1767.2500     27.9153   -112.1197     23.9484     98.7771
  1767.5000     28.0289   -112.6593     23.8385    102.8389
  1767.7500     28.1478   -113.1195     23.8052    105.0326
  1768.0000     28.2063   -113.4756     23.8585    107.2035
  1768.2500     28.1823   -113.6829     23.9971    108.0955
  1768.5000     28.1214   -113.7035     24.2153    109.0220
  1768.7500     28.0702   -113.5339     24.5029    109.5127
  1769.0000     28.0469   -113.2091     24.8398    110.2588
  1769.2500     28.0801   -112.7874     25.1925    110.8432
  1769.5000     28.2224   -112.3344     25.5184    111.5633
  1769.7500     28.5031   -111.9151     25.7745    111.4411
  1770.0000     28.8956   -111.5855     25.9270    109.5608
  1770.2500     29.3536   -111.3813     25.9553    107.1989
  1770.5000     29.8442   -111.3127     25.8477    102.8566
  1770.7500     30.3374   -111.3714     25.5895     99.9792
  1771.0000     30.7914   -111.5403     25.1608     96.1347
  1771.2500     31.1484   -111.7975     24.5506     93.9239
  1771.5000     31.3511   -112.1118     23.7806     91.2593
  1771.7500     31.3523   -112.4366     22.9130     90.1558
  1772.0000     31.0800   -112.7108     22.0339     89.9929
  1772.2500     30.4099   -112.8666     21.2237     91.0178
  1772.5000     29.2113   -112.8420     20.5322     94.3118
  1772.7500     27.4233   -112.5933     19.9720     97.8607
