~Version Information
VERS.                      2.0: CWLS Log ASCII Standard - VERSION 2.0
WRAP.                       NO: One line per depth step
~Well Information Block
STRT.FT               757.3000: 
STOP.FT              2418.0000: 
STEP.FT                 0.1000: 
NULL.                -999.2500: 
COMP.          Petrogulf Corporation: COMPANY
WELL.            Montoya 7-21V: WELL
FLD.           Purgatorie River: FIELD
LOC.           738' FSL & 2070' FWL: LOCATION
CNTY.               Las Animas: COUNTY
SRVC.                         : SERVICE COMPANY
DATE.          Fri Aug 20 14:08:15 2004: LOG DATE
UWI.           05 071 08018 00: UNIQUE WELL ID
STAT.                 Colorado: STATE
~Curve Information Block
DEPT.FT            0 000 00 00: Depth
DCAL.in                       : CDL Caliper
RHOB.g/cc                     : CDL Bulk Density
RHOC.g/cc                     : CDL Density Correction
DPOR.pu                       : CDL Density Porosity
GR.GAPI                       : Gamma Ray
NPOR.pu                       : Neutron Porosity
~Parameter Information Block
~A  Depth       DCAL        RHOB        RHOC        DPOR         GR         NPOR    
# ...
  1976.5000      8.0659      2.4121     -0.0099     14.4203    110.9069     28.6621
  1976.6000      8.0659      2.4072     -0.0037     14.7130    120.9681     27.6293
  1976.7000      8.0659      2.4181      0.0370     14.0527    127.2560     26.9556
  1976.8000      8.0711      2.4312      0.0905     13.2628    122.7302     26.9629
  1976.9000      8.0711      2.4343      0.0801     13.0748    112.0430     27.0148
  1977.0000      8.0751      2.4310      0.0986     13.2741    106.1055     26.4073
  1977.1000      8.0751      2.4446      0.0647     12.4498    106.6573     25.6333
  1977.2000      8.0751      2.4980      0.1457      9.2104    108.3859     25.5725
  1977.3000      8.0834      2.5706      0.2697      4.8136    108.9037     25.9846
  1977.4000      8.0834      2.6176      0.2960      1.9647    108.0548     26.2862
  1977.5000      8.0886      2.6296      0.2519      1.2348    106.5115     26.7408
  1977.6000      8.0886      2.6199      0.2358      1.8242    107.9166     27.4698
  1977.7000      8.0886      2.5952      0.2335      3.3201    113.2947     27.7343
  1977.8000      8.0966      2.5667      0.2255      5.0461    118.8840     27.5350
  1977.9000      8.0966      2.5464      0.1954      6.2789    124.3656     27.6424
  1978.0000      8.1153      2.5270      0.1760      7.4550    127.2598     28.0714
  1978.1000      8.1153      2.4854      0.1573      9.9785    122.2487     28.3678
  1978.2000      8.1153      2.4183      0.0082     14.0424    115.4073     28.4207
  1978.3000      8.1202      2.3532      0.0063     17.9873    115.9895     28.2667
  1978.4000      8.1202      2.3135      0.0001     20.3948    119.4728     27.8466
  1978.5000      8.1017      2.3065      0.0111     20.8160    118.6480     27.2545
  1978.6000      8.1017      2.3367     -0.0193     18.9865    116.2309     26.9445
  1978.7000      8.1017      2.3979      0.0663     15.2785    116.9012     27.2023
  1978.8000      8.0848      2.4673      0.1482     11.0757    118.8257     27.4959
  1978.9000      8.0848      2.5372      0.1633      6.8368    120.7347     26.9790
  1979.0000      8.0922      2.6130      0.3294      2.2398    123.6256     25.8848
  1979.1000      8.0922      2.6734      0.4159     -1.4162    123.6720     25.3800
  1979.2000      8.0922      2.6940      0.4008     -2.6682    118.7190     25.7878
  1979.3000      8.1169      2.6751      0.3751     -1.5195    112.8371     26.3762
  1979.4000      8.1169      2.6222      0.3014      1.6872    111.3695     27.1201
  1979.5000      8.1317      2.5531      0.1140      5.8705    116.9395     27.9978
  1979.6000      8.1317      2.5057      0.0146      8.7466    124.2639     27.8084
  1979.7000      8.1317      2.4974      0.0531      9.2514    128.0018     26.3143
  1979.8000      8.1502      2.5064      0.0586      8.7046    127.9711     24.8968
  1979.9000      8.1502      2.5120      0.0370      8.3606    124.9191     24.1483
  1980.0000      8.1869      2.5195      0.0480      7.9109    119.4894     23.7556
  1980.1000      8.1869      2.5308      0.0279      7.2246    113.9414     23.8436
  1980.2000      8.1869      2.5328      0.0227      7.1001    110.6850     24.5419
  1980.3000      8.1649      2.5246      0.0213      7.5993    110.1791     25.2437
  1980.4000      8.1649      2.5242      0.0282      7.6231    112.2459     25.4521
  1980.5000      8.0908      2.5426      0.0307      6.5105    116.2258     25.1313
  1980.6000      8.0908      2.5638      0.0726      5.2219    118.6605     24.3991
  1980.7000      8.0908      2.5695      0.0598      4.8798    117.5635     23.7062
  1980.8000      8.0364      2.5676      0.0460      4.9966    114.0656     23.4850
  1980.9000      8.0364      2.5663      0.0634      5.0754    107.6992     23.5027
  1981.0000      8.0026      2.5599      0.0383      5.4634     98.7660     23.1217
  1981.1000      8.0026      2.5455      0.0646      6.3362     88.7336     22.2065
  1981.2000      8.0026      2.5243      0.0368      7.6155     81.1193     21.9015
  1981.3000      7.9801      2.5009      0.0114      9.0383     81.2213     22.9192
  1981.4000      7.9801      2.4795      0.0017     10.3335     88.0029     24.1590
  1981.5000      7.9697      2.4643     -0.0041     11.2529     94.7235     24.7076
  1981.6000      7.9697      2.4603      0.0127     11.4962     96.5870     24.7416
  1981.7000      7.9697      2.4651      0.0161     11.2077     93.7345     24.5901
  1981.8000      7.9711      2.4685      0.0051     10.9990     91.1261     24.6722
  1981.9000      7.9711      2.4657      0.0340     11.1692     91.0209     25.0732
  1982.0000      7.9807      2.4645      0.0153     11.2408     92.7098     25.2151
  1982.1000      7.9807      2.4803      0.0585     10.2855     96.3262     24.5981
  1982.2000      7.9807      2.5124      0.1376      8.3397    101.1516     23.7429
  1982.3000      8.0007      2.5398      0.1789      6.6799    106.2020     23.8285
  1982.4000      8.0007      2.5506      0.1744      6.0250    110.6888     25.0051
  1982.5000      8.0584      2.5507      0.1874      6.0170    114.8775     26.0448
  1982.6000      8.0584      2.5441      0.1385      6.4169    117.0496     26.1053
  1982.7000      8.0584      2.5340      0.1196      7.0297    113.2847     25.8423
  1982.8000      8.1472      2.5304      0.1285      7.2500    108.3870     26.3291
  1982.9000      8.1472      2.5325      0.1397      7.1216    111.2228     27.5636
  1983.0000      8.2017      2.5225      0.1425      7.7273    120.6263     28.5167
  1983.1000      8.2017      2.4926      0.0560      9.5370    128.5508     28.4912
  1983.2000      8.2017      2.4507      0.0237     12.0798    129.0167     27.5373
  1983.3000      8.1992      2.3955      0.0185     15.4238    120.9480     26.4813
  1983.4000      8.1992      2.3176      0.0019     20.1438    110.4098     26.2732
  1983.5000      8.1521      2.2234     -0.0458     25.8569    105.9524     26.7902
  1983.6000      8.1521      2.1294     -0.0611     31.5509    105.5506     27.4010
  1983.7000      8.1521      2.0353     -0.0881     37.2521    102.2321     27.8846
  1983.8000      8.1131      1.9253     -0.0688     43.9227     97.0886     28.7300
  1983.9000      8.1131      1.7906     -0.1129     52.0869     92.5105     30.1775
  1984.0000      8.0915      1.6471     -0.1061     60.7791     87.0830     30.9984
  1984.1000      8.0915      1.5282     -0.1516     67.9872     80.5685     30.6872
  1984.2000      8.0915      1.4598     -0.1123     72.1335     74.8729     30.2703
  1984.3000      8.0859      1.4414     -0.0397     73.2487     71.2936     30.3146
  1984.4000      8.0859      1.4613      0.0042     72.0400     69.6662     30.6904
  1984.5000      8.1134      1.5188      0.0364     68.5585     68.7305     31.0868
  1984.6000      8.1134      1.6083      0.0751     63.1326     67.2842     31.3554
  1984.7000      8.1134      1.7102      0.1401     56.9547     65.7978     31.5997
  1984.8000      8.1740      1.8120      0.1476     50.7871     66.3410     31.8068
  1984.9000      8.1740      1.9148      0.1756     44.5574     69.2304     31.9665
  1985.0000      8.2326      2.0103      0.2107     38.7670     71.8280     32.1716
  1985.1000      8.2326      2.0808      0.1907     34.4971     75.8944     32.0944
  1985.2000      8.2326      2.1303      0.1123     31.4990     87.2301     31.3693
  1985.3000      8.2375      2.1876      0.0521     28.0227    104.0023     30.4536
  1985.4000      8.2375      2.2633      0.0779     23.4336    115.6125     29.6267
  1985.5000      8.1901      2.3271      0.0654     19.5670    118.1308     28.6889
  1985.6000      8.1901      2.3528      0.0797     18.0116    116.9418     28.1168
  1985.7000      8.1901      2.3552      0.0654     17.8646    117.0407     28.3686
  1985.8000      8.1879      2.3635      0.0682     17.3664    124.9032     28.9277
  1985.9000      8.1879      2.3868      0.1271     15.9513    140.4999     28.7737
  1986.0000      8.2905      2.4160      0.1501     14.1791    149.5912     27.9259
