~Version Information
VERS.                      2.0: CWLS Log ASCII Standard - VERSION 2.0
WRAP.                       NO: One line per depth step
~Well Information Block
STRT.FT               259.0000: 
STOP.FT              2379.0000: 
STEP.FT                 0.2500: 
NULL.                -999.2500: 
COMP.          Pioneer Natural Resources: COMPANY
WELL.          Foothills 12-36: WELL
FLD.           Purgatoire River: FIELD
LOC.           2450' FNL & 201' FWL: LOCATION
PROV.                 Colorado: PROVINCE
CNTY.               Las Animas: COUNTRY
SRVC.                Patterson: SERVICE COMPANY
DATE.          Thu Apr 21 09:19:57 2005: LOG DATE
UWI.           05 071 08339 00: UNIQUE WELL ID
~Curve Information Block
DEPT.FT            0 000 00 00: Depth
DCAL.in                       : CDL Caliper
RHOB.g/cc                     : CDL Bulk Density
RHOC.g/cc                     : CDL Density Correction
DPOR.pu                       : CDL Density Porosity
GR.GAPI                       : Gamma Ray
NPOR.pu                       : Neutron Porosity
~Parameter Information Block
~A  Depth       DCAL        RHOB        RHOC        DPOR         GR         NPOR    
# ...
  2347.0000      7.8455      2.4861      0.0577      9.9362     63.2920     21.6784
  2347.2500      7.8409      2.4946      0.0271      9.4175     66.8943     22.1001
  2347.5000      7.8383      2.4561      0.0089     11.7545     61.7004     21.9953
  2347.7500      7.8360      2.4775      0.0391     10.4550     63.1783     23.3691
  2348.0000      7.8356      2.5026      0.0701      8.9322     69.9877     22.7129
  2348.2500      7.8399      2.5070      0.0908      8.6694     75.8424     21.4371
  2348.5000      7.8472      2.4616      0.0037     11.4189     62.0715     21.9388
  2348.7500      7.8514      2.4663      0.0307     11.1358     56.9690     21.5362
  2349.0000      7.8524      2.4645     -0.0202     11.2432     69.3343     21.9599
  2349.2500      7.8528      2.4701      0.0688     10.9047     71.1690     23.1680
  2349.5000      7.8523      2.5160      0.0753      8.1240     78.6676     20.7976
  2349.7500      7.8515      2.5239     -0.0148      7.6406     81.8462     22.8739
  2350.0000      7.8515      2.5146      0.0407      8.2046     96.9050     23.3923
  2350.2500      7.8524      2.5037      0.0310      8.8671     96.1638     22.4165
  2350.5000      7.8521      2.5183      0.0474      7.9833     89.1669     22.7548
  2350.7500      7.8499      2.5412      0.0516      6.5938     87.4309     23.2439
  2351.0000      7.8473      2.5241      0.0336      7.6308     96.9798     23.0945
  2351.2500      7.8456      2.5377      0.0320      6.8060     95.5807     22.9336
  2351.5000      7.8471      2.5336     -0.0007      7.0544     89.8942     21.6775
  2351.7500      7.8507      2.5257      0.0537      7.5339     85.9177     23.6125
  2352.0000      7.8538      2.5246      0.0522      7.6030     71.1484     23.5375
  2352.2500      7.8558      2.4775     -0.0233     10.4556     64.8164     21.7932
  2352.5000      7.8566      2.4853      0.0185      9.9810     55.4338     20.6914
  2352.7500      7.8562      2.5079      0.0567      8.6149     57.0161     21.1605
  2353.0000      7.8560      2.4647      0.0213     11.2326     71.1434     22.2931
  2353.2500      7.8598      2.4675      0.0398     11.0579     77.2711     21.7576
  2353.5000      7.8643      2.4638      0.0455     11.2821     70.2461     20.8278
  2353.7500      7.8625      2.4755      0.0437     10.5779     69.6077     20.7256
  2354.0000      7.8593      2.5145      0.0398      8.2143     64.0025     20.8497
  2354.2500      7.8584      2.5010      0.0570      9.0279     64.0198     21.2337
  2354.5000      7.8580      2.4823      0.0637     10.1629     64.1368     20.1947
  2354.7500      7.8573      2.4862      0.0191      9.9294     67.8751     20.3419
  2355.0000      7.8570      2.4878      0.0146      9.8307     70.0308     18.2174
  2355.2500      7.8585      2.5019      0.0551      8.9771     65.7465     19.2299
  2355.5000      7.8601      2.4788      0.0098     10.3778     67.0158     22.8822
  2355.7500      7.8600      2.4615      0.0206     11.4232     66.8616     22.8195
  2356.0000      7.8604      2.4988      0.0669      9.1638     71.4388     21.9989
  2356.2500      7.8627      2.4998      0.0166      9.1054     58.3941     20.9213
  2356.5000      7.8626      2.5193      0.0980      7.9216     65.6034     20.7321
  2356.7500      7.8585      2.5133      0.0645      8.2828     69.3445     20.3031
  2357.0000      7.8560      2.5362      0.0429      6.8985     71.2567     19.9212
  2357.2500      7.8568      2.5327      0.0447      7.1097     74.8169     20.4316
  2357.5000      7.8572      2.4934      0.0692      9.4918     78.0938     20.8781
  2357.7500      7.8565      2.5047      0.0870      8.8038     80.3233     22.2952
  2358.0000      7.8563      2.5192      0.0585      7.9265     69.1656     19.7848
  2358.2500      7.8558      2.5107      0.0341      8.4446     63.3844     19.3816
  2358.5000      7.8543      2.4992      0.0702      9.1412     70.5678     19.7331
  2358.7500      7.8527      2.5033      0.0510      8.8915     65.6957     22.0349
  2359.0000      7.8522      2.5224      0.0666      7.7360     64.0258     21.4481
  2359.2500      7.8528      2.5043      0.0399      8.8286     75.2938     21.5594
  2359.5000      7.8542      2.4651      0.0230     11.2061     79.5046     22.2667
  2359.7500      7.8552      2.4241     -0.0038     13.6893     74.1190     22.4270
  2360.0000      7.8554      2.4652      0.0526     11.1986     68.7716     23.7315
  2360.2500      7.8555      2.4758      0.0392     10.5556     76.5480     23.7551
  2360.5000      7.8562      2.5152      0.1051      8.1691     80.4489     23.3622
  2360.7500      7.8571      2.4885      0.0402      9.7900     73.0161     22.8026
  2361.0000      7.8573      2.5064      0.0607      8.7012     82.6551     22.2650
  2361.2500      7.8572      2.5053      0.0250      8.7725     81.4217     22.7280
  2361.5000      7.8555      2.4671      0.0094     11.0845     70.6557     20.5323
  2361.7500      7.8524      2.4734      0.0472     10.7036     65.1174     19.7110
  2362.0000      7.8515      2.4842      0.0159     10.0495     68.6706     21.2213
  2362.2500      7.8513      2.4775      0.0250     10.4556     72.8618     20.4577
  2362.5000      7.8493      2.5172      0.0190      8.0505     75.9858     21.7954
  2362.7500      7.8448      2.5432      0.0697      6.4730     28.2140     22.4923
  2363.0000      7.8397      2.5072      0.0208      8.6556      0.1593     21.1492
  2363.2500      7.8380      2.5296      0.0554      7.2992      0.0000     21.8614
  2363.5000      7.8385      2.5138      0.0082      8.2573   -999.2500     22.7290
  2363.7500      7.8373      2.5056      0.0334      8.7544   -999.2500     22.9679
  2364.0000      7.8320      2.5166      0.0200      8.0844   -999.2500     21.2290
  2364.2500      7.8236      2.5088      0.0076      8.5549   -999.2500     22.5143
  2364.5000      7.8156      2.5494      0.0724      6.0980   -999.2500     21.4692
  2364.7500      7.8097      2.5673      0.1321      5.0094   -999.2500     20.9659
  2365.0000      7.8002      2.5615      0.1401      5.3637   -999.2500     20.4697
  2365.2500      7.7971      2.5357      0.0854      6.9292   -999.2500     20.5955
  2365.5000      7.8030      2.5723      0.0728      4.7111   -999.2500     42.0724
  2365.7500      7.7973      2.6076      0.1378      2.5720   -999.2500     51.9874
  2366.0000      7.7815      2.6066      0.1048      2.6288   -999.2500     52.5455
  2366.2500      7.7843      2.6119      0.1153      2.3077   -999.2500   -999.2500
  2366.5000      7.8054      2.5924      0.0893      3.4919   -999.2500   -999.2500
  2366.7500      7.8228      2.5593      0.0620      5.4951   -999.2500   -999.2500
  2367.0000      7.8313      2.5042      0.0264      8.8377   -999.2500   -999.2500
  2367.2500      7.8344      2.5378      0.0550      6.7983   -999.2500   -999.2500
  2367.5000      7.8329      2.5208      0.0606      7.8307   -999.2500   -999.2500
  2367.7500      7.8306      2.4972      0.0458      9.2621   -999.2500   -999.2500
  2368.0000      7.8320      2.5086      0.0630      8.5676   -999.2500   -999.2500
  2368.2500      7.8347      2.5323      0.0355      7.1360   -999.2500   -999.2500
  2368.5000      7.8359      2.5348      0.0188      6.9815   -999.2500   -999.2500
  2368.7500      7.8358      2.4908      0.0125      9.6481   -999.2500   -999.2500
  2369.0000      7.8367      2.4933      0.0423      9.4943   -999.2500   -999.2500
  2369.2500      7.8385      2.4719      0.0309     10.7955   -999.2500   -999.2500
  2369.5000      7.8388      2.4224     -0.0525     13.7941   -999.2500   -999.2500
  2369.7500      7.8374      2.4506      0.0375     12.0858   -999.2500   -999.2500
  2370.0000      7.8357      2.4805      0.0395     10.2704   -999.2500   -999.2500
  2370.2500      7.8347      2.4937      0.0226      9.4747   -999.2500   -999.2500
  2370.5000      7.8346      2.5142      0.0343      8.2307   -999.2500   -999.2500
  2370.7500      7.8355      2.5357      0.0923      6.9246   -999.2500   -999.2500
