~Version Information
 VERS.                                  2.0 : CWLS LAS VERSION
 WRAP.                                   NO : WRAPING MODE
 SWARE .                 MController 2.5.0J : SOFTWARE VERSION
~Well Information
 WELL.                       Ei-Ei-Oh 31-24 : WELL
 COMP.    Pioneer Natural Resources USA Inc : COMPANY
 FLD.                      Purgatoire River : FIELD
 LOC.                NW/NE Sec 24 T32S R67W : LOCATION
 DATE.                         6/12-13/2005 : DATE(S) LOGGED
 SRVC.       Blanco Geological Services LLC : SERVICE COMPANY
 STAT.                                   CO : STATE
 CNTY.                           Las Animas : COUNTY
 CTRY.                                  USA : COUNTRY
 API.                       05-071-08403-00 : API NUMBER
 STRT.FT                             436.00 : START DEPTH
 STOP.FT                            2853.00 : STOP DEPTH
 STEP.FT                               1.00 : DEPTH INCREMENT
 NULL.                                -9999 : NULL VALUE
~Curve information
 DEPTH.FT                                   :
 ROP.MIN/FT                                 :
 GAS.UNITS                                  :
~ASCII Log data
# ...
      1036.0         0.20          6.1 
      1037.0         0.23          6.5 
      1038.0         0.20          6.9 
      1039.0         0.22          6.8 
      1040.0         0.27          6.6 
      1041.0         0.20          6.8 
      1042.0         0.20          7.2 
      1043.0         0.17          5.8 
      1044.0         0.20          6.6 
      1045.0         0.23          6.3 
      1046.0         1.73          6.7 
      1047.0         0.65          8.6 
      1048.0         0.27         17.8 
      1049.0         0.40         39.3 
      1050.0         0.33         62.8 
      1051.0         0.17         66.9 
      1052.0         0.23         66.8 
      1053.0         0.23         59.6 
      1054.0         0.23         46.4 
      1055.0         0.23         36.2 
      1056.0         0.23         27.6 
      1057.0         0.20         19.0 
      1058.0         0.23         16.0 
      1059.0         0.22         12.6 
      1060.0         0.23         10.0 
      1061.0         0.17          8.5 
      1062.0         0.20          8.3 
      1063.0         0.20          7.0 
      1064.0         0.20          6.5 
      1065.0         0.20          7.1 
      1066.0         0.17          6.8 
      1067.0         0.20          6.7 
      1068.0         0.20          6.4 
      1069.0         0.17          6.1 
      1070.0         0.13          6.5 
      1071.0         0.13          6.1 
      1072.0         0.10          5.6 
      1073.0         0.27          6.0 
      1074.0         0.23          5.8 
      1075.0         0.32          5.9 
      1076.0         0.13          4.9 
      1077.0         2.37         26.7 
      1078.0         0.47         66.1 
      1079.0         0.48        111.1 
      1080.0         0.40        158.8 
      1081.0         0.33        177.0 
      1082.0         0.50        171.4 
      1083.0         0.27         93.7 
      1084.0         0.20         60.3 
      1085.0         0.17         43.3 
      1086.0         0.20         32.5 
      1087.0         0.13         23.0 
      1088.0         0.23         18.2 
      1089.0         0.20         12.8 
      1090.0         0.20         11.3 
      1091.0         0.18          8.4 
      1092.0         0.20          7.5 
      1093.0         0.20          6.7 
      1094.0         0.17          6.8 
      1095.0         0.23          5.5 
      1096.0         0.20          5.6 
      1097.0         0.20          5.8 
      1098.0         0.20          6.0 
      1099.0         0.23          6.2 
      1100.0         0.20          6.2 
      1101.0         0.17          5.5 
      1102.0         0.20          5.4 
      1103.0         0.17          5.7 
      1104.0         0.40          6.1 
      1105.0         0.20          5.7 
      1106.0         2.92         84.1 
      1107.0         0.30        120.6 
      1108.0         0.17        133.2 
      1109.0         0.38        136.4 
      1110.0         0.23        122.9 
      1111.0         0.20         97.6 
      1112.0         0.23         76.1 
      1113.0         0.23         53.9 
      1114.0         0.20         37.7 
      1115.0         0.20         28.0 
      1116.0         0.20         20.6 
      1117.0         0.23         16.7 
      1118.0         0.20         11.9 
      1119.0         0.17          9.7 
      1120.0         0.17          9.4 
      1121.0         0.20          8.7 
      1122.0         0.20          7.7 
      1123.0         0.20          7.3 
      1124.0         0.22          7.1 
      1125.0         0.20          6.7 
      1126.0         0.17          6.7 
      1127.0         0.17          6.7 
      1128.0         0.17          7.0 
      1129.0         0.23          6.1 
      1130.0         0.10          5.6 
      1131.0         0.13          6.3 
      1132.0         0.17          5.9 
      1133.0         0.17          6.6 
      1134.0         0.17          4.7 
      1135.0         0.20          4.7 
      1136.0         2.98         93.9 
      1137.0         0.63        104.7 
      1138.0         0.27         79.9 
      1139.0         0.30         56.4 
      1140.0         0.27         35.0 
      1141.0         0.35         22.8 
      1142.0         0.23         12.8 
      1143.0         0.20          9.3 
      1144.0         0.23          8.8 
      1145.0         0.20          6.9 
      1146.0         0.20          6.7 
      1147.0         0.17          6.7 
      1148.0         0.20          6.3 
      1149.0         0.23          5.7 
      1150.0         0.23          5.6 
      1151.0         0.20          6.2 
      1152.0         0.20          6.3 
      1153.0         0.20          5.7 
      1154.0         0.20          5.7 
      1155.0         0.22          5.0 
      1156.0         0.17          5.1 
      1157.0         0.20          5.0 
      1158.0         0.23          5.1 
      1159.0         0.17          5.0 
      1160.0         0.23          4.7 
      1161.0         0.27          5.6 
      1162.0         0.23          5.1 
      1163.0         0.17          5.6 
      1164.0         0.23          5.4 
      1165.0         0.20          5.7 
      1166.0         2.25         30.8 
      1167.0         0.43         76.6 
      1168.0         0.27         96.9 
      1169.0         0.27         97.4 
      1170.0         0.13         84.8 
      1171.0         0.20         73.9 
      1172.0         0.50         58.1 
      1173.0         0.27         28.6 
      1174.0         0.32         19.1 
      1175.0         0.27         12.8 
      1176.0         0.23         10.1 
      1177.0         0.17          7.2 
      1178.0         0.27          7.3 
      1179.0         0.27          8.2 
      1180.0         0.23          7.1 
      1181.0         0.23          6.7 
      1182.0         0.20          6.7 
      1183.0         0.20          6.3 
      1184.0         0.20          6.3 
      1185.0         0.17          6.0 
      1186.0         0.17          5.5 
      1187.0         0.17          5.7 
      1188.0         0.17          5.6 
      1189.0         0.22          6.1 
      1190.0         0.23          5.9 
      1191.0         0.17          6.1 
      1192.0         0.17          6.0 
      1193.0         0.17          5.8 
      1194.0         0.17          5.7 
      1195.0         0.17          5.3 
      1196.0         5.12        115.5 
      1197.0         0.22        116.0 
      1198.0         0.27        109.7 
      1199.0         0.27         80.1 
      1200.0         0.27         52.0 
      1201.0         0.27         33.4 
      1202.0         0.23         20.9 
      1203.0         0.23         14.6 
      1204.0         0.23         10.9 
      1205.0         0.30          8.1 
      1206.0         0.17          6.3 
      1207.0         0.17          5.9 
      1208.0         0.13          6.0 
      1209.0         0.13          5.7 
      1210.0         0.13          6.0 
      1211.0         0.23          6.1 
      1212.0         0.20          6.9 
      1213.0         0.22          5.8 
      1214.0         0.20          5.6 
      1215.0         0.20          6.2 
      1216.0         0.20          7.0 
      1217.0         0.23          7.2 
      1218.0         0.27          6.3 
      1219.0         0.13          6.5 
      1220.0         0.17          6.2 
      1221.0         0.17          6.1 
      1222.0         0.20          6.4 
      1223.0         0.20          5.7 
      1224.0         0.20          5.7 
      1225.0         0.23          4.3 
      1226.0         2.95         88.6 
      1227.0         0.23        114.1 
      1228.0         0.20        117.3 
      1229.0         0.13        111.8 
      1230.0         0.27         99.5 
      1231.0         0.28         69.9 
      1232.0         0.20         48.3 
      1233.0         0.17         37.3 
      1234.0         0.17         29.3 
      1235.0         0.20         23.5 
