~Version Information
VERS.                      2.0: CWLS Log ASCII Standard - VERSION 2.0
WRAP.                       NO: One line per depth step
~Well Information Block
STRT.FT                -7.2500: 
STOP.FT               862.2500: 
STEP.FT                 0.2500: 
NULL.                -999.2500: 
COMP.          Pioneer Natural Resources: COMPANY
WELL.          Santisteven 13-22: WELL
FLD.           Purgatorie River: FIELD
LOC.           1861' FSL & 992' FWL--: LOCATION
PROV.                       CO: PROVINCE
CNTY.               Las Animas: COUNTRY
SRVC.          Patterson Wireline: SERVICE COMPANY
DATE.          Thu Apr 07 09:08:11 2005: LOG DATE
UWI.           05 071 08337 00: UNIQUE WELL ID
~Curve Information Block
DEPT.FT            0 000 00 00: Depth
CCL.                          : Casing Collar Locator
TT3.usec                      : CBL 3' Travel Time
AMP3.mV                       : CBL 3' Amplitude
GR.GAPI                       : Gamma Ray
~Parameter Information Block
~A  Depth       CCL         TT3         AMP3         GR     
# ...
   763.2500      0.0000    714.9656      3.8654     62.1708
   763.5000      0.0000    692.1642      3.8483     62.5751
   763.7500      0.0000    665.1257      3.8392     63.5887
   764.0000      0.0000    646.0474      3.8339     65.9400
   764.2500      0.0000    646.0066      3.8359     69.0005
   764.5000      0.0000    664.9653      3.8439     70.8538
   764.7500      0.0000    691.7681      3.8458     70.0368
   765.0000      0.0000    714.0674      3.8331     66.7510
   765.2500      0.0000    726.3795      3.8141     62.3044
   765.5000      0.0000    729.7868      3.8041     58.1255
   765.7500      0.0000    727.8829      3.8065     55.5726
   766.0000      0.0000    724.3816      3.8088     55.8395
   766.2500      0.0000    722.1764      3.7909     59.2348
   766.5000      0.0000    722.0690      3.7373     64.6435
   766.7500      0.0000    722.2146      3.6502     70.1307
   767.0000      0.0000    720.0061      3.5529     74.2625
   767.2500      0.0000    715.1239      3.4739     76.8654
   767.5000      0.0000    710.4116      3.4226     78.6118
   767.7500      0.0000    709.4188      3.3820     80.0506
   768.0000      0.0000    713.3686      3.3296     81.0841
   768.2500      0.0000    720.6635      3.2554     81.3137
   768.5000      0.0000    728.5430      3.1635     80.7878
   768.7500      0.0000    734.6379      3.0706     80.1922
   769.0000      0.0000    737.8045      3.0015     80.1395
   769.2500      0.0000    738.4321      2.9762     80.4311
   769.5000      0.0000    737.8608      2.9931     80.3067
   769.7500      0.0000    736.9969      3.0236     79.3760
   770.0000      0.0000    735.2883      3.0400     78.0460
   770.2500      0.0000    731.0275      3.0515     77.0326
   770.5000      0.0000    722.9008      3.0986     76.5836
   770.7500      0.0000    711.4623      3.2100     76.3233
   771.0000      0.0000    699.0536      3.3744     76.0156
   771.2500      0.0000    688.2263      3.5443     76.2638
   771.5000      0.0000    680.2949      3.6650     77.9459
   771.7500      0.0000    674.9096      3.7128     80.9878
   772.0000      0.0000    670.7717      3.7064     84.2101
   772.2500      0.0000    667.5271      3.6825     86.4999
   772.5000      0.0000    667.3896      3.6685     87.7202
   772.7500      0.0000    673.6848      3.6728     88.3484
   773.0000      0.0000    686.6568      3.6915     88.6212
   773.2500      0.0000    701.7588      3.7231     88.2636
   773.5000      0.0000    713.3419      3.7675     86.8787
   773.7500      0.0000    719.4822      3.8060     84.4522
   774.0000      0.0000    722.7979      3.8113     81.6004
   774.2500      0.0000    727.2482      3.7832     79.4653
   774.5000      0.0000    734.4759      3.7495     79.2237
   774.7500      0.0000    742.7296      3.7299     81.3144
   775.0000      0.0000    748.7106      3.7170     84.9244
   775.2500      0.0000    750.3727      3.6804     88.4910
   775.5000      0.0000    748.4538      3.5795     90.9955
   775.7500      0.0000    745.5982      3.4042     92.5569
   776.0000      0.0000    744.0103      3.2161     93.5603
   776.2500      0.0000    743.7981      3.1178     93.6667
   776.5000      0.0000    743.4602      3.1605     92.1153
   776.7500      0.0000    741.7689      3.3053     88.7907
   777.0000      0.0000    738.9449      3.4764     84.6043
   777.2500      0.0000    736.1364      3.6165     80.7616
   777.5000      0.0000    734.2413      3.6958     77.7475
   777.7500      0.0000    733.4770      3.7205     75.1575
   778.0000      0.0000    733.7817      3.7433     72.6139
   778.2500      0.0000    735.3061      3.8191     70.6184
   778.5000      0.0000    738.5234      3.9361     70.1413
   778.7500      0.0000    743.8878      4.0308     71.4831
   779.0000      0.0000    751.1959      4.0670     73.8874
   779.2500      0.0000    759.2191      4.0571     76.3035
   779.5000      0.0000    766.2250      4.0128     78.2480
   779.7500      0.0000    771.0414      3.9290     79.7353
   780.0000      0.0000    773.5945      3.8253     80.6534
   780.2500      0.0000    774.4861      3.7488     80.7011
   780.5000      0.0000    774.2036      3.7059     79.9927
   780.7500      0.0000    772.5532      3.6355     79.3119
   781.0000      0.0000    768.5682      3.4856     79.4466
   781.2500      0.0000    761.0685      3.2856     80.3973
   781.5000      0.0000    749.9260      3.1032     81.3757
   781.7500      0.0000    737.1882      2.9569     81.4662
   782.0000      0.0000    726.9673      2.8181     80.2912
   782.2500      0.0000    723.6891      2.6856     78.2828
   782.5000      0.0000    729.4403      2.6076     76.3022
   782.7500      0.0000    742.3049      2.6152     74.8187
   783.0000      0.0000    757.5453      2.6695     73.6191
   783.2500      0.0000    770.8712      2.7078     72.4679
   783.5000      0.0000    780.5103      2.7221     71.6597
   783.7500     -2.0000    786.6874      2.7548     71.6636
   784.0000      0.0000    789.9946      2.8185     72.6855
   784.2500      0.0000    790.3264      2.8701     74.9235
   784.5000      0.0000    787.5396      2.8873     78.7348
   784.7500      0.0000    783.4963      2.9347     84.0237
   785.0000      0.0000    782.1646      3.1032     89.7154
   785.2500      0.0000    785.9379      3.3868     94.1887
   785.5000      0.0000    792.5330      3.6560     96.2310
   785.7500      0.0000    796.9800      3.7712     95.6500
   786.0000      0.0000    796.3237      3.7119     93.1616
   786.2500      0.0000    791.5401      3.5895     89.7706
   786.5000      0.0000    785.6319      3.5400     86.1947
   786.7500      0.0000    780.9311      3.6070     82.7078
   787.0000      0.0000    778.0817      3.7267     79.3112
   787.2500      0.0000    776.6474      3.8039     75.9807
   787.5000      0.0000    776.0063      3.7867     72.8613
   787.7500      0.0000    775.7813      3.6830     70.2900
   788.0000      0.0000    775.8615      3.5329     68.7299
   788.2500      0.0000    776.3777      3.3805     68.8537
   788.5000      0.0000    777.7226      3.2641     71.4307
   788.7500      0.0000    780.4451      3.2174     76.5576
   789.0000      0.0000    784.7369      3.2642     82.9789
   789.2500      0.0000    789.6748      3.4091     88.7867
   789.5000      0.0000    793.1970      3.6356     93.0211
   789.7500      0.0000    793.4749      3.9142     96.1466
   790.0000      0.0000    790.5208      4.2082     98.6974
   790.2500      0.0000    786.0829      4.4674     99.8769
   790.5000      0.0000    781.9114      4.6231     98.0604
   790.7500      0.0000    778.4203      4.6017     92.7588
   791.0000      0.0000    775.0179      4.3658     85.7592
   791.2500      0.0000    771.4856      3.9654     80.1068
   791.5000      0.0000    768.9593      3.5497     77.9954
   791.7500      0.0000    769.2919      3.3034     79.6360
   792.0000      0.0000    772.6873      3.3425     83.8952
   792.2500      0.0000    775.6978      3.6533     89.5316
   792.5000      0.0000    772.2300      4.1181     95.5551
   792.7500      0.0000    757.8457      4.5933    100.7739
   793.0000      0.0000    734.3065      4.9777    103.6876
   793.2500      0.0000    710.0806      5.2297    103.2414
   793.5000      0.0000    695.0546      5.3412     99.7316
   793.7500      0.0000    693.2466      5.3092     94.8012
   794.0000      0.0000    700.4847      5.1317     90.2674
   794.2500      0.0000    709.1526      4.8265     86.9120
   794.5000      0.0000    714.2123      4.4475     84.5536
   794.7500      0.0000    714.8037      4.0777     83.1014
   795.0000      0.0000    712.3610      3.8055     83.1680
   795.2500      0.0000    708.8965      3.7015     85.6404
   795.5000      0.0000    706.4176      3.7949     90.7999
   795.7500      0.0000    706.5397      4.0489     97.7455
   796.0000      0.0000    710.1235      4.3669    104.3742
   796.2500      0.0000    717.6031      4.6469    108.0826
   796.5000      0.0000    729.7577      4.8397    107.1997
