~Version Information
VERS.                      2.0: CWLS Log ASCII Standard - VERSION 2.0
WRAP.                       NO: One line per depth step
~Well Information Block
STRT.FT               620.0000: 
STOP.FT              2663.2500: 
STEP.FT                 0.2500: 
NULL.                -999.2500: 
COMP.          Evergreen Operating Corporation: COMPANY
WELL.             Carbon 34-21: WELL
FLD.           Purgatoire River: FIELD
LOC.           56' FSL & 2304' FEL: LOCATION
PROV.                 Colorado: PROVINCE
CNTY.               Las Animas: COUNTRY
SRVC.                Patterson: SERVICE COMPANY
DATE.          Mon Sep 13 11:41:04 2004: LOG DATE
UWI.           05 071 08117 00: UNIQUE WELL ID
~Curve Information Block
DEPT.FT            0 000 00 00: Depth
DIR.Ohm-m                     : IEL Induction Resistivity
SN.Ohm-m                      : IEL Short Normal
SP.mV                         : IEL Spontaneous Potential
GR.GAPI                       : Gamma Ray
~Parameter Information Block
~A  Depth       DIR          SN          SP          GR     
# ...
  1960.0000      0.0137   2000.0000   2000.0000    100.3829
  1960.2500      0.0137   2000.0000   2000.0000     95.0057
  1960.5000      0.0137   2000.0000   2000.0000     88.2119
  1960.7500      0.0137   2000.0000   2000.0000     85.9918
  1961.0000      0.0137   2000.0000   2000.0000     86.3742
  1961.2500      0.0137   2000.0000   2000.0000     88.4462
  1961.5000      0.0137   2000.0000   2000.0000     92.8807
  1961.7500      0.0137   2000.0000   2000.0000     96.0621
  1962.0000      0.0137   2000.0000   2000.0000    100.6906
  1962.2500      0.0137   2000.0000   2000.0000    103.7737
  1962.5000      0.0137   2000.0000   2000.0000    108.5159
  1962.7500      0.0137   2000.0000   2000.0000    111.6259
  1963.0000      0.0137   2000.0000   2000.0000    116.3583
  1963.2500      0.0137   2000.0000   2000.0000    120.0036
  1963.5000      0.0137   2000.0000   2000.0000    126.3636
  1963.7500      0.0137   2000.0000   2000.0000    130.5851
  1964.0000      0.0137   2000.0000   2000.0000    135.9916
  1964.2500      0.0137   2000.0000   2000.0000    139.2100
  1964.5000      0.0137   2000.0000   2000.0000    144.1958
  1964.7500      0.0137   2000.0000   2000.0000    147.4771
  1965.0000      0.0116   2000.0000   2000.0000    151.4870
  1965.2500      0.0116   2000.0000   2000.0000    153.4428
  1965.5000      0.0116   2000.0000   2000.0000    155.7342
  1965.7500      0.0116   2000.0000   2000.0000    156.8586
  1966.0000      0.0116   2000.0000   2000.0000    157.3717
  1966.2500      0.0116   2000.0000   2000.0000    156.8098
  1966.5000      0.0116   2000.0000   2000.0000    155.4597
  1966.7500      0.0116   2000.0000   2000.0000    155.0318
  1967.0000      0.0116   2000.0000   2000.0000    156.0057
  1967.2500      0.0115   2000.0000   2000.0000    157.5791
  1967.5000      0.0115   2000.0000   2000.0000    159.6830
  1967.7500      0.0115   2000.0000   2000.0000    159.5280
  1968.0000      0.0115   2000.0000   2000.0000    155.5234
  1968.2500      0.0114   2000.0000   2000.0000    150.7978
  1968.5000      0.0140   2000.0000   2000.0000    143.1281
  1968.7500      0.0139   2000.0000   2000.0000    139.0597
  1969.0000      0.0139   2000.0000   2000.0000    135.4552
  1969.2500      0.0139   2000.0000   2000.0000    134.3357
  1969.5000      0.0139   2000.0000   2000.0000    133.1531
  1969.7500      0.0139   2000.0000   2000.0000    131.8613
  1970.0000      0.0140   2000.0000   2000.0000    128.4632
  1970.2500      0.0140   2000.0000   2000.0000    125.6126
  1970.5000      0.0141   2000.0000   2000.0000    122.5058
  1970.7500      0.0142   2000.0000   2000.0000    122.4732
  1971.0000      0.0142   2000.0000   2000.0000    125.7978
  1971.2500      0.0143   2000.0000   2000.0000    128.9719
  1971.5000      1.4621   2000.0000   2000.0000    131.8586
  1971.7500      1.4622   2000.0000   2000.0000    131.3387
  1972.0000      1.4658   2000.0000   2000.0000    127.7901
  1972.2500      1.4781   2000.0000   2000.0000    125.5613
  1972.5000      1.5023   2000.0000   2000.0000    126.0312
  1972.7500      1.5416   2000.0000   2000.0000    129.6799
  1973.0000      1.6012   2000.0000   2000.0000    138.0570
  1973.2500      1.6926   2000.0000   2000.0000    142.9869
  1973.5000      1.8365   2000.0000   2000.0000    145.5291
  1973.7500      2.0667   2000.0000   2000.0000    143.2764
  1974.0000      2.4356   2000.0000   2000.0000    135.3526
  1974.2500      3.0290   2000.0000   2000.0000    128.5475
  1974.5000 100000.0000   2000.0000   2000.0000    118.7315
  1974.7500 100000.0000   2000.0000   2000.0000    113.8974
  1975.0000 100000.0000   2000.0000   2000.0000    111.2360
  1975.2500 100000.0000   2000.0000   2000.0000    113.1175
  1975.5000 100000.0000   2000.0000   2000.0000    120.8278
  1975.7500 100000.0000     -2.6957   2000.0000    127.8457
  1976.0000 100000.0000     -1.7555   2000.0000    137.9686
  1976.2500 100000.0000     -0.4696    484.6325    143.0808
  1976.5000 100000.0000      0.9998    486.7330    148.0534
  1976.7500 100000.0000      2.4422    487.6156    150.2206
  1977.0000 100000.0000      3.7124    487.4547    152.3366
  1977.2500 100000.0000      4.7751    486.5753    152.7019
  1977.5000    125.4371      5.6703    485.2667    151.2678
  1977.7500 100000.0000      6.4580    483.6898    149.4902
  1978.0000      4.6618      7.1877    481.8775    147.5028
  1978.2500      6.1016      7.8970    479.7834    110.7043
  1978.5000      8.4221      8.6252    477.3409    112.7100
  1978.7500     11.6610      9.4209    474.5107    114.8474
  1979.0000     15.0980     10.3311    471.3139    117.7129
  1979.2500     17.2525     11.3814    467.8322    118.4113
  1979.5000     17.4697     12.5688    464.1812    116.6441
  1979.7500     16.5809     13.8741    460.4630    113.6886
  1980.0000     15.5850     15.2844    456.7163    107.6199
  1980.2500     14.9262     16.8122    452.8960    103.1955
  1980.5000     14.6724     18.4910    448.9008     96.8598
  1980.7500     14.7504     20.3405    444.6403     93.0526
  1981.0000     15.0392     22.3339    440.1057     87.9984
  1981.2500     15.3905     24.4074    435.4069     85.1343
  1981.5000     15.6395     26.4974    430.7600     82.2384
  1981.7500     15.6726     28.5293    426.4380     81.8108
  1982.0000     15.5185     30.3498    422.7130     83.8728
  1982.2500     15.3668     31.7051    419.8165     86.6430
  1982.5000     15.4778     32.3634    417.9265     91.3051
  1982.7500     16.0692     32.2916    417.1782     93.7812
  1983.0000     17.2331     31.6849    417.6846     95.5596
  1983.2500     18.8443     30.7898    419.5495     95.4595
  1983.5000     20.4647     29.7045    422.8571     94.4904
  1983.7500     21.4284     28.3477    427.6374     94.3353
  1984.0000     21.2627     26.5984    433.8180     95.9594
  1984.2500     20.0578     24.4575    441.1865     97.9180
  1984.5000     18.2999     22.0938    449.3876    100.4133
  1984.7500     16.4607     19.7600    457.9615    101.2002
  1985.0000     14.8068     17.6707    466.4107    102.1279
  1985.2500     13.4265     15.9399    474.2737    104.0059
  1985.5000     12.3133     14.5897    481.1827    110.6421
  1985.7500     11.4293     13.5858    486.8972    117.7799
  1986.0000     10.7389     12.8628    491.3118    131.3011
  1986.2500     10.2192     12.3424    494.4394    140.8831
  1986.5000      9.8580     11.9492    496.3760    153.2316
  1986.7500      9.6464     11.6192    497.2605    158.4710
  1987.0000      9.5729     11.3100    497.2440    160.5384
  1987.2500      9.6209     11.0181    496.4821    158.6612
  1987.5000      9.7709     10.7907    495.1473    153.3862
  1987.7500     10.0040     10.7159    493.4402    149.3087
  1988.0000     10.3063     10.8934    491.5806    142.4078
  1988.2500     10.6680     11.3932    489.7703    136.6768
  1988.5000     11.0798     12.2070    488.1466    126.0436
  1988.7500     11.5274     13.2261    486.7551    118.3788
  1989.0000     11.9900     14.2879    485.5623    108.5323
  1989.2500     12.4423     15.2620    484.5010    104.5467
  1989.5000     12.8580     16.0896    483.5262    104.0278
  1989.7500     13.2110     16.7462    482.6529    107.3922
  1990.0000     13.4774     17.1931    481.9661    116.3440
  1990.2500     13.6398     17.3813    481.6039    123.0630
  1990.5000     13.6918     17.2867    481.7245    131.0425
  1990.7500     13.6399     16.9269    482.4623    133.9556
  1991.0000     13.4991     16.3517    483.8785    134.7933
  1991.2500     13.2858     15.6302    485.9200    133.5556
  1991.5000     13.0111     14.8389    488.4067    130.3551
  1991.7500     12.6790     14.0473    491.0632    128.4790
  1992.0000     12.2907     13.3028    493.5895    128.0835
  1992.2500     11.8524     12.6238    495.7428    129.8045
  1992.5000     11.3788     12.0048    497.3930    134.0557
  1992.7500     10.8914     11.4366    498.5318    136.8220
  1993.0000     10.4132     10.9252    499.2399    139.8904
  1993.2500      9.9637     10.4890    499.6366    141.5781
