~Version Information
VERS.                      2.0: CWLS Log ASCII Standard - VERSION 2.0
WRAP.                       NO: One line per depth step
~Well Information Block
STRT.FT               240.0000: 
STOP.FT              1452.5000: 
STEP.FT                 0.1000: 
NULL.                -999.2500: 
COMP.          Petrogulf Corporation: COMPANY
WELL.          Robinson 15-12R: WELL
FLD.           Purgatorie River: FIELD
LOC.           1752' FNL & 561' FWL: LOCATION
PROV.                 Colorado: PROVINCE
CNTY.               Las Animas: COUNTRY
SRVC.                Patterson: SERVICE COMPANY
DATE.          Tue Sep 13 15:07:52 2005: LOG DATE
UWI.                          : UNIQUE WELL ID
~Curve Information Block
DEPT.FT            0 000 00 00: Depth
DCAL.in                       : CDL Caliper
RHOB.g/cc                     : CDL Bulk Density
RHOC.g/cc                     : CDL Density Correction
DPOR.pu                       : CDL Density Porosity
GR.GAPI                       : Gamma Ray
NPOR.pu                       : Neutron Porosity
~Parameter Information Block
~A  Depth       DCAL        RHOB        RHOC        DPOR         GR         NPOR    
# ...
  1123.2000      8.0022      2.5336      0.1870      7.0525    132.3439     30.0696
  1123.3000      7.9801      2.5371      0.0145      6.8423    130.4239     29.1470
  1123.4000      7.9801      2.5459      0.0049      6.3111    128.3364     27.9124
  1123.5000      7.9391      2.5564      0.0533      5.6711    126.0432     26.6371
  1123.6000      7.9391      2.5483      0.0359      6.1665    125.1565     25.6772
  1123.7000      7.9391      2.5336     -0.0011      7.0560    126.6970     25.3735
  1123.8000      7.9326      2.5363     -0.0031      6.8916    130.2770     25.2420
  1123.9000      7.9326      2.5549      0.0362      5.7661    134.5970     24.5512
  1124.0000      7.9173      2.5719      0.0737      4.7316    137.7615     23.4507
  1124.1000      7.9173      2.5820      0.0695      4.1231    138.7689     22.6361
  1124.2000      7.9173      2.5866      0.1003      3.8402    138.3760     22.6563
  1124.3000      7.8672      2.5785      0.1010      4.3307    138.6087     23.1911
  1124.4000      7.8672      2.5606      0.0681      5.4177    140.2851     23.4790
  1124.5000      7.8273      2.5625      0.0543      5.3018    142.2997     23.6098
  1124.6000      7.8273      2.6032      0.1249      2.8334    143.2747     23.9843
  1124.7000      7.8273      2.6575      0.1857     -0.4539    142.7802     24.5025
  1124.8000      7.8134      2.6917      0.1983     -2.5290    140.9053     24.9389
  1124.9000      7.8134      2.7025      0.1845     -3.1818    135.7743     25.0980
  1125.0000      7.8417      2.7008      0.1283     -3.0813    126.9395     24.9658
  1125.1000      7.8417      2.6952      0.1349     -2.7392    117.6601     24.7688
  1125.2000      7.8417      2.6853      0.1493     -2.1394    110.9014     24.6029
  1125.3000      7.8534      2.6665      0.0824     -1.0022    109.6067     24.3848
  1125.4000      7.8534      2.6416      0.0702      0.5108    113.2986     24.0885
  1125.5000      7.8568      2.6180      0.0571      1.9381    117.9421     23.8897
  1125.6000      7.8568      2.6022      0.0227      2.8967    123.9512     23.9652
  1125.7000      7.8568      2.5980      0.0375      3.1501    132.0368     24.1297
  1125.8000      7.8961      2.6012      0.0465      2.9567    136.0211     24.1717
  1125.9000      7.8961      2.6021      0.0180      2.9051    134.1117     24.2563
  1126.0000      7.9052      2.5995      0.0091      3.0615    131.6550     24.3891
  1126.1000      7.9052      2.5957      0.0361      3.2927    128.6840     24.2888
  1126.2000      7.9052      2.5928      0.0223      3.4647    123.3804     23.8623
  1126.3000      7.9121      2.5994      0.0407      3.0690    118.9802     23.2225
  1126.4000      7.9121      2.6139      0.0553      2.1861    117.2037     22.3452
  1126.5000      7.9215      2.6180      0.0548      1.9417    116.2474     21.2678
  1126.6000      7.9215      2.5973      0.0444      3.1944    116.0929     20.4058
  1126.7000      7.9215      2.5608      0.0014      5.4064    117.7771     20.0708
  1126.8000      7.9182      2.5346      0.0016      6.9940    120.4983     20.3449
  1126.9000      7.9182      2.5360     -0.0238      6.9072    122.8365     21.1191
  1127.0000      7.9143      2.5547      0.0138      5.7737    124.3644     22.0571
  1127.1000      7.9143      2.5725      0.0197      4.6998    124.4494     23.0307
  1127.2000      7.9143      2.5882      0.0159      3.7475    122.7720     24.0185
  1127.3000      7.9128      2.5994      0.0748      3.0676    121.6737     24.6901
  1127.4000      7.9128      2.5977      0.0455      3.1674    121.9668     24.7138
  1127.5000      7.9192      2.5928      0.0285      3.4644    121.7278     24.1173
  1127.6000      7.9192      2.5953      0.0637      3.3127    122.8898     23.2794
  1127.7000      7.9192      2.5932      0.0671      3.4416    127.0484     22.9868
  1127.8000      7.9160      2.5775      0.0306      4.3938    130.0373     23.7442
  1127.9000      7.9160      2.5610      0.0341      5.3925    130.4100     24.8761
  1128.0000      7.9146      2.5538      0.0331      5.8316    132.6022     25.4318
  1128.1000      7.9146      2.5481      0.0338      6.1728    137.6030     25.2383
  1128.2000      7.9146      2.5441      0.0006      6.4162    142.1515     24.5326
  1128.3000      7.9098      2.5597      0.0211      5.4705    145.7261     23.5761
  1128.4000      7.9098      2.5873      0.0954      3.8004    149.2948     22.6927
  1128.5000      7.9195      2.5966      0.0678      3.2394    150.6620     22.2751
  1128.6000      7.9195      2.5883      0.0213      3.7398    146.9431     22.6067
  1128.7000      7.9195      2.5800      0.0732      4.2406    140.9425     23.3876
  1128.8000      7.9160      2.5793      0.0269      4.2877    138.2277     23.9935
  1128.9000      7.9160      2.5947      0.0629      3.3492    139.2208     24.3272
  1129.0000      7.8674      2.6253      0.1019      1.4950    141.3708     24.6187
  1129.1000      7.8674      2.6539      0.1430     -0.2370    142.4334     24.8290
  1129.2000      7.8674      2.6689      0.1397     -1.1432    139.9803     24.7936
  1129.3000      7.8226      2.6715      0.1502     -1.3028    135.4261     24.5868
  1129.4000      7.8226      2.6633      0.1381     -0.8049    131.1595     24.5840
  1129.5000      7.8236      2.6499      0.1089      0.0062    126.8570     24.8299
  1129.6000      7.8236      2.6424      0.0683      0.4620    124.8718     24.8894
  1129.7000      7.8236      2.6366      0.0574      0.8121    127.6671     24.7346
  1129.8000      7.8527      2.6190      0.0517      1.8764    132.7263     24.6306
  1129.9000      7.8527      2.5940      0.0386      3.3924    134.8425     24.6604
  1130.0000      7.8948      2.5740      0.0112      4.6062    133.4897     24.7121
  1130.1000      7.8948      2.5641      0.0629      5.2060    132.9137     24.5782
  1130.2000      7.8948      2.5633      0.0196      5.2524    131.7688     24.2304
  1130.3000      7.9195      2.5678      0.0642      4.9843    128.3366     23.9199
  1130.4000      7.9195      2.5774      0.0455      4.4025    126.0604     23.8498
  1130.5000      7.9226      2.5957      0.0560      3.2921    126.3912     23.9528
  1130.6000      7.9226      2.6131      0.1070      2.2338    127.9831     23.9284
  1130.7000      7.9226      2.6152      0.0998      2.1119    128.5538     23.5345
  1130.8000      7.9073      2.6106      0.0902      2.3850    127.4713     23.1815
  1130.9000      7.9073      2.6193      0.1034      1.8585    126.2959     23.2572
  1131.0000      7.8194      2.6427      0.1323      0.4440    126.1369     23.3091
  1131.1000      7.8194      2.6630      0.1636     -0.7860    126.6569     23.2497
  1131.2000      7.8194      2.6701      0.1292     -1.2203    127.0037     23.5051
  1131.3000      7.7848      2.6706      0.1299     -1.2487    127.9704     23.8067
  1131.4000      7.7848      2.6663      0.1256     -0.9876    129.4092     23.7546
  1131.5000      7.8100      2.6623      0.0722     -0.7445    129.3216     23.7233
  1131.6000      7.8100      2.6661      0.1204     -0.9764    129.1139     23.9081
  1131.7000      7.8100      2.6634      0.1184     -0.8147    128.4565     23.9722
  1131.8000      7.8837      2.6420      0.0809      0.4867    122.1899     23.9081
  1131.9000      7.8837      2.6149      0.0523      2.1278    109.8022     23.9524
  1132.0000      7.8741      2.6008      0.0098      2.9845     99.6233     23.7420
  1132.1000      7.8741      2.6004      0.0405      3.0077     96.1186     22.9258
  1132.2000      7.8741      2.6002      0.0689      3.0162     96.4512     22.0662
  1132.3000      7.8999      2.6002      0.0349      3.0208     97.1263     21.6670
  1132.4000      7.8999      2.6028      0.0651      2.8580     95.1290     21.5216
  1132.5000      7.8912      2.5985      0.0500      3.1217     90.1705     21.3742
  1132.6000      7.8912      2.5951      0.0133      3.3281     84.0326     21.0784
  1132.7000      7.8912      2.6130      0.0391      2.2445     79.7943     20.5973
