~Version Information
VERS.                      2.0: CWLS Log ASCII Standard - VERSION 2.0
WRAP.                       NO: One line per depth step
~Well Information Block
STRT.FT               679.2000: 
STOP.FT              2289.5000: 
STEP.FT                 0.1000: 
NULL.                -999.2500: 
COMP.          Petrogulf Corporation: COMPANY
WELL.          Anderson 18-43V: WELL
FLD.           Purgatorie River: FIELD
LOC.           1782' FSL & 887' FEL: LOCATION
CNTY.               Las Animas: COUNTY
SRVC.                         : SERVICE COMPANY
DATE.          Thu Sep 02 08:33:50 2004: LOG DATE
UWI.           05 071 08156 00: UNIQUE WELL ID
STAT.                 Colorado: STATE
~Curve Information Block
DEPT.FT            0 000 00 00: Depth
GR.GAPI                       : Gamma Ray
DCAL.in                       : CDL Caliper
DPOR.pu                       : CDL Density Porosity
NPOR.pu                       : Neutron Porosity
RHOB.g/cc                     : CDL Bulk Density
RHOC.g/cc                     : CDL Density Correction
~Parameter Information Block
~A  Depth        GR         DCAL        DPOR        NPOR        RHOB        RHOC    
# ...
  1120.8000    120.7748      8.2926      4.9159     25.9661      2.5689      0.0404
  1120.9000    119.6520      8.2926      4.3049     26.5268      2.5790      0.0657
  1121.0000    118.5834      8.2915      4.6831     26.8141      2.5727      0.0395
  1121.1000    117.6967      8.2915      5.2052     26.5160      2.5641      0.0184
  1121.2000    117.1112      8.2915      5.0814     26.0188      2.5662      0.0331
  1121.3000    116.9277      8.2912      4.7657     25.6114      2.5714      0.0437
  1121.4000    117.2211      8.2912      4.5772     25.2156      2.5745     -0.0168
  1121.5000    118.0325      8.2931      4.0941     24.8150      2.5824      0.0042
  1121.6000    119.3671      8.2931      3.3549     24.5231      2.5946      0.0557
  1121.7000    121.1961      8.2931      2.8863     24.3289      2.6024      0.0332
  1121.8000    123.4600      8.2938      3.1234     24.1060      2.5985      0.0423
  1121.9000    126.0756      8.2938      4.1489     23.9172      2.5815      0.0008
  1122.0000    128.9425      8.2950      5.6301     23.8731      2.5571      0.0045
  1122.1000    131.9543      8.2950      7.4439     23.8029      2.5272      0.0093
  1122.2000    135.0009      8.2950      9.4908     23.6130      2.4934     -0.0291
  1122.3000    137.9791      8.2954     11.4927     23.5797      2.4604     -0.0311
  1122.4000    140.7923      8.2954     13.4670     23.9403      2.4278     -0.0038
  1122.5000    143.3520      8.2942     15.1169     24.6783      2.4006     -0.0475
  1122.6000    145.5829      8.2942     15.4796     25.5831      2.3946     -0.0436
  1122.7000    147.4258      8.2942     14.0651     26.2878      2.4179     -0.0244
  1122.8000    148.8401      8.3005     11.3688     26.5956      2.4624      0.0156
  1122.9000    149.8105      8.3005      8.4389     26.6178      2.5108      0.0562
  1123.0000    150.3472      8.3320      6.2818     26.4787      2.5464      0.0600
  1123.1000    150.4894      8.3320      4.9551     26.3476      2.5682      0.0917
  1123.2000    150.2954      8.3320      3.7379     26.5007      2.5883      0.0818
  1123.3000    149.8377      8.3391      2.5435     26.8973      2.6080      0.1471
  1123.4000    149.1912      8.3391      2.2743     27.0851      2.6125      0.1268
  1123.5000    148.4222      8.3494      3.3376     26.8861      2.5949      0.0969
  1123.6000    147.5832      8.3494      5.0108     26.7228      2.5673      0.0762
  1123.7000    146.7074      8.3494      6.5409     26.9867      2.5421      0.0299
  1123.8000    145.8122      8.3434      7.6893     27.4666      2.5231      0.0376
  1123.9000    144.9014      8.3434      8.1592     27.8248      2.5154      0.0240
  1124.0000    143.9749      8.3420      7.7894     27.9480      2.5215      0.0609
  1124.1000    143.0332      8.3420      7.1462     27.8515      2.5321      0.0405
  1124.2000    142.0816      8.3420      6.6306     27.7195      2.5406      0.0543
  1124.3000    141.1335      8.3439      5.9248     27.6418      2.5522      0.0553
  1124.4000    140.2115      8.3439      5.0119     27.6911      2.5673      0.1094
  1124.5000    139.3466      8.3439      4.8447     28.0531      2.5701      0.0994
  1124.6000    138.5795      8.3439      6.1136     28.5633      2.5491      0.0756
  1124.7000    137.9546      8.3439      7.9049     28.7695      2.5196     -0.0072
  1124.8000    137.5242      8.3524      8.6827     28.4405      2.5067     -0.0074
  1124.9000    137.3411      8.3524      8.6078     27.8125      2.5080      0.0527
  1125.0000    137.4584      8.3526      8.8558     27.3787      2.5039      0.0136
  1125.1000    137.9112      8.3526      9.7821     27.2511      2.4886      0.0577
  1125.2000    138.7171      8.3526     10.9346     26.9523      2.4696     -0.0420
  1125.3000    139.8609      8.3610     11.4442     26.3699      2.4612     -0.0183
  1125.4000    141.2926      8.3610     11.0438     26.2122      2.4678     -0.0144
  1125.5000    142.9258      8.3766     10.0056     26.6355      2.4849     -0.0217
  1125.6000    144.6478      8.3766      8.5019     27.1199      2.5097      0.0075
  1125.7000    146.3309      8.3766      6.7617     27.3529      2.5384      0.0035
  1125.8000    147.8520      8.3779      5.4828     27.2826      2.5595      0.0474
  1125.9000    149.1116      8.3779      5.6856     27.1750      2.5562      0.0581
  1126.0000    150.0453      8.3787      6.8704     27.2032      2.5366     -0.0074
  1126.1000    150.6322      8.3787      7.4729     27.1285      2.5267      0.0184
  1126.2000    150.8908      8.3787      7.4153     26.6881      2.5276      0.0258
  1126.3000    150.8670      8.3794      7.3831     25.9040      2.5282      0.0550
  1126.4000    150.6202      8.3794      7.2602     25.2127      2.5302      0.0037
  1126.5000    150.2058      8.3787      7.0971     25.1618      2.5329      0.0523
  1126.6000    149.6669      8.3787      7.6895     25.7695      2.5231      0.0172
  1126.7000    149.0297      8.3787      8.9952     26.6517      2.5016     -0.0279
  1126.8000    148.3060      8.3809     10.3656     27.4345      2.4790     -0.0216
  1126.9000    147.5033      8.3809     11.7740     27.7188      2.4557     -0.0112
  1127.0000    146.6344      8.3865     13.0655     27.2786      2.4344     -0.0335
  1127.1000    145.7239      8.3865     13.5555     26.4676      2.4263     -0.0455
  1127.2000    144.8083      8.3865     13.1903     25.7992      2.4324     -0.0062
  1127.3000    143.9361      8.4189     12.5672     25.2668      2.4426     -0.0136
  1127.4000    143.1537      8.4189     11.6215     24.7381      2.4582     -0.0056
  1127.5000    142.5006      8.4268     10.5725     24.1478      2.4756      0.0647
  1127.6000    141.9971      8.4268     10.9202     23.5296      2.4698      0.0448
  1127.7000    141.6429      8.4268     13.3254     23.0694      2.4301     -0.0018
  1127.8000    141.4135      8.4139     16.6965     22.6240      2.3745      0.0253
  1127.9000    141.2679      8.4139     19.8695     22.0156      2.3222     -0.0328
  1128.0000    141.1541      8.4302     22.2894     21.5869      2.2822     -0.0166
  1128.1000    141.0192      8.4302     23.6956     21.7329      2.2590     -0.0319
  1128.2000    140.8145      8.4302     24.1541     22.2719      2.2515     -0.0300
  1128.3000    140.5040      8.4308     24.2096     22.7331      2.2505      0.0072
  1128.4000    140.0632      8.4308     24.2671     22.8960      2.2496      0.0156
  1128.5000    139.4826      8.4102     24.1549     22.8304      2.2514      0.0369
  1128.6000    138.7682      8.4102     24.1017     23.0015      2.2523      0.1299
  1128.7000    137.9358      8.4102     24.4351     23.5904      2.2468      0.1105
  1128.8000    137.0162      8.3983     24.3616     24.2101      2.2480      0.1160
  1128.9000    136.0452      8.3983     23.1397     24.5608      2.2682      0.1613
  1129.0000    135.0664      8.3938     21.3423     24.6771      2.2979      0.2155
  1129.1000    134.1217      8.3938     19.8298     24.7446      2.3228      0.1761
  1129.2000    133.2557      8.3938     18.9346     24.7569      2.3376      0.1986
  1129.3000    132.5029      8.4081     18.8030     24.2613      2.3397      0.2215
  1129.4000    131.8907      8.4081     19.5593     23.1733      2.3273      0.2119
  1129.5000    131.4331      8.4106     21.6702     22.1028      2.2924      0.2655
  1129.6000    131.1343      8.4106     25.6428     21.4510      2.2269      0.1954
  1129.7000    130.9894      8.4106     31.3500     21.2000      2.1327      0.1952
  1129.8000    130.9886      8.4522     38.0217     21.3416      2.0226      0.0525
  1129.9000    131.1201      8.4522     43.3991     21.8712      1.9339      0.0555
  1130.0000    131.3709      8.4321     44.1227     22.4231      1.9220      0.0451
  1130.1000    131.7310      8.4321     38.3120     22.6518      2.0179      0.1628
  1130.2000    132.1839      8.4321     27.8655     22.7064      2.1902      0.4320
  1130.3000    132.7048      8.4576     16.8570     22.8908      2.3719      0.5476
