~Version Information
VERS.                      2.0: CWLS Log ASCII Standard - VERSION 2.0
WRAP.                       NO: One line per depth step
~Well Information Block
STRT.FT                -6.7500: 
STOP.FT              1181.0000: 
STEP.FT                 0.2500: 
NULL.                -999.2500: 
COMP.          Pioneer Natural Resources: COMPANY
WELL.          Pacheco 33-27 Tr: WELL
FLD.           Purgatorie River: FIELD
LOC.           2251' FSL & 2342' FEL--: LOCATION
PROV.                       CO: PROVINCE
CNTY.               Las Animas: COUNTRY
SRVC.          Patterson Wireline: SERVICE COMPANY
DATE.          Wed Jun 15 10:58:02 2005: LOG DATE
UWI.           05 071 08384 00: UNIQUE WELL ID
~Curve Information Block
DEPT.FT            0 000 00 00: Depth
CCL.                          : Casing Collar Locator
TT3.usec                      : CBL 3' Travel Time
AMP3.mV                       : CBL 3' Amplitude
GR.GAPI                       : Gamma Ray
~Parameter Information Block
~A  Depth       CCL         TT3         AMP3         GR     
# ...
  1065.2500      0.0000    770.6245      4.0699     82.3761
  1065.5000      0.0000    781.9272      4.0629     79.7216
  1065.7500      0.0000    789.1464      4.1135     78.5405
  1066.0000      0.0000    790.5632      4.2247     79.6810
  1066.2500      0.0000    789.9796      4.3764     82.7439
  1066.5000      2.0000    792.8054      4.5127     86.4061
  1066.7500      2.0000    800.4807      4.5732     89.5706
  1067.0000      0.0000    808.8460      4.5452     91.9476
  1067.2500      0.0000    811.3716      4.4840     93.9149
  1067.5000      0.0000    804.1226      4.4624     96.4068
  1067.7500      0.0000    788.7823      4.4826    100.5270
  1068.0000      0.0000    771.2385      4.4578    106.4096
  1068.2500      0.0000    757.1067      4.3031    112.5837
  1068.5000      0.0000    749.0753      4.0430    117.1412
  1068.7500      0.0000    747.7920      3.8100    119.4152
  1069.0000      0.0000    752.8837      3.7313    120.1109
  1069.2500      0.0000    762.1310      3.8240    120.4297
  1069.5000      0.0000    771.6613      3.9939    121.7271
  1069.7500      0.0000    778.9893      4.1253    125.3352
  1070.0000      0.0000    785.3718      4.1651    131.5506
  1070.2500      0.0000    793.5970      4.1431    138.7598
  1070.5000      0.0000    803.4584      4.1324    144.0949
  1070.7500      0.0000    810.7632      4.1807    145.1652
  1071.0000      0.0000    811.0787      4.2549    141.3140
  1071.2500      0.0000    803.6179      4.2571    133.6850
  1071.5000      0.0000    791.5792      4.1227    124.4574
  1071.7500      0.0000    779.5900      3.9098    115.9081
  1072.0000      0.0000    770.9147      3.7744    109.6126
  1072.2500      0.0000    766.4130      3.8333    105.9388
  1072.5000      0.0000    765.4286      4.0457    104.1960
  1072.7500      0.0000    766.9344      4.2423    103.3762
  1073.0000      0.0000    769.4955      4.2762    102.8051
  1073.2500      0.0000    770.6849      4.1473    102.3716
  1073.5000      0.0000    767.8134      3.9867    102.5258
  1073.7500      0.0000    759.9737      3.9345    103.8828
  1074.0000      0.0000    749.0043      4.0308    106.4520
  1074.2500      0.0000    738.0856      4.2047    109.4246
  1074.5000      0.0000    729.6053      4.3420    111.8372
  1074.7500      0.0000    724.2601      4.3612    113.1741
  1075.0000      0.0000    721.4764      4.2557    113.4063
  1075.2500      0.0000    720.2614      4.0938    113.0007
  1075.5000      0.0000    719.8105      3.9694    112.8998
  1075.7500      0.0000    719.6691      3.9271    113.9509
  1076.0000      0.0000    719.6246      3.9360    116.0204
  1076.2500      0.0000    719.5762      3.9398    117.8071
  1076.5000      0.0000    719.4919      3.9212    117.7105
  1076.7500      0.0000    719.3713      3.9079    114.9527
  1077.0000      0.0000    719.2167      3.9348    110.0526
  1077.2500      0.0000    719.0301      4.0112    104.3505
  1077.5000      0.0000    718.8322      4.1117     99.0608
  1077.7500      0.0000    718.6539      4.1864     94.9148
  1078.0000      0.0000    718.5034      4.1902     92.6217
  1078.2500      0.0000    718.3648      4.1142     92.8633
  1078.5000      0.0000    718.2393      3.9889     95.3615
  1078.7500      0.0000    718.1619      3.8637     98.5474
  1079.0000      0.0000    718.1639      3.7959    100.7633
  1079.2500      0.0000    718.2274      3.8406    101.5820
  1079.5000      0.0000    718.2866      4.0142    101.6843
  1079.7500      0.0000    718.2665      4.2592    101.9540
  1080.0000      0.0000    718.0814      4.4696    103.0668
  1080.2500      0.0000    717.5401      4.5701    105.2311
  1080.5000      0.0000    716.1827      4.5733    107.6221
  1080.7500      0.0000    713.2310      4.5556    108.5828
  1081.0000      0.0000    707.9664      4.5782    107.1650
  1081.2500      0.0000    700.5555      4.6354    104.3645
  1081.5000      0.0000    692.6390      4.6737    102.4395
  1081.7500      0.0000    686.7477      4.6528    102.8412
  1082.0000      0.0000    684.7391      4.5865    104.6908
  1082.2500      0.0000    686.7064      4.5265    105.5273
  1082.5000      0.0000    691.3295      4.5041    103.9121
  1082.7500      0.0000    696.9559      4.4967    100.9552
  1083.0000      0.0000    702.1245      4.4705     98.9295
  1083.2500      0.0000    705.5849      4.4411     98.9200
  1083.5000      0.0000    706.7561      4.4619    100.2642
  1083.7500      0.0000    706.4285      4.5498    101.7473
  1084.0000      0.0000    706.4842      4.6552    102.6536
  1084.2500      0.0000    708.5803      4.7060    102.6084
  1084.5000      0.0000    713.2074      4.6663    101.0428
  1084.7500      0.0000    719.7495      4.5662     97.5951
  1085.0000      0.0000    726.7018      4.4922     93.0505
  1085.2500      0.0000    731.8423      4.5292     89.1161
  1085.5000      0.0000    733.2733      4.6839     86.8530
  1085.7500      0.0000    730.9203      4.8701     85.7192
  1086.0000      0.0000    726.6039      4.9774     84.4436
  1086.2500      0.0000    722.3160      4.9579     82.5267
  1086.5000      0.0000    718.5880      4.8448     80.5988
  1086.7500      0.0000    714.4520      4.6962     79.5770
  1087.0000      0.0000    708.6529      4.5424     79.8261
  1087.2500      0.0000    700.9713      4.3941     81.0123
  1087.5000      0.0000    692.6313      4.2730     82.3866
  1087.7500      0.0000    685.4614      4.2045     83.0258
  1088.0000      0.0000    680.6746      4.1970     82.0227
  1088.2500      0.0000    678.5863      4.2429     78.8499
  1088.5000      0.0000    679.2729      4.3214     73.7150
  1088.7500      0.0000    682.9098      4.3953     67.4981
  1089.0000      0.0000    688.9003      4.4355     61.2643
  1089.2500      0.0000    694.6761      4.4515     55.8048
  1089.5000      0.0000    695.6638      4.4845     51.6267
  1089.7500      0.0000    687.5118      4.5731     49.2057
  1090.0000      0.0000    670.3444      4.7319     48.9131
  1090.2500      0.0000    651.8338      4.9425     50.6455
  1090.5000      0.0000    643.6626      5.1487     53.7080
  1090.7500      0.0000    651.8381      5.2715     57.0446
  1091.0000      0.0000    671.1650      5.2520     59.5478
  1091.2500      0.0000    690.8691      5.0998     60.4827
  1091.5000      0.0000    704.0080      4.9014     60.0311
  1091.7500      0.0000    710.3096      4.7613     59.3373
  1092.0000      0.0000    712.6921      4.7247     59.7215
  1092.2500      0.0000    713.6789      4.7557     61.7701
  1092.5000      0.0000    714.3825      4.7791     65.2526
  1092.7500      0.0000    714.9493      4.7347     69.7872
  1093.0000      0.0000    715.1891      4.6198     75.3728
  1093.2500      0.0000    715.0587      4.4947     82.2235
  1093.5000      0.0000    714.7765      4.4298     90.1581
  1093.7500      0.0000    714.6632      4.4360     98.2853
  1094.0000      0.0000    714.8889      4.4646    105.4716
  1094.2500      0.0000    715.3871      4.4700    111.1190
  1094.5000      0.0000    715.9244      4.4463    115.2776
  1094.7500      0.0000    716.1695      4.4099    117.9715
  1095.0000      0.0000    715.6880      4.3753    118.8446
  1095.2500      0.0000    714.0493      4.3499    117.7263
  1095.5000      0.0000    711.2548      4.3327    115.2689
  1095.7500      0.0000    708.1755      4.3168    112.8332
  1096.0000      0.0000    706.0612      4.3014    111.8250
  1096.2500      0.0000    705.0469      4.2977    112.8850
  1096.5000      0.0000    703.0860      4.3164    115.4197
  1096.7500      0.0000    697.0288      4.3554    117.9084
  1097.0000      0.0000    685.7495      4.4030    118.8246
  1097.2500      0.0000    672.6454      4.4496    117.3891
  1097.5000      0.0000    664.0239      4.4903    113.7485
  1097.7500      0.0000    663.7432      4.5198    108.7303
  1098.0000      0.0000    669.8089      4.5292    103.2871
  1098.2500      0.0000    676.7509      4.5025     97.8977
  1098.5000      0.0000    680.3497      4.4198     92.6712
