~Version Information
VERS.                      2.0: CWLS Log ASCII Standard - VERSION 2.0
WRAP.                       NO: One line per depth step
~Well Information Block
STRT.FT               930.0000: 
STOP.FT              2783.2000: 
STEP.FT                 0.1000: 
NULL.                -999.2500: 
COMP.          Pioneer Natural Resources: COMPANY
WELL.           Desoto 13-7TR: WELL
FLD.           Purgatoire River: FIELD
LOC.           1404' FSL & 1115' FWL: LOCATION
PROV.                 Colorado: PROVINCE
CNTY.               Las Animas: COUNTRY
SRVC.                Patterson: SERVICE COMPANY
DATE.          Fri Jan 14 14:42:18 2005: LOG DATE
UWI.           05 071 08216 00: UNIQUE WELL ID
~Curve Information Block
DEPT.FT            0 000 00 00: Depth
DCAL.in                       : CDL Caliper
RHOB.g/cc                     : CDL Bulk Density
RHOC.g/cc                     : CDL Density Correction
DPOR.pu                       : CDL Density Porosity
NPOR.pu                       : Neutron Porosity
GR.GAPI                       : Gamma Ray
~Parameter Information Block
~A  Depth       DCAL        RHOB        RHOC        DPOR        NPOR         GR     
# ...
  2629.2000      7.9498      2.5346      0.0413      6.9969     19.1168    117.2308
  2629.3000      7.9505      2.5402      0.0315      6.6532     18.1742    123.8447
  2629.4000      7.9505      2.5561      0.0464      5.6908     17.4898    122.5731
  2629.5000      7.9496      2.5665      0.0075      5.0599     17.4840    117.6707
  2629.6000      7.9496      2.5705      0.0622      4.8179     17.6731    116.6630
  2629.7000      7.9496      2.5696      0.0641      4.8733     17.7605    117.2700
  2629.8000      7.9483      2.5580      0.0971      5.5750     18.3445    117.0529
  2629.9000      7.9483      2.5375      0.0724      6.8183     19.4391    116.1908
  2630.0000      7.9477      2.5282      0.0274      7.3815     19.6957    115.2212
  2630.1000      7.9477      2.5378      0.0623      6.8002     18.3649    115.3875
  2630.2000      7.9477      2.5397      0.0666      6.6868     16.8530    114.4478
  2630.3000      7.9475      2.5134      0.0488      8.2800     16.4075    112.6312
  2630.4000      7.9475      2.4780      0.0052     10.4271     16.7370    116.9119
  2630.5000      7.9481      2.4587      0.0426     11.5955     17.0739    129.4817
  2630.6000      7.9481      2.4607     -0.0145     11.4756     17.2300    142.2665
  2630.7000      7.9481      2.4851      0.0179      9.9949     17.5940    149.8671
  2630.8000      7.9491      2.5219      0.0772      7.7652     18.0159    152.8179
  2630.9000      7.9491      2.5473      0.0889      6.2228     18.0818    150.1083
  2631.0000      7.9488      2.5518      0.0730      5.9522     17.9076    145.5858
  2631.1000      7.9488      2.5473      0.0634      6.2232     17.5993    147.7622
  2631.2000      7.9488      2.5479      0.0638      6.1863     17.2482    157.0477
  2631.3000      7.9482      2.5560      0.0819      5.6995     17.2936    164.4665
  2631.4000      7.9482      2.5613      0.0893      5.3735     18.0748    163.7824
  2631.5000      7.9472      2.5513      0.0745      5.9825     19.2229    157.6620
  2631.6000      7.9472      2.5268      0.0505      7.4641     19.6892    151.7468
  2631.7000      7.9472      2.5009      0.0127      9.0353     19.0966    149.6435
  2631.8000      7.9461      2.4846     -0.0323     10.0216     18.3863    152.0419
  2631.9000      7.9461      2.4837      0.0121     10.0804     18.0766    157.8508
  2632.0000      7.9438      2.4979      0.0059      9.2207     17.6884    166.1768
  2632.1000      7.9438      2.5221      0.0485      7.7545     17.0210    175.8388
  2632.2000      7.9438      2.5409      0.0774      6.6145     16.5903    186.5959
  2632.3000      7.9414      2.5401      0.0596      6.6630     16.6131    195.4941
  2632.4000      7.9414      2.5290     -0.0110      7.3347     16.4262    198.9018
  2632.5000      7.9431      2.5184      0.0506      7.9769     15.7926    197.6989
  2632.6000      7.9431      2.5056      0.0168      8.7501     15.4435    189.0783
  2632.7000      7.9431      2.4944     -0.0065      9.4291     15.5207    170.9586
  2632.8000      7.9450      2.4811      0.0387     10.2375     15.3204    153.9069
  2632.9000      7.9450      2.4592     -0.0060     11.5621     14.7363    144.5101
  2633.0000      7.9456      2.4477     -0.0053     12.2590     14.3224    136.1163
  2633.1000      7.9456      2.4666      0.0003     11.1138     14.1434    129.2577
  2633.2000      7.9456      2.4968      0.0893      9.2843     13.8524    128.2895
  2633.3000      7.9475      2.4991      0.0709      9.1444     13.6148    127.7473
  2633.4000      7.9475      2.4769      0.0094     10.4917     13.9477    121.8527
  2633.5000      7.9492      2.4669      0.0139     11.0998     14.8660    111.8066
  2633.6000      7.9492      2.4814      0.0608     10.2177     15.7629    105.0490
  2633.7000      7.9492      2.5100      0.0291      8.4863     16.0028    108.7889
  2633.8000      7.9495      2.5459      0.0506      6.3101     15.5305    117.1268
  2633.9000      7.9495      2.5761      0.1372      4.4780     14.8398    118.6304
  2634.0000      7.9496      2.5861      0.1067      3.8746     14.6028    115.5104
  2634.1000      7.9496      2.5785      0.1023      4.3363     15.1494    116.3560
  2634.2000      7.9496      2.5603      0.0924      5.4347     16.0887    118.7490
  2634.3000      7.9501      2.5390      0.0871      6.7248     16.9281    117.2121
  2634.4000      7.9501      2.5228      0.0578      7.7100     17.3819    115.4196
  2634.5000      7.9497      2.5149      0.0273      8.1862     17.1306    115.2793
  2634.6000      7.9497      2.5185      0.0154      7.9721     16.5222    111.0878
  2634.7000      7.9497      2.5281      0.0758      7.3856     16.3647    103.1902
  2634.8000      7.9496      2.5298      0.0298      7.2836     16.8500     97.2689
  2634.9000      7.9496      2.5234      0.0323      7.6734     17.6218     92.7083
  2635.0000      7.9494      2.5185      0.0546      7.9712     18.5866     84.9779
  2635.1000      7.9494      2.5186      0.0667      7.9662     19.4311     77.3301
  2635.2000      7.9494      2.5248      0.0261      7.5864     19.4969     76.8627
  2635.3000      7.9465      2.5367      0.0825      6.8685     19.0100     81.9494
  2635.4000      7.9465      2.5431      0.0580      6.4761     18.9323     85.9810
  2635.5000      7.9445      2.5373      0.0854      6.8299     19.1206     87.4032
  2635.6000      7.9445      2.5277      0.0188      7.4127     18.9376     87.6241
  2635.7000      7.9445      2.5219      0.0676      7.7618     18.8041     85.9964
  2635.8000      7.9460      2.5153      0.0543      8.1630     18.8069     81.7889
  2635.9000      7.9460      2.5057      0.0485      8.7440     18.2750     75.4785
  2636.0000      7.9480      2.4952      0.0466      9.3806     17.2652     70.2099
  2636.1000      7.9480      2.4898      0.0300      9.7068     16.4408     68.3294
  2636.2000      7.9480      2.5011      0.0329      9.0230     16.0293     68.9993
  2636.3000      7.9500      2.5218      0.0858      7.7701     16.0771     73.0271
  2636.4000      7.9500      2.5300      0.0490      7.2700     16.5900     80.4098
  2636.5000      7.9512      2.5253      0.0393      7.5568     16.9719     88.1739
  2636.6000      7.9512      2.5220      0.0494      7.7597     16.7915     92.8047
  2636.7000      7.9512      2.5262      0.0280      7.5025     16.4208     91.0932
  2636.8000      7.9505      2.5322      0.0397      7.1377     16.3164     84.7447
  2636.9000      7.9505      2.5258      0.0879      7.5277     16.2423     77.5135
  2637.0000      7.9491      2.5040      0.0092      8.8482     15.9475     70.3003
  2637.1000      7.9491      2.4857      0.0253      9.9557     15.7166     67.3994
  2637.2000      7.9491      2.4846      0.0176     10.0265     15.7104     70.4350
  2637.3000      7.9490      2.4918      0.0200      9.5901     16.2289     72.3891
  2637.4000      7.9490      2.4924      0.0478      9.5486     17.3023     69.7808
  2637.5000      7.9493      2.4900      0.0024      9.6987     18.1256     66.8769
  2637.6000      7.9493      2.4973      0.0439      9.2557     18.2097     65.9254
  2637.7000      7.9493      2.5087      0.0609      8.5636     18.0259     64.2848
  2637.8000      7.9484      2.5143      0.0304      8.2259     18.0460     63.0503
  2637.9000      7.9484      2.5169      0.0566      8.0695     18.2025     64.0607
  2638.0000      7.9493      2.5164      0.0748      8.0955     18.2196     66.6971
  2638.1000      7.9493      2.5133      0.0193      8.2833     17.9542     71.8581
  2638.2000      7.9493      2.5148      0.0487      8.1933     17.5125     77.2789
  2638.3000      7.9513      2.5176      0.0687      8.0220     17.4259     77.6530
  2638.4000      7.9513      2.5120      0.0400      8.3644     18.2318     75.3534
  2638.5000      7.9466      2.4993      0.0490      9.1316     19.3349     75.8179
  2638.6000      7.9466      2.4878      0.0092      9.8308     19.8082     79.2959
  2638.7000      7.9466      2.4797      0.0023     10.3198     20.1222     84.1340
