~Version Information
VERS.                      2.0: CWLS Log ASCII Standard - VERSION 2.0
WRAP.                       NO: One line per depth step
~Well Information Block
STRT.FT               577.0000: 
STOP.FT              2643.2000: 
STEP.FT                 0.1000: 
NULL.                -999.2500: 
COMP.          Petrogulf Corporation: COMPANY
WELL.           Montoya 12-41V: WELL
FLD.           Purgatorie River: FIELD
LOC.           1081' FNL & 605' FEL: LOCATION
CNTY.               Las Animas: COUNTY
SRVC.                         : SERVICE COMPANY
DATE.          Tue Aug 10 14:17:12 2004: LOG DATE
UWI.           05 071 08094 00: UNIQUE WELL ID
STAT.                 Colorado: STATE
~Curve Information Block
DEPT.FT            0 000 00 00: Depth
DCAL.in                       : CDL Caliper
RHOB.g/cc                     : CDL Bulk Density
RHOC.g/cc                     : CDL Density Correction
DPOR.pu                       : CDL Density Porosity
GR.GAPI                       : Gamma Ray
NPOR.pu                       : Neutron Porosity
~Parameter Information Block
~A  Depth       DCAL        RHOB        RHOC        DPOR         GR         NPOR    
# ...
   999.4000      8.4115      2.5272     -0.0304      7.4412    139.8435     28.6576
   999.5000      8.4115      2.5146     -0.0716      8.2048    135.1315     28.3859
   999.6000      8.4115      2.5087     -0.0619      8.5633    134.8185     28.8386
   999.7000      8.4115      2.5092     -0.0666      8.5358    144.5827     29.6652
   999.8000      8.4121      2.5106     -0.0608      8.4483    153.7760     30.1252
   999.9000      8.4121      2.5113      0.0051      8.4052    151.0349     29.8374
  1000.0000      8.4125      2.5096      0.0083      8.5093    139.2301     29.2951
  1000.1000      8.4125      2.5088      0.0181      8.5571    132.3342     28.6673
  1000.2000      8.4125      2.5130      0.0643      8.3021    140.0075     27.5404
  1000.3000      8.4136      2.5238     -0.0187      7.6503    156.7712     26.6241
  1000.4000      8.4136      2.5462     -0.0182      6.2939    167.0243     26.8801
  1000.5000      8.4270      2.5709      0.0283      4.7968    164.6503     27.6401
  1000.6000      8.4270      2.5774      0.0010      4.4000    156.4323     27.8692
  1000.7000      8.4270      2.5606      0.0025      5.4159    148.4524     27.8047
  1000.8000      8.4307      2.5252      0.0263      7.5649    145.5537     28.2084
  1000.9000      8.4307      2.4807     -0.0285     10.2605    146.0773     29.2103
  1001.0000      8.4287      2.4419     -0.0201     12.6107    141.0087     30.1729
  1001.1000      8.4287      2.4122     -0.0132     14.4099    130.8040     30.3243
  1001.2000      8.4287      2.3902     -0.0550     15.7465    125.8505     29.8146
  1001.3000      8.4402      2.3807     -0.0179     16.3184    132.3373     29.1695
  1001.4000      8.4402      2.3883     -0.0321     15.8589    144.7316     28.6934
  1001.5000      8.4412      2.4081      0.0393     14.6601    152.5702     28.6400
  1001.6000      8.4412      2.4249      0.1036     13.6430    151.8296     29.2930
  1001.7000      8.4412      2.4309      0.0823     13.2781    144.9410     30.6854
  1001.8000      8.4417      2.4218      0.1134     13.8333    136.6129     31.5073
  1001.9000      8.4417      2.3776      0.1234     16.5115    133.8341     31.0611
  1002.0000      8.4495      2.2957      0.0022     21.4749    138.5143     30.7449
  1002.1000      8.4495      2.2087     -0.0078     26.7460    143.8645     30.8961
  1002.2000      8.4495      2.1356     -0.0307     31.1787    143.2594     30.8783
  1002.3000      8.4723      2.0636     -0.0126     35.5419    136.2232     30.8772
  1002.4000      8.4723      1.9878     -0.0652     40.1318    125.1536     31.0596
  1002.5000      8.4555      1.9221     -0.0398     44.1177    112.8093     31.7584
  1002.6000      8.4555      1.8664     -0.0349     47.4937    103.8366     33.1564
  1002.7000      8.4555      1.8034     -0.0096     51.3104    103.1100     34.5608
  1002.8000      8.4541      1.7347     -0.0161     55.4747    112.3222     34.9736
  1002.9000      8.4541      1.6932     -0.0238     57.9904    125.9189     34.2162
  1003.0000      8.4571      1.6949      0.1109     57.8875    132.8121     33.2120
  1003.1000      8.4571      1.7143      0.1322     56.7064    130.6515     32.8674
  1003.2000      8.4571      1.7301      0.0657     55.7494    124.9555     33.1811
  1003.3000      8.4610      1.7475      0.0349     54.6997    119.7915     33.5123
  1003.4000      8.4610      1.7804      0.0333     52.7013    121.8644     33.5087
  1003.5000      8.4643      1.8388      0.0381     49.1643    131.7026     33.3456
  1003.6000      8.4643      1.9234      0.0803     44.0348    141.3981     33.1975
  1003.7000      8.4643      2.0302      0.1245     37.5647    143.9063     32.5562
  1003.8000      8.4629      2.1569      0.1518     29.8837    135.9337     31.3332
  1003.9000      8.4629      2.2930      0.2745     21.6346    125.0116     31.0080
  1004.0000      8.4601      2.4077      0.2927     14.6835    119.1385     31.8708
  1004.1000      8.4601      2.4776      0.2507     10.4497    114.7366     31.9076
  1004.2000      8.4601      2.5113      0.1980      8.4035    106.8704     30.6280
  1004.3000      8.4565      2.5306      0.1455      7.2351    100.4521     29.5962
  1004.4000      8.4565      2.5479      0.0924      6.1879    101.3706     29.2966
  1004.5000      8.4526      2.5647      0.0904      5.1719    106.6991     28.6457
  1004.6000      8.4526      2.5760      0.1084      4.4823    110.9940     27.0859
  1004.7000      8.4526      2.5778      0.1078      4.3737    112.4245     25.3741
  1004.8000      8.4515      2.5662      0.0997      5.0794    113.4299     24.4475
  1004.9000      8.4515      2.5396      0.0995      6.6906    114.4488     24.3701
  1005.0000      8.4512      2.4962      0.0778      9.3193    114.2422     24.9128
  1005.1000      8.4512      2.4393      0.0357     12.7718    113.5794     26.0537
  1005.2000      8.4512      2.3851     -0.0111     16.0576    111.8833     27.3205
  1005.3000      8.4500      2.3541     -0.0454     17.9354    109.9656     27.7551
  1005.4000      8.4500      2.3513      0.0024     18.1005    110.6030     27.3863
  1005.5000      8.4522      2.3612      0.0017     17.5050    115.3806     27.0130
  1005.6000      8.4522      2.3707      0.0289     16.9272    123.3447     27.0843
  1005.7000      8.4522      2.3876      0.0551     15.9044    130.7826     27.5384
  1005.8000      8.4539      2.4239      0.1637     13.7020    131.6405     27.7508
  1005.9000      8.4539      2.4656      0.2401     11.1730    125.4907     27.5426
  1006.0000      8.4529      2.4820      0.2554     10.1799    118.8629     27.4172
  1006.1000      8.4529      2.4705      0.1677     10.8779    114.0491     27.4588
  1006.2000      8.4529      2.4640      0.1107     11.2712    109.9032     27.3022
  1006.3000      8.4529      2.4828      0.1620     10.1355    107.2250     26.8958
  1006.4000      8.4529      2.5169      0.1237      8.0645    105.0999     26.2396
  1006.5000      8.4521      2.5540      0.1653      5.8189    102.9807     25.0301
  1006.6000      8.4521      2.5824      0.1890      4.0982    103.2223     23.6087
  1006.7000      8.4521      2.5961      0.1748      3.2655    103.8210     22.8036
  1006.8000      8.4527      2.6090      0.1593      2.4859     99.3615     23.0307
  1006.9000      8.4527      2.6337      0.1788      0.9881     91.4390     24.0937
  1007.0000      8.4509      2.6474      0.2127      0.1578     85.1706     25.1431
  1007.1000      8.4509      2.6217      0.1069      1.7173     82.0341     25.0500
  1007.2000      8.4509      2.5640      0.0513      5.2126     82.4005     23.9471
  1007.3000      8.4586      2.4881      0.0403      9.8142     85.0324     23.0397
  1007.4000      8.4586      2.4026     -0.0180     14.9958     87.2763     22.6124
  1007.5000      8.5159      2.3272      0.0269     19.5619     89.2762     22.2918
  1007.6000      8.5159      2.2811     -0.0205     22.3553     92.5217     22.0005
  1007.7000      8.5159      2.2678      0.0029     23.1622     96.2141     21.8685
  1007.8000      8.4922      2.2670      0.0303     23.2130     96.1934     21.9135
  1007.9000      8.4922      2.2577      0.0150     23.7764     89.7380     21.9948
  1008.0000      8.4596      2.2518     -0.0392     24.1336     81.0441     22.3282
  1008.1000      8.4596      2.2734      0.0537     22.8222     77.8923     23.2897
  1008.2000      8.4596      2.3204      0.1606     19.9774     83.6541     24.3244
  1008.3000      8.4583      2.3654      0.2555     17.2506     91.1294     24.5537
  1008.4000      8.4583      2.3805      0.2774     16.3324     92.0184     24.2916
  1008.5000      8.4911      2.3592      0.3121     17.6248     88.4481     24.4998
  1008.6000      8.4911      2.3249      0.2615     19.7022     88.0123     25.3917
  1008.7000      8.4911      2.3161      0.2567     20.2385     90.5731     26.2603
  1008.8000      8.5810      2.3440      0.2767     18.5457     91.7565     26.3413
  1008.9000      8.5810      2.3815      0.3305     16.2713     91.7873     25.6536
