~Version Information
VERS.                      2.0: CWLS Log ASCII Standard - VERSION 2.0
WRAP.                       NO: One line per depth step
~Well Information Block
STRT.FT                 6.5000: 
STOP.FT              1054.0000: 
STEP.FT                 0.2500: 
NULL.                -999.2500: 
COMP.          Pioneer Natural Resources: COMPANY
WELL.            Galileo 21-11: WELL
FLD.           Purgatoire River: FIELD
LOC.           407' FNL & 2394' FWL: LOCATION
PROV.                 Colorado: PROVINCE
CNTY.               Las Animas: COUNTRY
SRVC.                Patterson: SERVICE COMPANY
DATE.          Sat Apr 16 10:31:00 2005: LOG DATE
UWI.           05 071 08353 00: UNIQUE WELL ID
~Curve Information Block
DEPT.FT            0 000 00 00: Depth
GR.GAPI                       : Gamma Ray
CCL.                          : Casing Collar Locator
TT3.usec                      : CBL 3' Travel Time
AMP3.mV                       : CBL 3' Amplitude
~Parameter Information Block
~A  Depth        GR         CCL         TT3         AMP3    
# ...
   475.5000    132.3179      0.0000   1280.3966      7.7904
   475.7500    132.6061      0.0000   1251.7089      7.8157
   476.0000    134.5088      0.0000   1239.4250      7.9357
   476.2500    136.6673      0.0000   1252.1652      8.1272
   476.5000    138.0447      0.0000   1280.8967      8.3466
   476.7500    138.0259      0.0000   1306.6656      8.5570
   477.0000    136.1530      0.0000   1314.6484      8.7482
   477.2500    132.4084      0.0000   1300.5226      8.9300
   477.5000    127.6794      0.0000   1270.4888      9.1140
   477.7500    123.5522      0.0000   1239.8495      9.3083
   478.0000    121.2169      0.0000   1225.7690      9.5231
   478.2500    120.4092      0.0000   1234.2512      9.7656
   478.5000    119.8391      0.0000   1255.6819     10.0233
   478.7500    118.8984      0.0000   1276.4973     10.2570
   479.0000    118.4295      0.0000   1291.4037     10.4170
   479.2500    119.4494      0.0000   1301.0586     10.4724
   479.5000    121.7661      0.0000   1303.1843     10.4312
   479.7500    124.2727      0.0000   1292.4165     10.3327
   480.0000    126.0134      0.0000   1268.5348     10.2167
   480.2500    126.5458      0.0000   1240.9830     10.1003
   480.5000    125.8393      0.0000   1223.2805      9.9799
   480.7500    124.4447      0.0000   1223.3530      9.8453
   481.0000    123.4306      0.0000   1239.7079      9.6815
   481.2500    123.4545      0.0000   1265.4407      9.4559
   481.5000    123.9635      0.0000   1293.2510      9.1152
   481.7500    123.8349      0.0000   1317.3738      8.6221
   482.0000    122.7484      0.0000   1334.3633      8.0213
   482.2500    121.5379      0.0000   1343.8999      7.4519
   482.5000    121.1890      0.0000   1348.0974      7.0446
   482.7500    121.7144      0.0000   1349.5314      6.8087
   483.0000    122.1611      0.0000   1349.9104      6.6618
   483.2500    121.6260      0.0000   1349.9862      6.5459
   483.5000    119.9528      0.0000   1350.0000      6.4575
   483.7500    117.4217      0.0000   1350.0000      6.3954
   484.0000    114.3620      0.0000   1349.9636      6.3525
   484.2500    111.4768      0.0000   1349.7631      6.3724
   484.5000    109.9471      0.0000   1348.7573      6.5896
   484.7500    110.4624      0.0000   1344.9840      7.1707
   485.0000    112.2874      0.0000   1334.0371      8.1440
   485.2500    113.8683      0.0000   1309.6792      9.2592
   485.5000    114.3365      0.0000   1268.3854     10.1039
   485.7500    114.0148      0.0000   1216.0323     10.4290
   486.0000    113.5332      0.0000   1168.9575     10.3133
   486.2500    112.9600      0.0000   1144.2817      9.9968
   486.5000    111.8655      0.0000   1145.0210      9.6451
   486.7500    109.8228      0.0000   1153.0214      9.3021
   487.0000    106.7848      0.0000   1139.7437      8.9694
   487.2500    103.3009      0.0000   1090.6721      8.6542
   487.5000    100.5221      0.0000   1020.6456      8.3645
   487.7500     99.7201      0.0000    961.9587      8.1040
   488.0000    101.3940      0.0000    937.8218      7.8792
   488.2500    104.6430      0.0000    949.5084      7.6978
   488.5000    107.5185      0.0000    982.8685      7.5583
   488.7500    108.3538      0.0000   1017.5820      7.4446
   489.0000    107.0593      0.0000   1032.0698      7.3319
   489.2500    105.2399      0.0000   1012.8923      7.1943
   489.5000    104.9539      0.0000    966.4390      7.0116
   489.7500    107.1462      0.0000    918.1045      6.7784
   490.0000    111.1150      0.0000    895.7050      6.5085
   490.2500    115.5133      0.0000    912.8586      6.2335
   490.5000    119.6308      0.0000    965.3920      5.9974
   490.7500    123.2113      0.0000   1039.3337      5.8393
   491.0000    125.4192      0.0000   1120.4042      5.7648
   491.2500    125.2707      0.0000   1197.0190      5.7274
   491.5000    123.1918      0.0000   1258.9956      5.6486
   491.7500    120.8587      0.0000   1299.6512      5.4644
   492.0000    119.2346      0.0000   1319.7954      5.1638
   492.2500    117.8569      0.0000   1326.1338      4.7920
   492.5000    116.2793      0.0000   1324.7469      4.4251
   492.7500    115.2117      0.0000   1317.9792      4.1366
   493.0000    115.8168      0.0000   1307.5675      3.9729
   493.2500    118.4174      0.0000   1297.5234      3.9465
   493.5000    122.1574      0.0000   1290.3906      4.0395
   493.7500    125.6396      0.0000   1280.2587      4.2118
   494.0000    127.9019      0.0000   1252.5096      4.4123
   494.2500    129.0468      0.0000   1195.2351      4.5910
   494.5000    129.7830      0.0000   1114.6322      4.7133
   494.7500    130.1305      0.0000   1038.6729      4.7670
   495.0000    128.7679      0.0000   1000.8105      4.7611
   495.2500    124.1057      0.0000   1015.9404      4.7219
   495.5000    116.1938      0.0000   1071.6003      4.6841
   495.7500    107.2167      0.0000   1140.7000      4.6727
   496.0000     99.6857      0.0000   1199.0254      4.6867
   496.2500     94.3495      0.0000   1232.0844      4.7076
   496.5000     90.1514      0.0000   1233.4777      4.7256
   496.7500     85.8394      0.0000   1203.6890      4.7515
   497.0000     81.1613      0.0000   1151.6702      4.7997
   497.2500     76.7361      0.0000   1095.1108      4.8678
   497.5000     73.3810      0.0000   1053.9199      4.9373
   497.7500     71.7066      0.0000   1038.3680      4.9940
   498.0000     71.8726      0.0000   1042.7761      5.0381
   498.2500     73.4210      0.0000   1053.8668      5.0766
   498.5000     75.6152      0.0000   1067.2029      5.1107
   498.7500     77.9871      0.0000   1092.3911      5.1318
   499.0000     80.0067      0.0000   1139.4073      5.1293
   499.2500     80.4484      0.0000   1203.0543      5.0993
   499.5000     78.2384      0.0000   1265.1821      5.0450
   499.7500     74.2739      0.0000   1310.2334      4.9737
   500.0000     71.3841      0.0000   1335.0253      4.8971
   500.2500     71.7191      0.0000   1345.5062      4.8322
   500.5000     74.4458      0.0000   1348.9297      4.7953
   500.7500     76.4755      0.0000   1349.8019      4.7941
   501.0000     75.3755      0.0000   1349.9736      4.8278
   501.2500     71.3597      0.0000   1349.9739      4.8926
   501.5000     66.8479      0.0000   1349.8297      4.9841
   501.7500     64.6470      0.0000   1349.1355      5.0982
   502.0000     66.2745      0.0000   1346.5546      5.2326
   502.2500     71.3033      0.0000   1339.2974      5.3890
   502.5000     77.9190      0.0000   1323.8694      5.5712
   502.7500     84.0558      0.0000   1299.3773      5.7792
   503.0000     88.2537      0.0000   1270.7865      6.0021
   503.2500     90.0339      0.0000   1246.9065      6.2146
   503.5000     89.7178      0.0000   1234.1115      6.3828
   503.7500     87.8342      0.0000   1234.1089      6.4785
   504.0000     84.7562      0.0000   1246.9001      6.4943
   504.2500     80.9241      0.0000   1270.7794      6.4461
   504.5000     76.9709      0.0000   1299.3719      6.3626
   504.7500     73.3178      0.0000   1323.8665      6.2718
   505.0000     69.9818      0.0000   1339.2961      6.1939
   505.2500     67.0941      0.0000   1346.5541      6.1383
   505.5000     65.2755      0.0000   1349.1354      6.1042
   505.7500     65.0510      0.0000   1349.7932      6.0843
   506.0000     66.0233      0.0000   1349.7354      6.0706
   506.2500     67.0528      0.0000   1348.7888      6.0608
   506.5000     67.3680      0.0000   1345.2097      6.0648
   506.7500     67.3308      0.0000   1335.2085      6.1042
   507.0000     67.9655      0.0000   1314.3308      6.2016
   507.2500     69.5540      0.0000   1282.4302      6.3711
   507.5000     70.7910      0.0000   1247.8143      6.6170
   507.7500     69.9337      0.0000   1221.4935      6.9318
   508.0000     66.8738      0.0000   1203.6222      7.2888
   508.2500     63.5215      0.0000   1181.4049      7.6448
   508.5000     61.9792      0.0000   1146.8805      7.9587
   508.7500     62.6429      0.0000   1110.1846      8.2048
