~Version Information
VERS.                      2.0: CWLS Log ASCII Standard - VERSION 2.0
WRAP.                       NO: One line per depth step
~Well Information Block
STRT.FT               742.0000: 
STOP.FT              2582.0000: 
STEP.FT                 0.2500: 
NULL.                -999.2500: 
COMP.          Petrogulf Corporation: COMPANY
WELL.            Montoya 7-12V: WELL
FLD.           Purgatorie River: FIELD
LOC.           728' FWL & 1764' FNL: LOCATION
CNTY.               Las Animas: COUNTY
SRVC.                         : SERVICE COMPANY
DATE.          Thu Feb 19 20:58:32 2004: LOG DATE
UWI.           05-071-07887-00: UNIQUE WELL ID
STAT.                 Colorado: STATE
~Curve Information Block
DEPT.FT            0 000 00 00: Depth
SP.mV                         : DIL Spontaneous Potential
RILD.Ohm-m                    : DIL Deep Resistivity
RILM.Ohm-m                    : DIL Medium Resistivity
RLL3.Ohm-m                    : DIL Shallow Resistivity
GR.GAPI                       : Gamma Ray
~Parameter Information Block
~A  Depth        SP         RILD        RILM        RLL3         GR     
# ...
  1834.0000    -45.6086      7.4441      7.3530      7.9782    162.1412
  1834.2500    -45.7797      7.5680      7.5268      7.7578    155.8882
  1834.5000    -45.8539      7.6880      7.7398      7.8699    147.0004
  1834.7500    -45.7750      7.7951      7.9828      8.5351    142.3687
  1835.0000    -45.5143      7.8860      8.2303      9.7981    137.2182
  1835.2500    -45.0822      7.9638      8.4452     11.3752    134.5817
  1835.5000    -44.5332      8.0364      8.5928     12.6592    131.6120
  1835.7500    -43.9559      8.1124      8.6568     13.0367    130.3215
  1836.0000    -43.4469      8.1991      8.6485     12.3349    129.5679
  1836.2500    -43.0768      8.3011      8.6020     10.9575    130.1426
  1836.5000    -42.8686      8.4200      8.5585      9.5566    133.2807
  1836.7500    -42.8016      8.5534      8.5516      8.5943    137.0391
  1837.0000    -42.8355      8.6945      8.5983      8.1897    144.8491
  1837.2500    -42.9347      8.8343      8.6968      8.2524    151.1319
  1837.5000    -43.0801      8.9649      8.8317      8.6456    161.5507
  1837.7500    -43.2660      9.0829      8.9825      9.2327    168.7349
  1838.0000    -43.4922      9.1916      9.1344      9.8589    178.4582
  1838.2500    -43.7563      9.2993      9.2842     10.3702    183.0300
  1838.5000    -44.0488      9.4164      9.4392     10.6812    185.6691
  1838.7500    -44.3529      9.5523      9.6109     10.8205    185.0331
  1839.0000    -44.6475      9.7132      9.8092     10.9062    182.8480
  1839.2500    -44.9141      9.9013     10.0390     11.0808    181.9792
  1839.5000    -45.1423     10.1164     10.2989     11.4553    182.8880
  1839.7500    -45.3303     10.3584     10.5805     12.0688    185.0169
  1840.0000    -45.4836     10.6304     10.8695     12.8454    189.4207
  1840.2500    -45.6131     10.9385     11.1512     13.5776    192.1226
  1840.5000    -45.7368     11.2886     11.4194     14.0040    194.5570
  1840.7500    -45.8812     11.6801     11.6843     13.9768    195.2073
  1841.0000    -46.0785     12.1028     11.9721     13.6082    195.9367
  1841.2500    -46.3549     12.5369     12.3184     13.3028    196.7670
  1841.5000    -46.7123     12.9597     12.7549     13.7013    198.0526
  1841.7500    -47.1150     13.3536     13.2954     15.5501    197.9705
  1842.0000    -47.4927     13.7112     13.9224     19.3626    194.6875
  1842.2500    -47.7632     14.0362     14.5796     24.8253    190.0421
  1842.5000    -47.8627     14.3376     15.1826     30.4018    180.6606
  1842.7500    -47.7675     14.6250     15.6542     33.8477    174.3677
  1843.0000    -47.4942     14.9058     15.9704     33.6315    167.6842
  1843.2500    -47.0790     15.1858     16.1764     30.1289    166.0128
  1843.5000    -46.5513     15.4697     16.3561     25.4492    167.0633
  1843.7500    -45.9181     15.7601     16.5787     22.0444    168.5305
  1844.0000    -45.1669     16.0555     16.8604     21.2453    168.6847
  1844.2500    -44.2858     16.3500     17.1595     22.6523    166.4120
  1844.5000    -43.2889     16.6355     17.4028     24.5959    159.7968
  1844.7500    -42.2319     16.9058     17.5313     25.3394    154.1820
  1845.0000    -41.2041     17.1603     17.5395     24.2303    145.8085
  1845.2500    -40.2970     17.4053     17.4819     21.9394    141.3132
  1845.5000    -39.5684     17.6502     17.4448     19.7123    137.4562
  1845.7500    -39.0250     17.8997     17.5083     18.4497    136.7613
  1846.0000    -38.6309     18.1490     17.7196     18.3644    137.0742
  1846.2500    -38.3311     18.3871     18.0846     19.2051    137.1411
  1846.5000    -38.0753     18.6063     18.5733     20.6088    135.9480
  1846.7500    -37.8327     18.8123     19.1343     22.2767    134.1037
  1847.0000    -37.5957     19.0271     19.7116     23.9552    130.0898
  1847.2500    -37.3743     19.2823     20.2608     25.3636    127.2036
  1847.5000    -37.1849     19.6087     20.7560     26.2269    123.9765
  1847.7500    -37.0429     20.0253     21.1888     26.4270    122.9884
  1848.0000    -36.9608     20.5333     21.5624     26.1193    122.7902
  1848.2500    -36.9499     21.1168     21.8872     25.6707    122.9746
  1848.5000    -37.0220     21.7512     22.1796     25.4405    123.1297
  1848.7500    -37.1871     22.4148     22.4641     25.5475    122.8500
  1849.0000    -37.4512     23.0941     22.7732     25.7936    121.1624
  1849.2500    -37.8160     23.7786     23.1431     25.8673    119.0937
  1849.5000    -38.2824     24.4462     23.6074     25.7233    115.6315
  1849.7500    -38.8549     25.0553     24.1894     25.7778    113.9136
  1850.0000    -39.5398     25.5538     24.8957     26.6539    112.3076
  1850.2500    -40.3360     25.9100     25.7111     28.6773    111.0247
  1850.5000    -41.2210     26.1420     26.5969     31.5857    107.4057
  1850.7500    -42.1452     26.3190     27.4949     34.6829    103.9122
  1851.0000    -43.0402     26.5269     28.3376     37.2389     98.1065
  1851.2500    -43.8379     26.8233     29.0586     38.8043     94.2348
  1851.5000    -44.4893     27.2115     29.6032     39.3013     88.3179
  1851.7500    -44.9717     27.6462     29.9395     38.9432     84.4434
  1852.0000    -45.2865     28.0647     30.0691     38.0628     80.0683
  1852.2500    -45.4526     28.4212     30.0264     36.9253     78.9023
  1852.5000    -45.5024     28.6991     29.8607     35.6383     79.3847
  1852.7500    -45.4776     28.9005     29.6146     34.2107     79.8853
  1853.0000    -45.4230     29.0288     29.3135     32.6709     78.6744
  1853.2500    -45.3756     29.0826     28.9726     31.1160     76.2898
  1853.5000    -45.3548     29.0597     28.6150     29.6821     71.7227
  1853.7500    -45.3601     28.9608     28.2814     28.4956     68.9741
  1854.0000    -45.3785     28.7911     28.0227     27.6427     65.5875
  1854.2500    -45.3945     28.5639     27.8762     27.1633     63.2751
  1854.5000    -45.3987     28.3040     27.8431     27.0687     58.9220
  1854.7500    -45.3862     28.0451     27.8830     27.3660     55.4833
  1855.0000    -45.3512     27.8172     27.9304     28.0520     50.2633
  1855.2500    -45.2813     27.6338     27.9246     29.0596     47.3128
  1855.5000    -45.1598     27.4880     27.8320     30.2053     44.6475
  1855.7500    -44.9741     27.3593     27.6502     31.2119     44.3490
  1856.0000    -44.7258     27.2281     27.3972     31.8117     45.6208
  1856.2500    -44.4327     27.0896     27.0997     31.8584     46.7633
  1856.5000    -44.1225     26.9585     26.7845     31.3853     47.5736
  1856.7500    -43.8214     26.8618     26.4731     30.5913     47.3785
  1857.0000    -43.5459     26.8215     26.1771     29.7483     46.7930
  1857.2500    -43.3026     26.8414     25.8985     29.0511     46.7529
  1857.5000    -43.0916     26.9053     25.6343     28.5038     47.5892
  1857.7500    -42.9107     26.9868     25.3833     27.9429     48.6281
  1858.0000    -42.7578     27.0613     25.1550     27.1922     50.4456
  1858.2500    -42.6342     27.1128     24.9741     26.2196     51.6356
  1858.5000    -42.5458     27.1348     24.8767     25.1749     53.4618
  1858.7500    -42.5043     27.1319     24.8975     24.3041     54.8928
  1859.0000    -42.5247     27.1205     25.0581     23.8377     57.4747
  1859.2500    -42.6208     27.1228     25.3627     23.9243     59.3120
  1859.5000    -42.7973     27.1533     25.8044     24.6131     61.6756
  1859.7500    -43.0418     27.2084     26.3711     25.8590     62.6589
  1860.0000    -43.3235     27.2679     27.0414     27.5518     62.8525
  1860.2500    -43.5975     27.3122     27.7736     29.5766     62.0149
  1860.5000    -43.8145     27.3407     28.4994     31.8759     59.4617
  1860.7500    -43.9325     27.3759     29.1366     34.4257     57.3166
  1861.0000    -43.9266     27.4484     29.6142     37.0736     54.4666
  1861.2500    -43.7960     27.5735     29.8920     39.3647     53.1604
  1861.5000    -43.5656     27.7393     29.9636     40.6216     51.8590
  1861.7500    -43.2794     27.9150     29.8528     40.3487     51.1520
