~Version Information
VERS.                      2.0: CWLS Log ASCII Standard - VERSION 2.0
WRAP.                       NO: One line per depth step
~Well Information Block
STRT.FT               375.0000: 
STOP.FT              2637.0000: 
STEP.FT                 0.1000: 
NULL.                -999.2500: 
COMP.          Pioneer Natural Resources: COMPANY
WELL.            Cortina 23-25: WELL
FLD.           Purgatoire River: FIELD
LOC.           2344' FWL & 2526' FSL----: LOCATION
PROV.                 Colorado: PROVINCE
CNTY.               Las Animas: COUNTRY
SRVC.                Patterson: SERVICE COMPANY
DATE.          Thu Mar 24 07:44:45 2005: LOG DATE
UWI.           05 071 08340 00: UNIQUE WELL ID
~Curve Information Block
DEPT.FT            0 000 00 00: Depth
DCAL.in                       : CDL Caliper
DPOR.pu                       : CDL Density Porosity
NPOR.pu                       : Neutron Porosity
RHOB.g/cc                     : CDL Bulk Density
RHOC.g/cc                     : CDL Density Correction
GR.GAPI                       : Gamma Ray
~Parameter Information Block
~A  Depth       DCAL        DPOR        NPOR        RHOB        RHOC         GR     
# ...
  1575.0000      8.0265      5.6067     25.1635      2.5575      0.0453    137.8604
  1575.1000      8.0265      5.2618     25.8464      2.5632      0.0519    132.5433
  1575.2000      8.0265      5.2625     26.9939      2.5632     -0.0022    128.4577
  1575.3000      8.0258      5.3277     27.7356      2.5621      0.0445    124.8084
  1575.4000      8.0258      5.3725     27.3710      2.5614      0.0378    122.7134
  1575.5000      8.0267      5.0417     26.1206      2.5668      0.0198    123.9551
  1575.6000      8.0267      3.9945     25.0137      2.5841      0.0493    128.5503
  1575.7000      8.0267      2.4821     24.6847      2.6090      0.0556    133.1890
  1575.8000      8.0285      1.7724     24.8598      2.6208      0.0702    134.7463
  1575.9000      8.0285      2.8097     25.3655      2.6036      0.0407    134.2069
  1576.0000      8.0296      3.8327     26.2206      2.5868      0.0123    130.2291
  1576.1000      8.0296      3.2473     27.0027      2.5964      0.0710    123.9300
  1576.2000      8.0296      2.6435     27.4231      2.6064      0.0864    120.4279
  1576.3000      8.0299      3.7226     27.4337      2.5886      0.0351    122.5376
  1576.4000      8.0299      5.6126     27.2144      2.5574      0.0390    125.8454
  1576.5000      8.0298      6.6570     27.1104      2.5402      0.0309    124.6937
  1576.6000      8.0298      6.5392     27.1638      2.5421      0.0441    121.9720
  1576.7000      8.0298      6.4008     27.3119      2.5444      0.0712    121.5633
  1576.8000      8.0284      6.7989     27.5337      2.5378      0.0142    121.9220
  1576.9000      8.0284      6.8856     27.5421      2.5364      0.0196    122.9794
  1577.0000      8.0266      6.3609     27.2014      2.5450      0.0951    127.1085
  1577.1000      8.0266      6.1432     26.9734      2.5486      0.0766    135.0665
  1577.2000      8.0266      6.8546     27.1221      2.5369      0.0376    143.6906
  1577.3000      8.0297      8.3535     27.3925      2.5122      0.0783    147.1705
  1577.4000      8.0297     10.0982     27.7018      2.4834      0.0146    143.9421
  1577.5000      8.0400     11.3022     28.3603      2.4635      0.0243    138.0986
  1577.6000      8.0400     11.8778     29.4738      2.4540      0.0458    133.2285
  1577.7000      8.0400     12.6021     30.4491      2.4421      0.0231    130.6421
  1577.8000      8.0517     13.7328     30.5991      2.4234      0.0020    129.1145
  1577.9000      8.0517     14.8516     30.0715      2.4049      0.0164    128.0974
  1578.0000      8.0576     15.6092     29.5249      2.3924     -0.0354    127.4107
  1578.1000      8.0576     16.1725     29.3676      2.3832      0.0247    127.4068
  1578.2000      8.0576     17.3456     29.7451      2.3638      0.0108    130.9500
  1578.3000      8.0565     19.3620     30.5879      2.3305     -0.0021    138.0574
  1578.4000      8.0565     21.3060     31.3974      2.2985     -0.0263    141.3640
  1578.5000      8.0530     22.0441     31.6988      2.2863     -0.0240    137.7557
  1578.6000      8.0530     21.0954     31.1910      2.3019     -0.0294    134.1164
  1578.7000      8.0530     18.7894     30.3928      2.3400      0.0063    135.2021
  1578.8000      8.0514     16.4833     30.2809      2.3780      0.0876    140.2066
  1578.9000      8.0514     15.6991     30.5995      2.3910      0.0807    145.7375
  1579.0000      8.0575     16.6254     30.6355      2.3757      0.0938    148.4632
  1579.1000      8.0575     18.7441     30.4568      2.3407      0.0924    149.3361
  1579.2000      8.0575     21.9224     30.3129      2.2883      0.1225    150.5299
  1579.3000      8.0783     25.6192     30.2993      2.2273      0.0847    151.0435
  1579.4000      8.0783     28.2521     30.4661      2.1838      0.0713    149.6553
  1579.5000      8.0929     28.6991     30.5533      2.1765      0.0711    145.7605
  1579.6000      8.0929     27.4601     30.2948      2.1969      0.0975    139.0702
  1579.7000      8.0929     25.8618     29.6654      2.2233      0.0865    130.7356
  1579.8000      8.0754     24.7806     28.7802      2.2411      0.1126    125.1568
  1579.9000      8.0754     23.6476     28.0426      2.2598      0.0934    126.3115
  1580.0000      8.0541     20.3773     28.0391      2.3138      0.1499    135.3260
  1580.1000      8.0541     14.7192     28.7040      2.4071      0.3326    148.8078
  1580.2000      8.0541      9.6051     29.2536      2.4915      0.4069    158.0856
  1580.3000      8.0433      6.7577     29.2942      2.5385      0.3517    160.4287
  1580.4000      8.0433      5.1225     29.0154      2.5655      0.3281    156.9733
  1580.5000      8.0352      4.0902     28.7727      2.5825      0.3312    149.9443
  1580.6000      8.0352      4.6739     28.8127      2.5729      0.3203    148.6636
  1580.7000      8.0352      7.1633     29.0798      2.5318      0.2045    155.7858
  1580.8000      8.0249      9.6663     29.4119      2.4905      0.1197    160.0878
  1580.9000      8.0249     10.6291     29.4266      2.4746      0.1308    153.5462
  1581.0000      8.0015     10.8836     28.9745      2.4704      0.1223    143.0112
  1581.1000      8.0015     11.6204     28.5986      2.4583      0.0579    137.8172
  1581.2000      8.0015     13.0044     28.9554      2.4354      0.0688    139.5641
  1581.3000      7.9705     15.1405     30.1303      2.4002      0.0535    146.5967
  1581.4000      7.9705     17.8040     31.0774      2.3562      0.0420    153.5888
  1581.5000      7.9527     20.5818     30.9280      2.3104      0.0454    153.1554
  1581.6000      7.9527     23.5905     30.6098      2.2608     -0.0017    144.4272
  1581.7000      7.9527     26.6912     30.9926      2.2096      0.0139    134.4469
  1581.8000      7.9496     29.3159     31.7418      2.1663      0.0244    129.6000
  1581.9000      7.9496     31.6781     32.4623      2.1273      0.0465    129.6392
  1582.0000      7.9561     34.7036     33.1270      2.0774      0.0326    132.6666
  1582.1000      7.9561     38.1474     33.5579      2.0206     -0.0298    136.5810
  1582.2000      7.9561     40.3406     33.5370      1.9844     -0.0278    136.7872
  1582.3000      8.0143     40.5956     33.3099      1.9802      0.0246    130.0350
  1582.4000      8.0143     39.7777     33.2918      1.9937      0.1081    119.6417
  1582.5000      8.1644     38.7137     33.5091      2.0112      0.1392    116.3611
  1582.6000      8.1644     37.8782     33.7588      2.0250      0.1841    123.6056
  1582.7000      8.1644     37.9060     33.9193      2.0246      0.2918    132.2155
  1582.8000      8.3579     38.9697     33.8221      2.0070      0.3038    135.3366
  1582.9000      8.3579     40.0458     33.3399      1.9892      0.3050    135.8484
  1583.0000      8.6331     39.9595     32.8717      1.9907      0.3135    133.6033
  1583.1000      8.6331     38.7883     32.8354      2.0100      0.3042    126.1159
  1583.2000      8.6331     37.7655     33.1769      2.0269      0.2897    122.6150
  1583.3000      8.9696     37.5354     33.7913      2.0307      0.2214    127.2437
  1583.4000      8.9696     37.2784     34.3685      2.0349      0.2296    128.9976
  1583.5000      9.1670     36.3567     34.4593      2.0501      0.3013    124.5203
  1583.6000      9.1670     34.9184     34.3146      2.0738      0.2878    119.9794
  1583.7000      9.1670     33.6262     34.5415      2.0952      0.3133    115.8420
  1583.8000      9.2786     33.5022     34.8915      2.0972      0.2663    110.9789
  1583.9000      9.2786     34.0870     34.9799      2.0876      0.1943    110.7525
  1584.0000      9.5674     33.6346     35.2542      2.0950      0.1893    116.7037
  1584.1000      9.5674     31.8939     35.4863      2.1238      0.2236    120.0504
  1584.2000      9.5674     30.6339     34.9590      2.1445      0.2951    118.0765
  1584.3000     10.2149     30.9861     34.2099      2.1387      0.2391    118.7506
  1584.4000     10.2149     31.7786     34.0467      2.1257      0.1917    126.3682
  1584.5000     11.0864     31.6720     34.2379      2.1274      0.2021    135.0391
