~Version Information
VERS.                      2.0: CWLS Log ASCII Standard - VERSION 2.0
WRAP.                       NO: One line per depth step
~Well Information Block
STRT.FT              2246.0000: 
STOP.FT              2472.6000: 
STEP.FT                 0.1000: 
NULL.                -999.2500: 
COMP.          Petrogulf Corporation: COMPANY
WELL.           Schedler 9-23V: WELL
FLD.           Purgatorie River: FIELD
LOC.           2185' FSL & 2328' FWL: LOCATION
CNTY.               Las Animas: COUNTY
SRVC.                         : SERVICE COMPANY
DATE.          Thu Jul 10 10:29:30 2003: LOG DATE
UWI.           05 071 07876 00: UNIQUE WELL ID
STAT.                 Colorado: STATE
~Curve Information Block
DEPT.FT            0 000 00 00: Depth
DCAL.in                       : CDL Caliper
RHOB.g/cc                     : CDL Bulk Density
RHOC.g/cc                     : CDL Density Correction
DPOR.pu                       : CDL Density Porosity
GR.GAPI                       : Gamma Ray
NPOR.pu                       : Neutron Porosity
~Parameter Information Block
~A  Depth       DCAL        RHOB        RHOC        DPOR         GR         NPOR    
# ...
  2457.2000      7.7480      2.5737      0.0605      4.6269    141.4657     25.2943
  2457.3000      7.7524      2.5727      0.0606      4.6829    141.2370     26.3340
  2457.4000      7.7524      2.5717      0.0609      4.7453    140.0766     27.6797
  2457.5000      7.7741      2.5706      0.0614      4.8091    138.0718     29.3500
  2457.6000      7.7741      2.5697      0.0619      4.8695    135.3559     31.3371
  2457.7000      7.7741      2.5688      0.0624      4.9219    132.0938     33.6003
  2457.8000      7.8130      2.5681      0.0628      4.9624    128.4658     36.0640
  2457.9000      7.8130      2.5677      0.0630      4.9879    124.6531     38.6240
  2458.0000      7.8431      2.5676      0.0630      4.9967    120.8276     41.1612
  2458.1000      7.8431      2.5677      0.0629      4.9879    117.1396     43.5605
  2458.2000      7.8431      2.5681      0.0628      4.9620    113.7167     45.7271
  2458.3000      7.8565      2.5688      0.0627      4.9201    110.6596     47.5987
  2458.4000      7.8565      2.5697      0.0627      4.8643    108.0433     49.1482
  2458.5000      7.8553      2.5709      0.0629      4.7968    105.9156     50.3802
  2458.6000      7.8553      2.5721      0.0635      4.7199    104.2963     51.3224
  2458.7000      7.8553      2.5735      0.0645      4.6362    103.1783     52.0159
  2458.8000      7.8444      2.5750      0.0661      4.5475    102.5270     52.5075
  2458.9000      7.8444      2.5765      0.0681      4.4556    102.2842     52.8432
  2459.0000      7.8332      2.5780      0.0707      4.3619    102.3703     53.0637
  2459.1000      7.8332      2.5796      0.0738      4.2677    102.6920     53.2031
  2459.2000      7.8332      2.5811      0.0773      4.1742    103.1501     53.2878
  2459.3000      7.8158      2.5826      0.0811      4.0829    103.6486     53.3373
  2459.4000      7.8158      2.5841      0.0850      3.9956    104.0984     53.3651
  2459.5000      7.7941      2.5854      0.0889      3.9144    104.4339     53.3800
  2459.6000      7.7941      2.5866      0.0926      3.8424    104.6098     53.3878
  2459.7000      7.7941      2.5876      0.0958      3.7825    104.6088     53.3918
  2459.8000      7.7840      2.5883      0.0984      3.7384    104.4381     53.3937
  2459.9000      7.7840      2.5887      0.1002      3.7137    104.1289   -999.2500
  2460.0000      7.7783      2.5888      0.1011      3.7118    103.7281   -999.2500
  2460.1000      7.7783      2.5884      0.1011      3.7357    103.2896   -999.2500
  2460.2000      7.7783      2.5875      0.1002      3.7877    102.8704   -999.2500
  2460.3000      7.7748      2.5862      0.0985      3.8692    102.5257   -999.2500
  2460.4000      7.7748      2.5843      0.0961      3.9806    102.3004   -999.2500
  2460.5000      7.7753      2.5820      0.0932      4.1209    102.2336   -999.2500
  2460.6000      7.7753      2.5792      0.0900      4.2883    102.3554   -999.2500
  2460.7000      7.7753      2.5761      0.0868      4.4797    102.6877   -999.2500
  2460.8000      7.7853      2.5726      0.0836      4.6910    103.2415   -999.2500
  2460.9000      7.7853      2.5689      0.0808      4.9172    104.0155   -999.2500
  2461.0000      7.8047      2.5650      0.0784      5.1528    104.9910   -999.2500
  2461.1000      7.8047      2.5610      0.0766      5.3917    106.1320   -999.2500
  2461.2000      7.8047      2.5571      0.0754      5.6278    107.3855   -999.2500
  2461.3000      7.8230      2.5534      0.0750      5.8545    108.6800   -999.2500
  2461.4000      7.8230      2.5499      0.0752      6.0659    109.9424   -999.2500
  2461.5000      7.8222      2.5468      0.0760      6.2562    111.1000   -999.2500
  2461.6000      7.8222      2.5441      0.0772      6.4203    112.0887   -999.2500
  2461.7000      7.8222      2.5419      0.0786      6.5541    112.8576   -999.2500
  2461.8000      7.8080      2.5402      0.0802      6.6541    113.3669   -999.2500
  2461.9000      7.8080      2.5392      0.0817      6.7179    113.5823   -999.2500
  2462.0000      7.8016      2.5387      0.0830      6.7441    113.4627   -999.2500
  2462.1000      7.8016      2.5389      0.0842      6.7321    112.9506   -999.2500
  2462.2000      7.8016      2.5397      0.0851      6.6821    111.9635   -999.2500
  2462.3000      7.8109      2.5412      0.0858      6.5946    110.3904   -999.2500
  2462.4000      7.8109      2.5432      0.0864      6.4707    108.1017   -999.2500
  2462.5000      7.8264      2.5459      0.0869      6.3111    104.9600   -999.2500
  2462.6000      7.8264      2.5491      0.0873      6.1167    100.8453   -999.2500
  2462.7000      7.8264      2.5528      0.0876      5.8882     95.6794   -999.2500
  2462.8000      7.8172      2.5572      0.0880      5.6260     89.4491   -999.2500
  2462.9000      7.8172      2.5620      0.0884      5.3307     82.2247   -999.2500
  2463.0000      7.7787      2.5674      0.0888      5.0031     74.1653   -999.2500
  2463.1000      7.7787      2.5734      0.0895      4.6450     65.5131   -999.2500
  2463.2000      7.7787      2.5797      0.0903      4.2593     56.5712   -999.2500
  2463.3000      7.7435      2.5865      0.0915      3.8507     47.6737   -999.2500
  2463.4000      7.7435      2.5935      0.0929      3.4260     39.1481   -999.2500
  2463.5000      7.7284      2.6006      0.0945      2.9946     31.2820   -999.2500
  2463.6000      7.7284      2.6076      0.0962      2.5686     24.2925   -999.2500
  2463.7000      7.7284      2.6143      0.0978      2.1621     18.3130   -999.2500
  2463.8000      7.7247      2.6204      0.0991      1.7915     13.3879   -999.2500
  2463.9000      7.7247      2.6257      0.0997      1.4746      9.4825   -999.2500
  2464.0000      7.7055      2.6297      0.0994      1.2294      6.5013   -999.2500
  2464.1000      7.7055      2.6323      0.0979      1.0736      4.3113   -999.2500
  2464.2000      7.7055      2.6331      0.0951      1.0229      2.7638   -999.2500
  2464.3000      7.6742      2.6320      0.0908      1.0901      1.7113   -999.2500
  2464.4000      7.6742      2.6288      0.0852      1.2839      1.0225   -999.2500
  2464.5000      7.6680      2.6235      0.0783      1.6079      0.5896   -999.2500
  2464.6000      7.6680      2.6160      0.0704      2.0594      0.3270   -999.2500
  2464.7000      7.6680      2.6066      0.0619      2.6295      0.1746   -999.2500
  2464.8000      7.6910      2.5955      0.0531      3.3024      0.0890   -999.2500
  2464.9000      7.6910      2.5831      0.0445      4.0560      0.0434   -999.2500
  2465.0000      7.7207      2.5698      0.0368      4.8626      0.0197   -999.2500
  2465.1000      7.7207      2.5561      0.0308      5.6900      0.0082   -999.2500
  2465.2000      7.7207      2.5427      0.0272      6.5031      0.0029   -999.2500
  2465.3000      7.7450      2.5301      0.0270      7.2660   -999.2500   -999.2500
  2465.4000      7.7450      2.5189      0.0310      7.9439   -999.2500   -999.2500
  2465.5000      7.7533      2.5097      0.0398      8.5053   -999.2500   -999.2500
  2465.6000      7.7533      2.5028      0.0536      8.9236   -999.2500   -999.2500
  2465.7000      7.7533      2.4985      0.0725      9.1796   -999.2500   -999.2500
  2465.8000      7.7333      2.4972      0.0958      9.2613   -999.2500   -999.2500
  2465.9000      7.7333      2.4988      0.1228      9.1657   -999.2500   -999.2500
  2466.0000      7.6656      2.5032      0.1522      8.8981   -999.2500   -999.2500
  2466.1000      7.6656      2.5102      0.1828      8.4716   -999.2500   -999.2500
  2466.2000      7.6656      2.5195      0.2134      7.9065   -999.2500   -999.2500
  2466.3000      7.5620      2.5307      0.2429      7.2283   -999.2500   -999.2500
  2466.4000      7.5620      2.5433      0.2703      6.4662   -999.2500   -999.2500
  2466.5000      7.4636      2.5568      0.2949      5.6512   -999.2500   -999.2500
  2466.6000      7.4636      2.5706      0.3160      4.8137   -999.2500   -999.2500
  2466.7000      7.4636      2.5843      0.3331      3.9821   -999.2500   -999.2500
