~Version Information
 VERS.                                  2.0 : CWLS LAS VERSION
 WRAP.                                   NO : WRAPING MODE
 SWARE .                 MController 2.5.0N : SOFTWARE VERSION
~Well Information
 WELL.                          Cluck 21-25 : WELL
 COMP.    PIONEER NATURAL RESOURCES USA INC : COMPANY
 FLD.                      PURGATOIRE RIVER : FIELD
 LOC.                  NE/NW Sec 25 32S 67W : LOCATION
 DATE.                           6/5-6/2005 : DATE(S) LOGGED
 SRVC.       BLANCO GEOLOGICAL SERVICES LLC : SERVICE COMPANY
 STAT.                                   CO : STATE
 CNTY.                           LAS ANIMAS : COUNTY
 CTRY.                                  USA : COUNTRY
 API.                       05-071-08397-00 : API NUMBER
 STRT.FT                             296.00 : START DEPTH
 STOP.FT                            2730.00 : STOP DEPTH
 STEP.FT                               1.00 : DEPTH INCREMENT
 NULL.                                -9999 : NULL VALUE
~Curve information
 DEPTH.FT                                   :
 ROP.MIN/FT                                 :
 GAS.UNITS                                  :
~ASCII Log data
# ...
      2096.0         0.83         25.0 
      2097.0         0.83         25.0 
      2098.0         0.83         24.1 
      2099.0         0.20         23.5 
      2100.0         0.23         23.2 
      2101.0        11.10         26.4 
      2102.0         4.88         54.6 
      2103.0         0.53         64.5 
      2104.0         0.52         80.1 
      2105.0         0.47        102.2 
      2106.0         0.50        106.8 
      2107.0         0.63        104.2 
      2108.0         0.70         91.9 
      2109.0         0.57         66.1 
      2110.0         0.65         57.3 
      2111.0         0.77         31.6 
      2112.0         0.93         20.2 
      2113.0         0.97          5.6 
      2114.0         0.78          5.2 
      2115.0         0.63          4.9 
      2116.0         0.73          6.3 
      2117.0         0.70          8.5 
      2118.0         0.63         14.6 
      2119.0         0.65         18.9 
      2120.0         0.53         20.4 
      2121.0         0.33         22.5 
      2122.0         0.27         22.1 
      2123.0         0.27         21.5 
      2124.0         0.37         21.7 
      2125.0         0.40         22.1 
      2126.0         0.40         23.9 
      2127.0         0.45         29.0 
      2128.0         0.33         33.9 
      2129.0         0.53         37.3 
      2130.0         2.37         34.2 
      2131.0         3.50         23.3 
      2132.0         0.07         17.4 
      2133.0         1.03         25.5 
      2134.0         0.83         33.1 
      2135.0         0.73         45.9 
      2136.0         0.53         73.7 
      2137.0         0.52         86.9 
      2138.0         0.40        107.4 
      2139.0         0.50        110.9 
      2140.0         0.50        108.5 
      2141.0         0.43        100.2 
      2142.0         0.43         93.7 
      2143.0         0.47         87.0 
      2144.0         0.68         79.5 
      2145.0         0.90         70.1 
      2146.0         1.17         50.7 
      2147.0         0.53          7.7 
      2148.0         0.42          6.0 
      2149.0         0.23          4.9 
      2150.0         0.37          3.9 
      2151.0         0.37          5.0 
      2152.0         0.37          4.7 
      2153.0         0.43          4.5 
      2154.0         0.40          4.0 
      2155.0         0.33          4.5 
      2156.0         0.47          6.6 
      2157.0         0.52         10.2 
      2158.0         0.57         11.9 
      2159.0         0.50         13.3 
      2160.0         0.50         14.5 
      2161.0        25.30         69.0 
      2162.0         0.27         33.3 
      2163.0         0.20         38.3 
      2164.0         0.17         38.3 
      2165.0         0.13         39.4 
      2166.0         0.70         43.4 
      2167.0         0.53         44.2 
      2168.0         0.53         49.9 
      2169.0         0.52         70.9 
      2170.0         0.53        112.1 
      2171.0         0.40        125.1 
      2172.0         0.37        128.0 
      2173.0         0.37        111.8 
      2174.0         0.47         93.2 
      2175.0         0.50         62.9 
      2176.0         0.50         42.6 
      2177.0         0.52         31.1 
      2178.0         0.47         18.6 
      2179.0         0.43         13.7 
      2180.0         0.43          8.3 
      2181.0         0.43          6.2 
      2182.0         0.43          4.9 
      2183.0         0.40          3.9 
      2184.0         0.38          3.7 
      2185.0         0.30          4.6 
      2186.0         0.37          3.4 
      2187.0         0.40          3.2 
      2188.0         0.40          4.1 
      2189.0         0.33          3.9 
      2190.0         0.30          4.6 
      2191.0         7.63         22.7 
      2192.0         0.85         20.6 
      2193.0         0.57         22.1 
      2194.0         0.33         22.8 
      2195.0         0.93         27.5 
      2196.0         0.70         36.3 
      2197.0         0.52         47.4 
      2198.0         0.37         54.8 
      2199.0         0.40         60.3 
      2200.0         0.43         56.7 
      2201.0         0.53         46.7 
      2202.0         0.50         36.6 
      2203.0         0.43         30.8 
      2204.0         0.33         28.8 
      2205.0         0.42         27.4 
      2206.0         0.47         27.8 
      2207.0         0.50         29.9 
      2208.0         0.43         33.5 
      2209.0         0.43         37.8 
      2210.0         0.47         37.8 
      2211.0         0.43         25.8 
      2212.0         0.45         13.8 
      2213.0         0.50          7.3 
      2214.0         0.47          5.6 
      2215.0         0.40          4.7 
      2216.0         0.37          4.7 
      2217.0         0.37          5.6 
      2218.0         0.33          5.8 
      2219.0         0.37          5.7 
      2220.0         0.42          6.7 
      2221.0        12.42         20.3 
      2222.0         1.72         21.1 
      2223.0         0.10         21.1 
      2224.0         0.10         21.1 
      2225.0         0.10         23.4 
      2226.0         0.97         27.4 
      2227.0         0.80         35.6 
      2228.0         0.68         45.2 
      2229.0         0.50         49.3 
      2230.0         0.47         57.9 
      2231.0         0.43         73.6 
      2232.0         0.43         78.1 
      2233.0         0.43         77.9 
      2234.0         0.48         70.7 
      2235.0         0.47         63.0 
      2236.0         0.40         54.1 
      2237.0         0.43         46.7 
      2238.0         0.40         41.7 
      2239.0         0.43         32.5 
      2240.0         0.42         30.8 
      2241.0         0.57         30.3 
      2242.0         0.47         25.0 
      2243.0         0.53         16.5 
      2244.0         0.53          9.2 
      2245.0         0.50          5.6 
      2246.0         0.50          5.5 
      2247.0         0.48          5.4 
      2248.0         0.57          4.9 
      2249.0         0.67          4.6 
      2250.0         0.77          5.6 
      2251.0         6.60         18.5 
      2252.0         2.72         16.8 
      2253.0         0.82         25.3 
      2254.0         0.83         32.0 
      2255.0         1.00         46.0 
      2256.0         0.90         68.8 
      2257.0         1.02         67.7 
      2258.0         0.73         45.1 
      2259.0         0.77         33.1 
      2260.0         0.70         24.1 
      2261.0         0.72         26.2 
      2262.0         0.93         27.3 
      2263.0         0.93         12.7 
      2264.0         0.73          7.4 
      2265.0         0.88          4.6 
      2266.0         1.27          8.2 
      2267.0         0.73         15.8 
      2268.0         0.70         26.4 
      2269.0         0.85         26.5 
      2270.0         0.77         23.6 
      2271.0         0.83         20.9 
      2272.0         0.87         17.6 
      2273.0         0.95         14.7 
      2274.0         0.97         17.1 
      2275.0         0.97         20.6 
      2276.0         0.67         21.3 
      2277.0         0.98         21.6 
      2278.0         0.67         22.1 
      2279.0         0.67         21.9 
      2280.0         0.97         22.5 
      2281.0        10.63         23.7 
      2282.0         2.17         22.3 
      2283.0         0.68         29.6 
      2284.0         1.17         40.6 
      2285.0         0.80         50.6 
      2286.0         0.67         71.9 
      2287.0         0.75         86.2 
      2288.0         0.50         86.8 
      2289.0         0.70         77.7 
      2290.0         0.73         68.5 
      2291.0         0.40         63.4 
      2292.0         0.53         60.9 
      2293.0         0.55         54.6 
      2294.0         0.60         46.1 
      2295.0         0.67         40.7 
