~Version Information
VERS.                      2.0: CWLS Log ASCII Standard - VERSION 2.0
WRAP.                       NO: One line per depth step
~Well Information Block
STRT.FT               360.0000: 
STOP.FT              1622.7500: 
STEP.FT                 0.2500: 
NULL.                -999.2500: 
COMP.          Pioneer Natural Resources: COMPANY
WELL.                Eric 42-9: WELL
FLD.           Purgatoire River: FIELD
LOC.           2050' FNL & 850' FEL: LOCATION
PROV.                 Colorado: PROVINCE
CNTY.               Las Animas: COUNTRY
SRVC.                Patterson: SERVICE COMPANY
DATE.          Sun Oct 31 17:26:46 2004: LOG DATE
UWI.           05 071 07999 00: UNIQUE WELL ID
~Curve Information Block
DEPT.FT            0 000 00 00: Depth
SN.Ohm-m                      : IEL Short Normal
SP.mV                         : IEL Spontaneous Potential
DIR.Ohm-m                     : IEL Induction Resistivity
GR.GAPI                       : Gamma Ray
~Parameter Information Block
~A  Depth        SN          SP         DIR          GR     
# ...
  1432.0000     29.8863    143.4733     25.7780     64.2271
  1432.2500     30.0098    142.9931     26.0543     64.0208
  1432.5000     30.0106    142.6263     26.2811     63.5123
  1432.7500     29.8487    142.4313     26.3899     63.7934
  1433.0000     29.5410    142.4391     26.3396     65.6459
  1433.2500     29.1621    142.6471     26.1286     67.3805
  1433.5000     28.8077    143.0223     25.7858     69.7147
  1433.7500     28.5366    143.5128     25.3520     70.9540
  1434.0000     28.3352    144.0616     24.8666     72.8192
  1434.2500     28.1301    144.6183     24.3639     74.3334
  1434.5000     27.8389    145.1444     23.8722     76.8801
  1434.7500     27.4227    145.6135     23.4099     78.4192
  1435.0000     26.9026    146.0067     22.9805     80.0418
  1435.2500     26.3326    146.3085     22.5766     80.5882
  1435.5000     25.7622    146.5053     22.1921     80.4067
  1435.7500     25.2260    146.5872     21.8337     79.4435
  1436.0000     24.7492    146.5554     21.5193     76.8912
  1436.2500     24.3436    146.4310     21.2623     74.9033
  1436.5000     23.9919    146.2616     21.0569     72.4135
  1436.7500     23.6447    146.1189     20.8748     71.4938
  1437.0000     23.2427    146.0857     20.6747     71.5024
  1437.2500     22.7447    146.2324     20.4152     72.2165
  1437.5000     22.1378    146.5934     20.0665     73.5689
  1437.7500     21.4408    147.1526     19.6228     74.3877
  1438.0000     20.7072    147.8479     19.1125     75.8485
  1438.2500     20.0158    148.5891     18.5942     77.6385
  1438.5000     19.4356    149.2828     18.1333     83.0769
  1438.7500     18.9886    149.8517     17.7745     89.1649
  1439.0000     18.6473    150.2424     17.5279    101.3322
  1439.2500     18.3658    150.4239     17.3758    109.8820
  1439.5000     18.1200    150.3824     17.2921    119.7021
  1439.7500     17.9301    150.1192     17.2607    122.4956
  1440.0000     17.8599    149.6512     17.2854    120.0383
  1440.2500     17.9963    149.0148     17.3874    114.8268
  1440.5000     18.4139    148.2650     17.5964    105.0669
  1440.7500     19.1372    147.4700     17.9377     99.4736
  1441.0000     20.1215    146.6997     18.4205     94.4873
  1441.2500     21.2618    146.0131     19.0292     93.0107
  1441.5000     22.4200    145.4484     19.7224     91.0925
  1441.7500     23.4603    145.0206     20.4418     88.8254
  1442.0000     24.2911    144.7238     21.1271     83.9536
  1442.2500     24.8949    144.5391     21.7294     80.7125
  1442.5000     25.3190    144.4424     22.2145     77.5485
  1442.7500     25.6265    144.4104     22.5594     76.8132
  1443.0000     25.8495    144.4233     22.7522     76.9362
  1443.2500     25.9792    144.4656     22.7969     77.2032
  1443.5000     25.9903    144.5249     22.7154     77.4314
  1443.7500     25.8695    144.5913     22.5447     77.5307
  1444.0000     25.6296    144.6569     22.3296     77.7763
  1444.2500     25.3065    144.7162     22.1156     78.0546
  1444.5000     24.9475    144.7670     21.9405     78.8197
  1444.7500     24.5976    144.8102     21.8265     79.6869
  1445.0000     24.2872    144.8487     21.7777     81.3551
  1445.2500     24.0272    144.8868     21.7844     82.2804
  1445.5000     23.8159    144.9270     21.8340     82.6944
  1445.7500     23.6539    144.9685     21.9174     82.5203
  1446.0000     23.5483    145.0052     22.0252     83.2580
  1446.2500     23.5019    145.0264     22.1377     85.5993
  1446.5000     23.5032    145.0188     22.2212     92.7969
  1446.7500     23.5341    144.9701     22.2422     99.6780
  1447.0000     23.5867    144.8737     22.1903    111.5800
  1447.2500     23.6707    144.7307     22.0882    119.4612
  1447.5000     23.8005    144.5497     21.9774    128.9952
  1447.7500     23.9774    144.3439     21.8930    132.5158
  1448.0000     24.1859    144.1261     21.8487    132.1832
  1448.2500     24.4096    143.9036     21.8414    128.4419
  1448.5000     24.6483    143.6759     21.8663    119.7314
  1448.7500     24.9168    143.4343     21.9276    113.5919
  1449.0000     25.2295    143.1639     22.0373    106.0282
  1449.2500     25.5934    142.8469     22.2073    102.3404
  1449.5000     26.0166    142.4659     22.4459     97.9620
  1449.7500     26.5135    142.0076     22.7617     95.1104
  1450.0000     27.0921    141.4660     23.1710     90.2829
  1450.2500     27.7389    140.8444     23.6937     86.7475
  1450.5000     28.4234    140.1558     24.3367     81.5462
  1450.7500     29.1228    139.4202     25.0739     78.7365
  1451.0000     29.8371    138.6598     25.8473     77.1812
  1451.2500     30.5764    137.8930     26.5974     79.1679
  1451.5000     31.3366    137.1312     27.3064     88.4127
  1451.7500     32.0996    136.3793     28.0126     99.1245
  1452.0000     32.8652    135.6405     28.7787    121.4468
  1452.2500     33.6681    134.9232     29.6396    139.2731
  1452.5000     34.5440    134.2460     30.5681    165.8965
  1452.7500     35.4803    133.6379     31.4811    179.6455
  1453.0000     36.4049    133.1337     32.2717    188.2751
  1453.2500     37.2152    132.7660     32.8439    185.0351
  1453.5000     37.8151    132.5568     33.1341    170.1689
  1453.7500     38.1432    132.5130     33.1260    157.0372
  1454.0000     38.1904    132.6258     32.8634    137.2971
  1454.2500     38.0003    132.8736     32.4418    125.7098
  1454.5000     37.6484    133.2259     31.9677    112.2840
  1454.7500     37.2105    133.6480     31.5115    106.4670
  1455.0000     36.7368    134.1047     31.0910    102.2771
  1455.2500     36.2474    134.5649     30.6897    102.0074
  1455.5000     35.7440    135.0045     30.2856    104.8188
  1455.7500     35.2259    135.4083     29.8653    108.8725
  1456.0000     34.6983    135.7694     29.4238    118.3888
  1456.2500     34.1716    136.0866     28.9629    126.9094
  1456.5000     33.6565    136.3612     28.4930    142.2597
  1456.7500     33.1616    136.5944     28.0312    153.2487
  1457.0000     32.6928    136.7871     27.5906    167.7445
  1457.2500     32.2540    136.9415     27.1706    173.8916
  1457.5000     31.8479    137.0639     26.7543    175.8366
  1457.7500     31.4804    137.1668     26.3184    172.9167
  1458.0000     31.1596    137.2675     25.8533    165.3591
  1458.2500     30.8860    137.3852     25.3836    160.1617
  1458.5000     30.6462    137.5350     24.9737    154.4420
  1458.7500     30.4180    137.7227     24.7054    152.3647
  1459.0000     30.1856    137.9433     24.6340    150.4186
  1459.2500     29.9490    138.1835     24.7480    148.4373
  1459.5000     29.7246    138.4266     24.9570    142.9688
  1459.7500     29.5415    138.6594     25.1275    138.0610
  1460.0000     29.4342    138.8752     25.1536    130.7517
  1460.2500     29.4290    139.0724     25.0210    126.7596
  1460.5000     29.5303    139.2492     24.8092    122.0764
  1460.7500     29.7189    139.3986     24.6321    119.2878
  1461.0000     29.9666    139.5051     24.5709    115.0630
  1461.2500     30.2562    139.5473     24.6441    112.5449
  1461.5000     30.5922    139.5032     24.8195    110.6437
  1461.7500     30.9990    139.3557     25.0496    111.5104
  1462.0000     31.5119    139.0956     25.3010    116.7288
  1462.2500     32.1627    138.7217     25.5664    122.5290
  1462.5000     32.9639    138.2390     25.8586    132.8878
  1462.7500     33.9035    137.6571     26.2051    139.1707
  1463.0000     34.9535    136.9892     26.6439    144.3914
  1463.2500     36.0851    136.2513     27.2178    143.7988
  1463.5000     37.2778    135.4603     27.9616    136.9715
  1463.7500     38.5201    134.6326     28.8872    129.9131
  1464.0000     39.8034    133.7816     29.9748    119.1344
  1464.2500     41.1176    132.9181     31.1762    113.6269
  1464.5000     42.4506    132.0521     32.4255    109.2296
  1464.7500     43.7919    131.1962     33.6517    108.5789
  1465.0000     45.1365    130.3680     34.7889    109.8616
  1465.2500     46.4853    129.5899     35.7896    111.8706
