~Version Information
VERS.                      2.0: CWLS Log ASCII Standard - VERSION 2.0
WRAP.                       NO: One line per depth step
~Well Information Block
STRT.FT               650.0000: 
STOP.FT              2000.5000: 
STEP.FT                 0.1000: 
NULL.                -999.2500: 
COMP.          Pioneer Natural Resources: COMPANY
WELL.           Firehawk 34-26: WELL
FLD.           Purgatoire River: FIELD
LOC.           1196' FSL & 1595' FEL--: LOCATION
STAT.                 Colorado: State
CNTY.               Las Animas: COUNTY
CTRY. USA : Country
SECT. 26 : Section
TOWN. 32S : Township
RANG. 66W : Range
SRVC.                Patterson: SERVICE COMPANY
DATE.          Mon Oct 17 07:23:34 2005: LOG DATE
API.           05 071 08389 00: UNIQUE WELL ID
~Curve Information Block
DEPT.FT            0 000 00 00: Depth
DCAL.in                       : CDL Caliper
RHOB.g/cc                     : CDL Bulk Density
RHOC.g/cc                     : CDL Density Correction
DPOR.pu                       : CDL Density Porosity
NPOR.pu                       : Neutron Porosity
GR.GAPI                       : Gamma Ray
~Parameter Information Block
~A  Depth       DCAL        RHOB        RHOC        DPOR        NPOR         GR     
# ...
  1005.2000      8.1799      2.4427      0.0677     12.5622     18.2812     55.3887
  1005.3000      8.0836      2.4816      0.0399     10.2030     18.0572     54.8773
  1005.4000      8.0836      2.5007      0.0600      9.0471     17.9946     55.4785
  1005.5000      8.0292      2.4980      0.0576      9.2111     18.5790     57.7314
  1005.6000      8.0292      2.4910     -0.0062      9.6388     19.4265     61.7566
  1005.7000      8.0292      2.5077     -0.0181      8.6230     20.0079     66.3943
  1005.8000      8.0138      2.5475      0.0619      6.2127     20.3310     70.6800
  1005.9000      8.0138      2.5833      0.0801      4.0448     20.6548     72.2606
  1006.0000      8.0053      2.5995      0.0932      3.0582     20.7446     70.4200
  1006.1000      8.0053      2.5989      0.0736      3.0990     20.2492     68.5920
  1006.2000      8.0053      2.5933      0.0636      3.4386     19.5454     70.1198
  1006.3000      7.9970      2.5906      0.0790      3.6020     19.0751     74.2019
  1006.4000      7.9970      2.5859      0.0889      3.8878     18.7357     76.9252
  1006.5000      7.9939      2.5782      0.0396      4.3498     18.4391     76.8090
  1006.6000      7.9939      2.5781      0.0351      4.3574     18.4725     74.9504
  1006.7000      7.9939      2.5862      0.0569      3.8642     18.8054     73.5045
  1006.8000      7.9930      2.5927      0.0430      3.4729     18.9416     73.9596
  1006.9000      7.9930      2.5942      0.0444      3.3804     18.7745     74.6679
  1007.0000      7.9902      2.5985      0.0063      3.1217     18.6247     73.3094
  1007.1000      7.9902      2.6086      0.0567      2.5068     18.7839     71.0327
  1007.2000      7.9902      2.6083      0.0823      2.5258     19.1387     69.9015
  1007.3000      7.9871      2.5868      0.0675      3.8299     19.3237     69.6417
  1007.4000      7.9871      2.5602      0.0235      5.4420     19.2916     70.3560
  1007.5000      7.9865      2.5519     -0.0088      5.9425     19.1439     72.2675
  1007.6000      7.9865      2.5659      0.0403      5.0955     18.9204     72.3836
  1007.7000      7.9865      2.5859      0.0509      3.8855     18.6951     68.5169
  1007.8000      7.9877      2.5995      0.0612      3.0598     18.3535     64.0242
  1007.9000      7.9877      2.6075      0.0533      2.5729     17.7501     61.9178
  1008.0000      7.9888      2.6139      0.0971      2.1852     17.4224     62.6196
  1008.1000      7.9888      2.6183      0.0844      1.9232     17.8119     65.5033
  1008.2000      7.9888      2.6194      0.0852      1.8547     18.2637     67.9919
  1008.3000      7.9900      2.6139      0.0729      2.1891     18.5180     68.8127
  1008.4000      7.9900      2.6043      0.0625      2.7717     18.8671     67.6970
  1008.5000      7.9906      2.6023      0.0505      2.8930     19.0417     65.5397
  1008.6000      7.9906      2.6096      0.0629      2.4478     18.7676     66.3067
  1008.7000      7.9906      2.6201      0.0804      1.8125     18.2416     69.9326
  1008.8000      7.9894      2.6306      0.0415      1.1739     17.6767     72.6195
  1008.9000      7.9894      2.6336      0.0993      0.9915     17.1992     73.5312
  1009.0000      7.9879      2.6243      0.0703      1.5577     16.9083     71.3960
  1009.1000      7.9879      2.6165      0.0716      2.0332     16.9043     65.5436
  1009.2000      7.9879      2.6219      0.0657      1.7056     17.2969     59.9982
  1009.3000      7.9885      2.6342      0.0543      0.9591     17.7862     57.3097
  1009.4000      7.9885      2.6374      0.0670      0.7613     17.9342     56.1953
  1009.5000      7.9890      2.6279      0.0362      1.3411     17.6854     55.8248
  1009.6000      7.9890      2.6227      0.0243      1.6534     17.4524     55.9435
  1009.7000      7.9890      2.6380      0.0384      0.7247     17.2718     56.8949
  1009.8000      7.9889      2.6679      0.0845     -1.0819     16.7743     59.8653
  1009.9000      7.9889      2.6911      0.0844     -2.4895     16.4095     64.6591
  1010.0000      7.9888      2.6971      0.1059     -2.8568     16.6824     69.6399
  1010.1000      7.9888      2.6856      0.1079     -2.1547     17.0312     71.1319
  1010.2000      7.9888      2.6612      0.0757     -0.6777     17.2636     66.5972
  1010.3000      7.9893      2.6366      0.0401      0.8120     17.7640     60.5368
  1010.4000      7.9893      2.6179      0.0456      1.9474     18.4731     58.2195
  1010.5000      7.9914      2.6034      0.0255      2.8240     19.0298     58.7673
  1010.6000      7.9914      2.5979      0.0158      3.1559     19.2533     58.8635
  1010.7000      7.9914      2.5983      0.0398      3.1332     19.1612     56.8380
  1010.8000      7.9989      2.5883      0.0279      3.7375     18.9425     55.0994
  1010.9000      7.9989      2.5739      0.0172      4.6115     18.8734     56.6475
  1011.0000      8.0090      2.5815     -0.0142      4.1532     19.1450     59.8916
  1011.1000      8.0090      2.6086      0.0336      2.5067     19.6242     62.1419
  1011.2000      8.0090      2.6245      0.0716      1.5483     19.8761     63.9922
  1011.3000      8.0156      2.6229      0.0281      1.6429     19.8025     67.6173
  1011.4000      8.0156      2.6200      0.0448      1.8212     19.6004     73.3549
  1011.5000      8.0210      2.6146      0.0376      2.1427     19.3890     77.8451
  1011.6000      8.0210      2.6025      0.0427      2.8767     19.3203     76.9543
  1011.7000      8.0210      2.5944     -0.0031      3.3693     19.2868     71.8651
  1011.8000      8.0268      2.5956      0.0448      3.2997     19.0214     67.8909
  1011.9000      8.0268      2.5981      0.0363      3.1456     18.8307     67.0949
  1012.0000      8.0371      2.6008      0.0249      2.9794     19.2206     67.3116
  1012.1000      8.0371      2.6073      0.0397      2.5881     19.7116     67.6418
  1012.2000      8.0371      2.6169      0.0588      2.0087     19.6781     69.2858
  1012.3000      8.0546      2.6334      0.0232      1.0061     19.5274     72.1621
  1012.4000      8.0546      2.6640      0.0322     -0.8476     19.8861     74.9702
  1012.5000      8.0774      2.7007      0.1113     -3.0729     20.4127     75.5045
  1012.6000      8.0774      2.7211      0.0851     -4.3098     20.6585     73.4312
  1012.7000      8.0774      2.7177      0.0725     -4.1029     20.8276     71.3971
  1012.8000      8.0979      2.6987      0.0840     -2.9505     21.2158     71.2026
  1012.9000      8.0979      2.6630      0.0889     -0.7878     21.6750     72.8989
  1013.0000      8.1096      2.5929      0.0480      3.4577     22.0025     75.3255
  1013.1000      8.1096      2.4768     -0.0384     10.4994     22.5248     76.2087
  1013.2000      8.1096      2.3337     -0.1221     19.1672     23.5748     76.1851
  1013.3000      8.1163      2.1954     -0.1421     27.5526     24.9646     77.8459
  1013.4000      8.1163      2.0712     -0.1364     35.0784     26.3935     79.9378
  1013.5000      8.1267      1.9586     -0.1520     41.9046     27.7737     80.4591
  1013.6000      8.1267      1.8603     -0.1522     47.8611     28.8604     80.6657
  1013.7000      8.1267      1.7739     -0.1271     53.0941     29.1619     80.2229
  1013.8000      8.1569      1.6972     -0.1279     57.7484     28.7414     76.3492
  1013.9000      8.1569      1.6387     -0.0395     61.2916     28.1759     68.1815
  1014.0000      8.2633      1.6017      0.1013     63.5342     27.7719     59.8232
  1014.1000      8.2633      1.5826      0.1878     64.6936     27.1765     55.6928
  1014.2000      8.2633      1.5870      0.2125     64.4259     26.0802     55.1316
  1014.3000      8.4279      1.6272      0.1707     61.9850     25.0397     54.8717
  1014.4000      8.4279      1.7080      0.1825     57.0931     24.4985     54.6456
  1014.5000      8.4834      1.8174      0.2120     50.4580     24.2876     56.4386
  1014.6000      8.4834      1.9380      0.2326     43.1515     24.0393     59.3087
  1014.7000      8.4834      2.0542      0.2708     36.1109     23.5321     60.5644
