~Version Information
VERS.                      2.0: CWLS Log ASCII Standard - VERSION 2.0
WRAP.                       NO: One line per depth step
~Well Information Block
STRT.FT                -7.0000: 
STOP.FT              2730.2500: 
STEP.FT                 0.2500: 
NULL.                -999.2500: 
COMP.          Pioneer Natural Resources: COMPANY
WELL.             Squeal 11-26: WELL
FLD.           Purgatorie River: FIELD
LOC.           1186' FNL & 152' FWL--: LOCATION
PROV.                       CO: PROVINCE
CNTY.               Las Animas: COUNTRY
SRVC.          Patterson Wireline: SERVICE COMPANY
DATE.          Tue Jul 26 11:59:46 2005: LOG DATE
UWI.           05 071 08404 00: UNIQUE WELL ID
~Curve Information Block
DEPT.FT            0 000 00 00: Depth
CCL.                          : Casing Collar Locator
TT3.usec                      : CBL 3' Travel Time
AMP3.mV                       : CBL 3' Amplitude
GR.GAPI                       : Gamma Ray
~Parameter Information Block
~A  Depth       CCL         TT3         AMP3         GR     
# ...
  1802.0000      0.0000    600.1243      4.4145     67.8046
  1802.2500      0.0000    600.3629      4.4635     65.8023
  1802.5000      0.0000    601.6653      4.5024     63.7131
  1802.7500      0.0000    604.1606      4.5304     61.8005
  1803.0000      0.0000    607.6258      4.5498     60.7191
  1803.2500      0.0000    611.3350      4.5646     61.3139
  1803.5000      0.0000    614.1993      4.5802     63.8899
  1803.7500      0.0000    614.8711      4.5994     67.5666
  1804.0000      0.0000    611.7935      4.6206     70.5264
  1804.2500      0.0000    603.8654      4.6370     71.1230
  1804.5000      0.0000    592.2275      4.6404     69.0787
  1804.7500      0.0000    581.7922      4.6247     65.9061
  1805.0000      0.0000    579.4851      4.5894     63.9872
  1805.2500      0.0000    588.9835      4.5411     64.7912
  1805.5000      0.0000    607.3256      4.4913     67.9895
  1805.7500      0.0000    627.7198      4.4526     72.4472
  1806.0000      0.0000    645.1974      4.4306     77.5876
  1806.2500      0.0000    659.1077      4.4193     83.2670
  1806.5000      0.0000    671.4280      4.4035     88.7336
  1806.7500      0.0000    684.0168      4.3697     92.5179
  1807.0000      0.0000    697.0021      4.3183     93.7430
  1807.2500      0.0000    708.3994      4.2648     93.3600
  1807.5000      0.0000    714.9423      4.2276     93.6527
  1807.7500      0.0000    714.3392      4.2146     96.2772
  1808.0000      0.0000    707.4948      4.2199    100.8735
  1808.2500      0.0000    698.2246      4.2307    105.6489
  1808.5000      0.0000    690.3657      4.2372    109.3336
  1808.7500      0.0000    685.3459      4.2393    112.5971
  1809.0000      0.0000    682.3856      4.2528    117.3170
  1809.2500      0.0000    680.3203      4.3091    124.3564
  1809.5000      0.0000    679.0508      4.4456    132.4780
  1809.7500      0.0000    679.5192      4.6818    139.5591
  1810.0000      0.0000    682.2584      4.9981    144.2615
  1810.2500      0.0000    686.0924      5.3383    146.4480
  1810.5000      0.0000    689.0385      5.6411    146.9637
  1810.7500      0.0000    690.6181      5.8725    147.5100
  1811.0000      0.0000    692.2042      6.0314    149.9030
  1811.2500      0.0000    694.9744      6.1352    154.5869
  1811.5000      0.0000    698.7340      6.2060    159.8722
  1811.7500      0.0000    703.0666      6.2653    162.8468
  1812.0000      0.0000    708.3993      6.3226    161.2810
  1812.2500      0.0000    715.1113      6.3573    155.1932
  1812.5000      0.0000    722.0351      6.3151    147.0100
  1812.7500      0.0000    726.4769      6.1449    140.1550
  1813.0000      0.0000    725.8167      5.8552    137.0344
  1813.2500      0.0000    719.1816      5.5264    137.7907
  1813.5000      0.0000    708.1434      5.2461    140.6190
  1813.7500      0.0000    696.3179      5.0347    143.3141
  1814.0000      0.0000    687.5982      4.8576    144.8932
  1814.2500      0.0000    683.6884      4.6953    145.8963
  1814.5000      0.0000    683.5952      4.5668    147.2779
  1814.7500      0.0000    685.9456      4.4938    149.4110
  1815.0000      0.0000    690.5671      4.4769    152.1081
  1815.2500      2.0000    696.9675      4.5067    154.8392
  1815.5000      0.0000    702.8447      4.5780    156.6315
  1815.7500      0.0000    705.6266      4.6834    156.3186
  1816.0000      0.0000    704.6960      4.7958    153.4207
  1816.2500      0.0000    701.2825      4.8634    148.8575
  1816.5000      0.0000    697.0011      4.8405    144.6842
  1816.7500      0.0000    693.1346      4.7400    142.9484
  1817.0000      0.0000    690.6295      4.6372    144.6281
  1817.2500      0.0000    690.1091      4.6065    149.4365
  1817.5000      0.0000    691.9474      4.6639    155.8735
  1817.7500      0.0000    696.2386      4.7733    160.8508
  1818.0000      0.0000    702.2007      4.8850    160.2695
  1818.2500      0.0000    707.4536      4.9596    151.7360
  1818.5000      0.0000    708.3046      4.9734    137.1607
  1818.7500      0.0000    701.4799      4.9208    121.7939
  1819.0000      0.0000    686.1265      4.8150    110.5091
  1819.2500      0.0000    664.7134      4.6797    105.4685
  1819.5000      0.0000    642.5873      4.5390    106.4866
  1819.7500      0.0000    626.3851      4.4142    111.5944
  1820.0000      0.0000    620.7888      4.3209    117.0431
  1820.2500      0.0000    624.8647      4.2624    119.0211
  1820.5000      0.0000    632.3665      4.2273    116.9092
  1820.7500      0.0000    637.1137      4.2025    113.9927
  1821.0000      0.0000    637.5851      4.1865    114.1745
  1821.2500      0.0000    636.1470      4.1883    118.5910
  1821.5000      0.0000    635.7137      4.2141    125.5210
  1821.7500      0.0000    638.1024      4.2628    132.4951
  1822.0000      0.0000    644.0871      4.3301    137.9361
  1822.2500      0.0000    653.2849      4.4125    141.3459
  1822.5000      0.0000    663.9210      4.5070    142.6293
  1822.7500      0.0000    673.6829      4.6124    141.7476
  1823.0000      0.0000    681.3892      4.7356    139.3114
  1823.2500      0.0000    687.8130      4.8918    136.9371
  1823.5000      0.0000    694.7181      5.0919    136.1378
  1823.7500      0.0000    703.0613      5.3265    136.9744
  1824.0000      0.0000    712.0605      5.5678    138.4357
  1824.2500      0.0000    719.9186      5.7903    140.0718
  1824.5000      0.0000    725.3437      5.9827    142.6482
  1824.7500      0.0000    728.3071      6.1287    147.0093
  1825.0000      0.0000    729.5831      6.1893    152.8051
  1825.2500      0.0000    729.9473      6.1206    158.7345
  1825.5000      0.0000    729.8646      5.9152    163.7898
  1825.7500      0.0000    729.5928      5.6197    167.6828
  1826.0000      0.0000    729.2951      5.3059    170.1120
  1826.2500      0.0000    729.0103      5.0301    170.4691
  1826.5000      0.0000    728.5911      4.8174    168.4686
  1826.7500      0.0000    727.6907      4.6704    164.3033
  1827.0000      0.0000    725.8901      4.5757    157.9985
  1827.2500      0.0000    723.0282      4.5028    149.3651
  1827.5000      0.0000    719.4817      4.4146    139.0818
  1827.7500      0.0000    715.9070      4.2917    129.5324
  1828.0000      0.0000    712.6912      4.1466    123.9171
  1828.2500      0.0000    710.1167      4.0125    124.0041
  1828.5000      0.0000    709.0739      3.9190    128.6319
  1828.7500      0.0000    710.7321      3.8772    134.6025
  1829.0000      0.0000    715.1476      3.8831    139.0851
  1829.2500      0.0000    720.9189      3.9236    140.8877
  1829.5000      0.0000    726.6273      3.9783    139.6414
  1829.7500      0.0000    731.9695      4.0244    134.7720
  1830.0000      0.0000    736.8456      4.0525    126.0938
  1830.2500      0.0000    739.5500      4.0709    115.1097
  1830.5000      0.0000    736.5898      4.0921    104.9389
  1830.7500      0.0000    724.4642      4.1201     98.6846
  1831.0000      0.0000    701.3978      4.1528     97.8014
  1831.2500      0.0000    668.7828      4.1937    101.5442
  1831.5000      0.0000    633.5452      4.2530    107.5083
  1831.7500      0.0000    608.1323      4.3370    112.9332
  1832.0000      0.0000    603.3118      4.4385    116.0726
  1832.2500      0.0000    618.6782      4.5394    116.6757
  1832.5000      0.0000    642.1248      4.6235    115.3615
  1832.7500      0.0000    658.6862      4.6846    112.8406
  1833.0000      0.0000    658.0767      4.7215    109.8707
  1833.2500      0.0000    636.1804      4.7289    107.5062
  1833.5000      0.0000    595.3605      4.6975    106.7604
  1833.7500      0.0000    545.2000      4.6262    107.8677
  1834.0000      0.0000    499.0813      4.5297    110.0047
  1834.2500      0.0000    466.6831      4.4331    111.7459
  1834.5000      0.0000    449.8025      4.3559    111.9183
  1834.7500      0.0000    445.3345      4.3026    110.3842
  1835.0000      0.0000    451.1516      4.2658    108.1572
  1835.2500      0.0000    468.9576      4.2374    106.5406
