~Version Information
VERS.                      2.0: CWLS Log ASCII Standard - VERSION 2.0
WRAP.                       NO: One line per depth step
~Well Information Block
STRT.FT                -8.2500: 
STOP.FT              2209.7500: 
STEP.FT                 0.2500: 
NULL.                -999.2500: 
COMP.          Petrogulf Corporation: COMPANY
WELL.          Alexander 9-43V: WELL
FLD.           Purgatorie River: FIELD
LOC.                          : LOCATION
CNTY.               Las Animas: COUNTY
SRVC.                         : SERVICE COMPANY
DATE.          Wed May 28 09:25:28 2003: LOG DATE
UWI.           05 071 07727 00: UNIQUE WELL ID
STAT.                 Colorado: STATE
~Curve Information Block
DEPT.FT            0 000 00 00: Depth
CCL.                          : Casing Collar Locator
TT3.usec                      : CBL 3' Travel Time
AMP3.mV                       : CBL 3' Amplitude
GR.GAPI                       : Gamma Ray
~Parameter Information Block
~A  Depth       CCL         TT3         AMP3         GR     
# ...
  1599.7500      0.0000    541.1632      5.1132    136.3850
  1600.0000      0.0000    563.0936      5.1208    133.0628
  1600.2500      0.0000    582.8249      5.0996    130.6942
  1600.5000      0.0000    592.5597      5.0905    130.2567
  1600.7500      0.0000    591.4173      5.1191    132.0261
  1601.0000      0.0000    582.9213      5.1682    135.5028
  1601.2500      0.0000    569.5980      5.1911    139.5453
  1601.5000      0.0000    551.5366      5.1590    142.6744
  1601.7500      0.0000    529.5200      5.0911    143.6208
  1602.0000      0.0000    507.0306      5.0391    141.9358
  1602.2500      0.0000    488.0787      5.0437    138.1363
  1602.5000      0.0000    474.0714      5.1046    133.2442
  1602.7500      0.0000    463.6719      5.1877    128.2580
  1603.0000      0.0000    455.1334      5.2512    123.9796
  1603.2500      0.0000    448.3445      5.2643    120.9448
  1603.5000      0.0000    445.1263      5.2073    119.1904
  1603.7500      0.0000    448.2585      5.0655    118.2760
  1604.0000      0.0000    460.1891      4.8340    117.9207
  1604.2500      0.0000    481.2217      4.5287    118.7396
  1604.5000      0.0000    507.9485      4.1914    122.1548
  1604.7500      0.0000    534.8354      3.8819    128.9085
  1605.0000      0.0000    559.1893      3.6544    137.1140
  1605.2500      0.0000    583.2155      3.5296    142.1672
  1605.5000      0.0000    609.4931      3.4839    139.7570
  1605.7500      0.0000    636.2292      3.4741    129.5253
  1606.0000      0.0000    658.7233      3.4745    115.5164
  1606.2500      0.0000    673.8575      3.4900    103.2364
  1606.5000      0.0000    681.7078      3.5332     96.7205
  1606.7500      0.0000    684.1634      3.6027     97.5218
  1607.0000      0.0000    683.8168      3.6847    104.7254
  1607.2500      0.0000    683.8458      3.7693    115.4237
  1607.5000      0.0000    686.9211      3.8597    126.1578
  1607.7500      0.0000    692.9689      3.9735    134.7123
  1608.0000      0.0000    698.3380      4.1366    140.7040
  1608.2500      0.0000    697.9711      4.3659    144.7733
  1608.5000      0.0000    688.7256      4.6502    147.5833
  1608.7500      0.0000    671.1071      4.9447    149.3990
  1609.0000      0.0000    649.0748      5.1901    150.3091
  1609.2500      0.0000    629.0015      5.3485    150.7343
  1609.5000      0.0000    617.3610      5.4266    151.4476
  1609.7500      0.0000    617.0220      5.4635    152.7362
  1610.0000      0.0000    625.6235      5.4907    153.6721
  1610.2500      0.0000    638.4880      5.5107    152.7465
  1610.5000      0.0000    652.4086      5.5071    149.4659
  1610.7500      0.0000    665.8755      5.4658    145.0848
  1611.0000      0.0000    677.2891      5.3858    141.3885
  1611.2500      0.0000    684.8932      5.2870    138.7901
  1611.5000      0.0000    688.1721      5.2003    136.1821
  1611.7500      0.0000    688.0037      5.1420    132.9182
  1612.0000      0.0000    685.4295      5.1065    130.3883
  1612.2500      0.0000    681.0046      5.0918    131.0306
  1612.5000      0.0000    675.2532      5.1157    135.8229
  1612.7500      0.0000    669.1160      5.1921    142.9960
  1613.0000      0.0000    663.6754      5.3030    149.2776
  1613.2500      0.0000    659.5604      5.4057    152.4685
  1613.5000      0.0000    656.5848      5.4575    153.0615
  1613.7500      0.0000    654.0391      5.4313    153.4335
  1614.0000      0.0000    651.7849      5.3233    155.1208
  1614.2500      0.0000    651.0468      5.1607    156.6848
  1614.5000      0.0000    653.5313      4.9981    154.6490
  1614.7500      0.0000    659.5117      4.8906    146.9783
  1615.0000      0.0000    667.0010      4.8542    135.5076
  1615.2500      0.0000    673.0192      4.8618    124.8335
  1615.5000      0.0000    675.7947      4.8883    119.0724
  1615.7500      0.0000    675.8517      4.9439    119.3431
  1616.0000      0.0000    674.9636      5.0431    123.4251
  1616.2500      0.0000    674.0405      5.1650    127.6623
  1616.5000      0.0000    672.1909      5.2755    129.8141
  1616.7500      0.0000    667.9680      5.3671    130.3400
  1617.0000      0.0000    661.0486      5.4484    130.8731
  1617.2500      0.0000    652.4697      5.5123    131.8262
  1617.5000      0.0000    643.9833      5.5454    131.9273
  1617.7500      0.0000    637.9501      5.5570    129.7605
  1618.0000      3.1470    636.9805      5.5665    125.2348
  1618.2500      0.0000    642.0421      5.5662    119.8037
  1618.5000      0.0000    650.6111      5.5166    115.6694
  1618.7500     -3.1042    657.5289      5.3806    114.3487
  1619.0000      0.0000    658.3611      5.1515    115.4357
  1619.2500      0.0000    652.6568      4.8502    116.8987
  1619.5000      0.0000    644.4611      4.5117    116.8271
  1619.7500      0.0000    639.2767      4.1733    114.5721
  1620.0000      0.0000    640.0343      3.8661    110.1657
  1620.2500      0.0000    645.8633      3.6190    103.4802
  1620.5000      0.0000    653.9669      3.4639     94.6992
  1620.7500      0.0000    661.7015      3.4192     85.4068
  1621.0000      0.0000    667.1345      3.4588     78.4914
  1621.2500      0.0000    669.0258      3.5135     76.4575
  1621.5000      0.0000    667.0919      3.5203     79.7445
  1621.7500      0.0000    662.2573      3.4740     86.8135
  1622.0000      0.0000    656.3746      3.4235     95.7588
  1622.2500      0.0000    651.3925      3.4156    105.4936
  1622.5000      0.0000    648.3983      3.4525    115.3719
  1622.7500      0.0000    647.1197      3.5064    124.2513
  1623.0000      0.0000    646.0885      3.5627    130.5221
  1623.2500      0.0000    643.0820      3.6332    133.2303
  1623.5000      0.0000    636.0020      3.7306    133.1411
  1623.7500      0.0000    624.7784      3.8488    132.7304
  1624.0000      0.0000    613.0296      3.9775    135.1175
  1624.2500      0.0000    606.2714      4.1157    142.5533
  1624.5000      0.0000    606.6998      4.2556    155.0095
  1624.7500      0.0000    610.4514      4.3642    169.6346
  1625.0000      0.0000    611.4415      4.4004    181.9854
  1625.2500      0.0000    606.9752      4.3591    188.6389
  1625.5000      0.0000    597.9243      4.2848    189.2522
  1625.7500      0.0000    584.3752      4.2327    186.5702
  1626.0000      0.0000    564.2422      4.2170    184.3238
  1626.2500      0.0000    537.5397      4.2066    184.3172
  1626.5000      0.0000    509.9165      4.1693    185.0913
  1626.7500      0.0000    490.2274      4.1072    183.6793
  1627.0000      0.0000    485.2677      4.0454    178.3873
  1627.2500      0.0000    496.3189      3.9969    169.2727
  1627.5000      0.0000    518.1707      3.9509    156.6294
  1627.7500      0.0000    540.9885      3.8940    140.5934
  1628.0000      0.0000    555.3803      3.8296    122.4192
  1628.2500      0.0000    556.6748      3.7706    104.8759
  1628.5000      0.0000    544.5375      3.7200     90.6693
  1628.7500      0.0000    521.1575      3.6629     80.9621
  1629.0000      0.0000    491.7974      3.5837     75.6919
  1629.2500      0.0000    464.6185      3.4909     74.5314
  1629.5000      0.0000    447.0480      3.4155     77.0292
  1629.7500      0.0000    442.6736      3.3814     82.4798
  1630.0000      0.0000    452.0104      3.3848     90.1416
  1630.2500      0.0000    474.3287      3.4069     99.3511
  1630.5000      0.0000    507.2918      3.4386    109.4602
  1630.7500      0.0000    545.9049      3.4770    120.0179
  1631.0000      0.0000    583.5592      3.5087    130.8758
  1631.2500      0.0000    614.7482      3.5139    141.9873
  1631.5000      0.0000    636.8467      3.4846    153.1447
  1631.7500      0.0000    649.8855      3.4320    163.6738
  1632.0000      0.0000    655.4091      3.3787    172.1365
  1632.2500      0.0000    655.6884      3.3489    176.7697
  1632.5000      0.0000    653.2419      3.3547    176.7209
  1632.7500      0.0000    650.2081      3.3862    172.9111
  1633.0000      0.0000    647.8217      3.4164    167.6048
