~Version Information
VERS.                      2.0: CWLS Log ASCII Standard - VERSION 2.0
WRAP.                       NO: One line per depth step
~Well Information Block
STRT.FT               946.8000: 
STOP.FT              2134.5000: 
STEP.FT                 0.1000: 
NULL.                -999.2500: 
COMP.          Petrogulf Corporation: COMPANY
WELL.             Valejo 8-12R: WELL
FLD.           Purgatorie River: FIELD
LOC.           1351'' FNL & 1562' FWL: LOCATION
CNTY.               Las Animas: COUNTY
SRVC.                         : SERVICE COMPANY
DATE.          Wed Apr 28 13:22:45 2004: LOG DATE
UWI.           05 071 08038 00: UNIQUE WELL ID
STAT.                 Colorado: STATE
~Curve Information Block
DEPT.FT            0 000 00 00: Depth
DCAL.in                       : CDL Caliper
RHOB.g/cc                     : CDL Bulk Density
RHOC.g/cc                     : CDL Density Correction
DPOR.pu                       : CDL Density Porosity
NPOR.pu                       : Neutron Porosity
GR.GAPI                       : Gamma Ray
~Parameter Information Block
~A  Depth       DCAL        RHOB        RHOC        DPOR        NPOR         GR     
# ...
  1033.2000      7.9643      2.6358      0.0861      0.8615     21.6327     82.7288
  1033.3000      7.9679      2.6625      0.0460     -0.7572     22.1743     83.4625
  1033.4000      7.9679      2.6747      0.1133     -1.4962     22.5761     86.7470
  1033.5000      7.9673      2.6669      0.0741     -1.0234     22.9613     89.8708
  1033.6000      7.9673      2.6586      0.0443     -0.5196     23.3161     90.9240
  1033.7000      7.9673      2.6673      0.1088     -1.0503     23.7534     92.7192
  1033.8000      7.9668      2.6786      0.1111     -1.7362     24.2124     96.1022
  1033.9000      7.9668      2.6809      0.0787     -1.8702     24.2858    100.7026
  1034.0000      7.9690      2.6771      0.1093     -1.6402     24.3591    105.9007
  1034.1000      7.9690      2.6685      0.0497     -1.1206     25.0951    108.5546
  1034.2000      7.9690      2.6579      0.0618     -0.4758     25.8849    107.5841
  1034.3000      7.9776      2.6453      0.1142      0.2853     25.7635    105.4371
  1034.4000      7.9776      2.6350      0.0566      0.9077     25.0438    104.4091
  1034.5000      7.9840      2.6389      0.0878      0.6712     24.8083    108.9593
  1034.6000      7.9840      2.6561      0.0940     -0.3692     25.4107    119.5985
  1034.7000      7.9840      2.6667      0.1530     -1.0093     26.2320    126.8066
  1034.8000      7.9899      2.6588      0.0840     -0.5305     26.4518    124.5693
  1034.9000      7.9899      2.6492      0.0308      0.0471     26.0420    117.5859
  1035.0000      8.0214      2.6494      0.0763      0.0341     25.6666    112.4078
  1035.1000      8.0214      2.6449      0.0732      0.3110     25.6458    112.2427
  1035.2000      8.0214      2.6336      0.0132      0.9924     25.4401    116.2467
  1035.3000      8.0754      2.6280      0.0695      1.3362     24.3760    117.5743
  1035.4000      8.0754      2.6242      0.0633      1.5617     23.2227    113.2382
  1035.5000      8.0829      2.6221      0.0365      1.6907     23.0712    109.1246
  1035.6000      8.0829      2.6298      0.0806      1.2216     23.4940    109.8066
  1035.7000      8.0829      2.6469      0.0910      0.1906     23.7358    113.8781
  1035.8000      8.0830      2.6677      0.1191     -1.0722     23.7528    117.0996
  1035.9000      8.0830      2.6838      0.1147     -2.0467     23.7615    117.2673
  1036.0000      8.0791      2.6915      0.0993     -2.5126     23.9174    115.8728
  1036.1000      8.0791      2.6918      0.0775     -2.5307     23.9171    112.4714
  1036.2000      8.0791      2.6795      0.0775     -1.7877     23.5069    106.1592
  1036.3000      8.0540      2.6503      0.0637     -0.0206     23.1573    101.3002
  1036.4000      8.0540      2.6221      0.0115      1.6930     23.0494     99.3738
  1036.5000      8.0791      2.6124      0.0648      2.2818     22.8288     98.2710
  1036.6000      8.0791      2.6052      0.0507      2.7166     22.3675    100.7547
  1036.7000      8.0791      2.5903      0.0038      3.6153     22.0313    110.1598
  1036.8000      8.0932      2.5862     -0.0005      3.8659     22.3633    121.0430
  1036.9000      8.0932      2.5934      0.0506      3.4330     23.1627    124.9266
  1037.0000      8.0966      2.5915      0.0453      3.5442     23.5801    120.8319
  1037.1000      8.0966      2.5789      0.0797      4.3094     23.5516    115.1926
  1037.2000      8.0966      2.5687      0.0597      4.9264     23.7402    115.2717
  1037.3000      8.1017      2.5630      0.0396      5.2726     24.4670    117.4744
  1037.4000      8.1017      2.5414      0.0941      6.5826     25.4340    112.7215
  1037.5000      8.1011      2.4890      0.0150      9.7549     26.1512    104.4570
  1037.6000      8.1011      2.4282     -0.0511     13.4407     26.7380     99.6117
  1037.7000      8.1011      2.3762     -0.0114     16.5964     27.6848     96.3951
  1037.8000      8.1010      2.3098     -0.0394     20.6181     29.1513     92.4809
  1037.9000      8.1010      2.2103     -0.0339     26.6459     30.9095     90.2444
  1038.0000      8.1012      2.0859     -0.1009     34.1875     32.5524     91.1364
  1038.1000      8.1012      1.9524     -0.1354     42.2781     33.8236     92.1192
  1038.2000      8.1012      1.8253     -0.1679     49.9837     34.5636     91.7548
  1038.3000      8.0991      1.7140     -0.1545     56.7270     34.9398     92.1662
  1038.4000      8.0991      1.6186     -0.1273     62.5061     35.4371     92.7253
  1038.5000      8.1134      1.5433     -0.0960     67.0713     35.8550     90.6304
  1038.6000      8.1134      1.5095     -0.0639     69.1194     35.6441     87.4422
  1038.7000      8.1134      1.5349      0.0495     67.5813     35.1131     84.3667
  1038.8000      8.1421      1.6080      0.1378     63.1488     34.6471     80.4427
  1038.9000      8.1421      1.7060      0.1707     57.2127     34.2206     79.3354
  1039.0000      8.1988      1.8158      0.1946     50.5566     33.9314     82.8338
  1039.1000      8.1988      1.9280      0.2310     43.7563     33.8580     84.5933
  1039.2000      8.1988      2.0354      0.2238     37.2472     33.8962     82.7339
  1039.3000      8.2118      2.1378      0.2341     31.0448     33.5163     83.9953
  1039.4000      8.2118      2.2277      0.2485     25.5942     32.3172     93.0206
  1039.5000      8.2085      2.2949      0.1660     21.5203     30.6902    107.6899
  1039.6000      8.2085      2.3477      0.0671     18.3224     29.2113    120.3227
  1039.7000      8.2085      2.4015      0.0578     15.0623     28.1685    123.9215
  1039.8000      8.1734      2.4607      0.0589     11.4709     27.6833    120.7075
  1039.9000      8.1734      2.5183      0.1120      7.9826     27.8535    120.1865
  1040.0000      8.1689      2.5605      0.1082      5.4259     28.5215    125.3068
  1040.1000      8.1689      2.5805      0.0807      4.2102     29.0420    131.8433
  1040.2000      8.1689      2.5810      0.0689      4.1811     29.1101    138.0647
  1040.3000      8.1666      2.5669      0.0896      5.0349     29.0360    141.8838
  1040.4000      8.1666      2.5476      0.0640      6.2059     29.1837    142.0063
  1040.5000      8.1722      2.5343      0.0772      7.0130     29.7448    136.7928
  1040.6000      8.1722      2.5311      0.0335      7.2038     30.3591    128.2612
  1040.7000      8.1722      2.5368      0.0511      6.8591     30.5241    123.8898
  1040.8000      8.1700      2.5410      0.0794      6.6058     30.4207    126.8478
  1040.9000      8.1700      2.5265      0.0647      7.4868     30.1798    133.6224
  1041.0000      8.1662      2.4899      0.0378      9.7005     29.6853    138.3621
  1041.1000      8.1662      2.4435      0.0007     12.5137     29.1871    138.0943
  1041.2000      8.1662      2.3990      0.0199     15.2126     29.1981    136.2264
  1041.3000      8.1683      2.3665     -0.0228     17.1811     29.9652    134.5070
  1041.4000      8.1683      2.3462      0.0178     18.4113     31.0871    133.2611
  1041.5000      8.1696      2.3237      0.0276     19.7772     31.9877    136.0639
  1041.6000      8.1696      2.2992      0.0092     21.2607     32.2335    139.2190
  1041.7000      8.1696      2.2864      0.0880     22.0376     31.7245    136.5671
  1041.8000      8.1728      2.2828      0.1295     22.2557     31.0116    130.2686
  1041.9000      8.1728      2.2850      0.1409     22.1239     30.6662    122.2596
  1042.0000      8.2027      2.3040      0.2205     20.9667     30.7901    113.5927
  1042.1000      8.2027      2.3421      0.2515     18.6579     31.2044    110.7855
  1042.2000      8.2027      2.3790      0.2928     16.4271     31.3081    116.1034
  1042.3000      8.3764      2.3908      0.2960     15.7102     30.8798    122.2934
  1042.4000      8.3764      2.3776      0.2976     16.5121     30.6642    123.2744
  1042.5000      8.5545      2.3620      0.2494     17.4516     30.9267    121.2667
  1042.6000      8.5545      2.3527      0.2772     18.0157     31.0665    120.8625
  1042.7000      8.5545      2.3313      0.2522     19.3169     30.8707    122.1520
