~Version Information
VERS.                      2.0: CWLS Log ASCII Standard - VERSION 2.0
WRAP.                       NO: One line per depth step
~Well Information Block
STRT.FT               651.5000: 
STOP.FT              2190.5000: 
STEP.FT                 0.2500: 
NULL.                -999.2500: 
COMP.          Pioneer Natural Resources: COMPANY
WELL.               King 22-13: WELL
FLD.           Purgatoire River: FIELD
LOC.           2419' FNL & 1806' FWL----: LOCATION
PROV.                 Colorado: PROVINCE
CNTY.               Las Animas: COUNTRY
SRVC.                Patterson: SERVICE COMPANY
DATE.          Thu Mar 31 14:33:28 2005: LOG DATE
UWI.           05 071 08318 00: UNIQUE WELL ID
~Curve Information Block
DEPT.FT            0 000 00 00: Depth
SN.Ohm-m                      : IEL Short Normal
SP.mV                         : IEL Spontaneous Potential
DIR.Ohm-m                     : IEL Induction Resistivity
GR.GAPI                       : Gamma Ray
~Parameter Information Block
~A  Depth        SN          SP         DIR          GR     
# ...
  1958.0000     19.6726    169.2965     15.9707    128.8523
  1958.2500     21.0004    170.1085     16.4107    125.9538
  1958.5000     22.6122    171.0193     16.9333    121.4003
  1958.7500     24.4150    172.0443     17.5598    117.4068
  1959.0000     26.2512    173.1169     18.2967    110.5316
  1959.2500     27.8978    174.1340     19.1324    106.3633
  1959.5000     29.1267    175.0348     20.0381    101.3535
  1959.7500     29.8338    175.8443     20.9704     98.5010
  1960.0000     30.0763    176.6444     21.8743     94.9145
  1960.2500     29.9958    177.4950     22.6872     93.6338
  1960.5000     29.7387    178.3684     23.3511     94.2788
  1960.7500     29.4117    179.1543     23.8289     96.0813
  1961.0000     29.0772    179.7399     24.1149     99.1656
  1961.2500     28.7832    180.0942     24.2315    100.6747
  1961.5000     28.5681    180.2788     24.2149    101.6365
  1961.7500     28.4380    180.3774     24.1043    101.3293
  1962.0000     28.3814    180.4122     23.9402     99.3867
  1962.2500     28.4097    180.3209     23.7672     97.5321
  1962.5000     28.5250    180.0102     23.6345     95.6209
  1962.7500     28.6292    179.4351     23.5881     95.7768
  1963.0000     28.5382    178.6396     23.6590     97.8026
  1963.2500     28.1405    177.7312     23.8539     99.1361
  1963.5000     27.5244    176.8077     24.1518     99.2710
  1963.7500     26.9245    175.8914     24.5087     98.3160
  1964.0000     26.5429    174.9260     24.8694     97.7850
  1964.2500     26.4451    173.8421     25.1846     99.4473
  1964.5000     26.6222    172.6348     25.4226    104.9593
  1964.7500     27.0915    171.3859     25.5718    108.9995
  1965.0000     27.8854    170.2171     25.6338    111.5642
  1965.2500     28.9635    169.2090     25.6166    109.2351
  1965.5000     30.1647    168.3355     25.5335    100.1244
  1965.7500     31.2658    167.4549     25.4061     92.6713
  1966.0000     32.0873    166.3690     25.2620     84.5724
  1966.2500     32.5159    164.9137     25.1254     82.9814
  1966.5000     32.4552    163.0270     25.0063     85.6630
  1966.7500     31.8503    160.7670     24.8969     88.9894
  1967.0000     30.8126    158.2859     24.7763     93.4389
  1967.2500     29.6571    155.7696     24.6223     95.7582
  1967.5000     28.6944    153.3644     24.4215     99.7227
  1967.7500     27.9660    151.1346     24.1711    103.1870
  1968.0000     27.2814    149.0784     23.8741    107.9475
  1968.2500     26.5298    147.1785     23.5367    109.1889
  1968.5000     25.8629    145.4281     23.1737    107.5089
  1968.7500     25.5348    143.8036     22.8151    105.6233
  1969.0000     25.6031    142.2230     22.5025    105.2771
  1969.2500     25.8341    140.5445     22.2733    107.3745
  1969.5000     25.9312    138.6258     22.1437    111.7659
  1969.7500     25.8171    136.4033     22.1014    113.6462
  1970.0000     25.6430    133.9328     22.1155    113.7572
  1970.2500     25.5606    131.3666     22.1556    112.7419
  1970.5000     25.5597    128.8875     22.2084    111.0951
  1970.7500     25.5278    126.6394     22.2795    110.1355
  1971.0000     25.4081    124.6882     22.3828    108.5875
  1971.2500     25.2508    123.0363     22.5300    107.5067
  1971.5000     25.1515    121.6748     22.7279    106.4914
  1971.7500     25.2045    120.6303     22.9819    106.6431
  1972.0000     25.4808    119.9644     23.3003    108.0800
  1972.2500     25.9842    119.7309     23.6902    109.3360
  1972.5000     26.6260    119.9293     24.1494    110.7743
  1972.7500     27.2641    120.4947     24.6620    111.4398
  1973.0000     27.8010    121.3279     25.2039    113.0097
  1973.2500     28.2755    122.3321     25.7567    114.9502
  1973.5000     28.8435    123.4281     26.3181    118.2704
  1973.7500     29.6565    124.5577     26.9018    119.1796
  1974.0000     30.7880    125.6874     27.5297    116.4850
  1974.2500     32.2496    126.8037     28.2246    112.2217
  1974.5000     34.0073    127.8968     29.0060    104.5213
  1974.7500     35.9942    128.9556     29.8850    100.1187
  1975.0000     38.1662    129.9905     30.8562     96.6464
  1975.2500     40.5215    131.0591     31.8897     96.7309
  1975.5000     43.0184    132.2552     32.9309     98.6529
  1975.7500     45.4980    133.6544     33.9172     99.1309
  1976.0000     47.7365    135.2491     34.8097     96.0242
  1976.2500     49.5802    136.9268     35.6184     91.2729
  1976.5000     50.9980    138.5155     36.3940     81.7805
  1976.7500     52.0170    139.8612     37.1908     75.1410
  1977.0000     52.6887    140.8825     38.0342     66.6136
  1977.2500     53.1481    141.5715     38.9191     62.6575
  1977.5000     53.6408    141.9534     39.8350     59.9198
  1977.7500     54.3772    142.0415     40.7830     60.2493
  1978.0000     55.3237    141.8248     41.7655     63.6593
  1978.2500     56.2064    141.2984     42.7599     67.2121
  1978.5000     56.7303    140.5105     43.7045     72.0630
  1978.7500     56.7691    139.5832     44.5153     73.4378
  1979.0000     56.3886    138.6842     45.1189     71.8817
  1979.2500     55.7444    137.9550     45.4790     69.3522
  1979.5000     54.9633    137.4322     45.5997     65.6401
  1979.7500     54.0977    137.0193     45.5112     64.0146
  1980.0000     53.1604    136.5444     45.2548     63.2213
  1980.2500     52.1683    135.8665     44.8739     63.8196
  1980.5000     51.1490    134.9441     44.4123     66.0352
  1980.7500     50.1455    133.8252     43.9112     67.8099
  1981.0000     49.2178    132.5862     43.4078     69.8769
  1981.2500     48.3987    131.2778     42.9334     70.4596
  1981.5000     47.6543    129.9130     42.5100     69.7745
  1981.7500     46.9209    128.4960     42.1479     68.4807
  1982.0000     46.1835    127.0590     41.8462     66.6057
  1982.2500     45.5091    125.6693     41.6010     66.0983
  1982.5000     44.9842    124.4027     41.4142     66.2699
  1982.7500     44.6369    123.3104     41.2888     66.4666
  1983.0000     44.4443    122.4044     41.2127     66.4759
  1983.2500     44.3941    121.6594     41.1484     66.2352
  1983.5000     44.5067    121.0256     41.0505     65.2155
  1983.7500     44.8049    120.4458     40.9008     64.1964
  1984.0000     45.2696    119.8715     40.7312     63.4328
  1984.2500     45.8271    119.2730     40.6078     64.3307
  1984.5000     46.3970    118.6391     40.5926     68.1361
  1984.7500     46.9518    117.9664     40.7195     71.6359
  1985.0000     47.5133    117.2549     41.0025     76.3976
  1985.2500     48.1113    116.5202     41.4596     78.1011
  1985.5000     48.7775    115.8103     42.1270     77.2985
  1985.7500     49.5787    115.2085     43.0475     74.9953
  1986.0000     50.6646    114.8227     44.2461     72.3417
  1986.2500     52.3311    114.7674     45.7141     73.6716
  1986.5000     55.0189    115.1349     47.4226     81.6731
  1986.7500     59.1958    115.9665     49.3567     88.7812
  1987.0000     65.2943    117.2472     51.5437     95.6589
  1987.2500     73.7872    118.9385     54.0393     95.2884
  1987.5000     85.2098    121.0243     56.8733     87.9034
  1987.7500     99.8544    123.5259     59.9888     80.5328
  1988.0000    117.0129    126.4641     63.2201     69.4368
  1988.2500    134.4737    129.7988     66.3223     63.5185
  1988.5000    149.4654    133.4056     69.0091     58.0566
  1988.7500    160.4615    137.1297     70.9436     56.1858
  1989.0000    167.7542    140.8826     71.7018     53.3009
  1989.2500    172.2946    144.6954     70.8340     49.8649
  1989.5000    174.2111    148.6733     68.1088     42.6381
  1989.7500    172.4868    152.8914     63.7670     38.0583
  1990.0000    166.1715    157.3292     58.4835     34.3748
  1990.2500    155.6530    161.8949     53.0372     34.5873
  1990.5000    142.2254    166.4930     47.9973     37.9917
  1990.7500    126.7780    171.0586     43.6319     41.4404
  1991.0000    109.7980    175.5441     39.9817     47.6149
  1991.2500     92.5367    179.8931     36.9694     52.7055
