~Version Information
VERS.                      2.0: CWLS Log ASCII Standard - VERSION 2.0
WRAP.                       NO: One line per depth step
~Well Information Block
STRT.FT               -11.7500: 
STOP.FT              2025.5000: 
STEP.FT                 0.2500: 
NULL.                -999.2500: 
COMP.          Evergreen Operating Corp.: COMPANY
WELL.            Sumatra 34-22: WELL
FLD.           Purgatorie River: FIELD
LOC.           542 FSL & 2438 FEL--: LOCATION
PROV.                       CO: PROVINCE
CNTY.               Las Animas: COUNTRY
SRVC.          Patterson Wireline, Inc.: SERVICE COMPANY
DATE.          Wed Apr 02 10:17:21 2003: LOG DATE
UWI.           05 071 07804 00: UNIQUE WELL ID
~Curve Information Block
DEPT.FT            0 000 00 00: Depth
CCL.                          : Casing Collar Locator
TT3.usec                      : CBL 3' Travel Time
AMP3.mV                       : CBL 3' Amplitude
GR.GAPI                       : Gamma Ray
~Parameter Information Block
~A  Depth       CCL         TT3         AMP3         GR     
# ...
  1462.2500      0.0000    801.8079      2.8702     68.3378
  1462.5000      0.0000    799.5222      2.7647     73.8213
  1462.7500      0.0000    798.2800      2.6676     83.0132
  1463.0000      0.0000    799.4597      2.6463     95.1969
  1463.2500      0.0000    801.9389      2.7115    109.3318
  1463.5000      0.0000    803.8937      2.7644    124.3202
  1463.7500      0.0000    804.7905      2.7286    139.4744
  1464.0000      0.0000    805.0051      2.6809    154.4969
  1464.2500      0.0000    805.0030      2.7139    168.7333
  1464.5000      0.0000    804.9776      2.7915    180.5535
  1464.7500      0.0000    804.8980      2.8448    188.0170
  1465.0000      0.0000    804.8073      2.8637    190.6795
  1465.2500      0.0000    804.8068      2.8364    190.4849
  1465.5000      0.0000    804.8525      2.7507    190.0913
  1465.7500      0.0000    804.8109      2.6634    190.2849
  1466.0000      0.0000    804.6255      2.6307    189.5953
  1466.2500      0.0000    804.3660      2.6255    186.4014
  1466.5000      0.0000    804.1540      2.6135    180.8473
  1466.7500      0.0000    804.0448      2.6142    174.7209
  1467.0000      0.0000    804.0098      2.6465    169.9206
  1467.2500      0.0000    804.0098      2.6957    167.2278
  1467.5000      0.0000    804.0396      2.7539    166.5556
  1467.7500      0.0000    804.0980      2.8264    168.1602
  1468.0000      0.0000    803.9728      2.8787    172.7911
  1468.2500      0.0000    802.8193      2.8403    179.8471
  1468.5000      0.0000    799.4041      2.7032    185.8257
  1468.7500      0.0000    794.1926      2.5535    186.0876
  1469.0000      0.0000    790.3360      2.4436    179.1404
  1469.2500      0.0000    789.4808      2.3397    168.6711
  1469.5000      0.0000    789.7624      2.2482    160.3983
  1469.7500      0.0000    791.0099      2.2285    157.1234
  1470.0000      0.0000    794.9119      2.2968    157.3562
  1470.2500      0.0000    799.9789      2.4255    158.1945
  1470.5000      0.0000    803.3228      2.5690    158.4914
  1470.7500      0.0000    804.5030      2.6854    158.9970
  1471.0000      0.0000    804.5867      2.7724    160.1306
  1471.2500      0.0000    804.3641      2.8418    160.6581
  1471.5000      0.0000    804.1617      2.8833    158.9126
  1471.7500      0.0000    804.0806      2.8873    154.6602
  1472.0000      0.0000    804.1171      2.8626    149.1132
  1472.2500      0.0000    804.2054      2.8235    143.7062
  1472.5000      0.0000    804.2108      2.7816    139.7347
  1472.7500      0.0000    803.9316      2.7483    138.4804
  1473.0000      0.0000    802.9508      2.7347    140.1608
  1473.2500      0.0000    800.4396      2.7271    142.8292
  1473.5000      0.0000    796.0416      2.6942    143.6606
  1473.7500      0.0000    791.4283      2.6375    141.6152
  1474.0000      0.0000    788.8195      2.5793    138.0540
  1474.2500      0.0000    787.6236      2.5379    134.9176
  1474.5000      0.0000    786.1370      2.5129    133.2844
  1474.7500      0.0000    785.2239      2.4797    133.5968
  1475.0000      0.0000    785.9731      2.4608    136.0828
  1475.2500      0.0000    786.5065      2.5059    140.4167
  1475.5000      0.0000    784.7660      2.6037    145.4100
  1475.7500      0.0000    780.8067      2.7290    149.5221
  1476.0000      0.0000    773.7372      2.8753    151.7161
  1476.2500      0.0000    762.9786      2.9967    151.7677
  1476.5000      0.0000    754.3669      2.9929    149.8846
  1476.7500      0.0000    755.6411      2.8204    146.4136
  1477.0000      0.0000    767.2174      2.6111    142.0968
  1477.2500      0.0000    782.8472      2.5192    138.3364
  1477.5000      0.0000    793.4283      2.5138    136.7222
  1477.7500      0.0000    794.0078      2.4833    137.8129
  1478.0000      5.0000    791.6187      2.4211    140.2567
  1478.2500      2.7020    797.3987      2.3741    141.5701
  1478.5000      0.0000    811.0920      2.3258    140.0781
  1478.7500      0.0000    822.3945      2.2513    135.8544
  1479.0000      0.0000    823.9502      2.2125    129.8260
  1479.2500      0.0000    817.7535      2.2730    122.6324
  1479.5000      0.0000    810.5770      2.3997    114.5571
  1479.7500      0.0000    806.3427      2.5421    105.8929
  1480.0000      0.0000    804.7813      2.7027     96.9839
  1480.2500      0.0000    804.4529      2.8956     88.1848
  1480.5000      0.0000    804.4395      3.0838     79.9014
  1480.7500      0.0000    804.3142      3.1933     72.6406
  1481.0000      0.0000    803.5716      3.2067     67.1389
  1481.2500      0.0000    801.4563      3.1831     64.4383
  1481.5000      0.0000    798.4298      3.1724     65.6166
  1481.7500      0.0000    797.8358      3.1360     71.2885
  1482.0000      0.0000    802.3622      3.0057     81.4084
  1482.2500      0.0000    808.3401      2.8165     95.5133
  1482.5000      0.0000    809.8600      2.6897    112.8994
  1482.7500      0.0000    807.2896      2.6759    132.2424
  1483.0000      0.0000    805.7719      2.6847    151.0657
  1483.2500      0.0000    808.1240      2.6056    166.1247
  1483.5000      0.0000    811.4831      2.4565    175.0311
  1483.7500      0.0000    811.3767      2.3553    177.7976
  1484.0000      0.0000    808.1820      2.3786    176.7225
  1484.2500      0.0000    805.3549      2.4946    174.7470
  1484.5000      0.0000    804.2617      2.6173    173.7840
  1484.7500      0.0000    804.1601      2.6957    174.1527
  1485.0000      0.0000    804.1262      2.7426    175.1782
  1485.2500      0.0000    803.4431      2.7742    176.1536
  1485.5000      0.0000    801.5114      2.7744    176.6535
  1485.7500      0.0000    798.6771      2.7497    176.0661
  1486.0000      0.0000    796.5663      2.7465    173.4038
  1486.2500      0.0000    795.8496      2.7889    167.9866
  1486.5000      0.0000    795.8617      2.8205    159.9097
  1486.7500      0.0000    798.7378      2.7539    149.5521
  1487.0000      0.0000    808.4038      2.5969    137.4589
  1487.2500      0.0000    822.5673      2.4614    125.4047
  1487.5000      0.0000    832.8386      2.4361    116.8778
  1487.7500      0.0000    835.2675      2.5177    115.3986
  1488.0000      0.0000    833.8809      2.6364    122.0394
  1488.2500      0.0000    831.8817      2.6975    134.6561
  1488.5000      0.0000    826.8871      2.6584    149.2574
  1488.7500      0.0000    818.0804      2.5659    161.8323
  1489.0000      0.0000    809.7626      2.5040    169.3884
  1489.2500      0.0000    805.2507      2.5292    170.5109
  1489.5000      0.0000    803.6349      2.6318    165.8035
  1489.7500      0.0000    802.1954      2.7540    157.6985
  1490.0000      0.0000    798.6160      2.8717    149.3975
  1490.2500      0.0000    793.1025      3.0132    143.5470
  1490.5000      0.0000    789.1796      3.1620    141.2627
  1490.7500      0.0000    788.9504      3.2111    141.9616
  1491.0000      0.0000    790.7194      3.0825    144.3558
  1491.2500      0.0000    794.1616      2.8675    147.7565
  1491.5000      0.0000    800.2697      2.7535    152.2048
  1491.7500      0.0000    807.4313      2.7990    157.6087
  1492.0000      0.0000    812.9559      2.8858    163.2861
  1492.2500      0.0000    813.4857      2.8982    168.1568
  1492.5000      0.0000    805.8780      2.8253    170.9074
  1492.7500      0.0000    792.4945      2.7266    170.1996
  1493.0000      0.0000    782.5380      2.6893    165.3444
  1493.2500      0.0000    785.0945      2.7533    156.9034
  1493.5000      0.0000    798.8356      2.8635    146.3695
  1493.7500      0.0000    811.6851      2.9450    135.1497
  1494.0000      0.0000    814.8414      2.9953    124.0069
  1494.2500      0.0000    811.7596      3.0513    113.6335
  1494.5000      0.0000    809.2587      3.0808    105.3226
  1494.7500      0.0000    808.3542      3.0036    100.2221
  1495.0000      0.0000    807.8102      2.8331     97.8288
  1495.2500      0.0000    808.4006      2.6816     96.0623
  1495.5000      0.0000    811.3242      2.6305     93.2804
