~Version Information
VERS.                      2.0: CWLS Log ASCII Standard - VERSION 2.0
WRAP.                       NO: One line per depth step
~Well Information Block
STRT.FT               548.0000: 
STOP.FT              1916.0000: 
STEP.FT                 0.2500: 
NULL.                -999.2500: 
COMP.          Pioneer Natural Resources: COMPANY
WELL.          Blackjack 32-11 Tr: WELL
FLD.           Purgatorie River: FIELD
LOC.           2066' FNL & 1453' FEL: LOCATION
PROV.                 Colorado: PROVINCE
CNTY.               Las Animas: COUNTRY
SRVC.                Patterson: SERVICE COMPANY
DATE.          Tue Aug 16 12:08:23 2005: LOG DATE
UWI.                          : UNIQUE WELL ID
~Curve Information Block
DEPT.FT            0 000 00 00: Depth
SN.Ohm-m                      : IEL Short Normal
SP.mV                         : IEL Spontaneous Potential
DIR.Ohm-m                     : IEL Induction Resistivity
GR.GAPI                       : Gamma Ray
~Parameter Information Block
~A  Depth        SN          SP         DIR          GR     
# ...
   715.5000   2000.0000   2000.0000     28.0078     90.3291
   715.7500   2000.0000   2000.0000     23.3010     83.3476
   716.0000   2000.0000   2000.0000     22.1786     94.7890
   716.2500   2000.0000   2000.0000     25.5846    103.1566
   716.5000   2000.0000   2000.0000     28.9294    118.6257
   716.7500   2000.0000   2000.0000     28.9648    116.0826
   717.0000   2000.0000   2000.0000     28.9458    116.2869
   717.2500   2000.0000   2000.0000     29.9297    121.9874
   717.5000   2000.0000   2000.0000     29.8038    115.9044
   717.7500   2000.0000   2000.0000     29.7389    122.1041
   718.0000   2000.0000   2000.0000     31.1700    109.9423
   718.2500   2000.0000   2000.0000     30.0041     99.9391
   718.5000   2000.0000   2000.0000     29.3595    108.8308
   718.7500   2000.0000   2000.0000     22.2215    107.9168
   719.0000   2000.0000   2000.0000     22.9852     98.3935
   719.2500   2000.0000   2000.0000     26.4124    100.6634
   719.5000   2000.0000   2000.0000     25.3491    103.5303
   719.7500   2000.0000   2000.0000     24.8181    112.8345
   720.0000   2000.0000   2000.0000     25.7867    122.1503
   720.2500   2000.0000   2000.0000     21.3980    124.6925
   720.5000   2000.0000   2000.0000     26.6533    124.5790
   720.7500   2000.0000   2000.0000     25.6317    118.0901
   721.0000   2000.0000   2000.0000     28.1181    113.9110
   721.2500   2000.0000   2000.0000     26.9299    113.0131
   721.5000   2000.0000   2000.0000     27.5507    107.2947
   721.7500   2000.0000   2000.0000     29.0561    102.5851
   722.0000   2000.0000   2000.0000     28.7431     98.7082
   722.2500   2000.0000   2000.0000     28.4032     97.1264
   722.5000   2000.0000   2000.0000     26.3702     96.4363
   722.7500   2000.0000   2000.0000     28.9144     95.8135
   723.0000   2000.0000   2000.0000     26.6728     87.5990
   723.2500   2000.0000   2000.0000     24.9073     80.4171
   723.5000   2000.0000   2000.0000     28.1034     85.5956
   723.7500   2000.0000   2000.0000     26.0680     82.6339
   724.0000   2000.0000   2000.0000     27.2990     76.5128
   724.2500   2000.0000   2000.0000     26.9805     75.9652
   724.5000   2000.0000   2000.0000     23.2662     81.6822
   724.7500   2000.0000   2000.0000     28.0906     72.5910
   725.0000   2000.0000   2000.0000     24.0840     79.7911
   725.2500   2000.0000   2000.0000     22.3818     82.0765
   725.5000   2000.0000   2000.0000     26.6462     81.3718
   725.7500   2000.0000   2000.0000     26.4485     83.1853
   726.0000   2000.0000   2000.0000     27.2599     86.1506
   726.2500   2000.0000   2000.0000     28.2958     86.0607
   726.5000   2000.0000   2000.0000     24.9250     88.6181
   726.7500   2000.0000   2000.0000     25.1942     90.2692
   727.0000   2000.0000   2000.0000     25.1089     84.8100
   727.2500   2000.0000   2000.0000     24.6528     84.2784
   727.5000   2000.0000   2000.0000     24.7691     90.0659
   727.7500   2000.0000   2000.0000     20.9308     92.9820
   728.0000   2000.0000   2000.0000     22.8990     99.0479
   728.2500   2000.0000   2000.0000     23.9658     91.0182
   728.5000   2000.0000   2000.0000     24.9793     89.7082
   728.7500   2000.0000   2000.0000     26.9728     95.0853
   729.0000   2000.0000   2000.0000     25.2946     83.4549
   729.2500   2000.0000   2000.0000     27.0301     81.1542
   729.5000   2000.0000   2000.0000     21.7131     81.4022
   729.7500   2000.0000   2000.0000     28.4391     83.9387
   730.0000   2000.0000   2000.0000     27.4260     88.3963
   730.2500   2000.0000   2000.0000     21.6501     89.6150
   730.5000   2000.0000   2000.0000     25.8363     92.7226
   730.7500   2000.0000   2000.0000     23.6927     89.9732
   731.0000   2000.0000   2000.0000     26.2327    100.5995
   731.2500   2000.0000   2000.0000     24.5321     97.4323
   731.5000   2000.0000   2000.0000     24.3417     91.0357
   731.7500   2000.0000   2000.0000     27.1368     93.1355
   732.0000   2000.0000   2000.0000     24.0895    101.2569
   732.2500   2000.0000   2000.0000     25.7787     97.3346
   732.5000   2000.0000   2000.0000     24.0353    104.3213
   732.7500   2000.0000   2000.0000     22.2154    111.5872
   733.0000   2000.0000   2000.0000     23.9182    128.9799
   733.2500   2000.0000   2000.0000     22.4532    139.3720
   733.5000   2000.0000   2000.0000     21.1136    141.2795
   733.7500   2000.0000   2000.0000     19.7900    136.1493
   734.0000   2000.0000   2000.0000     19.7676    139.2286
   734.2500   2000.0000   2000.0000     18.8944    134.3903
   734.5000   2000.0000   2000.0000     18.5610    145.5335
   734.7500   2000.0000   2000.0000     19.2027    151.2697
   735.0000   2000.0000   2000.0000     19.7039    143.4781
   735.2500   2000.0000   2000.0000     18.6281    141.2942
   735.5000   2000.0000   2000.0000     17.9692    139.3819
   735.7500   2000.0000   2000.0000     17.8002    137.6300
   736.0000   2000.0000   2000.0000     18.0929    125.8731
   736.2500   2000.0000   2000.0000     18.2408    122.7261
   736.5000   2000.0000   2000.0000     17.5202    116.6353
   736.7500   2000.0000   2000.0000     18.8122    117.1144
   737.0000   2000.0000   2000.0000     18.6603    128.5659
   737.2500   2000.0000   2000.0000     17.5545    130.1439
   737.5000   2000.0000   2000.0000     19.3136    123.0399
   737.7500   2000.0000   2000.0000     19.6417    125.3644
   738.0000   2000.0000   2000.0000     20.8595    132.5143
   738.2500   2000.0000   2000.0000     18.0194    134.7443
   738.5000   2000.0000   2000.0000     16.6063    143.5229
   738.7500   2000.0000   2000.0000     18.0270    147.5959
   739.0000   2000.0000   2000.0000     20.4853    149.3719
   739.2500   2000.0000   2000.0000     21.0356    143.1322
   739.5000   2000.0000   2000.0000     20.5110    143.0408
   739.7500   2000.0000   2000.0000     20.2082    138.6515
   740.0000   2000.0000   2000.0000     18.0046    145.8198
   740.2500   2000.0000   2000.0000     20.0006    141.5248
   740.5000   2000.0000   2000.0000     21.6955    133.4000
   740.7500   2000.0000   2000.0000     22.4903    138.5609
   741.0000   2000.0000   2000.0000     24.2398    128.6717
   741.2500   2000.0000   2000.0000     23.4339    127.2181
   741.5000   2000.0000   2000.0000     23.8843    120.2064
   741.7500   2000.0000   2000.0000     24.8778    112.3751
   742.0000   2000.0000   2000.0000     21.7516    114.8863
   742.2500   2000.0000   2000.0000     25.2894    114.3296
   742.5000   2000.0000   2000.0000     25.4605    106.0801
   742.7500   2000.0000   2000.0000     25.0239    110.4103
   743.0000   2000.0000   2000.0000     26.2334    110.8141
   743.2500   2000.0000   2000.0000     26.6081    106.5995
   743.5000   2000.0000   2000.0000     25.8045    114.4950
   743.7500   2000.0000   2000.0000     25.7748    112.9200
   744.0000   2000.0000   2000.0000     25.5810    116.6304
   744.2500   2000.0000   2000.0000     25.1631    109.2229
   744.5000   2000.0000   2000.0000     23.6488    119.0773
   744.7500   2000.0000   2000.0000     24.4957    131.9075
   745.0000   2000.0000   2000.0000     23.0082    143.4096
   745.2500   2000.0000   2000.0000     21.6382    139.6333
   745.5000   2000.0000   2000.0000     21.7846    140.7535
   745.7500   2000.0000   2000.0000     21.0814    138.8332
   746.0000   2000.0000   2000.0000     19.9513    143.6617
   746.2500   2000.0000   2000.0000     21.0770    141.8513
   746.5000   2000.0000   2000.0000     21.2424    135.6510
   746.7500   2000.0000   2000.0000     19.0224    136.6371
   747.0000   2000.0000   2000.0000     21.1847    130.7447
   747.2500   2000.0000   2000.0000     21.9120    120.1947
   747.5000   2000.0000   2000.0000     20.7534    132.5499
   747.7500   2000.0000   2000.0000     21.7268    133.4194
   748.0000   2000.0000   2000.0000     19.7420    126.7376
   748.2500   2000.0000   2000.0000     22.2990    123.1490
   748.5000   2000.0000   2000.0000     22.9447    118.1741
   748.7500   2000.0000   2000.0000     22.4131    116.3029
