~Version Information
VERS.                      2.0: CWLS Log ASCII Standard - VERSION 2.0
WRAP.                       NO: One line per depth step
~Well Information Block
STRT.FT               784.0000: 
STOP.FT              1035.0000: 
STEP.FT                 0.2500: 
NULL.                -999.2500: 
COMP.          Pioneer Natural Resources: COMPANY
WELL.          Run-Away-Train 43-26: WELL
FLD.           Purgatoire River: FIELD
LOC.           1693' FSL & 1195' FEL: LOCATION
PROV.                 Colorado: PROVINCE
CNTY.               Las Animas: COUNTRY
SRVC.                Patterson: SERVICE COMPANY
DATE.          Tue Apr 05 19:22:37 2005: LOG DATE
UWI.           05 071 08188 00: UNIQUE WELL ID
~Curve Information Block
DEPT.FT            0 000 00 00: Depth
SN.Ohm-m                      : IEL Short Normal
SP.mV                         : IEL Spontaneous Potential
DIR.Ohm-m                     : IEL Induction Resistivity
GR.GAPI                       : Gamma Ray
~Parameter Information Block
~A  Depth        SN          SP         DIR          GR     
# ...
   884.5000     17.1365    -46.8532     15.3501     78.8361
   884.7500     15.4732    -51.8977     15.3952     70.3186
   885.0000     15.7712    -57.0765     15.3649     57.5858
   885.2500     24.4079    -61.2464     15.2892     49.9348
   885.5000     52.3852    -63.6669     15.2112     40.7456
   885.7500    104.6300    -64.3308     15.1697     36.8651
   886.0000    158.8392    -63.6707     15.1876     35.6673
   886.2500    172.7103    -61.9442     15.2643     38.3125
   886.5000    133.3574    -58.9860     15.3764     47.1322
   886.7500     75.3597    -54.6383     15.4839     55.6216
   887.0000     34.9094    -49.4078     15.5435     70.4996
   887.2500     17.6751    -44.5719     15.5214     80.3325
   887.5000     13.6112    -41.5252     15.4007     91.9849
   887.7500     14.8826    -41.0153     15.1844     96.4974
   888.0000     17.6389    -42.9610     14.8959     98.6221
   888.2500     19.8199    -46.7700     14.5748     98.3727
   888.5000     20.8579    -51.6501     14.2677     98.5809
   888.7500     21.2380    -56.7804     14.0157    100.2748
   889.0000     21.4860    -61.5659     13.8464    105.0697
   889.2500     21.6872    -65.9586     13.7695    108.5931
   889.5000     21.6881    -70.5391     13.7756    111.5627
   889.7500     21.4318    -76.2277     13.8356    110.7042
   890.0000     21.1520    -83.8293     13.9073    104.4712
   890.2500     21.7618    -93.6272     13.9517     97.5778
   890.5000     25.7312   -105.1035     13.9542     85.3987
   890.7500     38.2101   -116.8704     13.9367     77.7982
   891.0000     64.9864   -126.9472     13.9502     69.8841
   891.2500    100.3513   -133.3457     14.0539     67.8001
   891.5000    119.1819   -134.7078     14.2965     69.4109
   891.7500    102.6045   -130.6992     14.7076     72.9414
   892.0000     65.2306   -122.0222     15.2938     80.0577
   892.2500     34.2736   -110.1945     16.0339     84.7424
   892.5000     19.8958    -97.3836     16.8700     89.8003
   892.7500     17.9358    -86.1999     17.7061     91.2632
   893.0000     21.4333    -78.9365     18.4288     90.3025
   893.2500     24.1258    -76.3200     18.9522     87.5668
   893.5000     23.2592    -76.8425     19.2577     80.8512
   893.7500     20.9450    -77.5731     19.3981     75.5202
   894.0000     19.9453    -75.9501     19.4692     68.3972
   894.2500     20.2907    -71.1247     19.5726     65.2698
   894.5000     20.9697    -63.9733     19.7895     63.8082
   894.7500     22.1169    -56.1335     20.1600     64.9608
   895.0000     24.4622    -49.0271     20.6684     69.2557
   895.2500     27.7291    -43.4397     21.2367     73.2187
   895.5000     30.5636    -39.5590     21.7385     79.7868
   895.7500     31.9121    -37.1536     22.0433     84.3185
   896.0000     31.7027    -35.7713     22.0721     91.4689
   896.2500     30.4226    -34.9632     21.8246     96.5080
   896.5000     28.6697    -34.4653     21.3558    103.9511
   896.7500     26.9192    -34.2136     20.7328    108.3349
   897.0000     25.4201    -34.1737     20.0151    113.4489
   897.2500     24.2273    -34.1406     19.2620    115.8044
   897.5000     23.2757    -33.7066     18.5394    117.8847
   897.7500     22.4810    -32.4521     17.9092    118.4900
   898.0000     21.8207    -30.2027     17.4103    118.7991
   898.2500     21.3096    -27.1407     17.0482    118.9243
   898.5000     20.9466    -23.7124     16.7990    118.8095
   898.7500     20.7371    -20.4354     16.6274    117.8854
   899.0000     20.7046    -17.7435     16.5081    114.1161
   899.2500     20.8260    -15.9191     16.4416    110.0924
   899.5000     21.0163    -15.0703     16.4523    103.3955
   899.7500     21.2124    -15.1057     16.5732     99.5028
   900.0000     21.4037    -15.7471     16.8264     94.7378
   900.2500     21.5656    -16.6562     17.2105     91.5037
   900.5000     21.6284    -17.6109     17.7006     85.3146
   900.7500     21.5799    -18.5701     18.2617     80.4116
   901.0000     21.5862    -19.5816     18.8683     73.5045
   901.2500     21.9084    -20.6675     19.5165     70.2629
   901.5000     22.7053    -21.8339     20.2122     68.0838
   901.7500     23.9082    -23.1979     20.9404     67.8447
   902.0000     25.1604    -25.0476     21.6395     67.4689
   902.2500     25.9397    -27.6790     22.2139     66.3778
   902.5000     25.9513    -31.1280     22.5884     63.3038
   902.7500     25.3954    -35.0728     22.7613     60.7574
   903.0000     24.7811    -38.9879     22.8027     57.0846
   903.2500     24.5316    -42.3695     22.8011     55.0214
   903.5000     24.7619    -44.8775     22.8153     52.6241
   903.7500     25.3212    -46.4015     22.8663     51.4367
   904.0000     25.9591    -47.0564     22.9545     50.0786
   904.2500     26.4711    -47.0695     23.0768     49.3322
   904.5000     26.7628    -46.6146     23.2294     48.3930
   904.7500     26.8067    -45.7543     23.4047     48.0210
   905.0000     26.6204    -44.5369     23.5954     48.2736
   905.2500     26.3242    -43.0831     23.7988     49.1014
   905.5000     26.0781    -41.5282     24.0061     50.9204
   905.7500     25.9196    -39.8996     24.1752     52.0421
   906.0000     25.7951    -38.0998     24.2172     52.9790
   906.2500     25.7207    -36.0354     24.0406     53.0107
   906.5000     25.7466    -33.7354     23.6342     52.2927
   906.7500     25.8058    -31.3119     23.1018     51.5407
   907.0000     25.7653    -28.8311     22.6003     50.8297
   907.2500     25.5986    -26.3138     22.2379     51.1635
   907.5000     25.3965    -23.9134     22.0192     53.0216
   907.7500     25.2859    -22.0385     21.8645     54.6314
   908.0000     25.3746    -21.1963     21.6851     56.3578
   908.2500     25.6344    -21.6566     21.4667     56.6745
   908.5000     25.8652    -23.2623     21.2885     56.1706
   908.7500     25.8926    -25.5620     21.2603     55.6302
   909.0000     25.7286    -28.1119     21.4374     55.1201
   909.2500     25.4936    -30.6655     21.7822     55.0712
   909.5000     25.2751    -33.1481     22.1954     55.3322
   909.7500     25.1299    -35.5419     22.5898     55.6858
   910.0000     25.1285    -37.8149     22.9446     56.4431
   910.2500     25.2985    -39.8858     23.2903     57.0408
   910.5000     25.5914    -41.5694     23.6488     58.0237
   910.7500     25.9015    -42.5535     23.9948     58.8146
   911.0000     26.0601    -42.5110     24.2768     60.4483
   911.2500     25.9604    -41.3262     24.4630     61.8824
   911.5000     25.7364    -39.2379     24.5511     64.1608
   911.7500     25.6299    -36.7513     24.5275     65.2243
   912.0000     25.7041    -34.3933     24.3367     65.1517
   912.2500     25.8456    -32.4966     23.9210     63.8305
   912.5000     25.9770    -31.1245     23.2994     60.7219
   912.7500     26.1094    -30.1564     22.5886     58.6560
   913.0000     26.2367    -29.4955     21.9313     56.4855
   913.2500     26.2865    -29.2897     21.4127     55.8107
   913.5000     26.2089    -29.9764     21.0381     55.8432
   913.7500     26.0744    -32.0294     20.7672     56.4145
   914.0000     25.9636    -35.5659     20.5602     57.7415
   914.2500     25.7996    -40.1792     20.3979     58.6878
   914.5000     25.4613    -45.1473     20.2724     59.8062
   914.7500     25.0159    -49.7590     20.1692     60.2178
   915.0000     24.6374    -53.4547     20.0601     60.4304
   915.2500     24.3669    -55.8275     19.9148     60.5442
   915.5000     24.1533    -56.7129     19.7216     61.0508
   915.7500     23.9801    -56.3531     19.5005     61.6113
   916.0000     23.8328    -55.3842     19.2957     62.3788
   916.2500     23.7323    -54.5005     19.1482     62.4721
   916.5000     23.7774    -53.9853     19.0717     61.3904
   916.7500     24.0141    -53.5056     19.0506     59.7706
   917.0000     24.2657    -52.3865     19.0592     56.7288
   917.2500     24.1929    -50.1366     19.0835     55.1487
   917.5000     23.6862    -46.7755     19.1227     54.8017
   917.7500     23.0717    -42.7598     19.1743     56.1563
