~Version Information
VERS.                      2.0: CWLS Log ASCII Standard - VERSION 2.0
WRAP.                       NO: One line per depth step
~Well Information Block
STRT.FT               390.0000: 
STOP.FT              2770.2500: 
STEP.FT                 0.2500: 
NULL.                -999.2500: 
COMP.          Pioneer Natural Resources: COMPANY
WELL.              Lynch 43-30: WELL
FLD.           Purgatoire River: FIELD
LOC.           1438' FSL & 429' FEL: LOCATION
PROV.                 Colorado: PROVINCE
CNTY.               Las Animas: COUNTRY
SRVC.                Patterson: SERVICE COMPANY
DATE.          Wed Oct 27 08:06:51 2004: LOG DATE
UWI.           05 071 08170 00: UNIQUE WELL ID
~Curve Information Block
DEPT.FT            0 000 00 00: Depth
DIR.Ohm-m                     : IEL Induction Resistivity
SN.Ohm-m                      : IEL Short Normal
SP.mV                         : IEL Spontaneous Potential
GR.GAPI                       : Gamma Ray
~Parameter Information Block
~A  Depth       DIR          SN          SP          GR     
# ...
   859.0000     25.1441   2000.0000   2000.0000    108.8481
   859.2500     24.6007   2000.0000   2000.0000    110.7760
   859.5000     23.8180   2000.0000   2000.0000    112.2150
   859.7500     22.8885   2000.0000   2000.0000    112.5070
   860.0000     21.9327   2000.0000   2000.0000    112.9057
   860.2500     21.0557   2000.0000   2000.0000    113.7451
   860.5000     20.3137   2000.0000   2000.0000    116.4771
   860.7500     19.7089   2000.0000   2000.0000    119.2326
   861.0000     19.2091   2000.0000   2000.0000    124.0373
   861.2500     18.7749   2000.0000   2000.0000    126.9704
   861.5000     18.3757   2000.0000   2000.0000    129.5317
   861.7500     17.9910   2000.0000   2000.0000    129.4922
   862.0000     17.6065   2000.0000   2000.0000    127.3336
   862.2500     17.2141   2000.0000   2000.0000    125.5553
   862.5000     16.8155   2000.0000   2000.0000    124.1754
   862.7500     16.4231   2000.0000   2000.0000    124.4715
   863.0000     16.0580   2000.0000   2000.0000    126.0039
   863.2500     15.7443   2000.0000   2000.0000    126.9605
   863.5000     15.5024   2000.0000   2000.0000    127.2060
   863.7500     15.3419   2000.0000   2000.0000    126.3167
   864.0000     15.2601   2000.0000   2000.0000    123.4732
   864.2500     15.2439   2000.0000   2000.0000    120.6827
   864.5000     15.2751   2000.0000   2000.0000    115.3324
   864.7500     15.3327   2000.0000   2000.0000    111.3464
   865.0000     15.3950   2000.0000   2000.0000    106.2328
   865.2500     15.4430   2000.0000   2000.0000    104.5020
   865.5000     15.4680   2000.0000   2000.0000    105.4077
   865.7500     15.4756   2000.0000   2000.0000    107.9895
   866.0000     15.4783   2000.0000   2000.0000    113.1777
   866.2500     15.4821   2000.0000   2000.0000    116.5226
   866.5000     15.4762   2000.0000   2000.0000    120.1876
   866.7500     15.4364   2000.0000   2000.0000    121.3923
   867.0000     15.3403   2000.0000   2000.0000    121.4938
   867.2500     15.1813   2000.0000   2000.0000    120.8833
   867.5000     14.9725   2000.0000   2000.0000    119.7873
   867.7500     14.7394   2000.0000   2000.0000    119.2293
   868.0000     14.5087   2000.0000   2000.0000    119.0522
   868.2500     14.2990   2000.0000   2000.0000    119.7172
   868.5000     14.1141   2000.0000   2000.0000    122.3731
   868.7500     13.9430   2000.0000   2000.0000    125.1729
   869.0000     13.7664   2000.0000   2000.0000    130.0712
   869.2500     13.5664   2000.0000   2000.0000    133.1462
   869.5000     13.3338   2000.0000   2000.0000    136.6414
   869.7500     13.0683   2000.0000   2000.0000    138.0671
   870.0000     12.7772   2000.0000   2000.0000    139.0298
   870.2500     12.4763   2000.0000   2000.0000    139.1117
   870.5000     12.1897   2000.0000   2000.0000    138.7982
   870.7500     11.9456   2000.0000   2000.0000    138.5058
   871.0000     11.7666   2000.0000   2000.0000    138.1195
   871.2500     11.6621   2000.0000   2000.0000    137.8389
   871.5000     11.6279   2000.0000   2000.0000    137.1323
   871.7500     11.6531   2000.0000   2000.0000    136.3368
   872.0000     11.7278   2000.0000   2000.0000    134.5072
   872.2500     11.8457   2000.0000   2000.0000    132.8772
   872.5000     12.0008   2000.0000   2000.0000    130.2826
   872.7500     12.1821   2000.0000   2000.0000    128.9671
   873.0000     12.3716   2000.0000   2000.0000    128.4013
   873.2500     12.5452   2000.0000   2000.0000    129.0956
   873.5000     12.6777   2000.0000   2000.0000    131.4201
   873.7500     12.7494   2000.0000   2000.0000    133.5042
   874.0000     12.7510   2000.0000   2000.0000    136.9204
   874.2500     12.6854   2000.0000   2000.0000    139.0690
   874.5000     12.5660   2000.0000   2000.0000    141.3377
   874.7500     12.4121   2000.0000   2000.0000    141.7935
   875.0000     12.2467   2000.0000   2000.0000    140.7788
   875.2500     12.0952   2000.0000   2000.0000    139.3229
   875.5000     11.9856   2000.0000   2000.0000    136.8013
   875.7500     11.9468   2000.0000   2000.0000    135.2126
   876.0000     12.0033   2000.0000   2000.0000    132.7828
   876.2500     12.1716   2000.0000   2000.0000    130.4977
   876.5000     12.4592   2000.0000   2000.0000    124.6566
   876.7500     12.8688   2000.0000   2000.0000    118.8682
   877.0000     13.4046   2000.0000   2000.0000    108.7338
   877.2500     14.0760   2000.0000   2000.0000    102.6515
   877.5000     14.8939   2000.0000   2000.0000     97.1003
   877.7500     15.8576   2000.0000   2000.0000     96.2948
   878.0000     16.9317   2000.0000   2000.0000     98.3133
   878.2500     18.0214   2000.0000   2000.0000    100.4675
   878.5000     18.9696   2000.0000   2000.0000    102.6390
   878.7500     19.6021   2000.0000   2000.0000    102.6294
   879.0000     19.8111   2000.0000   2000.0000    100.8324
   879.2500     19.6089   2000.0000   2000.0000     99.6156
   879.5000     19.1003   2000.0000   2000.0000    100.0429
   879.7500     18.4096   2000.0000   2000.0000    102.3837
   880.0000     17.6343   2000.0000   2000.0000    108.0230
   880.2500     16.8443   2000.0000   2000.0000    112.0608
   880.5000     16.0931   2000.0000   2000.0000    116.9137
   880.7500     15.4213   2000.0000   2000.0000    118.8610
   881.0000     14.8536   2000.0000   2000.0000    119.5721
   881.2500     14.4028   2000.0000   2000.0000    118.6609
   881.5000     14.0784   2000.0000   2000.0000    115.9367
   881.7500     13.8947   2000.0000   2000.0000    113.8949
   882.0000     13.8689   2000.0000   2000.0000    111.5122
   882.2500     14.0146   2000.0000   2000.0000    110.6262
   882.5000     14.3343   2000.0000   2000.0000    110.2335
   882.7500     14.8172   2000.0000   2000.0000    110.3451
   883.0000     15.4410   2000.0000   2000.0000    110.3560
   883.2500     16.1771   2000.0000   2000.0000    109.6854
   883.5000     16.9969   2000.0000   2000.0000    106.7254
   883.7500     17.8737   2000.0000   2000.0000    103.1542
   884.0000     18.7776   2000.0000   2000.0000     95.5924
   884.2500     19.6691   2000.0000   2000.0000     89.6495
   884.5000     20.4979   2000.0000   2000.0000     80.9161
   884.7500     21.2133   2000.0000   2000.0000     76.1600
   885.0000     21.7783   2000.0000   2000.0000     71.8411
   885.2500     22.1771   2000.0000   2000.0000     71.1831
   885.5000     22.4129   2000.0000   2000.0000     73.3993
   885.7500     22.4996   2000.0000   2000.0000     76.5515
   886.0000     22.4493   2000.0000   2000.0000     82.6257
   886.2500     22.2625   2000.0000   2000.0000     86.9196
   886.5000     21.9292   2000.0000   2000.0000     93.1034
   886.7500     21.4425   2000.0000   2000.0000     97.0556
   887.0000     20.8139   2000.0000   2000.0000    103.0935
   887.2500     20.0772   2000.0000   2000.0000    107.4054
   887.5000     19.2775   2000.0000   2000.0000    114.4326
   887.7500     18.4582   2000.0000   2000.0000    119.3422
   888.0000     17.6549   2000.0000   2000.0000    126.4826
   888.2500     16.8951   2000.0000   2000.0000    130.8915
   888.5000     16.2004   2000.0000   2000.0000    137.2541
   888.7500     15.5860   2000.0000   2000.0000    141.4322
   889.0000     15.0583   2000.0000   2000.0000    146.5579
   889.2500     14.6116   2000.0000   2000.0000    148.0960
   889.5000     14.2302   2000.0000   2000.0000    146.5596
   889.7500     13.8972   2000.0000   2000.0000    143.3893
   890.0000     13.6043   2000.0000   2000.0000    136.9334
   890.2500     13.3538   2000.0000   2000.0000    132.1675
   890.5000     13.1529   2000.0000   2000.0000    125.1437
   890.7500     13.0054   2000.0000   2000.0000    121.3015
   891.0000     12.9083   2000.0000   2000.0000    118.6014
   891.2500     12.8539   2000.0000   2000.0000    119.4552
   891.5000     12.8304   2000.0000   2000.0000    123.8292
   891.7500     12.8207   2000.0000   2000.0000    127.4562
   892.0000     12.8005   2000.0000   2000.0000    131.9171
   892.2500     12.7428   2000.0000   2000.0000    133.7863
