~Version Information
VERS.                      2.0: CWLS Log ASCII Standard - VERSION 2.0
WRAP.                       NO: One line per depth step
~Well Information Block
STRT.FT               650.0000: 
STOP.FT              1080.5000: 
STEP.FT                 0.2500: 
NULL.                -999.2500: 
COMP.          Pioneer Natural Resources: COMPANY
WELL.            Galileo 21-11: WELL
FLD.           Purgatoire River: FIELD
LOC.           407' FNL & 2394' FWL: LOCATION
PROV.                 Colorado: PROVINCE
CNTY.               Las Animas: COUNTRY
SRVC.                Patterson: SERVICE COMPANY
DATE.          Mon Apr 11 11:14:18 2005: LOG DATE
UWI.           05 071 08353 00: UNIQUE WELL ID
~Curve Information Block
DEPT.FT            0 000 00 00: Depth
SN.Ohm-m                      : IEL Short Normal
SP.mV                         : IEL Spontaneous Potential
DIR.Ohm-m                     : IEL Induction Resistivity
GR.GAPI                       : Gamma Ray
~Parameter Information Block
~A  Depth        SN          SP         DIR          GR     
# ...
   683.5000     33.7622     23.8426     19.2831     68.7190
   683.7500     27.2336      0.9568     19.3578     67.3878
   684.0000     28.6486    -34.7988     19.4439     65.4837
   684.2500     40.1312    -79.4175     19.5368     64.4935
   684.5000     68.3112   -126.8740     19.6321     66.0996
   684.7500    125.1791   -170.8846     19.7241     65.7994
   685.0000    219.2963   -206.7183     19.8087     65.7720
   685.2500    336.6505   -232.3139     19.8870     65.9145
   685.5000    438.4359   -248.2761     19.9657     68.6583
   685.7500    493.1021   -256.8769     20.0524     68.7599
   686.0000    503.7570   -260.7264     20.1480     68.9760
   686.2500    494.5126   -261.8333     20.2425     69.1242
   686.5000    483.7668   -261.3205     20.3186     71.6716
   686.7500    477.1542   -259.6165     20.3625     71.5576
   687.0000    473.3269   -256.8109     20.3709     71.9596
   687.2500    469.7712   -252.9307     20.3495     73.0646
   687.5000    465.6305   -248.0318     20.3070     78.6405
   687.7500    461.3879   -242.1526     20.2512     80.9084
   688.0000    457.5764   -235.2546     20.1907     83.8194
   688.2500    454.4098   -227.2342     20.1347     85.2598
   688.5000    451.8900   -218.0009     20.0909     89.8217
   688.7500    449.8222   -207.5668     20.0607     90.5653
   689.0000    447.9375   -196.0678     20.0387     90.9926
   689.2500    446.1284   -183.6845     20.0162     90.5740
   689.5000    444.5052   -170.5170     19.9850     91.6245
   689.7500    443.2382   -156.5188     19.9398     89.7770
   690.0000    442.3810   -141.5259     19.8774     87.8120
   690.2500    441.8338   -125.3350     19.7937     88.0894
   690.5000    441.4570   -107.7688     19.6836     94.4550
   690.7500    441.1518    -88.7028     19.5468     98.2063
   691.0000    440.8445    -68.0826     19.3969    103.8446
   691.2500    440.5149    -46.0039     19.2654    106.6264
   691.5000    440.1890    -22.8870     19.1907    108.8461
   691.7500    439.5136      0.3411     19.1993    109.1942
   692.0000    435.9168     22.1672     19.2926    108.1737
   692.2500    420.1125     40.5173     19.4472    106.3727
   692.5000    374.0092     52.8458     19.6296    102.2401
   692.7500    286.1316     56.4402     19.8139     99.1671
   693.0000    177.1273     49.2616     19.9930     95.2672
   693.2500     90.1914     31.3480     20.1753     93.2061
   693.5000     50.0571      5.9924     20.3777     89.7930
   693.7500     54.7468    -20.5936     20.6210     86.6306
   694.0000    101.3225    -41.5991     20.9328     80.6424
   694.2500    191.2696    -52.5582     21.3486     76.5434
   694.5000    307.6593    -52.7179     21.9059     71.5690
   694.7500    410.4692    -44.0667     22.6347     69.4034
   695.0000    469.5835    -29.3479     23.5498     67.7743
   695.2500    488.1927    -10.7446     24.6517     67.5196
   695.5000    486.0354     10.3231     25.9306     67.8084
   695.7500    474.0820     32.8436     27.3680     67.9487
   696.0000    447.0797     55.8219     28.9333     67.2796
   696.2500    391.3474     77.9912     30.5840     66.2755
   696.5000    303.7549     97.7257     32.2780     64.9827
   696.7500    206.0696    113.3621     33.9893     64.8128
   697.0000    130.9305    123.9412     35.7032     65.2305
   697.2500     94.9107    129.8955     37.3769     65.2741
   697.5000     93.8386    132.9573     38.8924     64.7338
   697.7500    114.7636    135.1071     40.0497     64.6506
   698.0000    142.4111    137.3906     40.6271     66.1626
   698.2500    163.0759    139.7006     40.4741     68.3400
   698.5000    175.5069    141.6153     39.5689     72.9179
   698.7500    194.9208    143.3182     38.0083     76.8978
   699.0000    236.5369    145.7516     35.9622     84.8912
   699.2500    299.9794    150.0824     33.6349     91.6116
   699.5000    368.6495    157.0844     31.2307    102.5304
   699.7500    413.0679    166.7891     28.9171    109.2000
   700.0000    403.3378    178.3534     26.7955    116.7477
   700.2500    333.6499    190.1101     24.8948    119.7716
   700.5000    230.7902    199.9784     23.1945    121.2542
   700.7500    133.5633    206.2605     21.6602    120.4505
   701.0000     67.6369    208.4035     20.2719    117.6157
   701.2500     35.8201    207.1692     19.0296    115.4417
   701.5000     25.6349    204.0249     17.9415    112.7008
   701.7500     23.6349    200.0948     17.0094    111.4373
   702.0000     22.5936    195.3406     16.2239    110.6053
   702.2500     20.6142    188.5770     15.5696    110.8047
   702.5000     18.7014    178.4132     15.0328    111.9201
   702.7500     18.4532    164.5751     14.6047    112.9084
   703.0000     19.8983    148.7731     14.2785    114.3945
   703.2500     21.8806    134.4433     14.0458    115.2052
   703.5000     24.3272    125.2862     13.8949    115.7993
   703.7500     29.2990    123.4301     13.8126    115.7887
   704.0000     42.0581    128.5721     13.7873    115.7157
   704.2500     70.3350    138.7587     13.8095    115.8488
   704.5000    110.8194    151.9590     13.8707    115.7946
   704.7500    139.6837    166.9290     13.9617    115.1017
   705.0000    142.8435    182.8349     14.0732    113.2802
   705.2500    139.1827    198.4975     14.1978    112.3445
   705.5000    140.5160    212.2984     14.3316    112.5211
   705.7500    127.2786    222.8269     14.4755    113.6827
   706.0000     90.5048    229.5832     14.6334    116.1707
   706.2500     52.2240    233.1483     14.8129    117.8110
   706.5000     31.4679    234.7599     15.0252    119.5304
   706.7500     25.5154    235.6573     15.2864    119.8807
   707.0000     24.8296    236.6191     15.6141    119.1133
   707.2500     24.8293    237.8710     16.0215    117.9273
   707.5000     24.8148    239.2600     16.5107    115.5581
   707.7500     24.9476    240.5069     17.0716    113.7299
   708.0000     25.2300    241.4030     17.6887    110.5983
   708.2500     25.5397    241.8817     18.3502    108.1238
   708.5000     25.8422    241.9648     19.0527    103.7827
   708.7500     26.2496    241.6750     19.7964    100.7856
   709.0000     26.9634    241.0097     20.5741     97.1133
   709.2500     28.1855    239.9806     21.3654     95.5939
   709.5000     30.0844    238.6365     22.1444     94.4571
   709.7500     32.7809    237.0224     22.8964     93.9223
   710.0000     36.1268    235.1081     23.6312     92.5386
   710.2500     39.5293    232.7354     24.3753     90.9761
   710.5000     42.3555    229.6128     25.1479     87.8219
   710.7500     44.4350    225.3609     25.9382     85.5073
   711.0000     45.9138    219.5596     26.7065     82.4567
   711.2500     46.8004    211.7624     27.4108     81.0694
   711.5000     46.7592    201.5625     28.0419     80.0478
   711.7500     45.8180    188.9059     28.6296     79.7576
   712.0000     45.5279    174.6723     29.2094     79.3400
   712.2500     48.1801    161.0952     29.7799     79.0917
   712.5000     55.1425    151.2984     30.2928     79.1969
   712.7500     67.2947    147.7366     30.6903     79.6988
   713.0000     83.2524    150.4509     30.9553     80.9705
   713.2500     94.9292    156.5219     31.1311     82.0874
   713.5000     92.3259    161.1608     31.2954     83.8701
   713.7500     75.2381    159.5204     31.5170     84.6372
   714.0000     54.7254    147.9756     31.8256     84.1539
   714.2500     42.2729    124.4201     32.2072     82.6128
   714.5000     39.8260     88.1029     32.6203     79.4632
   714.7500     42.2127     39.8574     33.0157     77.7883
   715.0000     46.9765    -17.0915     33.3453     77.3182
   715.2500     58.3181    -76.7303     33.5598     78.5607
   715.5000     84.4474   -131.5550     33.6149     81.6378
   715.7500    134.3809   -175.4008     33.4970     83.3296
   716.0000    214.4577   -205.8275     33.2452     83.9964
   716.2500    319.3061   -224.2524     32.9405     83.4224
   716.5000    422.4657   -234.1053     32.6654     82.5669
   716.7500    491.5174   -238.7643     32.4673     82.6775
