~Version Information
VERS.                      2.0: CWLS Log ASCII Standard - VERSION 2.0
WRAP.                       NO: One line per depth step
~Well Information Block
STRT.FT               555.5000: 
STOP.FT              2179.0000: 
STEP.FT                 0.2500: 
NULL.                -999.2500: 
COMP.          Petrogulf Corporation: COMPANY
WELL.            Montoya 6-14R: WELL
FLD.           Purgatorie River: FIELD
LOC.           867' FSL & 751' FWL: LOCATION
CNTY.               Las Animas: COUNTY
SRVC.                         : SERVICE COMPANY
DATE.          Mon Nov 15 07:02:23 2004: LOG DATE
UWI.           05 071 08242 00: UNIQUE WELL ID
STAT.                 Colorado: STATE
~Curve Information Block
DEPT.FT            0 000 00 00: Depth
SP.mV                         : DIL Spontaneous Potential
RILD.Ohm-m                    : DIL Deep Resistivity
RILM.Ohm-m                    : DIL Medium Resistivity
RLL3.Ohm-m                    : DIL Shallow Resistivity
GR.GAPI                       : Gamma Ray
~Parameter Information Block
~A  Depth        SP         RILD        RILM        RLL3         GR     
# ...
  1731.5000   -144.4168     32.8840     38.2583     77.6070     60.7173
  1731.7500   -145.3027     31.7052     36.1790     70.9337     62.8684
  1732.0000   -145.9791     30.5988     34.1460     63.0426     69.1872
  1732.2500   -146.4473     29.5747     32.2243     54.7841     75.3021
  1732.5000   -146.7542     28.6343     30.4578     47.0360     85.5579
  1732.7500   -146.9711     27.7780     28.8720     40.4760     91.7848
  1733.0000   -147.1619     27.0092     27.4788     35.4424     98.6978
  1733.2500   -147.3521     26.3365     26.2799     31.9234    101.6167
  1733.5000   -147.5232     25.7696     25.2701     29.6548    104.4473
  1733.7500   -147.6152     25.3170     24.4389     28.2686    106.0429
  1734.0000   -147.5551     24.9829     23.7731     27.4283    108.8070
  1734.2500   -147.2915     24.7652     23.2569     26.9066    111.0274
  1734.5000   -146.8268     24.6542     22.8739     26.5995    114.6168
  1734.7500   -146.2340     24.6346     22.6073     26.4868    116.6500
  1735.0000   -145.6390     24.6881     22.4420     26.5723    117.9134
  1735.2500   -145.1831     24.7960     22.3651     26.8343    117.0930
  1735.5000   -144.9641     24.9439     22.3668     27.2038    113.6649
  1735.7500   -144.9944     25.1230     22.4409     27.5767    110.6604
  1736.0000   -145.1839     25.3313     22.5842     27.8518    106.5933
  1736.2500   -145.3671     25.5714     22.7953     27.9702    104.7840
  1736.5000   -145.3619     25.8476     23.0728     27.9400    103.7011
  1736.7500   -145.0439     26.1620     23.4132     27.8375    103.9119
  1737.0000   -144.3968     26.5124     23.8087     27.7892    105.1338
  1737.2500   -143.5264     26.8911     24.2466     27.9418    106.1255
  1737.5000   -142.6290     27.2859     24.7087     28.4284    106.8969
  1737.7500   -141.9284     27.6828     25.1740     29.3349    106.3846
  1738.0000   -141.6046     28.0691     25.6224     30.6710    103.6164
  1738.2500   -141.7444     28.4364     26.0384     32.3542    100.5330
  1738.5000   -142.3298     28.7822     26.4159     34.2159     94.7488
  1738.7500   -143.2593     29.1099     26.7586     36.0357     90.7056
  1739.0000   -144.3957     29.4274     27.0805     37.5972     85.2920
  1739.2500   -145.6095     29.7453     27.4019     38.7484     82.4750
  1739.5000   -146.8089     30.0749     27.7461     39.4444     79.7324
  1739.7500   -147.9478     30.4262     28.1354     39.7561     78.9249
  1740.0000   -149.0097     30.8067     28.5882     39.8398     79.0101
  1740.2500   -149.9823     31.2190     29.1185     39.8847     79.5939
  1740.5000   -150.8358     31.6623     29.7336     40.0569     80.5031
  1740.7500   -151.5057     32.1304     30.4333     40.4606     80.7619
  1741.0000   -151.8982     32.6133     31.2085     41.1242     80.3578
  1741.2500   -151.9087     33.0979     32.0410     42.0103     79.6640
  1741.5000   -151.4527     33.5677     32.9017     43.0391     78.5631
  1741.7500   -150.4960     34.0026     33.7532     44.1132     78.1838
  1742.0000   -149.0773     34.3791     34.5560     45.1421     78.4185
  1742.2500   -147.3102     34.6713     35.2752     46.0610     78.9855
  1742.5000   -145.3640     34.8523     35.8885     46.8466     80.2624
  1742.7500   -143.4240     34.9007     36.3901     47.5269     81.4925
  1743.0000   -141.6554     34.8040     36.7893     48.1767     84.0615
  1743.2500   -140.1710     34.5657     37.1011     48.8888     86.0339
  1743.5000   -139.0225     34.2061     37.3358     49.7268     88.3716
  1743.7500   -138.2137     33.7609     37.4901     50.6718     88.7857
  1744.0000   -137.7244     33.2748     37.5440     51.5907     86.8600
  1744.2500   -137.5370     32.7925     37.4618     52.2488     83.9754
  1744.5000   -137.6462     32.3537     37.2070     52.3760     78.5633
  1744.7500   -138.0592     31.9860     36.7537     51.7633     75.3979
  1745.0000   -138.7761     31.7033     36.1018     50.3531     73.1404
  1745.2500   -139.7770     31.5059     35.2797     48.2787     73.8218
  1745.5000   -141.0093     31.3817     34.3394     45.8296     77.5773
  1745.7500   -142.3873     31.3096     33.3433     43.3545     80.8625
  1746.0000   -143.8010     31.2631     32.3507     41.1471     85.0956
  1746.2500   -145.1275     31.2152     31.4070     39.3629     86.9751
  1746.5000   -146.2415     31.1420     30.5408     37.9985     88.7111
  1746.7500   -147.0354     31.0280     29.7648     36.9318     89.5406
  1747.0000   -147.4323     30.8653     29.0797     35.9998     90.5831
  1747.2500   -147.4018     30.6536     28.4798     35.0739     91.1218
  1747.5000   -146.9710     30.3987     27.9575     34.1046     91.9126
  1747.7500   -146.2242     30.1072     27.5067     33.1258     92.8338
  1748.0000   -145.2815     29.7848     27.1231     32.2229     95.3092
  1748.2500   -144.2771     29.4356     26.8037     31.4873     97.3658
  1748.5000   -143.3257     29.0620     26.5444     30.9786     99.5884
  1748.7500   -142.5019     28.6675     26.3366     30.7086     99.8507
  1749.0000   -141.8421     28.2585     26.1664     30.6486     98.8153
  1749.2500   -141.3525     27.8446     26.0124     30.7487     98.0467
  1749.5000   -141.0329     27.4399     25.8481     30.9515     97.8051
  1749.7500   -140.8867     27.0578     25.6447     31.1927     98.0447
  1750.0000   -140.9232     26.7093     25.3760     31.3907     97.8978
  1750.2500   -141.1429     26.3985     25.0237     31.4424     97.1417
  1750.5000   -141.5209     26.1201     24.5822     31.2362     95.7014
  1750.7500   -141.9984     25.8597     24.0619     30.6827     95.3450
  1751.0000   -142.4923     25.5956     23.4867     29.7517     96.7872
  1751.2500   -142.9062     25.3035     22.8897     28.4986     99.1953
  1751.5000   -143.1563     24.9637     22.3069     27.0636    104.3634
  1751.7500   -143.1773     24.5675     21.7713     25.6428    108.2019
  1752.0000   -142.9271     24.1199     21.3082     24.4413    113.4147
  1752.2500   -142.3819     23.6420     20.9332     23.6210    115.9819
  1752.5000   -141.5368     23.1651     20.6526     23.2610    117.6978
  1752.7500   -140.4164     22.7262     20.4644     23.3437    117.1181
  1753.0000   -139.0815     22.3603     20.3614     23.7667    113.8874
  1753.2500   -137.6456     22.0966     20.3336     24.3760    110.8050
  1753.5000   -136.2635     21.9558     20.3721     25.0121    106.0752
  1753.7500   -135.1097     21.9490     20.4709     25.5563    103.2992
  1754.0000   -134.3390     22.0786     20.6288     25.9645    100.1369
  1754.2500   -134.0481     22.3393     20.8504     26.2803     99.0794
  1754.5000   -134.2552     22.7199     21.1448     26.6252     99.6905
  1754.7500   -134.9031     23.2042     21.5240     27.1662    101.3861
  1755.0000   -135.8771     23.7727     22.0001     28.0707    104.3116
  1755.2500   -137.0458     24.4037     22.5828     29.4581    105.2892
  1755.5000   -138.2928     25.0749     23.2765     31.3599    103.7976
  1755.7500   -139.5402     25.7643     24.0778     33.6988    100.7068
  1756.0000   -140.7450     26.4510     24.9742     36.2932     93.8650
  1756.2500   -141.8901     27.1183     25.9431     38.8895     88.6408
  1756.5000   -142.9512     27.7544     26.9542     41.2200     81.0717
  1756.7500   -143.8808     28.3554     27.9730     43.0702     76.8392
  1757.0000   -144.6034     28.9257     28.9653     44.3373     72.5218
  1757.2500   -145.0358     29.4794     29.9032     45.0548     71.1184
  1757.5000   -145.1158     30.0358     30.7677     45.3737     70.7130
  1757.7500   -144.8313     30.6171     31.5502     45.5072     70.9796
  1758.0000   -144.2390     31.2423     32.2512     45.6614     70.9275
  1758.2500   -143.4491     31.9232     32.8780     45.9799     69.9302
  1758.5000   -142.5990     32.6602     33.4405     46.5231     66.6378
  1758.7500   -141.8125     33.4386     33.9494     47.2800     63.6925
  1759.0000   -141.1688     34.2299     34.4149     48.1981     59.5041
  1759.2500   -140.6910     34.9933     34.8463     49.2140     57.4444
