~Version Information
VERS.                      2.0: CWLS Log ASCII Standard - VERSION 2.0
WRAP.                       NO: One line per depth step
~Well Information Block
STRT.FT               523.0000: 
STOP.FT              1709.0000: 
STEP.FT                 0.1000: 
NULL.                -999.2500: 
COMP.          Evergreen Operating Corporation: COMPANY
WELL.            Rimrock 14-29: WELL
FLD.           Purgatorie River: FIELD
LOC.           945' FSL & 604' FWL: LOCATION
PROV.                 Colorado: PROVINCE
CNTY.               Las Animas: COUNTRY
SRVC.                         : SERVICE COMPANY
DATE.          Tue Sep 21 04:15:40 2004: LOG DATE
UWI.           05 071 08136 00: UNIQUE WELL ID
~Curve Information Block
DEPT.FT            0 000 00 00: Depth
DCAL.in                       : CDL Caliper
RHOB.g/cc                     : CDL Bulk Density
RHOC.g/cc                     : CDL Density Correction
DPOR.pu                       : CDL Density Porosity
GR.GAPI                       : Gamma Ray
NPOR.pu                       : Neutron Porosity
~Parameter Information Block
~A  Depth       DCAL        RHOB        RHOC        DPOR         GR         NPOR    
# ...
  1540.6000      7.8611      2.5375      0.0998      6.8211    108.6401     17.2006
  1540.7000      7.8611      2.5174      0.0927      8.0376    104.9319     17.4901
  1540.8000      7.8197      2.4961      0.0755      9.3266     95.9097     17.3875
  1540.9000      7.8197      2.4731      0.0498     10.7230     87.3035     17.0331
  1541.0000      7.8356      2.4521     -0.0033     11.9929     81.8584     17.0080
  1541.1000      7.8356      2.4397      0.0515     12.7451     81.0285     17.3785
  1541.2000      7.8356      2.4321      0.0243     13.2059     85.4188     17.6687
  1541.3000      7.8381      2.4270      0.0258     13.5134     92.1506     17.6831
  1541.4000      7.8381      2.4282      0.0451     13.4412     93.6523     17.5438
  1541.5000      7.8400      2.4353      0.0077     13.0108     89.2073     17.5594
  1541.6000      7.8400      2.4459      0.0323     12.3717     86.6298     18.0618
  1541.7000      7.8400      2.4571      0.0620     11.6918     86.9372     18.7780
  1541.8000      7.8644      2.4681      0.0667     11.0233     85.2369     19.1944
  1541.9000      7.8644      2.4765      0.1018     10.5144     79.2054     19.2036
  1542.0000      7.8416      2.4735      0.1082     10.6998     71.9624     18.8701
  1542.1000      7.8416      2.4648      0.0248     11.2261     70.1774     18.3577
  1542.2000      7.8416      2.4683      0.0372     11.0103     74.7600     18.0335
  1542.3000      7.8439      2.4819      0.0557     10.1869     79.0749     18.0167
  1542.4000      7.8439      2.4912      0.0669      9.6251     78.6635     18.2072
  1542.5000      7.8376      2.4926      0.0457      9.5373     75.0084     18.4897
  1542.6000      7.8376      2.4938      0.0389      9.4650     71.0914     18.6147
  1542.7000      7.8376      2.4991      0.0633      9.1472     69.7962     18.4669
  1542.8000      7.8454      2.5019      0.0758      8.9751     68.5368     18.3353
  1542.9000      7.8454      2.4975      0.0638      9.2440     65.1744     18.2804
  1543.0000      7.8600      2.4886      0.0874      9.7827     64.1363     17.8533
  1543.1000      7.8600      2.4819      0.0631     10.1865     65.8529     16.9946
  1543.2000      7.8600      2.4830      0.0561     10.1205     67.9140     16.1702
  1543.3000      7.8663      2.4871      0.0827      9.8746     70.9801     15.6774
  1543.4000      7.8663      2.4860      0.0637      9.9372     73.9277     15.4660
  1543.5000      7.8598      2.4773      0.0399     10.4691     74.3143     15.4521
  1543.6000      7.8598      2.4607      0.0511     11.4721     74.2866     15.4316
  1543.7000      7.8598      2.4429      0.0205     12.5523     75.1955     15.3469
  1543.8000      7.8359      2.4346      0.0279     13.0539     74.7642     15.5315
  1543.9000      7.8359      2.4400      0.0291     12.7303     72.7811     16.1625
  1544.0000      7.8571      2.4532      0.0453     11.9294     69.6036     17.1379
  1544.1000      7.8571      2.4636      0.0844     11.2970     66.7804     18.2021
  1544.2000      7.8571      2.4632      0.0506     11.3223     70.3938     18.7594
  1544.3000      7.8671      2.4525      0.0483     11.9674     79.3324     18.2097
  1544.4000      7.8671      2.4426      0.0528     12.5679     84.8096     17.0347
  1544.5000      7.8372      2.4365      0.0850     12.9408     86.3623     16.3827
  1544.6000      7.8372      2.4236      0.0812     13.7228     86.3426     16.4798
  1544.7000      7.8372      2.4078      0.0528     14.6770     84.1981     16.7379
  1544.8000      7.8372      2.4001      0.0690     15.1479     82.8353     16.7688
  1544.9000      7.8372      2.3943      0.0644     15.4980     84.4828     16.5998
  1545.0000      7.8425      2.3834      0.0156     16.1568     87.7255     16.6135
  1545.1000      7.8425      2.3734      0.0327     16.7628     90.4667     16.9555
  1545.2000      7.8425      2.3769      0.0305     16.5509     88.6567     17.1856
  1545.3000      7.8523      2.4003      0.0426     15.1334     83.5360     17.0988
  1545.4000      7.8523      2.4335      0.0904     13.1215     81.9504     17.0604
  1545.5000      7.8441      2.4592      0.1204     11.5650     83.6694     17.1177
  1545.6000      7.8441      2.4694      0.0876     10.9447     83.9174     17.0398
  1545.7000      7.8441      2.4690      0.0907     10.9719     80.9098     17.1538
  1545.8000      7.8483      2.4660      0.0978     11.1488     75.1273     17.5870
  1545.9000      7.8483      2.4649      0.0905     11.2157     68.8464     17.8370
  1546.0000      7.8446      2.4692      0.0855     10.9599     66.2026     17.8243
  1546.1000      7.8446      2.4808      0.0872     10.2540     68.9229     17.8974
  1546.2000      7.8446      2.4922      0.0887      9.5640     71.3852     18.0815
  1546.3000      7.8427      2.4879      0.0847      9.8265     70.6374     17.9623
  1546.4000      7.8427      2.4679      0.0494     11.0342     70.2756     17.5520
  1546.5000      7.8450      2.4462      0.0862     12.3507     73.4026     17.3919
  1546.6000      7.8450      2.4291      0.0762     13.3909     83.9032     17.5418
  1546.7000      7.8450      2.4245      0.0574     13.6646     99.8461     17.7416
  1546.8000      7.8543      2.4413      0.0887     12.6474    108.8986     17.9302
  1546.9000      7.8543      2.4726      0.1171     10.7487    105.8766     18.1528
  1547.0000      7.8462      2.5006      0.1448      9.0540     99.2209     18.3954
  1547.1000      7.8462      2.5164      0.1090      8.0961     94.5802     18.4494
  1547.2000      7.8462      2.5299      0.1065      7.2806     91.3135     18.2902
  1547.3000      7.8614      2.5465      0.1412      6.2742     89.2915     18.2272
  1547.4000      7.8614      2.5553      0.1060      5.7409     88.2749     18.5523
  1547.5000      7.8418      2.5465      0.0726      6.2706     84.3802     19.1780
  1547.6000      7.8418      2.5180      0.0444      7.9971     79.7952     19.7024
  1547.7000      7.8418      2.4773      0.0148     10.4682     79.3876     19.7705
  1547.8000      7.8330      2.4439     -0.0012     12.4901     81.3835     19.4593
  1547.9000      7.8330      2.4372     -0.0118     12.8976     82.8160     19.3057
  1548.0000      7.8316      2.4546      0.0666     11.8442     82.2832     19.3486
  1548.1000      7.8316      2.4727      0.0858     10.7458     80.3631     19.1685
  1548.2000      7.8316      2.4783      0.0803     10.4033     76.9928     18.8307
  1548.3000      7.8529      2.4831      0.0762     10.1168     72.8659     18.7803
  1548.4000      7.8529      2.4986      0.1046      9.1746     71.2865     19.1073
  1548.5000      7.8374      2.5117      0.1294      8.3845     75.9817     19.4359
  1548.6000      7.8374      2.5081      0.0893      8.6000     84.7662     19.4915
  1548.7000      7.8374      2.5000      0.0603      9.0899     90.6032     19.2972
  1548.8000      7.8395      2.5002      0.0709      9.0784     91.6755     18.9532
  1548.9000      7.8395      2.4958      0.0954      9.3447     90.1850     18.7437
  1549.0000      7.8369      2.4770      0.0256     10.4870     89.4035     18.6867
  1549.1000      7.8369      2.4657      0.0101     11.1696     88.1631     18.5420
  1549.2000      7.8369      2.4730      0.1054     10.7243     84.7908     18.3498
  1549.3000      7.8380      2.4771      0.0636     10.4793     82.8251     18.2057
  1549.4000      7.8380      2.4655      0.0556     11.1822     85.6625     18.2018
  1549.5000      7.8689      2.4431      0.0483     12.5405     92.7707     18.2112
  1549.6000      7.8689      2.4190      0.0094     14.0005     98.4648     17.9604
  1549.7000      7.8689      2.4083      0.0161     14.6508     98.6375     17.6815
  1549.8000      7.8637      2.4170      0.0207     14.1202    100.3679     17.8111
  1549.9000      7.8637      2.4350      0.0418     13.0301    106.7730     18.3430
  1550.0000      7.8495      2.4480      0.0675     12.2440    110.5701     18.8757
  1550.1000      7.8495      2.4459      0.0503     12.3669    108.0020     19.1039
