~Version Information
VERS.                      2.0: CWLS Log ASCII Standard - VERSION 2.0
WRAP.                       NO: One line per depth step
~Well Information Block
STRT.FT               521.6000: 
STOP.FT              1490.2000: 
STEP.FT                 0.1000: 
NULL.                -999.2500: 
COMP.          Petrogulf Corporation: COMPANY
WELL.          Robinson 15-11R: WELL
FLD.           Purgatorie River: FIELD
LOC.           324' FNL & 570' FWL: LOCATION
CNTY.               Las Animas: COUNTY
SRVC.                         : SERVICE COMPANY
DATE.          Sat Nov 06 22:43:15 2004: LOG DATE
UWI.           05 071 08029 00: UNIQUE WELL ID
STAT.                 Colorado: STATE
~Curve Information Block
DEPT.FT            0 000 00 00: Depth
DCAL.in                       : CDL Caliper
RHOB.g/cc                     : CDL Bulk Density
RHOC.g/cc                     : CDL Density Correction
DPOR.pu                       : CDL Density Porosity
GR.GAPI                       : Gamma Ray
NPOR.pu                       : Neutron Porosity
~Parameter Information Block
~A  Depth       DCAL        RHOB        RHOC        DPOR         GR         NPOR    
# ...
   675.2000      7.9552      2.4869      0.0909      9.8879    143.6182     28.4910
   675.3000      8.0043      2.4934      0.0791      9.4887    152.7777     29.7199
   675.4000      8.0043      2.4999      0.0521      9.0990    154.2869     30.6241
   675.5000      7.9656      2.5067      0.0374      8.6841    147.2869     30.9241
   675.6000      7.9656      2.5310      0.0274      7.2146    137.0082     30.9361
   675.7000      7.9656      2.5811      0.0799      4.1741    129.4142     30.9671
   675.8000      7.9890      2.6360      0.0794      0.8503    128.0156     31.0241
   675.9000      7.9890      2.6762      0.1076     -1.5875    127.8558     31.1771
   676.0000      7.9974      2.7025      0.0819     -3.1789    121.9768     31.2350
   676.1000      7.9974      2.7127      0.1279     -3.8014    112.6222     30.6585
   676.2000      7.9974      2.7008      0.0737     -3.0815    106.0951     29.6828
   676.3000      7.9512      2.6680      0.0657     -1.0923    103.9850     28.9485
   676.4000      7.9512      2.6130     -0.0191      2.2400    102.3520     28.4717
   676.5000      7.9330      2.5418     -0.0209      6.5605    102.5278     27.8624
   676.6000      7.9330      2.4733     -0.0612     10.7067    107.9949     26.7580
   676.7000      7.9330      2.4224     -0.0770     13.7968    114.5905     25.4005
   676.8000      7.9781      2.3875      0.0019     15.9110    117.7000     24.0363
   676.9000      7.9781      2.3617     -0.0412     17.4735    117.6410     22.7238
   677.0000      8.0104      2.3504     -0.0317     18.1583    118.9559     21.8693
   677.1000      8.0104      2.3622      0.0203     17.4437    124.0523     21.5996
   677.2000      8.0104      2.3945      0.0626     15.4836    129.9969     21.5665
   677.3000      8.0581      2.4364      0.1410     12.9475    134.6063     21.6639
   677.4000      8.0581      2.4738      0.1940     10.6778    137.4902     22.0031
   677.5000      7.9610      2.4965      0.2137      9.3051    138.8439     22.3744
   677.6000      7.9610      2.4998      0.2130      9.1043    138.8890     22.9189
   677.7000      7.9610      2.4868      0.2014      9.8916    137.3034     24.1396
   677.8000      7.9304      2.4696      0.1815     10.9322    135.4238     25.5767
   677.9000      7.9304      2.4621      0.0880     11.3870    134.3552     26.5421
   678.0000      7.9617      2.4669      0.1128     11.0981    132.8740     27.3182
   678.1000      7.9617      2.4763      0.1169     10.5303    130.7829     28.2685
   678.2000      7.9617      2.4949      0.0637      9.3975    130.1928     28.9191
   678.3000      7.9561      2.5312      0.1050      7.2018    132.5149     29.0192
   678.4000      7.9561      2.5664      0.1618      5.0642    137.0815     29.0131
   678.5000      7.9733      2.5811      0.1148      4.1755    140.3194     29.1726
   678.6000      7.9733      2.5812      0.1535      4.1700    138.3975     29.3005
   678.7000      7.9733      2.5799      0.1147      4.2501    132.0026     29.0096
   678.8000      7.9785      2.5837      0.0978      4.0170    124.6526     28.0105
   678.9000      7.9785      2.5853      0.1137      3.9217    120.7935     26.8859
   679.0000      7.9822      2.5692      0.1131      4.8998    120.8722     26.3028
   679.1000      7.9822      2.5349      0.0263      6.9727    120.3494     25.5729
   679.2000      7.9822      2.4933      0.0764      9.4973    116.9796     24.1399
   679.3000      7.9445      2.4470      0.0024     12.3003    114.0073     22.7912
   679.4000      7.9445      2.4055      0.0195     14.8192    114.5848     22.2617
   679.5000      7.9600      2.3818      0.0406     16.2540    118.2225     22.5608
   679.6000      7.9600      2.3781      0.0580     16.4791    122.9854     23.4319
   679.7000      7.9600      2.3898      0.0750     15.7676    126.2916     24.4264
   679.8000      7.9643      2.4113      0.1426     14.4659    127.0377     25.0833
   679.9000      7.9643      2.4327      0.1702     13.1714    129.3926     25.2779
   680.0000      7.9445      2.4449      0.1464     12.4291    135.5413     25.1267
   680.1000      7.9445      2.4462      0.1987     12.3525    136.7170     25.1140
   680.2000      7.9445      2.4469      0.1250     12.3093    128.8893     25.6599
   680.3000      7.9529      2.4659      0.1580     11.1584    122.3309     26.5413
   680.4000      7.9529      2.5009      0.1889      9.0372    123.8965     27.1194
   680.5000      7.9897      2.5263      0.1528      7.4984    128.5130     27.2045
   680.6000      7.9897      2.5297      0.1085      7.2920    129.9514     27.3095
   680.7000      7.9897      2.5226      0.0669      7.7234    128.5884     27.6309
   680.8000      7.9642      2.5106      0.0764      8.4462    126.0966     27.8198
   680.9000      7.9642      2.4881      0.0785      9.8110    123.4731     27.8263
   681.0000      7.9669      2.4613      0.0387     11.4336    120.7432     27.8392
   681.1000      7.9669      2.4409      0.0521     12.6752    115.0541     27.7538
   681.2000      7.9669      2.4227     -0.0045     13.7782    106.7130     27.6386
   681.3000      7.9744      2.4080     -0.0372     14.6692    100.0891     27.8228
   681.4000      7.9744      2.4061     -0.0020     14.7828     99.3342     28.1630
   681.5000      7.9662      2.4163      0.0194     14.1611    105.1497     28.4807
   681.6000      7.9662      2.4354      0.0126     13.0086    112.3545     29.0180
   681.7000      7.9662      2.4668      0.0413     11.1005    113.4092     29.8833
   681.8000      7.9974      2.5126      0.0505      8.3253    107.9896     30.8641
   681.9000      7.9974      2.5582      0.0756      5.5607    105.5126     31.4306
   682.0000      7.9975      2.5880      0.0534      3.7594    109.7227     31.0714
   682.1000      7.9975      2.6079      0.0427      2.5541    116.3258     30.1501
   682.2000      7.9975      2.6323      0.0773      1.0726    122.2095     29.4233
   682.3000      7.9902      2.6564      0.1018     -0.3890    122.0150     28.8849
   682.4000      7.9902      2.6586      0.0977     -0.5214    113.6267     28.2299
   682.5000      7.9477      2.6326      0.0597      1.0554    103.0099     27.5781
   682.6000      7.9477      2.5925      0.0000      3.4868     97.3234     27.3153
   682.7000      7.9477      2.5565     -0.0244      5.6684     98.9704     27.5274
   682.8000      7.9672      2.5376     -0.0184      6.8098    104.2648     27.7482
   682.9000      7.9672      2.5357      0.0321      6.9292    107.4984     27.8249
   683.0000      7.9667      2.5443      0.0106      6.4060    107.0742     28.0785
   683.1000      7.9667      2.5578      0.0929      5.5867    105.9728     28.2669
   683.2000      7.9667      2.5611      0.1211      5.3854    107.3779     28.1104
   683.3000      7.9639      2.5485      0.1272      6.1541    110.7203     27.9780
   683.4000      7.9639      2.5336      0.0495      7.0529    113.4501     28.0058
   683.5000      7.9441      2.5280      0.0782      7.3953    113.5575     27.9084
   683.6000      7.9441      2.5286      0.0723      7.3604    109.3600     27.5342
   683.7000      7.9441      2.5207      0.0762      7.8388    102.2309     26.9808
   683.8000      7.9845      2.5007      0.0410      9.0475     97.6838     26.6119
   683.9000      7.9845      2.4889     -0.0127      9.7620    101.0905     26.6540
   684.0000      7.9473      2.4961      0.0659      9.3259    111.0794     26.9689
   684.1000      7.9473      2.5100      0.0392      8.4861    119.8798     27.5270
   684.2000      7.9473      2.5205      0.0803      7.8510    124.1457     28.3133
   684.3000      7.9828      2.5211      0.1322      7.8114    127.8196     28.7415
   684.4000      7.9828      2.5087      0.0634      8.5621    131.3347     28.3568
   684.5000      7.9585      2.4935      0.0108      9.4874    132.0293     27.5106
   684.6000      7.9585      2.4867      0.0442      9.8993    130.1514     26.7105
   684.7000      7.9585      2.4868      0.0374      9.8935    125.4617     26.5279
