~Version Information
VERS.                      2.0: CWLS Log ASCII Standard - VERSION 2.0
WRAP.                       NO: One line per depth step
~Well Information Block
STRT.FT                -4.7500: 
STOP.FT              2809.5000: 
STEP.FT                 0.2500: 
NULL.                -999.2500: 
COMP.          Pioneer Natural Resources: COMPANY
WELL.              Lynch 43-30: WELL
FLD.           Purgatorie River: FIELD
LOC.           1438' FSL & 429' FEL--: LOCATION
PROV.                       CO: PROVINCE
CNTY.               Las Animas: COUNTRY
SRVC.                         : SERVICE COMPANY
DATE.          Sat Oct 30 09:52:34 2004: LOG DATE
UWI.          005 071 08170   : UNIQUE WELL ID
~Curve Information Block
DEPT.FT            0 000 00 00: Depth
GR.GAPI                       : Gamma Ray
CCL.                          : Casing Collar Locator
TT3.usec                      : CBL 3' Travel Time
AMP3.mV                       : CBL 3' Amplitude
~Parameter Information Block
~A  Depth        GR         CCL         TT3         AMP3    
# ...
  1837.7500    178.4790      0.0000    714.1335      5.0736
  1838.0000    176.2009      0.0000    702.6011      5.1672
  1838.2500    175.8244      0.0000    674.3296      5.2948
  1838.5000    176.4505      0.0000    629.6652      5.4268
  1838.7500    176.5582      0.0000    578.7062      5.5328
  1839.0000    174.9986      0.0000    534.3957      5.6142
  1839.2500    171.2246      0.0000    503.5761      5.6997
  1839.5000    165.6063      0.0000    486.6540      5.8043
  1839.7500    159.9813      0.0000    483.7126      5.9013
  1840.0000    157.4183      0.0000    496.2772      5.9377
  1840.2500    160.5020      0.0000    521.8897      5.8763
  1840.5000    169.0205      0.0000    550.1227      5.7338
  1840.7500    179.4561      0.0000    567.0712      5.5775
  1841.0000    187.3876      0.0000    564.7339      5.4675
  1841.2500    190.4713      0.0000    546.6997      5.3942
  1841.5000    188.9848      0.0000    526.1102      5.2938
  1841.7500    184.1894      0.0000    517.4162      5.1346
  1842.0000    177.1446      0.0000    527.0572      4.9684
  1842.2500    168.9022      0.0000    549.0676      4.8782
  1842.5000    160.8510      0.0000    568.9796      4.8936
  1842.7500    154.3823      0.0000    573.3475      4.9841
  1843.0000    150.3130      0.0000    557.8040      5.1115
  1843.2500    148.6226      0.0000    528.4877      5.2567
  1843.5000    148.7099     -2.0000    497.1625      5.4105
  1843.7500    150.0603      2.0000    474.1207      5.5632
  1844.0000    152.7075      0.0000    464.5474      5.6902
  1844.2500    156.8730      0.0000    470.0839      5.7443
  1844.5000    161.8880      0.0000    491.4052      5.6878
  1844.7500    165.7552      0.0000    527.7256      5.5377
  1845.0000    166.4614      0.0000    574.9832      5.3479
  1845.2500    163.9676      0.0000    626.4830      5.1453
  1845.5000    160.4769      0.0000    675.4836      4.9207
  1845.7500    158.3138      0.0000    716.6554      4.6786
  1846.0000    157.5336      0.0000    746.3748      4.4579
  1846.2500    155.9191      0.0000    763.5185      4.2947
  1846.5000    151.4985      0.0000    770.8425      4.1879
  1846.7500    144.5179      0.0000    775.1422      4.1020
  1847.0000    136.4575      0.0000    783.6741      3.9932
  1847.2500    127.8538      0.0000    797.2579      3.8393
  1847.5000    118.3022      0.0000    807.0821      3.6650
  1847.7500    108.6366      0.0000    801.4189      3.5467
  1848.0000    102.0392      0.0000    776.4034      3.5793
  1848.2500    102.0326      0.0000    739.0179      3.8129
  1848.5000    109.0090      0.0000    700.4262      4.2061
  1848.7500    119.0940      0.0000    668.4457      4.6427
  1849.0000    126.8988      0.0000    645.8905      5.0029
  1849.2500    129.5027      0.0000    633.3380      5.2265
  1849.5000    127.7933      0.0000    630.9047      5.3249
  1849.7500    124.6945      0.0000    636.9643      5.3536
  1850.0000    122.8739      0.0000    647.1376      5.3726
  1850.2500    123.6281      0.0000    656.4635      5.4161
  1850.5000    126.6226      0.0000    662.3629      5.4826
  1850.7500    130.0983      0.0000    665.0530      5.5490
  1851.0000    131.7783      0.0000    665.8888      5.5970
  1851.2500    130.1856      0.0000    665.9809      5.6324
  1851.5000    125.4174      0.0000    665.8687      5.6793
  1851.7500    118.9724      0.0000    665.6843      5.7563
  1852.0000    113.0695      0.0000    665.1127      5.8580
  1852.2500    109.7223      0.0000    663.0316      5.9589
  1852.5000    109.8091      0.0000    657.1743      6.0259
  1852.7500    112.6760      0.0000    645.1708      6.0290
  1853.0000    116.6021      0.0000    628.0319      5.9571
  1853.2500    119.9042      0.0000    613.4571      5.8343
  1853.5000    122.0536      0.0000    612.7054      5.7115
  1853.7500    123.9603      0.0000    630.4518      5.6300
  1854.0000    126.9781      0.0000    658.2787      5.5909
  1854.2500    131.5185      0.0000    680.5166      5.5584
  1854.5000    136.7685      0.0000    685.4718      5.4962
  1854.7500    141.5693      0.0000    669.9999      5.4064
  1855.0000    145.1493      0.0000    637.2300      5.3331
  1855.2500    147.1283      0.0000    594.5003      5.3244
  1855.5000    147.4449      0.0000    552.4273      5.3902
  1855.7500    146.5298      0.0000    521.1459      5.4968
  1856.0000    145.2317      0.0000    505.0439      5.5961
  1856.2500    144.4137      0.0000    501.7015      5.6577
  1856.5000    144.6997      0.0000    505.6034      5.6794
  1856.7500    146.2357      0.0000    511.9590      5.6770
  1857.0000    148.2573      0.0000    517.9292      5.6684
  1857.2500    148.9324      0.0000    522.4395      5.6644
  1857.5000    146.3547      0.0000    525.9939      5.6664
  1857.7500    140.5853      0.0000    530.2695      5.6679
  1858.0000    134.6468      0.0000    536.7687      5.6597
  1858.2500    132.5606      0.0000    545.2380      5.6381
  1858.5000    136.1166      0.0000    553.6774      5.6087
  1858.7500    143.8106      0.0000    560.4937      5.5829
  1859.0000    152.2446      0.0000    566.0334      5.5677
  1859.2500    157.9209      0.0000    570.6801      5.5585
  1859.5000    158.8365      0.0000    571.6282      5.5409
  1859.7500    155.8781      0.0000    563.6403      5.5022
  1860.0000    152.5938      0.0000    544.7827      5.4409
  1860.2500    152.7285      0.0000    521.1874      5.3668
  1860.5000    157.5600      0.0000    505.3265      5.2935
  1860.7500    165.0949      0.0000    508.8252      5.2293
  1861.0000    171.2834      0.0000    534.9875      5.1731
  1861.2500    172.4421      0.0000    576.0157      5.1193
  1861.5000    167.7066      0.0000    617.5940      5.0666
  1861.7500    159.6773      0.0000    647.9338      5.0212
  1862.0000    152.2586      0.0000    663.6713      4.9909
  1862.2500    147.4431      0.0000    668.5331      4.9754
  1862.5000    144.3073      0.0000    668.3290      4.9659
  1862.7500    141.1992      0.0000    667.5673      4.9525
  1863.0000    138.2443      0.0000    668.8505      4.9310
  1863.2500    137.1601      0.0000    673.3307      4.8977
  1863.5000    139.0155      0.0000    680.7312      4.8433
  1863.7500    142.9903      0.0000    689.0267      4.7610
  1864.0000    147.3027      0.0000    694.6592      4.6635
  1864.2500    150.6455      0.0000    693.9104      4.5871
  1864.5000    152.5152      0.0000    685.3331      4.5712
  1864.7500    152.8283      0.0000    671.6746      4.6276
  1865.0000    151.9222      0.0000    658.8135      4.7288
  1865.2500    151.0007      0.0000    651.8542      4.8294
  1865.5000    151.9963      0.0000    652.1077      4.9027
  1865.7500    156.0582      0.0000    656.9297      4.9540
  1866.0000    161.9339      0.0000    660.4813      5.0007
  1866.2500    166.5237      0.0000    655.0281      5.0446
  1866.5000    167.4543      0.0000    634.7902      5.0700
  1866.7500    164.9062      0.0000    600.7785      5.0677
  1867.0000    161.1248      0.0000    561.3781      5.0551
  1867.2500    158.5865      0.0000    527.0022      5.0632
  1867.5000    158.3390      0.0000    503.6643      5.1031
  1867.7500    159.5446      0.0000    491.0992      5.1510
  1868.0000    160.5562      0.0000    485.6044      5.1694
  1868.2500    160.4041      0.0000    483.5633      5.1386
  1868.5000    159.2000      0.0000    482.8615      5.0694
  1868.7500    157.4591      0.0000    482.5946      4.9941
  1869.0000    155.4205      0.0000    482.4569      4.9525
  1869.2500    152.9794      0.0000    482.4426      4.9774
  1869.5000    150.1372      0.0000    482.7634      5.0764
  1869.7500    147.5951      0.0000    483.8401      5.2194
  1870.0000    146.8562      0.0000    486.3649      5.3447
  1870.2500    149.1675      0.0000    491.5716      5.3773
  1870.5000    154.0279      0.0000    501.9729      5.2512
  1870.7500    159.1844      0.0000    522.0259      4.9318
  1871.0000    162.5083      0.0000    556.6727      4.4377
