~Version Information
VERS.                      2.0: CWLS Log ASCII Standard - VERSION 2.0
WRAP.                       NO: One line per depth step
~Well Information Block
STRT.FT               962.7000: 
STOP.FT              2435.5000: 
STEP.FT                 0.1000: 
NULL.                -999.2500: 
COMP.          Petrogulf Corporation: COMPANY
WELL.              Hand 8-44 V: WELL
FLD.           Purgatorie River: FIELD
LOC.           1076' FEL & 820' FSL: LOCATION
CNTY.               Las Animas: COUNTY
SRVC.                         : SERVICE COMPANY
DATE.          Fri Nov 21 14:12:41 2003: LOG DATE
UWI.                          : UNIQUE WELL ID
STAT.                 Colorado: STATE
~Curve Information Block
DEPT.FT            0 000 00 00: Depth
DCAL.in                       : CDL Caliper
RHOB.g/cc                     : CDL Bulk Density
RHOC.g/cc                     : CDL Density Correction
DPOR.pu                       : CDL Density Porosity
GR.GAPI                       : Gamma Ray
NPOR.pu                       : Neutron Porosity
~Parameter Information Block
~A  Depth       DCAL        RHOB        RHOC        DPOR         GR         NPOR    
# ...
  2133.9000      8.1472      2.5793      0.0054      4.2862    110.3879     22.3615
  2134.0000      8.1467      2.5693      0.0220      4.8912    110.9242     22.2158
  2134.1000      8.1467      2.5630      0.0527      5.2730    110.3074     21.8360
  2134.2000      8.1467      2.5630      0.0042      5.2708    105.5960     21.2802
  2134.3000      8.1569      2.5730      0.0881      4.6643    101.8584     21.1339
  2134.4000      8.1569      2.5762      0.1049      4.4720    103.6270     21.4381
  2134.5000      8.1574      2.5590      0.0396      5.5166    110.2077     21.4357
  2134.6000      8.1574      2.5360      0.0123      6.9098    121.5721     20.9156
  2134.7000      8.1574      2.5241      0.0118      7.6317    131.7879     20.6689
  2134.8000      8.1335      2.5329     -0.0108      7.0961    133.4955     21.2022
  2134.9000      8.1335      2.5620      0.0517      5.3347    130.1459     22.1571
  2135.0000      8.1774      2.5825      0.0851      4.0897    124.6765     22.5804
  2135.1000      8.1774      2.5690      0.0677      4.9111    118.7345     21.7331
  2135.2000      8.1774      2.5376      0.0145      6.8142    114.5173     20.5650
  2135.3000      8.1739      2.5227     -0.0410      7.7134    110.3260     20.2906
  2135.4000      8.1739      2.5374      0.0743      6.8231    106.2740     20.5503
  2135.5000      8.1536      2.5645      0.1060      5.1813    102.9016     20.7017
  2135.6000      8.1536      2.5869      0.0669      3.8255    100.3173     20.6038
  2135.7000      8.1536      2.6018      0.0902      2.9186    100.5204     20.2097
  2135.8000      8.1479      2.6083      0.0954      2.5281    102.3138     19.8193
  2135.9000      8.1479      2.6039      0.0647      2.7917    103.0549     19.7817
  2136.0000      8.1759      2.5855      0.1046      3.9105     99.9462     19.8982
  2136.1000      8.1759      2.5622     -0.0201      5.3233     94.1124     19.8477
  2136.2000      8.1759      2.5518      0.0733      5.9522     92.5402     19.7182
  2136.3000      8.1523      2.5461      0.0591      6.2995     93.3532     19.8096
  2136.4000      8.1523      2.5291      0.0367      7.3267     90.5206     19.8667
  2136.5000      8.1461      2.5118      0.0059      8.3758     89.2210     19.4868
  2136.6000      8.1461      2.5139     -0.0346      8.2501     90.9713     19.0593
  2136.7000      8.1461      2.5350      0.0227      6.9689     86.1901     19.0451
  2136.8000      8.1517      2.5604      0.0175      5.4298     76.9836     19.2589
  2136.9000      8.1517      2.5784      0.0652      4.3394     74.4344     19.4298
  2137.0000      8.1884      2.5721      0.0997      4.7235     76.8283     19.4998
  2137.1000      8.1884      2.5455     -0.0176      6.3337     77.6160     19.5995
  2137.2000      8.1884      2.5392      0.0518      6.7130     78.5048     19.8915
  2137.3000      8.1785      2.5738      0.0691      4.6183     82.3255     20.2452
  2137.4000      8.1785      2.6242      0.1537      1.5655     84.9420     20.2406
  2137.5000      8.0891      2.6613      0.1398     -0.6863     83.9932     19.7240
  2137.6000      8.0891      2.6867      0.1439     -2.2267     83.8853     19.3643
  2137.7000      8.0891      2.7036      0.1771     -3.2480     87.2425     19.6763
  2137.8000      8.0452      2.6999      0.1850     -3.0258     88.4406     20.2398
  2137.9000      8.0452      2.6728      0.1993     -1.3826     81.6350     20.4441
  2138.0000      8.0379      2.6378      0.1100      0.7407     72.8200     19.9508
  2138.1000      8.0379      2.6085      0.1125      2.5150     71.4475     19.1614
  2138.2000      8.0379      2.5855      0.1007      3.9113     76.9988     18.7433
  2138.3000      8.0501      2.5650      0.1270      5.1532     83.1488     18.5951
  2138.4000      8.0501      2.5474      0.0481      6.2166     86.1774     18.3581
  2138.5000      8.0685      2.5465      0.0482      6.2750     86.3438     18.3116
  2138.6000      8.0685      2.5716      0.0188      4.7507     85.8878     18.8828
  2138.7000      8.0685      2.6028      0.1061      2.8596     87.6894     19.7425
  2138.8000      8.0631      2.6065      0.1504      2.6382     92.2024     20.3161
  2138.9000      8.0631      2.5877      0.0951      3.7750     95.7539     20.3080
  2139.0000      8.0691      2.5761      0.0931      4.4761     97.8116     19.8845
  2139.1000      8.0691      2.5761      0.0928      4.4774     97.7769     19.8223
  2139.2000      8.0691      2.5692      0.1282      4.8972     92.5302     20.3889
  2139.3000      8.0787      2.5455      0.0424      6.3362     84.5433     21.1164
  2139.4000      8.0787      2.5269      0.0429      7.4632     80.0750     21.8257
  2139.5000      8.0925      2.5334      0.0454      7.0694     80.8372     22.3583
  2139.6000      8.0925      2.5593      0.0798      5.4986     84.4867     22.5304
  2139.7000      8.0925      2.5868      0.1877      3.8324     89.7976     22.1770
  2139.8000      8.1266      2.6048      0.0830      2.7390     94.2849     21.2139
  2139.9000      8.1266      2.6170      0.1172      1.9976     94.3007     20.2366
  2140.0000      8.0989      2.6206      0.1309      1.7795     89.0056     19.7666
  2140.1000      8.0989      2.6076      0.1276      2.5699     82.6627     19.3377
  2140.2000      8.0989      2.5815      0.0704      4.1528     79.8499     18.9908
  2140.3000      8.0758      2.5503      0.0918      6.0453     79.6186     19.1692
  2140.4000      8.0758      2.5272      0.0716      7.4403     79.4232     19.3813
  2140.5000      8.0739      2.5298      0.1240      7.2861     79.6272     19.3814
  2140.6000      8.0739      2.5546      0.0686      5.7807     82.6467     19.4404
  2140.7000      8.0739      2.5829      0.0896      4.0697     85.5317     19.4611
  2140.8000      8.0732      2.6030      0.1684      2.8470     83.9746     19.1923
  2140.9000      8.0732      2.6174      0.1235      1.9779     82.6444     18.8473
  2141.0000      8.0344      2.6262      0.2061      1.4396     88.0985     18.6763
  2141.1000      8.0344      2.6238      0.1904      1.5906     97.3796     18.5624
  2141.2000      8.0344      2.6206      0.1902      1.7837    101.1097     18.3935
  2141.3000      8.0523      2.6297      0.1790      1.2314     96.1141     18.1832
  2141.4000      8.0523      2.6414      0.1955      0.5187     88.9278     17.9869
  2141.5000      8.0265      2.6419      0.1605      0.4880     84.8449     17.6743
  2141.6000      8.0265      2.6391      0.1485      0.6586     81.5001     16.8165
  2141.7000      8.0265      2.6412      0.1671      0.5348     75.5598     15.5655
  2141.8000      7.9755      2.6346      0.1956      0.9318     68.7702     14.9565
  2141.9000      7.9755      2.6077      0.1397      2.5621     64.6004     15.6260
  2142.0000      7.9953      2.5711      0.0867      4.7801     59.9652     17.0923
  2142.1000      7.9953      2.5495      0.0032      6.0932     52.8851     18.2727
  2142.2000      7.9953      2.5501      0.0855      6.0549     49.8418     18.5967
  2142.3000      8.0382      2.5529      0.0774      5.8850     53.6257     18.7635
  2142.4000      8.0382      2.5534     -0.0002      5.8533     57.8640     19.3061
  2142.5000      8.0657      2.5646      0.0737      5.1781     58.1839     19.6667
  2142.6000      8.0657      2.5718      0.1139      4.7395     55.7976     19.5075
  2142.7000      8.0657      2.5539      0.0690      5.8263     53.6407     19.1038
  2142.8000      8.1279      2.5266     -0.0546      7.4782     54.4650     18.7726
  2142.9000      8.1279      2.5247     -0.0198      7.5924     57.8372     18.6800
  2143.0000      8.1568      2.5554      0.0547      5.7359     60.2298     18.8346
  2143.1000      8.1568      2.5946      0.0674      3.3567     61.4153     19.1336
  2143.2000      8.1568      2.6108      0.1340      2.3748     64.7598     19.4466
  2143.3000      8.0963      2.5867      0.0962      3.8386     69.6885     19.4873
  2143.4000      8.0963      2.5442      0.0148      6.4123     69.5777     19.1635
