~Version Information
 VERS.                                  2.0 : CWLS LAS VERSION
 WRAP.                                   NO : WRAPING MODE
 SWARE .                 MController 2.5.0J : SOFTWARE VERSION
~Well Information
 WELL.                       Lavedure 7-44R : WELL
 COMP.                Petrogulf Corporation : COMPANY
 FLD.                      Purgatoire River : FIELD
 LOC.                 SE/SE Sec 7 T33S R67W : LOCATION
 DATE.                             09/23/05 : DATE(S) LOGGED
 SRVC.       BLANCO Geological Services LLC : SERVICE COMPANY
 STAT.                                   CO : STATE
 CNTY.                           Las Animas : COUNTY
 CTRY.                                  USA : COUNTRY
 API.                       05-071-08090-00 : API NUMBER
 STRT.FT                             828.00 : START DEPTH
 STOP.FT                            2020.00 : STOP DEPTH
 STEP.FT                               1.00 : DEPTH INCREMENT
 NULL.                                -9999 : NULL VALUE
~Curve information
 DEPTH.FT                                   :
 ROP.MIN/FT                                 :
 GAS.UNITS                                  :
~ASCII Log data
# ...
      1228.0         0.17         10.5 
      1229.0         0.10          9.6 
      1230.0         0.20          9.8 
      1231.0         0.13         10.0 
      1232.0         0.13         10.8 
      1233.0         0.22         11.6 
      1234.0         0.20         11.7 
      1235.0         0.13         11.7 
      1236.0         0.13         11.6 
      1237.0         0.17         11.3 
      1238.0         0.13         10.7 
      1239.0         0.20         10.7 
      1240.0         0.17         10.6 
      1241.0         0.20         10.0 
      1242.0         0.33         10.6 
      1243.0         0.23          9.9 
      1244.0         0.20          9.3 
      1245.0         0.17          8.7 
      1246.0         0.23          8.6 
      1247.0         0.17          7.9 
      1248.0         0.25          8.1 
      1249.0         0.23          7.5 
      1250.0         0.23          9.8 
      1251.0         0.13         11.7 
      1252.0         0.10         12.5 
      1253.0         0.07         13.8 
      1254.0         0.13         14.1 
      1255.0         0.13         13.6 
      1256.0         0.17         12.2 
      1257.0         3.35         63.7 
      1258.0         0.40         15.5 
      1259.0         0.27         11.1 
      1260.0         0.27          9.7 
      1261.0         0.30          8.8 
      1262.0         0.33          7.9 
      1263.0         0.23          7.1 
      1264.0         0.32          7.3 
      1265.0         0.30          6.5 
      1266.0         0.23          6.2 
      1267.0         0.23          6.0 
      1268.0         0.23          5.6 
      1269.0         0.40          6.1 
      1270.0         0.47          6.4 
      1271.0         0.57          6.6 
      1272.0         0.43          6.6 
      1273.0         0.28          6.7 
      1274.0         0.20          6.6 
      1275.0         0.10          6.8 
      1276.0         0.13          6.7 
      1277.0         0.13          7.4 
      1278.0         0.17          7.7 
      1279.0         0.13          8.8 
      1280.0         0.13         18.1 
      1281.0         0.13         38.8 
      1282.0         0.10         54.9 
      1283.0         0.10         68.5 
      1284.0         0.17         77.5 
      1285.0         0.10         77.3 
      1286.0         0.17         74.4 
      1287.0         2.98        418.8 
      1288.0         0.30        155.7 
      1289.0         0.30        124.0 
      1290.0         0.30         99.8 
      1291.0         0.40         82.1 
      1292.0         0.37         69.4 
      1293.0         0.28         61.7 
      1294.0         0.27         57.5 
      1295.0         0.23         55.0 
      1296.0         0.17         52.4 
      1297.0         0.20         50.9 
      1298.0         0.23         49.5 
      1299.0         0.27         48.1 
      1300.0         0.23         47.0 
      1301.0         0.20         45.8 
      1302.0         0.20         45.4 
      1303.0         0.20         44.7 
      1304.0         0.17         44.3 
      1305.0         0.20         43.8 
      1306.0         0.20         43.4 
      1307.0         0.20         43.1 
      1308.0         0.22         42.9 
      1309.0         0.20         42.8 
      1310.0         0.17         42.7 
      1311.0         0.20         42.0 
      1312.0         0.37         42.2 
      1313.0         0.23         42.4 
      1314.0         0.23         43.0 
      1315.0         0.20         40.8 
      1316.0         0.20         35.7 
      1317.0         3.05        244.5 
      1318.0         0.30         86.4 
      1319.0         0.33         75.4 
      1320.0         0.17         65.2 
      1321.0         0.17         62.7 
      1322.0         0.17         60.3 
      1323.0         0.23         58.7 
      1324.0         0.28         56.9 
      1325.0         0.20         53.0 
      1326.0         0.23         50.1 
      1327.0         0.20         47.9 
      1328.0         0.23         46.5 
      1329.0         0.20         44.7 
      1330.0         0.27         43.9 
      1331.0         0.27         42.4 
      1332.0         0.27         40.4 
      1333.0         0.20         38.7 
      1334.0         0.17         38.5 
      1335.0         0.23         37.9 
      1336.0         0.20         37.3 
      1337.0         0.20         36.6 
      1338.0         0.20         36.2 
      1339.0         0.22         36.6 
      1340.0         0.10         36.6 
      1341.0         0.20         37.3 
      1342.0         0.20         37.3 
      1343.0         0.37         37.4 
      1344.0         0.27         38.1 
      1345.0         0.27         37.2 
      1346.0         0.17         29.8 
      1347.0         3.65        298.6 
      1348.0         0.33         83.0 
      1349.0         0.43         69.3 
      1350.0         0.52         56.1 
      1351.0         0.53         54.5 
      1352.0         0.47         42.3 
      1353.0         0.50         37.5 
      1354.0         0.37         36.5 
      1355.0         0.33         35.0 
      1356.0         0.23         31.6 
      1357.0         0.13         31.6 
      1358.0         0.20         32.6 
      1359.0         0.23         33.5 
      1360.0         0.20         33.9 
      1361.0         0.28         34.1 
      1362.0         0.30         33.4 
      1363.0         0.27         32.8 
      1364.0         0.30         31.7 
      1365.0         0.27         31.2 
      1366.0         0.27         30.9 
      1367.0         0.23         31.2 
      1368.0         0.20         29.5 
      1369.0         0.57         32.0 
      1370.0         0.43         36.0 
      1371.0         0.45         37.6 
      1372.0         0.30         38.7 
      1373.0         0.27         37.9 
      1374.0         0.23         35.6 
      1375.0         0.23         33.9 
      1376.0         0.23         31.4 
      1377.0         2.95         86.0 
      1378.0         0.40         71.3 
      1379.0         0.40         64.9 
      1380.0         0.37         56.1 
      1381.0         0.33         47.9 
      1382.0         0.37         44.9 
      1383.0         0.32         42.8 
      1384.0         0.30         39.1 
      1385.0         0.23         36.8 
      1386.0         0.20         35.9 
      1387.0         0.30         35.6 
      1388.0         0.30         35.0 
      1389.0         0.27         34.3 
      1390.0         0.30         32.7 
      1391.0         0.27         31.2 
      1392.0         0.30         30.4 
      1393.0         0.23         29.1 
      1394.0         0.23         28.7 
      1395.0         0.28         28.9 
      1396.0         0.27         28.9 
      1397.0         0.27         28.7 
      1398.0         0.27         28.3 
      1399.0         0.30         27.8 
      1400.0         0.27         27.5 
      1401.0         0.30         26.2 
      1402.0         0.23         25.7 
      1403.0         0.23         27.3 
      1404.0         0.20         28.2 
      1405.0         0.23         30.4 
      1406.0         0.28         30.4 
      1407.0         2.73        106.7 
      1408.0         0.43         95.9 
      1409.0         0.38         71.9 
      1410.0         0.40         55.5 
      1411.0         0.40         43.8 
      1412.0         0.30         40.0 
      1413.0         0.30         37.5 
      1414.0         0.53         36.5 
      1415.0         0.40         36.5 
      1416.0         0.33         33.5 
      1417.0         0.38         29.3 
      1418.0         0.40         27.2 
      1419.0         0.20         26.6 
      1420.0         0.23         26.8 
      1421.0         0.17         27.3 
      1422.0         0.23         27.7 
      1423.0         0.27         27.8 
      1424.0         0.17         27.5 
      1425.0         0.20         27.2 
      1426.0         0.20         27.2 
      1427.0         0.20         27.1 
