~Version Information
VERS.                      2.0: CWLS Log ASCII Standard - VERSION 2.0
WRAP.                       NO: One line per depth step
~Well Information Block
STRT.FT                -9.5000: 
STOP.FT              2451.0000: 
STEP.FT                 0.2500: 
NULL.                -999.2500: 
COMP.          Petrogulf Corporation: COMPANY
WELL.           Vallejo 19-31V: WELL
FLD.           Purgatorie River: FIELD
LOC.           345' FNL & 2457' FEL: LOCATION
CNTY.               Las Animas: COUNTY
SRVC.                         : SERVICE COMPANY
DATE.          Mon Mar 08 08:24:37 2004: LOG DATE
UWI.           05-071-07919-00: UNIQUE WELL ID
STAT.                 Colorado: STATE
~Curve Information Block
DEPT.FT            0 000 00 00: Depth
MINMK.                        : Surface Line Tension
GR.GAPI                       : Gamma Ray
CCL.                          : Casing Collar Locator
TT3.usec                      : CBL 3' Travel Time
AMP3.mV                       : CBL 3' Amplitude
~Parameter Information Block
~A  Depth      MINMK         GR         CCL         TT3         AMP3    
# ...
  1278.5000      0.0000    169.0288      0.0000    267.6995     82.2689
  1278.7500      0.0000    175.4901      0.0000    267.5893     81.1468
  1279.0000      0.0000    180.8394      0.0000    267.3584     79.6706
  1279.2500      0.0000    184.1429      0.0000    267.1529     77.6509
  1279.5000      1.0000    184.3634      0.0000    267.0446     74.9039
  1279.7500      0.0000    180.6794      0.0000    267.0088     71.5040
  1280.0000      0.0000    172.8810      0.0000    267.0022     67.7098
  1280.2500      0.0000    161.8749      0.0000    267.0089     63.8584
  1280.5000      0.0000    149.9630      0.0000    267.0458     60.2742
  1280.7500      0.0000    139.9505      0.0000    267.1628     57.0575
  1281.0000      0.0000    133.3743      0.0000    267.4128     53.9356
  1281.2500      0.0000    129.5847      0.0000    267.7957     50.4539
  1281.5000      0.0000    126.7652      0.0000    268.2576     46.5027
  1281.7500      0.0000    123.8920      0.0000    268.7412     42.5616
  1282.0000      0.0000    121.5049      0.0000    269.1955     39.2816
  1282.2500      0.0000    120.5810      0.0000    269.5424     36.9831
  1282.5000      0.0000    121.1204      0.0000    269.6831     35.6866
  1282.7500      0.0000    122.1677      0.0000    269.5872     35.3641
  1283.0000      0.0000    123.0122      0.0000    269.3582     35.9045
  1283.2500      0.0000    124.0471      0.0000    269.1528     37.0220
  1283.5000      0.0000    126.2872      0.0000    269.0435     38.2955
  1283.7500      0.0000    129.9717      0.0000    269.0000     39.2151
  1284.0000      0.0000    133.6724      0.0000    268.9564     39.4452
  1284.2500      0.0000    134.9672      0.0000    268.8460     39.1329
  1284.5000      0.0000    132.1216      0.0000    268.6330     38.7551
  1284.7500      0.0000    125.3464      0.0000    268.3670     38.6837
  1285.0000      0.0000    116.6707      0.0000    268.1541     38.9693
  1285.2500      0.0000    108.5904      0.0000    268.0446     39.4582
  1285.5000      0.0000    102.7343      0.0000    268.0077     39.9891
  1285.7500      0.0000     99.5728      0.0000    267.9935     40.4510
  1286.0000      0.0000     98.9392      0.0000    267.9641     40.7806
  1286.2500      0.0000    100.5881      0.0000    267.8907     41.0029
  1286.5000      0.0000    104.3886      0.0000    267.7870     41.2242
  1286.7500      0.0000    110.0646      0.0000    267.7340     41.5655
  1287.0000      0.0000    116.7725      0.0000    267.7870     42.1188
  1287.2500      0.0000    123.0987      0.0000    267.8907     42.8452
  1287.5000      0.0000    127.7637      0.0000    267.9640     43.5583
  1287.7500      0.0000    130.4683      0.0000    267.9923     44.2174
  1288.0000      0.0000    132.0835      0.0000    267.9980     45.1317
  1288.2500      0.0000    133.9884      0.0000    267.9956     46.6762
  1288.5000      0.0000    137.0423      0.0000    268.0025     48.8209
  1288.7500      0.0000    140.9662      0.0000    268.1777     50.9709
  1289.0000      0.0000    144.5933      0.0000    269.1667     52.2088
  1289.2500      0.0000    146.6949      0.0000    272.0358     51.5056
  1289.5000      0.0000    146.6127      0.0000    276.5985     48.2254
  1289.7500      0.0000    144.4150      0.0000    280.0933     43.5180
  1290.0000      0.0000    140.9162      0.0000    280.1698     40.0160
  1290.2500      0.0000    137.6048      0.0000    278.0744     38.7312
  1290.5000      0.0000    136.1029      0.0000    276.2698     38.5618
  1290.7500      0.0000    137.2750     -5.0000    275.5207     38.7916
  1291.0000      0.0000    140.8537     -5.0000    275.4531     39.1548
  1291.2500      0.0000    145.9168      0.0000    275.6419     39.1474
  1291.5000      0.0000    151.4264      0.0000    275.8146     38.7966
  1291.7500      0.0000    156.0221      0.0000    275.8427     38.5894
  1292.0000      0.0000    157.8775      0.0000    275.6729     38.7265
  1292.2500      0.0000    155.7480      0.0000    275.1432     39.4107
  1292.5000      0.0000    150.4177      0.0000    273.9326     41.5468
  1292.7500      0.0000    144.7031      0.0000    271.9943     45.8621
  1293.0000      0.0000    141.8330      0.0000    269.9446     51.0957
  1293.2500      0.0000    143.4759      0.0000    268.5575     55.0636
  1293.5000      0.0000    148.7118      0.0000    268.0073     57.2829
  1293.7500      0.0000    154.8446      0.0000    267.9309     58.4021
  1294.0000      0.0000    159.4766      0.0000    267.9689     58.6180
  1294.2500      0.0000    161.9272      0.0000    267.9928     57.9429
  1294.5000      0.0000    162.9174      0.0000    267.9990     56.8214
  1294.7500      0.0000    163.3197      0.0000    267.9999     55.9959
  1295.0000      0.0000    163.2435      0.0000    268.0000     55.7884
  1295.2500      0.0000    162.0762      0.0000    268.0000     55.8323
  1295.5000      0.0000    159.3404      0.0000    268.0000     55.7207
  1295.7500      0.0000    155.3177      0.0000    268.0000     55.3066
  1296.0000      0.0000    150.5392      0.0000    268.0000     54.3620
  1296.2500      0.0000    144.9715      0.0000    268.0000     52.6722
  1296.5000      0.0000    138.4051      0.0000    268.0001     50.4338
  1296.7500      0.0000    131.6217      0.0000    268.0011     48.1254
  1297.0000      0.0000    126.4665      0.0000    268.0087     46.1036
  1297.2500      0.0000    124.3422      0.0000    268.0447     44.4798
  1297.5000      0.0000    124.9957      0.0000    268.1541     43.2475
  1297.7500      0.0000    127.1666      0.0000    268.3670     42.3680
  1298.0000      0.0000    130.0998      0.0000    268.6330     41.6934
  1298.2500      0.0000    133.9112      0.0000    268.8459     40.9367
  1298.5000      0.0000    138.5369      0.0000    268.9554     39.8725
  1298.7500      0.0000    142.9544      0.0000    268.9924     38.5189
  1299.0000      0.0000    145.8233      0.0000    269.0076     37.0931
  1299.2500      0.0000    146.6301      0.0000    269.0446     35.8762
  1299.5000      0.0000    145.8835      0.0000    269.1541     35.0478
  1299.7500      0.0000    144.4778      0.0000    269.3670     34.5479
  1300.0000      0.0000    143.2876      0.0000    269.6330     34.1445
  1300.2500      0.0000    143.1912      0.0000    269.8459     33.6707
  1300.5000      0.0000    144.9325      0.0000    269.9553     33.1627
  1300.7500      0.0000    148.6461      0.0000    269.9913     32.7631
  1301.0000      0.0000    153.5784      0.0000    269.9989     32.5202
  1301.2500      0.0000    158.4202      0.0000    269.9999     32.3083
  1301.5000      0.0000    162.0526      0.0000    270.0000     32.0060
  1301.7500      0.0000    164.2685      0.0000    270.0000     31.7050
  1302.0000      0.0000    165.9384      0.0000    270.0001     31.5760
  1302.2500      0.0000    168.1488      0.0000    270.0011     31.5932
  1302.5000      0.0000    170.7304      0.0000    270.0088     31.5686
  1302.7500      0.0000    171.9687      0.0000    270.0458     31.3751
  1303.0000      0.0000    170.3600      0.0000    270.1627     31.0181
  1303.2500      0.0000    166.4135      0.0000    270.4107     30.5512
  1303.5000      0.0000    162.2178      0.0000    270.7826     30.0006
  1303.7500      0.0000    159.4875      0.0000    271.2161     29.3985
  1304.0000      0.0000    158.5675      0.0000    271.7839     28.8529
  1304.2500      0.0000    159.1467      0.0000    273.1892     28.4916
  1304.5000      0.0000    161.0629      0.0000    277.0811     28.2914
  1304.7500      0.0000    164.0321      0.0000    284.6325     28.0521
  1305.0000      0.0000    167.3830      0.0000    294.0875     27.5898
  1305.2500      0.0000    170.6509      0.0000    301.7176     26.8751
  1305.5000      0.0000    173.7561      0.0000    305.7509     25.9869
  1305.7500      0.0000    176.1537      0.0000    307.1806     25.0537
  1306.0000      0.0000    176.7118      0.0000    307.4768     24.2451
  1306.2500      0.0000    175.1490      0.0000    307.4372     23.6514
