~Version Information
 VERS.                                  2.0 : CWLS LAS VERSION
 WRAP.                                   NO : WRAPING MODE
 SWARE .                 MController 2.5.0I : SOFTWARE VERSION
~Well Information
 WELL.                      Anderson 18-43v : WELL
 COMP.                       Petrogulf Corp : COMPANY
 FLD.                      Purgatorie River : FIELD
 LOC.                NE/SE Sec 18 T33S R67W : LOCATION
 DATE.                              9/01/04 : DATE(S) LOGGED
 SRVC.       Blanco geological services LLC : SERVICE COMPANY
 STAT.                                   CO : STATE
 CNTY.                           Las Animas : COUNTY
 CTRY.                                  USA : COUNTRY
 API.                       05-071-08156-00 : API NUMBER
 STRT.FT                             158.00 : START DEPTH
 STOP.FT                            2300.00 : STOP DEPTH
 STEP.FT                               1.00 : DEPTH INCREMENT
 NULL.                                -9999 : NULL VALUE
~Curve information
 DEPTH.FT                                   :
 ROP.MIN/FT                                 :
 GAS.UNITS                                  :
~ASCII Log data
# ...
      2158.0          0.3         28.5 
      2159.0          0.2         29.5 
      2160.0          0.2         38.6 
      2161.0          0.3         46.8 
      2162.0          0.3         46.0 
      2163.0          0.3         35.3 
      2164.0          2.2        110.5 
      2165.0          0.5        112.7 
      2166.0          0.3         88.1 
      2167.0          0.3         54.3 
      2168.0          0.3         34.2 
      2169.0          0.3         43.7 
      2170.0          0.3         45.6 
      2171.0          0.3         42.9 
      2172.0          0.2         33.9 
      2173.0          0.2         37.3 
      2174.0          0.2         50.6 
      2175.0          0.3         59.7 
      2176.0          0.2         58.0 
      2177.0          0.3         49.0 
      2178.0          0.3         48.6 
      2179.0          0.3         56.9 
      2180.0          0.4         58.4 
      2181.0          0.4         55.2 
      2182.0          0.4         43.9 
      2183.0          0.4         35.4 
      2184.0          0.5         30.0 
      2185.0          0.4         28.3 
      2186.0          0.4         28.4 
      2187.0          0.4         27.0 
      2188.0          0.4         26.9 
      2189.0          0.4         24.9 
      2190.0          0.4         21.0 
      2191.0          0.4         18.4 
      2192.0          0.4         17.1 
      2193.0          0.4         14.9 
      2194.0          2.2         85.0 
      2195.0          0.3        112.8 
      2196.0          0.6        131.9 
      2197.0          0.5        111.5 
      2198.0          0.4         66.1 
      2199.0          0.4         44.7 
      2200.0          0.3         37.9 
      2201.0          0.4         31.9 
      2202.0          0.3         26.8 
      2203.0          0.4         26.0 
      2204.0          0.4         26.7 
      2205.0          0.4         26.3 
      2206.0          0.5         21.0 
      2207.0          0.4         14.4 
      2208.0          0.7         11.0 
      2209.0          0.7         11.2 
      2210.0          0.7         15.3 
      2211.0          0.8         18.7 
      2212.0          0.6         20.8 
      2213.0          0.5         23.2 
      2214.0          0.5         23.9 
      2215.0          0.5         22.9 
      2216.0          0.6         18.7 
      2217.0          0.5         14.3 
      2218.0          0.4         14.0 
      2219.0          0.4         11.6 
      2220.0          0.4          9.7 
      2221.0          0.5          8.8 
      2222.0          0.5          8.6 
      2223.0          0.4          8.5 
      2224.0          2.2         64.9 
      2225.0          0.7        139.0 
      2226.0          0.6        139.4 
      2227.0          0.6         86.4 
      2228.0          0.7         45.0 
      2229.0          0.9         24.0 
      2230.0          0.7         31.0 
      2231.0          0.7         30.1 
      2232.0          0.7         22.8 
      2233.0          0.8         15.1 
      2234.0          0.9         16.5 
      2235.0          0.9         18.8 
      2236.0          1.0         21.0 
      2237.0          0.8         20.9 
      2238.0          0.4         20.7 
      2239.0          0.4         25.2 
      2240.0          0.4         24.9 
      2241.0          0.4         23.6 
      2242.0          0.4         20.0 
      2243.0          0.5         14.2 
      2244.0          0.8         10.7 
      2245.0          0.7         14.0 
      2246.0          0.9         14.9 
      2247.0          0.9         15.4 
      2248.0          0.5         29.2 
      2249.0          0.4         30.0 
      2250.0          0.4         28.4 
      2251.0          0.4         24.3 
      2252.0          0.4         21.0 
      2253.0          0.5         18.9 
      2254.0          2.5         89.0 
      2255.0          0.6         88.9 
      2256.0          0.5         63.6 
      2257.0          0.4         40.9 
      2258.0          0.4         28.8 
      2259.0          0.3         24.7 
      2260.0          0.2         27.2 
      2261.0          0.2         29.0 
      2262.0          0.3         31.6 
      2263.0          0.4         34.3 
      2264.0          0.3         34.0 
      2265.0          0.3         31.9 
      2266.0          0.3         27.1 
      2267.0          0.3         23.5 
      2268.0          0.3         20.1 
      2269.0          0.3         18.5 
      2270.0          0.3         17.7 
      2271.0          0.3         15.0 
      2272.0          0.3         15.0 
      2273.0          0.4         17.8 
      2274.0          0.4         19.5 
      2275.0          0.3         19.7 
      2276.0          0.4         17.3 
      2277.0          0.3         13.8 
      2278.0          0.4         13.3 
      2279.0          0.4         16.6 
      2280.0          0.4         19.6 
      2281.0          0.3         20.5 
      2282.0          0.3         17.4 
      2283.0          0.9         11.0 
      2284.0          1.6        107.3 
      2285.0          0.6        109.9 
      2286.0          0.6         79.9 
      2287.0          0.5         40.5 
      2288.0          0.3         32.2 
      2289.0          0.3         34.3 
      2290.0          0.3         34.5 
      2291.0          0.3         33.2 
      2292.0          0.3         30.3 
      2293.0          0.2         31.4 
      2294.0          0.2         32.9 
      2295.0          0.2         76.7 
      2296.0          0.3        149.1 
      2297.0          0.3        147.7 
      2298.0          0.3         96.1 
      2299.0          0.3         56.3 
      2300.0          0.3         35.8 
