~Version Information
VERS.                      2.0: CWLS Log ASCII Standard - VERSION 2.0
WRAP.                       NO: One line per depth step
~Well Information Block
STRT.FT               506.1000: 
STOP.FT              2140.0000: 
STEP.FT                 0.1000: 
NULL.                -999.2500: 
COMP.          Petrogulf Corporation: COMPANY
WELL.            Montoya 1-44R: WELL
FLD.           Purgatorie River: FIELD
LOC.           658' FSL & 1052' FWL: LOCATION
CNTY.               Las Animas: COUNTY
SRVC.                         : SERVICE COMPANY
DATE.          Tue Nov 16 04:33:40 2004: LOG DATE
UWI.           05 071 08239 00: UNIQUE WELL ID
STAT.                 Colorado: STATE
~Curve Information Block
DEPT.FT            0 000 00 00: Depth
DCAL.in                       : CDL Caliper
RHOB.g/cc                     : CDL Bulk Density
RHOC.g/cc                     : CDL Density Correction
DPOR.pu                       : CDL Density Porosity
GR.GAPI                       : Gamma Ray
NPOR.pu                       : Neutron Porosity
~Parameter Information Block
~A  Depth       DCAL        RHOB        RHOC        DPOR         GR         NPOR    
# ...
  1917.3000      8.0258      2.4967      0.0907      9.2926    139.4350     27.1229
  1917.4000      8.0258      2.4819      0.0908     10.1893    140.8192     25.8530
  1917.5000      8.0029      2.4629      0.0782     11.3411    136.7300     24.6458
  1917.6000      8.0029      2.4400      0.0666     12.7257    130.7375     23.8420
  1917.7000      8.0029      2.4187      0.0554     14.0157    125.8682     23.7159
  1917.8000      7.9666      2.4031      0.0684     14.9659    121.0814     24.6322
  1917.9000      7.9666      2.4003      0.0091     15.1352    116.0519     25.7416
  1918.0000      7.9394      2.4200      0.0226     13.9364    113.3267     25.8749
  1918.1000      7.9394      2.4553      0.0790     11.7980    114.2343     25.5590
  1918.2000      7.9394      2.4885      0.1140      9.7895    115.8156     25.6931
  1918.3000      7.9294      2.5149      0.0928      8.1906    116.5216     25.9458
  1918.4000      7.9294      2.5368      0.1235      6.8589    117.0166     25.8773
  1918.5000      7.9230      2.5498      0.1193      6.0737    116.5157     25.6230
  1918.6000      7.9230      2.5509      0.1277      6.0045    115.0315     25.1264
  1918.7000      7.9230      2.5411      0.1102      6.5982    114.5364     24.2842
  1918.8000      7.9248      2.5222      0.0913      7.7459    113.4402     23.8959
  1918.9000      7.9248      2.5015      0.0430      8.9972    109.9510     24.5982
  1919.0000      7.9346      2.4896      0.0361      9.7238    107.2736     25.3176
  1919.1000      7.9346      2.4883      0.0675      9.7991    106.1716     24.5922
  1919.2000      7.9346      2.4919      0.0682      9.5806    105.3369     22.7466
  1919.3000      7.9379      2.4924      0.0906      9.5509    106.3121     21.1723
  1919.4000      7.9379      2.4863      0.0490      9.9241    107.6244     20.6031
  1919.5000      7.9281      2.4798      0.0388     10.3124    107.9561     20.9929
  1919.6000      7.9281      2.4797      0.0573     10.3221    108.4419     21.7761
  1919.7000      7.9281      2.4849      0.0748     10.0034    107.0669     21.7338
  1919.8000      7.9143      2.4852      0.1151      9.9908    104.1107     20.6513
  1919.9000      7.9143      2.4702      0.0564     10.8968    104.2343     20.1532
  1920.0000      7.9151      2.4511      0.0330     12.0570    106.4052     20.9326
  1920.1000      7.9151      2.4436      0.0443     12.5080    106.1786     21.9966
  1920.2000      7.9151      2.4398      0.0817     12.7406    104.2736     23.0079
  1920.3000      7.9235      2.4223      0.0652     13.8002    104.0002     24.1130
  1920.4000      7.9235      2.3935      0.0675     15.5462    105.7125     24.6203
  1920.5000      7.9215      2.3689      0.0401     17.0344    106.5933     24.3581
  1920.6000      7.9215      2.3582      0.0358     17.6845    104.2350     23.7411
  1920.7000      7.9215      2.3643      0.0178     17.3150    100.5816     22.8208
  1920.8000      7.9131      2.3901      0.0560     15.7545     96.6260     22.1337
  1920.9000      7.9131      2.4270      0.0894     13.5150     91.2006     22.3097
  1921.0000      7.9092      2.4590      0.1027     11.5777     86.6782     22.8948
  1921.1000      7.9092      2.4803      0.0865     10.2833     87.7255     23.1083
  1921.2000      7.9092      2.4906      0.0929      9.6584     95.8267     22.6908
  1921.3000      7.9163      2.4908      0.0527      9.6501    109.0343     22.2164
  1921.4000      7.9163      2.4916      0.0351      9.6000    122.6081     22.3234
  1921.5000      7.9386      2.5008      0.0524      9.0404    129.2011     22.7731
  1921.6000      7.9386      2.5138      0.0700      8.2564    127.0396     23.0170
  1921.7000      7.9386      2.5240      0.0672      7.6374    121.7080     22.6025
  1921.8000      7.9770      2.5273      0.1052      7.4384    117.6459     21.9191
  1921.9000      7.9770      2.5247      0.0652      7.5912    117.2500     22.0477
  1922.0000      8.0107      2.5259      0.0474      7.5204    120.0690     23.0421
  1922.1000      8.0107      2.5289      0.0957      7.3372    122.1104     24.4161
  1922.2000      8.0107      2.5175      0.0908      8.0330    122.0467     25.5546
  1922.3000      8.0274      2.4896      0.0434      9.7208    120.9642     26.0837
  1922.4000      8.0274      2.4557      0.0651     11.7738    120.9124     26.2847
  1922.5000      8.0469      2.4113      0.0530     14.4682    125.2166     26.3129
  1922.6000      8.0469      2.3535      0.0364     17.9679    133.4289     26.5609
  1922.7000      8.0469      2.3023      0.0389     21.0715    139.1534     26.7497
  1922.8000      8.0884      2.2762      0.0440     22.6538    139.9354     26.0935
  1922.9000      8.0884      2.2736      0.0680     22.8144    139.7947     25.3072
  1923.0000      8.1308      2.2880      0.0622     21.9389    136.5543     25.4702
  1923.1000      8.1308      2.3199      0.1151     20.0051    127.3136     26.3993
  1923.2000      8.1308      2.3590      0.1853     17.6343    117.3051     27.5240
  1923.3000      8.1200      2.3840      0.2423     16.1189    112.3903     28.6049
  1923.4000      8.1200      2.3915      0.2267     15.6690    114.1618     29.5401
  1923.5000      8.0817      2.3923      0.2489     15.6165    119.5667     30.2666
  1923.6000      8.0817      2.3828      0.2653     16.1944    120.1276     31.1329
  1923.7000      8.0817      2.3430      0.2849     18.6077    113.1715     32.2713
  1923.8000      8.0751      2.2591      0.1789     23.6925    106.8077     33.0628
  1923.9000      8.0751      2.1475      0.0624     30.4518    105.2240     32.7643
  1924.0000      8.0883      2.0475      0.0286     36.5137    105.0897     31.4048
  1924.1000      8.0883      1.9855     -0.0154     40.2717    106.2860     30.2219
  1924.2000      8.0883      1.9648     -0.0164     41.5281    109.5012     29.7319
  1924.3000      8.1263      1.9730      0.0092     41.0283    112.0808     29.4608
  1924.4000      8.1263      1.9964      0.0278     39.6102    114.5797     29.6364
  1924.5000      8.1718      2.0355      0.0514     37.2440    116.8341     30.0983
  1924.6000      8.1718      2.0902      0.1544     33.9269    115.3190     29.9588
  1924.7000      8.1718      2.1492      0.1814     30.3517    113.8530     29.2220
  1924.8000      8.1743      2.2082      0.2278     26.7764    118.1244     28.4566
  1924.9000      8.1743      2.2688      0.1945     23.1004    123.3731     28.0847
  1925.0000      8.1222      2.3230      0.1061     19.8177    123.4970     28.0628
  1925.1000      8.1222      2.3601      0.0454     17.5697    120.4354     28.0927
  1925.2000      8.1222      2.3781      0.0567     16.4782    117.1797     28.0423
  1925.3000      8.0871      2.3782      0.0755     16.4725    114.3876     28.0349
  1925.4000      8.0871      2.3696      0.0509     16.9911    114.8678     28.0232
  1925.5000      8.0872      2.3669      0.0484     17.1548    122.6581     27.6516
  1925.6000      8.0872      2.3706      0.0807     16.9318    136.8983     26.6856
  1925.7000      8.0872      2.3741      0.0782     16.7208    148.1696     25.4869
  1925.8000      8.0760      2.3851      0.0528     16.0541    147.3259     24.9581
  1925.9000      8.0760      2.4119      0.0666     14.4306    141.2751     25.3735
  1926.0000      8.0552      2.4449      0.0255     12.4294    141.4145     26.1357
  1926.1000      8.0552      2.4693      0.0679     10.9527    145.5795     26.1400
  1926.2000      8.0552      2.4806      0.0383     10.2697    147.4251     24.8869
  1926.3000      8.0439      2.4874      0.0390      9.8539    145.6706     23.1164
  1926.4000      8.0439      2.4921      0.0647      9.5676    140.7725     21.6651
  1926.5000      8.0438      2.4877      0.0642      9.8363    134.4842     21.0025
  1926.6000      8.0438      2.4780      0.0388     10.4262    126.7761     20.9011
  1926.7000      8.0438      2.4766      0.0230     10.5120    117.9739     20.5487
  1926.8000      8.0463      2.4905      0.0596      9.6682    113.1303     20.2329
