~Version Information
VERS.                      2.0: CWLS Log ASCII Standard - VERSION 2.0
WRAP.                       NO: One line per depth step
~Well Information Block
STRT.FT               964.2000: 
STOP.FT              2596.7000: 
STEP.FT                 0.1000: 
NULL.                -999.2500: 
COMP.          Petrogulf Corporation: COMPANY
WELL.             Valejo 8-12V: WELL
FLD.           Purgatorie River: FIELD
LOC.           1510' FNL & 1460' FWL: LOCATION
CNTY.               Las Animas: COUNTY
SRVC.                         : SERVICE COMPANY
DATE.          Sat Nov 15 12:30:37 2003: LOG DATE
UWI.                          : UNIQUE WELL ID
STAT.                 Colorado: STATE
~Curve Information Block
DEPT.FT            0 000 00 00: Depth
DCAL.in                       : CDL Caliper
RHOB.g/cc                     : CDL Bulk Density
RHOC.g/cc                     : CDL Density Correction
DPOR.pu                       : CDL Density Porosity
GR.GAPI                       : Gamma Ray
NPOR.pu                       : Neutron Porosity
~Parameter Information Block
~A  Depth       DCAL        RHOB        RHOC        DPOR         GR         NPOR    
# ...
  1837.8000      7.0416      2.4151      0.0509     14.2383    109.6509     20.6824
  1837.9000      7.0416      2.4039     -0.0062     14.9180    108.3936     21.0476
  1838.0000      6.9451      2.4057      0.0020     14.8061    105.4732     22.3393
  1838.1000      6.9451      2.4181      0.0724     14.0528    100.9652     24.4693
  1838.2000      6.9451      2.4197      0.0926     13.9588     97.8039     25.4646
  1838.3000      6.9434      2.4078      0.0689     14.6764     97.8328     24.5932
  1838.4000      6.9434      2.4092      0.0277     14.5930     99.4457     23.6614
  1838.5000      7.0496      2.4320      0.1064     13.2108    103.2701     23.6013
  1838.6000      7.0496      2.4530      0.1092     11.9384    108.0685     23.5638
  1838.7000      7.0496      2.4602      0.1103     11.5038    108.3612     23.3419
  1838.8000      7.2471      2.4684      0.0827     11.0031    105.3556     23.5551
  1838.9000      7.2471      2.4955      0.0810      9.3616    107.4070     24.0110
  1839.0000      7.4982      2.5372      0.1344      6.8368    114.1092     24.0947
  1839.1000      7.4982      2.5723      0.1673      4.7104    118.1916     23.7057
  1839.2000      7.4982      2.5903      0.1463      3.6195    119.6514     23.1806
  1839.3000      7.7537      2.5999      0.1097      3.0380    120.8898     23.1113
  1839.4000      7.7537      2.6049      0.1266      2.7354    121.0515     24.1270
  1839.5000      7.9682      2.5963      0.0899      3.2534    118.5147     25.7846
  1839.6000      7.9682      2.5764      0.0517      4.4619    112.2162     26.2742
  1839.7000      7.9682      2.5563      0.0606      5.6771    109.5027     24.8697
  1839.8000      8.1172      2.5440      0.0371      6.4270    119.9851     23.0215
  1839.9000      8.1172      2.5413      0.0771      6.5851    138.7552     22.1207
  1840.0000      8.2023      2.5428      0.0374      6.4993    149.7663     22.1958
  1840.1000      8.2023      2.5484      0.0317      6.1605    144.6629     22.7245
  1840.2000      8.2023      2.5575      0.0986      5.6052    134.2661     23.1851
  1840.3000      8.2423      2.5578      0.0932      5.5901    136.2204     23.6985
  1840.4000      8.2423      2.5456      0.0613      6.3290    146.6318     24.1627
  1840.5000      8.2581      2.5361      0.0681      6.9037    147.7375     24.1162
  1840.6000      8.2581      2.5422      0.0405      6.5319    137.9307     23.6403
  1840.7000      8.2581      2.5550      0.1177      5.7567    131.0686     22.3993
  1840.8000      8.2639      2.5613      0.0620      5.3777    131.2166     21.0535
  1840.9000      8.2639      2.5682      0.0514      4.9566    129.7740     21.5918
  1841.0000      8.2665      2.5741      0.1188      4.5976    128.0016     23.8951
  1841.1000      8.2665      2.5638      0.0804      5.2256    130.6650     25.6091
  1841.2000      8.2665      2.5445      0.0619      6.3946    133.1759     24.9833
  1841.3000      8.2678      2.5386      0.0150      6.7535    133.1778     22.5639
  1841.4000      8.2678      2.5541      0.0724      5.8109    128.6477     20.3757
  1841.5000      8.2682      2.5750      0.0657      4.5447    118.4922     19.3276
  1841.6000      8.2682      2.5777      0.0747      4.3822    110.1954     19.0477
  1841.7000      8.2682      2.5594      0.0266      5.4929    108.3999     19.1932
  1841.8000      8.2678      2.5391      0.0288      6.7236    109.7421     19.7559
  1841.9000      8.2678      2.5317      0.0163      7.1679    109.2865     20.5470
  1842.0000      8.2670      2.5403      0.0268      6.6496    105.5152     21.0241
  1842.1000      8.2670      2.5591      0.0496      5.5078    102.0835     20.5853
  1842.2000      8.2670      2.5758      0.0776      4.4973     99.5567     19.7912
  1842.3000      8.2667      2.5796      0.0936      4.2653     93.5505     19.5904
  1842.4000      8.2667      2.5700      0.0865      4.8500     86.8939     19.5554
  1842.5000      8.2675      2.5609      0.0730      5.4006     84.7306     19.2509
  1842.6000      8.2675      2.5654      0.0774      5.1258     83.8337     19.1026
  1842.7000      8.2675      2.5772      0.0788      4.4129     82.4967     19.4375
  1842.8000      8.2694      2.5809      0.1005      4.1896     80.3025     20.1856
  1842.9000      8.2694      2.5659      0.0866      5.0984     75.1999     21.0762
  1843.0000      8.2713      2.5335      0.0117      7.0601     71.1113     21.9691
  1843.1000      8.2713      2.4893     -0.0030      9.7388     70.6157     22.7671
  1843.2000      8.2713      2.4296      0.0007     13.3600     73.0401     23.0195
  1843.3000      8.2715      2.3554     -0.0074     17.8565     77.8320     22.4208
  1843.4000      8.2715      2.2755     -0.0566     22.6942     80.2198     21.4595
  1843.5000      8.2696      2.1976     -0.0788     27.4187     77.0960     20.4575
  1843.6000      8.2696      2.1343     -0.1014     31.2551     69.5088     19.6465
  1843.7000      8.2696      2.1077     -0.0826     32.8644     60.6367     19.4909
  1843.8000      8.2677      2.1363      0.0067     31.1346     59.8533     19.8786
  1843.9000      8.2677      2.2131      0.1303     26.4799     71.3673     20.4441
  1844.0000      8.2696      2.3095      0.2571     20.6359     84.6193     21.0195
  1844.1000      8.2696      2.4056      0.3268     14.8125     88.4590     21.2583
  1844.2000      8.2696      2.4859      0.4273      9.9454     82.8361     20.2567
  1844.3000      8.2780      2.5252      0.3926      7.5656     76.9805     17.6754
  1844.4000      8.2780      2.5252      0.3034      7.5626     79.5827     15.2298
  1844.5000      8.2926      2.5232      0.2214      7.6864     85.0355     14.2912
  1844.6000      8.2926      2.5368      0.1865      6.8578     82.8281     14.5945
  1844.7000      8.2926      2.5521      0.0792      5.9319     76.7945     15.5330
  1844.8000      8.3113      2.5668      0.0408      5.0450     73.2920     16.1901
  1844.9000      8.3113      2.5835      0.0491      4.0274     74.2999     15.6588
  1845.0000      8.3315      2.5925      0.0632      3.4847     79.4006     14.8609
  1845.1000      8.3315      2.5942      0.0224      3.3812     84.7636     15.2707
  1845.2000      8.3315      2.5962      0.0602      3.2590     89.8272     16.8073
  1845.3000      8.3508      2.5998      0.0315      3.0454     92.7103     18.1006
  1845.4000      8.3508      2.6095      0.0723      2.4528     90.9448     18.1373
  1845.5000      8.3670      2.6271      0.0635      1.3856     88.4817     17.3030
  1845.6000      8.3670      2.6431      0.1011      0.4161     88.4555     17.0268
  1845.7000      8.3670      2.6458      0.0831      0.2552     89.3490     17.9829
  1845.8000      8.3780      2.6311      0.0797      1.1472     89.2083     18.9404
  1845.9000      8.3780      2.6059      0.0578      2.6748     91.7317     18.8391
  1846.0000      8.3838      2.5918      0.0251      3.5273     98.5966     18.4914
  1846.1000      8.3838      2.5991      0.0610      3.0849    101.0968     18.6746
  1846.2000      8.3838      2.6031      0.0974      2.8432     96.4215     18.7874
  1846.3000      8.3861      2.5910      0.0434      3.5732     92.6231     18.5441
  1846.4000      8.3861      2.5865      0.0357      3.8472     91.4820     18.4135
  1846.5000      8.3879      2.6005      0.0757      3.0028     88.2162     18.0842
  1846.6000      8.3879      2.6163      0.0820      2.0417     84.5116     17.2126
  1846.7000      8.3879      2.6214      0.0910      1.7312     84.7295     16.3056
  1846.8000      8.3917      2.6205      0.0370      1.7904     88.4730     15.6724
  1846.9000      8.3917      2.6179      0.0596      1.9437     93.6923     15.5872
  1847.0000      8.3979      2.6109      0.0168      2.3706     97.8167     16.7875
  1847.1000      8.3979      2.5983      0.0492      3.1332     96.8568     19.2370
  1847.2000      8.3979      2.5801      0.0199      4.2367     92.3530     21.5098
  1847.3000      8.4050      2.5638     -0.0080      5.2260     91.6077     22.0804
