~Version Information
VERS.                      2.0: CWLS Log ASCII Standard - VERSION 2.0
WRAP.                       NO: One line per depth step
~Well Information Block
STRT.FT               780.0000: 
STOP.FT              3152.2500: 
STEP.FT                 0.2500: 
NULL.                -999.2500: 
COMP.          Pioneer Natural Resources: COMPANY
WELL.            Paradise 13-8: WELL
FLD.           Purgatoire River: FIELD
LOC.           1896' FSL & 1120' FWL: LOCATION
PROV.                 Colorado: PROVINCE
CNTY.               Las Animas: COUNTRY
SRVC.                Patterson: SERVICE COMPANY
DATE.          Sat Jan 22 20:39:47 2005: LOG DATE
UWI.           05 071 07946 00: UNIQUE WELL ID
~Curve Information Block
DEPT.FT            0 000 00 00: Depth
SN.Ohm-m                      : IEL Short Normal
SP.mV                         : IEL Spontaneous Potential
DIR.Ohm-m                     : IEL Induction Resistivity
GR.GAPI                       : Gamma Ray
~Parameter Information Block
~A  Depth        SN          SP         DIR          GR     
# ...
  2656.0000     17.8330    -39.5093     16.9329     68.6870
  2656.2500     17.8460    -40.1940     17.2291     64.7838
  2656.5000     17.8396    -40.9236     17.5911     58.8255
  2656.7500     17.8338    -41.5983     17.9834     56.3251
  2657.0000     17.8488    -42.1260     18.3563     55.6046
  2657.2500     17.8893    -42.4364     18.6600     56.5927
  2657.5000     17.9391    -42.4915     18.8565     59.1862
  2657.7500     17.9727    -42.2880     18.9271     61.4975
  2658.0000     17.9689    -41.8534     18.8738     65.8021
  2658.2500     17.9171    -41.2368     18.7162     68.8453
  2658.5000     17.8160    -40.4984     18.4837     72.6155
  2658.7500     17.6729    -39.7000     18.2072     74.2676
  2659.0000     17.5021    -38.8986     17.9121     75.5935
  2659.2500     17.3161    -38.1428     17.6164     75.8291
  2659.5000     17.1178    -37.4713     17.3320     74.9147
  2659.7500     16.9039    -36.9119     17.0676     73.0819
  2660.0000     16.6793    -36.4793     16.8295     68.2639
  2660.2500     16.4622    -36.1741     16.6194     64.2674
  2660.5000     16.2736    -35.9835     16.4337     59.3367
  2660.7500     16.1276    -35.8866     16.2671     57.9544
  2661.0000     16.0316    -35.8631     16.1205     58.9588
  2661.2500     15.9884    -35.9026     16.0032     60.7445
  2661.5000     15.9964    -36.0092     15.9278     63.1218
  2661.7500     16.0511    -36.2003     15.9022     63.7942
  2662.0000     16.1506    -36.4995     15.9283     63.2438
  2662.2500     16.2972    -36.9275     16.0097     62.2132
  2662.5000     16.4941    -37.4942     16.1570     60.7910
  2662.7500     16.7402    -38.1944     16.3829     60.5092
  2663.0000     17.0319    -39.0091     16.6911     61.2162
  2663.2500     17.3669    -39.9096     17.0697     61.8827
  2663.5000     17.7476    -40.8642     17.4957     61.8952
  2663.7500     18.1779    -41.8432     17.9480     60.9872
  2664.0000     18.6624    -42.8230     18.4157     59.0185
  2664.2500     19.2060    -43.7850     18.8980     57.9057
  2664.5000     19.8128    -44.7137     19.3975     56.5949
  2664.7500     20.4789    -45.5926     19.9121     55.4324
  2665.0000     21.1832    -46.4042     20.4307     52.5178
  2665.2500     21.8861    -47.1330     20.9321     49.9279
  2665.5000     22.5418    -47.7722     21.3879     46.0275
  2665.7500     23.1192    -48.3292     21.7724     43.9593
  2666.0000     23.6202    -48.8286     22.0737     42.1201
  2666.2500     24.0794    -49.3075     22.2996     41.7936
  2666.5000     24.5440    -49.8075     22.4764     42.5821
  2666.7500     25.0421    -50.3631     22.6411     43.8122
  2667.0000     25.5633    -50.9910     22.8300     46.1193
  2667.2500     26.0586    -51.6801     23.0618     47.4028
  2667.5000     26.4573    -52.3867     23.3203     48.0358
  2667.7500     26.6903    -53.0348     23.5479     47.4853
  2668.0000     26.7150    -53.5247     23.6671     45.9285
  2668.2500     26.5359    -53.7501     23.6281     44.9904
  2668.5000     26.2027    -53.6197     23.4474     44.4126
  2668.7500     25.7858    -53.0801     23.1983     44.8933
  2669.0000     25.3454    -52.1310     22.9574     47.5313
  2669.2500     24.9178    -50.8281     22.7554     50.6266
  2669.5000     24.5155    -49.2714     22.5704     56.0984
  2669.7500     24.1295    -47.5822     22.3570     59.1074
  2670.0000     23.7366    -45.8789     22.0787     61.1309
  2670.2500     23.3160    -44.2605     21.7210     60.6922
  2670.5000     22.8656    -42.8005     21.2894     58.2511
  2670.7500     22.4032    -41.5512     20.8062     56.3240
  2671.0000     21.9575    -40.5490     20.3103     54.5629
  2671.2500     21.5616    -39.8175     19.8477     54.6738
  2671.5000     21.2522    -39.3683     19.4557     56.5250
  2671.7500     21.0623    -39.2013     19.1487     58.3003
  2672.0000     21.0051    -39.3086     18.9169     60.8318
  2672.2500     21.0634    -39.6823     18.7388     62.0453
  2672.5000     21.1980    -40.3215     18.5980     62.5808
  2672.7500     21.3703    -41.2340     18.4962     61.8383
  2673.0000     21.5600    -42.4258     18.4503     59.1916
  2673.2500     21.7699    -43.8807     18.4755     56.8085
  2673.5000     22.0152    -45.5370     18.5659     53.1571
  2673.7500     22.3016    -47.2720     18.6899     51.1041
  2674.0000     22.6001    -48.9050     18.8030     49.3183
  2674.2500     22.8352    -50.2218     18.8650     49.4216
  2674.5000     22.9046    -51.0145     18.8447     52.0834
  2674.7500     22.7226    -51.1220     18.7134     55.7514
  2675.0000     22.2573    -50.4617     18.4434     64.6046
  2675.2500     21.5353    -49.0434     18.0201     73.2047
  2675.5000     20.6216    -46.9671     17.4595     90.8481
  2675.7500     19.5988    -44.4070     16.8125    105.6199
  2676.0000     18.5527    -41.5842     16.1483    130.1658
  2676.2500     17.5596    -38.7328     15.5290    145.8806
  2676.5000     16.6799    -36.0636     14.9929    164.6010
  2676.7500     15.9624    -33.7338     14.5528    172.5387
  2677.0000     15.4477    -31.8305     14.2044    177.0458
  2677.2500     15.1566    -30.3699     13.9368    175.1399
  2677.5000     15.0714    -29.3120     13.7388    165.6628
  2677.7500     15.1407    -28.5832     13.6025    156.5235
  2678.0000     15.3160    -28.1014     13.5249    143.1781
  2678.2500     15.5815    -27.7972     13.5090    136.9392
  2678.5000     15.9434    -27.6288     13.5635    132.9315
  2678.7500     16.4014    -27.5903     13.6994    132.9624
  2679.0000     16.9383    -27.7152     13.9250    134.2560
  2679.2500     17.5355    -28.0731     14.2409    134.4685
  2679.5000     18.1928    -28.7628     14.6392    132.7433
  2679.7500     18.9330    -29.9007     15.1058    130.6072
  2680.0000     19.7895    -31.6058     15.6231    127.2243
  2680.2500     20.7894    -33.9849     16.1731    125.1300
  2680.5000     21.9436    -37.1183     16.7390    121.1574
  2680.7500     23.2473    -41.0430     17.3082    116.7196
  2681.0000     24.6835    -45.7335     17.8772    105.5504
  2681.2500     26.2236    -51.0771     18.4543     94.9486
  2681.5000     27.8235    -56.8510     19.0584     76.2716
  2681.7500     29.4156    -62.7105     19.7073     63.9566
  2682.0000     30.8961    -68.2020     20.3977     48.8189
  2682.2500     32.1137    -72.8064     21.0821     41.9721
  2682.5000     32.8725    -76.0117     21.6567     37.0386
  2682.7500     32.9692    -77.4009     21.9742     37.2089
  2683.0000     32.2669    -76.7346     21.8860     42.1758
  2683.2500     30.7714    -74.0039     21.3026     48.0484
  2683.5000     28.6521    -69.4391     20.2420     59.2569
  2683.7500     26.1829    -63.4708     18.8303     67.6692
  2684.0000     23.6389    -56.6538     17.2499     81.6190
  2684.2500     21.2163    -49.5750     15.6709     92.0782
  2684.5000     19.0153    -42.7655     14.2110    108.9568
  2684.7500     17.0709    -36.6367     12.9321    119.6093
  2685.0000     15.3882    -31.4474     11.8547    131.7299
  2685.2500     13.9589    -27.3038     10.9739    136.5402
  2685.5000     12.7656    -24.1845     10.2694    140.3715
  2685.7500     11.7876    -21.9767      9.7142    142.0730
  2686.0000     11.0078    -20.5152      9.2822    144.0065
  2686.2500     10.4134    -19.6151      8.9528    144.1759
  2686.5000      9.9924    -19.0972      8.7122    141.9292
  2686.7500      9.7286    -18.8067      8.5506    139.3250
  2687.0000      9.5926    -18.6251      8.4584    135.3980
  2687.2500      9.5353    -18.4752      8.4236    133.1839
  2687.5000      9.4993    -18.3170      8.4311    130.3951
  2687.7500      9.4461    -18.1383      8.4649    129.0947
  2688.0000      9.3724    -17.9430      8.5093    128.8765
  2688.2500      9.2983    -17.7420      8.5511    130.0501
  2688.5000      9.2444    -17.5486      8.5806    132.7695
  2688.7500      9.2212    -17.3779      8.5930    134.2559
  2689.0000      9.2296    -17.2479      8.5888    134.8624
  2689.2500      9.2618    -17.1774      8.5742    134.2089
