~Version Information
VERS.                      2.0: CWLS Log ASCII Standard - VERSION 2.0
WRAP.                       NO: One line per depth step
~Well Information Block
STRT.FT                -7.0000: 
STOP.FT              1863.5000: 
STEP.FT                 0.2500: 
NULL.                -999.2500: 
COMP.          Pioneer Natural Resources: COMPANY
WELL.            Formula 23-11: WELL
FLD.           Purgatorie River: FIELD
LOC.           1976' FSL & 1935' FWL--: LOCATION
PROV.                       CO: PROVINCE
CNTY.               Las Animas: COUNTRY
SRVC.          Patterson Wireline: SERVICE COMPANY
DATE.          Wed Jun 15 14:44:40 2005: LOG DATE
UWI.           05 071 08399 00: UNIQUE WELL ID
~Curve Information Block
DEPT.FT            0 000 00 00: Depth
CCL.                          : Casing Collar Locator
TT3.usec                      : CBL 3' Travel Time
AMP3.mV                       : CBL 3' Amplitude
GR.GAPI                       : Gamma Ray
~Parameter Information Block
~A  Depth       CCL         TT3         AMP3         GR     
# ...
  1835.5000      0.0000    426.3760      5.3953     38.8266
  1835.7500      0.0000    442.8799      5.4344     38.9586
  1836.0000      0.0000    473.5513      5.3895     41.0841
  1836.2500      0.0000    517.9254      5.2913     44.6980
  1836.5000      0.0000    568.0156      5.1963     49.2903
  1836.7500      0.0000    612.1201      5.1241     54.1043
  1837.0000      0.0000    642.4157      5.0318     57.9037
  1837.2500      0.0000    658.6940      4.8671     59.5972
  1837.5000      0.0000    665.5302      4.6408     59.2762
  1837.7500      0.0000    667.4407      4.4414     58.3634
  1838.0000      0.0000    666.5584      4.3737     58.5226
  1838.2500      0.0000    663.3416      4.4587     60.4140
  1838.5000      0.0000    658.7836      4.5950     63.2651
  1838.7500      0.0000    656.0557      4.6422     65.2979
  1839.0000      0.0000    659.2519      4.5521     64.7823
  1839.2500      0.0000    669.2510      4.4046     61.2308
  1839.5000      0.0000    680.9133      4.3279     55.8013
  1839.7500      0.0000    685.3181      4.4032     50.4915
  1840.0000      0.0000    675.5270      4.6222     46.9354
  1840.2500      0.0000    650.7333      4.8948     45.7308
  1840.5000      0.0000    615.5041      5.0994     46.3961
  1840.7500      0.0000    575.9190      5.1578     47.6882
  1841.0000      0.0000    538.5568      5.0772     48.2170
  1841.2500      0.0000    513.6716      4.9227     47.1935
  1841.5000      0.0000    514.3500      4.7589     44.8639
  1841.7500      0.0000    546.6825      4.6244     42.5373
  1842.0000      0.0000    600.8351      4.5454     42.3514
  1842.2500      0.0000    655.0143      4.5402     46.5235
  1842.5000      0.0000    688.2977      4.6095     56.1004
  1842.7500      0.0000    689.4582      4.7377     70.2459
  1843.0000      0.0000    658.3049      4.8919     86.7058
  1843.2500      0.0000    605.2480      5.0213    102.6437
  1843.5000      0.0000    549.9038      5.0947    115.3414
  1843.7500      0.0000    513.2709      5.1398    123.2140
  1844.0000      0.0000    505.0893      5.1993    126.4707
  1844.2500      0.0000    518.7158      5.2471    126.2887
  1844.5000      0.0000    540.6004      5.1969    123.5138
  1844.7500      0.0000    563.6172      5.0010    118.6297
  1845.0000      0.0000    588.8845      4.7064    112.4370
  1845.2500      0.0000    617.1324      4.4142    106.0207
  1845.5000      0.0000    643.6531      4.2079    100.2720
  1845.7500      0.0000    662.6059      4.1149     95.7458
  1846.0000      0.0000    673.0282      4.1172     92.6927
  1846.2500      0.0000    679.3414      4.1924     91.1111
  1846.5000      0.0000    686.9305      4.3269     91.0472
  1846.7500      0.0000    697.5017      4.4912     92.7903
  1847.0000      0.0000    708.3729      4.6464     96.4116
  1847.2500      0.0000    715.8712      4.7854    101.1482
  1847.5000      0.0000    718.5009      4.9196    105.6454
  1847.7500      0.0000    716.8549      5.0181    108.9876
  1848.0000      0.0000    712.0908      5.0119    111.4177
  1848.2500      0.0000    705.6134      4.8759    114.0738
  1848.5000      0.0000    699.4392      4.6718    117.9392
  1848.7500      0.0000    695.3937      4.4960    122.5487
  1849.0000      0.0000    693.3226      4.4085    125.1215
  1849.2500      0.0000    690.4203      4.4093    121.1809
  1849.5000      0.0000    682.5958      4.4505    107.1570
  1849.7500      0.0000    666.8151      4.4614     83.5478
  1850.0000      0.0000    643.0691      4.3929     55.7700
  1850.2500      0.0000    615.1359      4.2688     31.1260
  1850.5000      0.0000    589.1259      4.1851     14.2592
  1850.7500      0.0000    570.0954      4.2306      5.2884
  1851.0000      0.0000    559.5613      4.4009      1.5713
  1851.2500      0.0000    556.1475      4.6029      0.3705
  1851.5000      0.0000    558.2833      4.7448      0.0683
  1851.7500      0.0000    565.9526      4.8123      0.0090
  1852.0000      0.0000    579.3748      4.8639      0.0000
  1852.2500      0.0000    595.8044      4.9625   -999.2500
  1852.5000      0.0000    609.3444      5.1183   -999.2500
  1852.7500      0.0000    616.4953      5.2945   -999.2500
  1853.0000      0.0000    621.1280      5.4548   -999.2500
  1853.2500      0.0000    630.8187      5.5885   -999.2500
  1853.5000      0.0000    648.2935      5.6995   -999.2500
  1853.7500      0.0000    668.8819      5.7926   -999.2500
  1854.0000      0.0000    685.1363      5.8652   -999.2500
  1854.2500      0.0000    690.1679      5.8894   -999.2500
  1854.5000      0.0000    675.5479      5.7921   -999.2500
  1854.7500      0.0000    629.3124      5.4643   -999.2500
  1855.0000      0.0000    541.4271      4.8248   -999.2500
  1855.2500      0.0000    415.6685      3.9113   -999.2500
  1855.5000      0.0000    275.6118      2.9081   -999.2500
  1855.7500      0.0000    153.5862      2.0498   -999.2500
  1856.0000      0.0000     70.4394      1.4755   -999.2500
  1856.2500      0.0000     26.1827      1.1747   -999.2500
  1856.5000      0.0000      7.7989      1.0515   -999.2500
  1856.7500      0.0000      1.8442      1.0121   -999.2500
  1857.0000      0.0000      0.3407      1.0022   -999.2500
  1857.2500      0.0000      0.0453      1.0003   -999.2500
  1857.5000      0.0000   -999.2500   -999.2500   -999.2500
  1857.7500      0.0000   -999.2500   -999.2500   -999.2500
  1858.0000      0.0000   -999.2500   -999.2500   -999.2500
  1858.2500      0.0000   -999.2500   -999.2500   -999.2500
  1858.5000      0.0000   -999.2500   -999.2500   -999.2500
  1858.7500      0.0000   -999.2500   -999.2500   -999.2500
  1859.0000      0.0000   -999.2500   -999.2500   -999.2500
  1859.2500      0.0000   -999.2500   -999.2500   -999.2500
  1859.5000      0.0000   -999.2500   -999.2500   -999.2500
  1859.7500      0.0000   -999.2500   -999.2500   -999.2500
  1860.0000      0.0000   -999.2500   -999.2500   -999.2500
  1860.2500      0.0000   -999.2500   -999.2500   -999.2500
  1860.5000      0.0000   -999.2500   -999.2500   -999.2500
  1860.7500      0.0000   -999.2500   -999.2500   -999.2500
  1861.0000      0.0000   -999.2500   -999.2500   -999.2500
  1861.2500      0.0000   -999.2500   -999.2500   -999.2500
  1861.5000      0.0000   -999.2500   -999.2500   -999.2500
  1861.7500      0.0000   -999.2500   -999.2500   -999.2500
  1862.0000      0.0000   -999.2500   -999.2500   -999.2500
  1862.2500      0.0000   -999.2500   -999.2500   -999.2500
  1862.5000      0.0000   -999.2500   -999.2500   -999.2500
  1862.7500      0.0000   -999.2500   -999.2500   -999.2500
  1863.0000   -999.2500   -999.2500   -999.2500   -999.2500
  1863.2500   -999.2500   -999.2500   -999.2500   -999.2500
  1863.5000   -999.2500   -999.2500   -999.2500   -999.2500
