~Version Information
VERS.                      2.0: CWLS Log ASCII Standard - VERSION 2.0
WRAP.                       NO: One line per depth step
~Well Information Block
STRT.FT               472.0000: 
STOP.FT              2430.5000: 
STEP.FT                 0.2500: 
NULL.                -999.2500: 
COMP.          Pioneer Natural Resources: COMPANY
WELL.          Flying Horse 12-11: WELL
FLD.           Purgatoire River: FIELD
LOC.           2428' FNL & 308' FWL: LOCATION
PROV.                 Colorado: PROVINCE
CNTY.               Las Animas: COUNTRY
SRVC.                Patterson: SERVICE COMPANY
DATE.          Sun May 29 11:58:35 2005: LOG DATE
UWI.           05 071 08378 00: UNIQUE WELL ID
~Curve Information Block
DEPT.FT            0 000 00 00: Depth
SN.Ohm-m                      : IEL Short Normal
SP.mV                         : IEL Spontaneous Potential
DIR.Ohm-m                     : IEL Induction Resistivity
GR.GAPI                       : Gamma Ray
~Parameter Information Block
~A  Depth        SN          SP         DIR          GR     
# ...
  1879.0000     12.1150    -46.1208     11.7050    124.6071
  1879.2500     11.9561    -46.8796     11.8130    132.5689
  1879.5000     11.8692    -47.6008     11.9915    143.4784
  1879.7500     11.8794    -48.2651     12.2164    149.1656
  1880.0000     11.9398    -48.8566     12.4513    154.3003
  1880.2500     12.0025    -49.3610     12.6518    154.6757
  1880.5000     12.0963    -49.7646     12.7802    149.5986
  1880.7500     12.2925    -50.0569     12.8224    142.7056
  1881.0000     12.6599    -50.2367     12.7945    129.3078
  1881.2500     13.2451    -50.3123     12.7338    119.9716
  1881.5000     14.0253    -50.2969     12.6824    107.2531
  1881.7500     14.8853    -50.2021     12.6765    100.0614
  1882.0000     15.7099    -50.0371     12.7443     91.7036
  1882.2500     16.4578    -49.8110     12.9048     88.2844
  1882.5000     17.0828    -49.5358     13.1646     87.3576
  1882.7500     17.4815    -49.2270     13.5095     89.6742
  1883.0000     17.5924    -48.9040     13.8987     96.6545
  1883.2500     17.4877    -48.5884     14.2641    102.6388
  1883.5000     17.2960    -48.2945     14.5234    111.6426
  1883.7500     17.0481    -48.0177     14.6019    116.5595
  1884.0000     16.6521    -47.7356     14.4559    120.7439
  1884.2500     16.0122    -47.4247     14.0851    121.0478
  1884.5000     15.1495    -47.0737     13.5292    118.9388
  1884.7500     14.2001    -46.6824     12.8558    117.4693
  1885.0000     13.2984    -46.2561     12.1443    118.0545
  1885.2500     12.4767    -45.8076     11.4678    120.9985
  1885.5000     11.7053    -45.3644     10.8776    128.2728
  1885.7500     10.9868    -44.9662     10.3960    133.8661
  1886.0000     10.3481    -44.6466     10.0176    141.8698
  1886.2500      9.7800    -44.4149      9.7196    146.5960
  1886.5000      9.2418    -44.2517      9.4721    152.4759
  1886.7500      8.7243    -44.1219      9.2491    155.3714
  1887.0000      8.2787    -43.9930      9.0347    158.0146
  1887.2500      7.9651    -43.8452      8.8244    158.7817
  1887.5000      7.8051    -43.6700      8.6216    158.6464
  1887.7500      7.7760    -43.4647      8.4326    157.6670
  1888.0000      7.8086    -43.2261      8.2623    154.9858
  1888.2500      7.8168    -42.9479      8.1128    152.7930
  1888.5000      7.7824    -42.6239      7.9849    149.8841
  1888.7500      7.7848    -42.2579      7.8791    148.6196
  1889.0000      7.8679    -41.8754      7.7978    147.8376
  1889.2500      7.9419    -41.5200      7.7446    147.8841
  1889.5000      7.9032    -41.2310      7.7232    148.6968
  1889.7500      7.7545    -41.0230      7.7344    149.8989
  1890.0000      7.5680    -40.8851      7.7741    152.9219
  1890.2500      7.4107    -40.7963      7.8340    155.6857
  1890.5000      7.3120    -40.7400      7.9048    160.7019
  1890.7500      7.2697    -40.7083      7.9807    164.3686
  1891.0000      7.2690    -40.6986      8.0619    169.0562
  1891.2500      7.2995    -40.7072      8.1533    170.3394
  1891.5000      7.3668    -40.7236      8.2588    167.7950
  1891.7500      7.4730    -40.7319      8.3766    163.3110
  1892.0000      7.6035    -40.7209      8.4996    154.5892
  1892.2500      7.7568    -40.6936      8.6189    148.8767
  1892.5000      7.9529    -40.6672      8.7283    141.8771
  1892.7500      8.1990    -40.6615      8.8267    138.3787
  1893.0000      8.4736    -40.6850      8.9170    134.2870
  1893.2500      8.7439    -40.7289      9.0048    131.8899
  1893.5000      8.9852    -40.7766      9.0955    128.7692
  1893.7500      9.1882    -40.8155      9.1939    127.5731
  1894.0000      9.3546    -40.8391      9.3022    128.2222
  1894.2500      9.4896    -40.8430      9.4196    130.3505
  1894.5000      9.6014    -40.8218      9.5398    134.8825
  1894.7500      9.6887    -40.7696      9.6494    137.8266
  1895.0000      9.7028    -40.6789      9.7286    141.1249
  1895.2500      9.5526    -40.5434      9.7573    142.5058
  1895.5000      9.2172    -40.3632      9.7232    143.4708
  1895.7500      8.8062    -40.1483      9.6268    143.3046
  1896.0000      8.4464    -39.9121      9.4801    141.6599
  1896.2500      8.1867    -39.6606      9.3005    139.7720
  1896.5000      8.0174    -39.3897      9.1060    136.4128
  1896.7500      7.9138    -39.0940      8.9135    134.1526
  1897.0000      7.8634    -38.7799      8.7384    130.9797
  1897.2500      7.8549    -38.4658      8.5920    129.2129
  1897.5000      7.8640    -38.1714      8.4794    127.7476
  1897.7500      7.8687    -37.9067      8.3996    127.7741
  1898.0000      7.8482    -37.6719      8.3486    128.8254
  1898.2500      7.7801    -37.4610      8.3233    129.7039
  1898.5000      7.6704    -37.2680      8.3242    130.9869
  1898.7500      7.5483    -37.0925      8.3528    131.9955
  1899.0000      7.4017    -36.9472      8.4077    133.9348
  1899.2500      7.1665    -36.8595      8.4818    135.2650
  1899.5000      6.8314    -36.8664      8.5624    136.3067
  1899.7500      6.5073    -37.0020      8.6360    135.6891
  1900.0000      6.3583    -37.2822      8.6924    132.3268
  1900.2500      6.4991    -37.6977      8.7281    128.9431
  1900.5000      6.9527    -38.2203      8.7457    123.9097
  1900.7500      7.6398    -38.8163      8.7515    121.4916
  1901.0000      8.3878    -39.4559      8.7533    119.7530
  1901.2500      9.0006    -40.1109      8.7582    119.6208
  1901.5000      9.3524    -40.7490      8.7698    120.5605
  1901.7500      9.4281    -41.3345      8.7873    122.0967
  1902.0000      9.2888    -41.8348      8.8048    126.5913
  1902.2500      9.0080    -42.2264      8.8127    131.3874
  1902.5000      8.6532    -42.5000      8.8006    140.7338
  1902.7500      8.2953    -42.6627      8.7596    147.3432
  1903.0000      7.9936    -42.7364      8.6854    155.5185
  1903.2500      7.7728    -42.7469      8.5800    158.8229
  1903.5000      7.6221    -42.7093      8.4525    160.3016
  1903.7500      7.5166    -42.6245      8.3175    159.5624
  1904.0000      7.4357    -42.4893      8.1931    157.1924
  1904.2500      7.3710    -42.3124      8.0969    155.3325
  1904.5000      7.3230    -42.1193      8.0417    152.7357
  1904.7500      7.2868    -41.9420      8.0333    151.4494
  1905.0000      7.2593    -41.8023      8.0707    150.6712
  1905.2500      7.2572    -41.7069      8.1491    150.9675
  1905.5000      7.3055    -41.6564      8.2627    151.8813
  1905.7500      7.4045    -41.6506      8.4036    151.8946
  1906.0000      7.5251    -41.6793      8.5575    149.3861
  1906.2500      7.6519    -41.7093      8.7005    145.4862
  1906.5000      7.8448    -41.6925      8.8026    136.2345
  1906.7500      8.2339    -41.5906      8.8399    128.0984
  1907.0000      8.8787    -41.3943      8.8049    113.9439
  1907.2500      9.6512    -41.1179      8.7088    104.2059
  1907.5000     10.3387    -40.7826      8.5728     91.5172
  1907.7500     10.8017    -40.4040      8.4177     85.7864
  1908.0000     10.9860    -39.9902      8.2593     83.1197
  1908.2500     10.8704    -39.5473      8.1077     85.7494
  1908.5000     10.4628    -39.0884      7.9681     95.7061
  1908.7500      9.8255    -38.6383      7.8416    105.0053
  1909.0000      9.0686    -38.2299      7.7256    119.2005
  1909.2500      8.2988    -37.8947      7.6155    126.6272
  1909.5000      7.5799    -37.6547      7.5066    132.7604
  1909.7500      6.9519    -37.5173      7.3960    133.7049
  1910.0000      6.4514    -37.4764      7.2843    131.9442
  1910.2500      6.0883    -37.5168      7.1747    129.5706
  1910.5000      5.8392    -37.6208      7.0735    125.4997
  1910.7500      5.6942    -37.7745      6.9882    123.1621
  1911.0000      5.6830    -37.9712      6.9259    121.2223
  1911.2500      5.8009    -38.2066      6.8914    121.1218
  1911.5000      5.9644    -38.4691      6.8861    122.1970
  1911.7500      6.1002    -38.7383      6.9100    123.2968
  1912.0000      6.2109    -38.9956      6.9624    125.2030
  1912.2500      6.3349    -39.2369      7.0440    126.6230
