~Version Information
VERS.                      2.0: CWLS Log ASCII Standard - VERSION 2.0
WRAP.                       NO: One line per depth step
~Well Information Block
STRT.FT               433.5000: 
STOP.FT              1880.2500: 
STEP.FT                 0.2500: 
NULL.                -999.2500: 
COMP.          Pioneer Natural Resources: COMPANY
WELL.           Buckhorn 12-21: WELL
FLD.           Purgatorie River: FIELD
LOC.           2450' FNL & 608' FWL--: LOCATION
PROV.                       CO: PROVINCE
CNTY.               Las Animas: COUNTRY
SRVC.                         : SERVICE COMPANY
DATE.          Fri Dec 03 14:13:08 2004: LOG DATE
UWI.          005 071 08129 : UNIQUE WELL ID
~Curve Information Block
DEPT.FT            0 000 00 00: Depth
NPOR.pu                       : Neutron Porosity
CCL.                          : Casing Collar Locator
TT3.usec                      : CBL 3' Travel Time
AMP3.mV                       : CBL 3' Amplitude
GR.GAPI                       : Gamma Ray
~Parameter Information Block
~A  Depth       NPOR        CCL         TT3         AMP3         GR     
# ...
   909.5000     24.2451      0.0000    715.5848      7.6112    110.4394
   909.7500     24.4589      0.0000    716.1630      7.7476    107.8479
   910.0000     24.7135      0.0000    716.0746      7.9261    108.1208
   910.2500     24.7511      0.0000    715.3489      8.1291    111.6046
   910.5000     24.3332      0.0000    714.3432      8.3329    116.5854
   910.7500     23.4351      0.0000    713.6795      8.5173    120.5456
   911.0000     22.2977      0.0000    713.5586      8.6621    122.0283
   911.2500     21.2774      0.0000    713.3265      8.7452    121.0976
   911.5000     20.6375      0.0000    712.3056      8.7577    118.7324
   911.7500     20.4698      0.0000    710.8383      8.7258    116.5107
   912.0000     20.7603      0.0000    709.7358      8.7037    116.2503
   912.2500     21.4290      0.0000    708.0663      8.7375    118.9194
   912.5000     22.2720      0.0000    700.7394      8.8390    123.7314
   912.7500     22.9809      0.0000    678.4609      8.9976    128.4584
   913.0000     23.3271      0.0000    633.1580      9.1952    130.5875
   913.2500     23.2936      0.0000    567.6196      9.4008    128.4639
   913.5000     22.9797      0.0000    500.5422      9.5659    122.0936
   913.7500     22.4666      0.0000    458.6474      9.6465    113.2941
   914.0000     21.8593      0.0000    460.0107      9.6317    104.9031
   914.2500     21.3792      0.0000    502.4448      9.5456     99.4626
   914.5000     21.2888      0.0000    565.9678      9.4260     98.2999
   914.7500     21.7110      0.0000    626.3860      9.2996    101.4008
   915.0000     22.5498      0.0000    668.9913      9.1681    107.6485
   915.2500     23.5322      0.0000    692.7119      9.0147    114.9911
   915.5000     24.3053      0.0000    704.5945      8.8294    120.9194
   915.7500     24.5818      0.0000    712.1158      8.6281    123.6543
   916.0000     24.2691      0.0000    718.7703      8.4499    123.2833
   916.2500     23.4417      0.0000    722.9792      8.3504    121.6228
   916.5000     22.2014      0.0000    718.3641      8.4011    120.6681
   916.7500     20.6163      0.0000    695.3111      8.6710    120.9246
   917.0000     18.7822      0.0000    645.7299      9.1792    121.1086
   917.2500     16.8973      0.0000    570.7557      9.8710    119.4885
   917.5000     15.2717      0.0000    484.7482     10.6672    115.6196
   917.7500     14.2235      0.0000    408.3994     11.5428    110.8986
   918.0000     13.9154      0.0000    355.5814     12.5423    107.4794
   918.2500     14.2770      0.0000    326.9425     13.7195    106.6448
   918.5000     15.0909      0.0000    314.6176     15.0810    108.0174
   918.7500     16.1257      0.0000    310.1904     16.5909    109.8214
   919.0000     17.1831      0.0000    308.4413     18.2097    109.6648
   919.2500     18.0802      0.0000    306.8411     19.9236    105.7442
   919.5000     18.6432      0.0000    304.0100     21.7343     98.1207
   919.7500     18.7541      0.0000    299.0886     23.6220     88.7838
   920.0000     18.4229      0.0000    292.0659     25.5235     80.1305
   920.2500     17.8010      0.0000    284.1288     27.3549     73.4307
   920.5000     17.0937      0.0000    277.0695     29.0545     68.7521
   920.7500     16.4678      0.0000    272.1200     30.5987     65.9036
   921.0000     16.0426      0.0000    269.3574     31.9771     65.0246
   921.2500     15.9090      0.0000    268.0986     33.1594     66.3038
   921.5000     16.1023      0.0000    267.6077     34.0772     69.4717
   921.7500     16.5471      0.0000    267.4456     34.6377     73.6610
   922.0000     17.0575      0.0000    267.4342     34.7744     77.4909
   922.2500     17.4358      0.0000    267.5091     34.5051     79.3038
   922.5000     17.6082      0.0000    267.6350     33.9425     77.8465
   922.7500     17.6729      0.0000    267.8288     33.2234     73.2281
   923.0000     17.8084      0.0000    268.2804     32.4015     67.2082
   923.2500     18.1276      0.0000    269.4999     31.4113     62.2472
   923.5000     18.5915      0.0000    272.3126     30.1423     59.9426
   923.7500     19.0232      0.0000    277.4546     28.5475     60.0465
   924.0000     19.2079      0.0000    284.8292     26.7018     60.8343
   924.2500     19.0164      0.0000    293.1163     24.7836     60.6055
   924.5000     18.4686      0.0000    300.4457     22.9815     59.1379
   924.7500     17.6950      0.0000    305.7131     21.3782     57.7995
   925.0000     16.8700      0.0000    309.5639     19.9196     58.2853
   925.2500     16.2037      0.0000    314.9301     18.5036     61.2237
   925.5000     15.9391      0.0000    327.8228     17.0895     65.7868
   925.7500     16.2671      0.0000    357.4308     15.7260     70.3757
   926.0000     17.2313      0.0000    412.3456     14.4985     73.9539
   926.2500     18.7399      0.0000    492.5134     13.4649     77.2368
   926.5000     20.6337      0.0000    584.2565     12.6305     82.4990
   926.7500     22.7111      0.0000    666.4904     11.9613     91.6763
   927.0000     24.7306      0.0000    723.9011     11.4080    104.4128
   927.2500     26.4449      0.0000    754.0070     10.9231    118.0649
   927.5000     27.6588      0.0000    763.6689     10.4656    129.6053
   927.7500     28.2906      0.0000    762.2365      9.9955    137.4947
   928.0000     28.3938      0.0000    757.4487      9.4829    141.8640
   928.2500     28.0995      0.0000    753.9656      8.9431    143.3959
   928.5000     27.5583      0.0000    753.1293      8.4561    142.8408
   928.7500     26.9591      0.0000    753.7692      8.1131    141.6728
   929.0000     26.5519      0.0000    753.9122      7.9224    141.9796
   929.2500     26.5710      0.0000    752.4951      7.7875    144.7897
   929.5000     27.0908      0.0000    749.9512      7.5934    149.0322
   929.7500     27.9420      0.0000    747.3773      7.3028    152.7798
   930.0000     28.7866      0.0000    745.4713      6.9666    154.9880
   930.2500     29.3199      0.0000    744.3259      6.6633    155.5234
   930.5000     29.4204      0.0000    743.7949      6.4428    154.3511
   930.7500     29.1182      0.0000    743.7207      6.3105    151.8103
   931.0000     28.4730      0.0000    743.9037      6.2474    149.3979
   931.2500     27.5501      0.0000    744.0748      6.2417    148.9596
   931.5000     26.4982      0.0000    743.9945      6.2939    150.4034
   931.7500     25.5546      0.0000    743.7186      6.3895    150.8897
   932.0000     24.9094      0.0000    743.8521      6.4824    147.3194
   932.2500     24.5924      0.0000    745.2760      6.5218    139.6624
   932.5000     24.5050      0.0000    748.1631      6.4878    131.2365
   932.7500     24.4985      0.0000    751.4822      6.4030    125.6342
   933.0000     24.3916      0.0000    754.3156      6.3170    123.8433
   933.2500     24.0203      0.0000    757.6152      6.2765    124.2983
   933.5000     23.3854      0.0000    763.4383      6.2957    124.9702
   933.7500     22.7362      0.0000    772.0569      6.3535    124.9925
   934.0000     22.4415      0.0000    780.7316      6.4138    124.6809
   934.2500     22.7403      0.0000    785.7207      6.4467    124.5518
   934.5000     23.5754      0.0000    784.8821      6.4439    124.4796
   934.7500     24.6263      0.0000    778.3923      6.4230    123.7159
   935.0000     25.5097      0.0000    768.1152      6.4093    121.6193
   935.2500     25.9976      0.0000    757.2068      6.4125    118.5111
   935.5000     26.0982      0.0000    749.8756      6.4306    115.8689
   935.7500     25.9734      0.0000    749.7903      6.4644    115.4438
   936.0000     25.7901      0.0000    757.2142      6.5097    118.0217
   936.2500     25.6300      0.0000    767.8368      6.5459    123.0870
   936.5000     25.5066      0.0000    775.3210      6.5575    129.4702
   936.7500     25.4111      0.0000    775.5823      6.5588    135.8300
   937.0000     25.3186      0.0000    769.1759      6.5784    140.6747
   937.2500     25.2046      0.0000    760.3179      6.6266    142.8927
