~Version Information
 VERS.                                  2.0 : CWLS LAS VERSION
 WRAP.                                   NO : WRAPING MODE
 SWARE .                 MController 2.5.0E : SOFTWARE VERSION
~Well Information
 WELL.                         STATE 16-32R : WELL
 COMP.                      Petrogulf Corp. : COMPANY
 FLD.                      Purgatorie River : FIELD
 LOC.                SW/NE Sec 16 T33S R67W : LOCATION
 DATE.                      5/12/04-5/13/04 : DATE(S) LOGGED
 SRVC.       Blanco Geological Services LLC : SERVICE COMPANY
 STAT.                                   CO : STATE
 CNTY.                           Las Animas : COUNTY
 CTRY.                                  USA : COUNTRY
 API.                       05-071-08033-00 : API NUMBER
 STRT.FT                             167.00 : START DEPTH
 STOP.FT                            1918.00 : STOP DEPTH
 STEP.FT                               1.00 : DEPTH INCREMENT
 NULL.                                -9999 : NULL VALUE
~Curve information
 DEPTH.FT                                   :
 ROP.MIN/FT                                 :
 GAS.UNITS                                  :
~ASCII Log data
# ...
      767.00        0.200         77.5 
      768.00        0.233         53.7 
      769.00        0.267         43.9 
      770.00        0.267         42.7 
      771.00        3.050         50.6 
      772.00        0.100         50.5 
      773.00        0.533         51.4 
      774.00        0.267         51.0 
      775.00        0.300         53.6 
      776.00        0.283         59.7 
      777.00        0.300         58.7 
      778.00        0.267         54.8 
      779.00        0.267         51.8 
      780.00        0.367         49.7 
      781.00        0.267         44.3 
      782.00        0.233         33.1 
      783.00        0.167         32.3 
      784.00        0.133         32.3 
      785.00        0.200         36.6 
      786.00        0.267         41.0 
      787.00        0.233         44.6 
      788.00        0.167         47.8 
      789.00        0.167         50.0 
      790.00        0.233         52.0 
      791.00        0.450         59.3 
      792.00        0.367        213.8 
      793.00        0.167        238.6 
      794.00        0.167        238.6 
      795.00        0.133        149.4 
      796.00        0.167        149.4 
      797.00        0.133         92.3 
      798.00        0.167         83.6 
      799.00        0.200         83.6 
      800.00        0.267         94.3 
      801.00        0.300        116.6 
      802.00        4.083        125.4 
      803.00        1.917         56.8 
      804.00        0.233         52.8 
      805.00        0.300         52.8 
      806.00        0.233         52.9 
      807.00        0.233         52.1 
      808.00        0.200         50.9 
      809.00        0.167         50.5 
      810.00        0.167         50.5 
      811.00        0.350         52.5 
      812.00        0.367         52.6 
      813.00        0.333         51.3 
      814.00        0.367         51.7 
      815.00        0.333         52.1 
      816.00        0.333         50.9 
      817.00        0.467         50.3 
      818.00        0.400         50.7 
      819.00        0.400         35.6 
      820.00        0.317         38.3 
      821.00        0.400         43.9 
      822.00        0.400         50.9 
      823.00        0.567         65.8 
      824.00        0.400        242.0 
      825.00        0.333        239.3 
      826.00        0.300        144.0 
      827.00        0.267         95.1 
      828.00        0.333         98.0 
      829.00        0.283         81.3 
      830.00        0.200         76.6 
      831.00        0.333         57.8 
      832.00        3.417         57.1 
      833.00        0.300         47.4 
      834.00        0.367         47.2 
      835.00        0.367         46.9 
      836.00        0.300         46.4 
      837.00        0.333         46.5 
      838.00        0.533         46.4 
      839.00        0.350         47.0 
      840.00        0.200         46.4 
      841.00        0.400         46.7 
      842.00        0.267         46.3 
      843.00        0.333         45.7 
      844.00        0.333         45.5 
      845.00        0.400         46.4 
      846.00        0.367         46.4 
      847.00        0.367         54.0 
      848.00        0.367         52.7 
      849.00        0.350         36.9 
      850.00        0.433         37.6 
      851.00        0.367         40.3 
      852.00        0.367         45.0 
      853.00        0.333         50.4 
      854.00        0.367         98.6 
      855.00        0.400        214.2 
      856.00        0.400        224.1 
      857.00        0.367        108.5 
      858.00        0.483        106.0 
      859.00        0.200         92.5 
      860.00        0.167         74.3 
      861.00        0.133         69.6 
      862.00        3.683         59.8 
      863.00        0.100         48.3 
      864.00        0.500         48.6 
      865.00        0.300         48.1 
      866.00        0.267         48.5 
      867.00        0.267         48.3 
      868.00        0.167         50.4 
      869.00        0.267         50.5 
      870.00        0.367         44.6 
      871.00        0.383         32.9 
      872.00        0.367         43.3 
      873.00        0.333         52.1 
      874.00        0.367         70.6 
      875.00        0.400         55.3 
      876.00        0.400         22.7 
      877.00        0.433         23.8 
      878.00        0.433         23.6 
      879.00        0.483         43.6 
      880.00        0.367         51.2 
      881.00        0.167         53.5 
      882.00        0.333         53.1 
      883.00      764.583       6442.6 
      884.00        0.200         -0.9 
      885.00        0.233         -1.3 
      886.00        0.267          1.1 
      887.00        0.267         -1.0 
      888.00        3.317         11.3 
      889.00        0.100          9.5 
      890.00        0.267         10.2 
      891.00        0.200          9.9 
      892.00        0.167         10.3 
      893.00        0.300          9.7 
      894.00        0.333         10.2 
      895.00        0.400         10.3 
      896.00        0.267          9.9 
      897.00        0.317         10.3 
      898.00        0.233         10.8 
      899.00        0.233         10.7 
      900.00        0.233         10.9 
      901.00        0.267         10.7 
      902.00        0.133         10.7 
      903.00        0.200         11.0 
      904.00        0.133         11.0 
      905.00        0.200         10.3 
      906.00        0.233          9.5 
      907.00        0.233         10.2 
      908.00        0.233         10.2 
      909.00        0.200         10.2 
      910.00        0.233         10.2 
      911.00        0.233          9.0 
      912.00        0.283          9.2 
      913.00        0.233          7.8 
      914.00        0.267          8.0 
      915.00        0.267          7.9 
      916.00        0.267          8.1 
      917.00        0.267          8.6 
      918.00        0.200          8.7 
      919.00        0.233          8.9 
      920.00        0.233          8.3 
      921.00        0.433         10.0 
      922.00        0.267         11.8 
      923.00        0.200         12.9 
      924.00        0.233         13.4 
      925.00        0.283         12.3 
      926.00        2.633         12.8 
      927.00        0.333         11.0 
      928.00        0.350          9.4 
      929.00        0.267          9.3 
      930.00        0.267          9.9 
      931.00        0.200          9.5 
      932.00        0.133          9.7 
      933.00        0.233          9.7 
      934.00        0.267          9.0 
      935.00        0.267         10.1 
      936.00        0.200          9.6 
      937.00        0.200          9.2 
      938.00        0.200          9.3 
      939.00        0.200          9.2 
      940.00        0.233          8.2 
      941.00        0.200          8.3 
      942.00        0.200          9.1 
      943.00        0.133          9.0 
      944.00        0.183          9.1 
      945.00        0.133          9.1 
      946.00        0.167          9.4 
      947.00        0.133          8.3 
      948.00        0.167          8.0 
      949.00        0.200          7.6 
      950.00        0.200         48.8 
      951.00        0.200         47.7 
      952.00        0.200         19.7 
      953.00        0.267         17.4 
      954.00        0.233          8.4 
      955.00        0.200          9.7 
      956.00        2.917         58.9 
      957.00        0.367         10.5 
      958.00        0.333         10.5 
      959.00        0.233         10.8 
      960.00        0.300         10.7 
      961.00        0.300         10.7 
      962.00        0.283         11.2 
      963.00        0.233         11.2 
      964.00        0.233         18.7 
      965.00        0.200         33.9 
      966.00        0.233         45.7 
