~Version Information
 VERS.                                  2.0 : CWLS LAS VERSION
 WRAP.                                   NO : WRAPING MODE
 SWARE .                 MController 2.5.0E : SOFTWARE VERSION
~Well Information
 WELL.                          Chase 21-10 : WELL
 COMP.             Evergreen Operating Corp : COMPANY
 FLD.                      Purgatorie River : FIELD
 LOC.                NE/NW Sec 10 t32S R65W : LOCATION
 DATE.                              5/23/04 : DATE(S) LOGGED
 SRVC.       Blanco Geological Services LLC : SERVICE COMPANY
 STAT.                                   CO : STATE
 CNTY.                           Las Animas : COUNTY
 CTRY.                                  USA : COUNTRY
 API.                        05 071 08006 00: API NUMBER
 UWI.                        05 071 08006 00: UNIQUE WELL ID
 STRT.FT                             481.00 : START DEPTH
 STOP.FT                            1525.00 : STOP DEPTH
 STEP.FT                               1.00 : DEPTH INCREMENT
 NULL.                                -9999 : NULL VALUE
~Curve information
 DEPTH.FT                                   :
 ROP.MIN/FT                                 :
 GAS.UNITS                                  :
~ASCII Log data
# ...
      881.00        0.167         10.3 
      882.00        0.133         10.3 
      883.00        0.133         10.4 
      884.00        0.133         10.2 
      885.00        0.167          9.9 
      886.00        0.167         10.5 
      887.00        0.133          9.8 
      888.00        0.133         10.0 
      889.00        0.133         10.0 
      890.00        0.133          9.9 
      891.00        0.133          9.7 
      892.00        0.150          9.7 
      893.00        0.167          9.8 
      894.00        0.167          9.9 
      895.00        0.200          9.8 
      896.00        1.233         11.4 
      897.00        0.600         16.9 
      898.00        0.333         14.1 
      899.00        0.267         11.3 
      900.00        0.167         10.2 
      901.00        0.217         10.1 
      902.00        0.167          9.7 
      903.00        0.233          9.8 
      904.00        0.167          9.9 
      905.00        0.167         10.1 
      906.00        0.167         10.7 
      907.00        0.200         10.6 
      908.00        0.133         10.8 
      909.00        0.133         10.8 
      910.00        0.167         10.3 
      911.00        0.167         10.4 
      912.00        0.167         10.4 
      913.00        0.133         10.2 
      914.00        0.167         10.4 
      915.00        0.167         10.4 
      916.00        0.100         10.1 
      917.00        0.133         10.2 
      918.00        0.100         10.2 
      919.00        0.133         10.3 
      920.00        0.133         10.4 
      921.00        0.167         10.4 
      922.00        0.183         10.4 
      923.00        0.167         10.1 
      924.00        0.133          9.8 
      925.00        0.133          9.9 
      926.00        1.267         14.4 
      927.00        0.400         20.3 
      928.00        0.300         17.5 
      929.00        0.233         14.4 
      930.00        0.233         11.2 
      931.00        0.233         10.5 
      932.00        0.167          9.6 
      933.00        0.150          9.6 
      934.00        0.133          9.9 
      935.00        0.200          9.8 
      936.00        0.200          9.9 
      937.00        0.200         10.2 
      938.00        0.167         10.3 
      939.00        0.200         10.5 
      940.00        0.200         11.4 
      941.00        0.200         10.7 
      942.00        0.167         10.7 
      943.00        0.233         11.0 
      944.00        0.167         10.5 
      945.00        0.167         10.5 
      946.00        0.167         10.6 
      947.00        0.200         10.4 
      948.00        0.167         10.4 
      949.00        0.167         10.2 
      950.00        0.267         25.7 
      951.00        0.217         29.8 
      952.00        0.267         41.6 
      953.00        0.200         46.9 
      954.00        0.200         48.3 
      955.00        0.167         45.7 
      956.00        1.733        246.8 
      957.00        0.300        241.8 
      958.00        0.233        145.9 
      959.00        0.217        126.0 
      960.00        0.200         90.6 
      961.00        0.233         75.3 
      962.00        0.267         68.0 
      963.00        0.267         58.0 
      964.00        0.200         54.0 
      965.00        0.100         49.5 
      966.00        0.133         48.5 
      967.00        0.133         48.1 
      968.00        0.200         47.2 
      969.00        0.167         46.9 
      970.00        0.167         46.4 
      971.00        0.200         45.2 
      972.00        0.167         44.8 
      973.00        0.133         45.3 
      974.00        0.167         44.7 
      975.00        0.167         44.4 
      976.00        0.200         43.7 
      977.00        0.150         42.6 
      978.00        0.100         42.6 
      979.00        0.133         40.7 
      980.00        0.100         40.7 
      981.00        0.100         40.7 
      982.00        0.100         51.2 
      983.00        0.133         51.2 
      984.00        0.133         77.8 
      985.00        0.267        101.8 
      986.00        2.417       1552.0 
      987.00        0.233        656.5 
      988.00        0.200        581.7 
      989.00        0.200        551.4 
      990.00        0.200        522.7 
      991.00        0.133        519.7 
      992.00        0.133        501.5 
      993.00        0.200        488.4 
      994.00        0.233        481.3 
      995.00        0.267        471.2 
      996.00        0.200        467.8 
      997.00        0.200        466.1 
      998.00        0.167        464.4 
      999.00        0.133        463.8 
     1000.00        0.167        457.7 
     1001.00        0.100        457.7 
     1002.00        0.133        451.6 
     1003.00        0.100        452.3 
     1004.00        0.167        451.0 
     1005.00        0.117        447.2 
     1006.00        0.100        448.3 
     1007.00        0.167        454.3 
     1008.00        0.200        459.4 
     1009.00        0.133        461.1 
     1010.00        0.133        456.7 
     1011.00        0.100        456.7 
     1012.00        0.100        455.3 
     1013.00        0.167        455.3 
     1014.00        0.167        458.4 
     1015.00        0.133        440.0 
     1016.00        1.200        440.0 
     1017.00        0.533        290.7 
     1018.00        0.217        276.5 
     1019.00        0.200        256.8 
     1020.00        0.133        240.8 
     1021.00        0.133        219.2 
     1022.00        0.200        215.8 
     1023.00        0.133        210.4 
     1024.00        0.167        204.8 
     1025.00        0.133        198.8 
     1026.00        0.167        193.8 
     1027.00        0.133        185.3 
     1028.00        0.133        173.5 
     1029.00        0.167        172.3 
     1030.00        0.167        163.4 
     1031.00        0.133        159.6 
     1032.00        0.167        155.6 
     1033.00        0.100        155.6 
     1034.00        0.133        154.8 
     1035.00        0.167        148.8 
     1036.00        0.133        146.7 
     1037.00        0.167        146.7 
     1038.00        0.167        145.5 
     1039.00        0.200        142.3 
     1040.00        0.183        141.1 
     1041.00        0.167        141.1 
     1042.00        0.200        141.9 
     1043.00        0.133        135.9 
     1044.00        0.100         72.5 
     1045.00        0.233         53.8 
     1046.00        1.400        128.4 
     1047.00        0.233        286.3 
     1048.00        0.267        311.6 
     1049.00        0.233        277.4 
     1050.00        0.250        261.0 
     1051.00        0.200        212.6 
     1052.00        0.200        201.3 
     1053.00        0.200        178.3 
     1054.00        0.167        162.7 
     1055.00        0.167        159.7 
     1056.00        0.167        150.2 
     1057.00        0.167        146.5 
     1058.00        0.167        143.7 
     1059.00        0.167        143.2 
     1060.00        0.133        137.6 
     1061.00        0.167        135.2 
     1062.00        0.200        133.6 
     1063.00        0.167        132.3 
     1064.00        0.167        131.1 
     1065.00        0.167        130.3 
     1066.00        0.167        129.5 
     1067.00        0.167        128.5 
     1068.00        0.133        126.8 
     1069.00        0.167        124.5 
     1070.00        0.150        124.5 
     1071.00        0.133        123.6 
     1072.00        0.133        122.6 
     1073.00        0.133        122.6 
     1074.00        0.167        119.3 
     1075.00        0.133        119.3 
     1076.00        1.633        398.8 
     1077.00        0.233        398.2 
     1078.00        0.233        353.8 
     1079.00        0.200        310.9 
     1080.00        0.200        277.7 
