~Version Information
VERS.                      2.0: CWLS Log ASCII Standard - VERSION 2.0
WRAP.                       NO: One line per depth step
~Well Information Block
STRT.FT               340.0000: 
STOP.FT              1542.5000: 
STEP.FT                 0.2500: 
NULL.                -999.2500: 
COMP.          Petrogulf Corporation: COMPANY
WELL.            Montoya 7-21R: WELL
FLD.           Purgatorie River: FIELD
LOC.           445' FNL & 1942' FWL: LOCATION
PROV.                 Colorado: PROVINCE
CNTY.               Las Animas: COUNTRY
SRVC.                Patterson: SERVICE COMPANY
DATE.          Thu Sep 15 10:37:42 2005: LOG DATE
UWI.                          : UNIQUE WELL ID
~Curve Information Block
DEPT.FT            0 000 00 00: Depth
SP.mV                         : DIL Spontaneous Potential
RILD.Ohm-m                    : DIL Deep Resistivity
RILM.Ohm-m                    : DIL Medium Resistivity
RLL3.Ohm-m                    : DIL Shallow Resistivity
GR.GAPI                       : Gamma Ray
~Parameter Information Block
~A  Depth        SP         RILD        RILM        RLL3         GR     
# ...
  1124.0000    181.2033     14.3791     15.2524     17.3233    157.7426
  1124.2500    181.2111     14.2836     15.3311     17.3679    149.0896
  1124.5000    181.3047     14.2487     15.2163     16.1136    138.2527
  1124.7500    181.5159     14.4079     15.1817     15.0938    149.4708
  1125.0000    181.9050     14.2508     15.1065     15.0549    166.1172
  1125.2500    182.3565     14.1561     15.4229     15.8455    169.1557
  1125.5000    182.6867     14.4087     15.3813     17.6388    166.1440
  1125.7500    182.9362     14.5370     15.3559     18.6107    148.0096
  1126.0000    183.0683     14.4188     15.2611     16.9732    181.2782
  1126.2500    183.1078     14.2399     14.8827     15.3325    170.5858
  1126.5000    183.0618     14.2847     14.5965     14.7491    156.8882
  1126.7500    182.8266     14.5046     14.6047     15.0448    152.0472
  1127.0000    182.6021     14.6789     14.6615     15.9565    153.9751
  1127.2500    182.3813     14.5933     14.7815     16.8664    156.1425
  1127.5000    182.1328     14.8695     15.0694     16.2508    133.1850
  1127.7500    181.7195     15.3004     15.0032     15.7916    130.5709
  1128.0000    181.1971     15.4850     15.1588     15.9146    164.0427
  1128.2500    180.7154     15.5379     15.2367     15.5923    164.0250
  1128.5000    180.3800     16.2954     15.6454     15.0806    132.8127
  1128.7500    180.1671     17.0658     16.1895     15.0401    118.2749
  1129.0000    180.1224     17.4897     16.9557     15.6533    128.8239
  1129.2500    180.2607     17.8411     18.3805     17.4666    143.9410
  1129.5000    180.5833     18.5343     20.2145     21.1773    153.6890
  1129.7500    181.0225     18.5766     21.8048     28.0072    143.2437
  1130.0000    181.4296     19.0427     23.0185     40.1385    127.7042
  1130.2500    181.7646     19.2750     23.4153     46.8500    144.1745
  1130.5000    182.1074     19.5518     24.4906     40.0387    132.1051
  1130.7500    182.3162     20.0696     24.6760     30.6201    124.5563
  1131.0000    182.4913     19.9618     24.0782     28.1183    122.7859
  1131.2500    182.6737     19.8745     23.6682     27.6047    118.2643
  1131.5000    182.9961     19.8410     24.3439     25.5491     98.1255
  1131.7500    183.4729     19.9957     24.2046     28.4632    107.9221
  1132.0000    184.0047     19.5503     22.4575     32.5826    143.2617
  1132.2500    184.7203     19.5389     21.0922     26.5819    147.1508
  1132.5000    185.2204     18.8926     19.4950     18.6799    144.1549
  1132.7500    185.6747     18.1356     18.4164     15.5871    129.5735
  1133.0000    186.0441     17.7478     17.5192     15.3197    128.9780
  1133.2500    186.4637     17.4027     17.2247     15.7873    141.5583
  1133.5000    186.8972     16.9986     16.9714     15.9841    151.7326
  1133.7500    187.4806     16.5770     16.7723     16.6898    166.3203
  1134.0000    188.1498     16.1592     16.4934     16.6433    166.4422
  1134.2500    188.8633     15.7767     16.0395     16.6533    152.1460
  1134.5000    189.3582     15.4374     15.9053     16.8987    141.1062
  1134.7500    189.6676     15.4986     15.4893     17.1976    157.1486
  1135.0000    189.8072     15.3228     15.3059     17.6424    153.6275
  1135.2500    189.9135     15.2228     15.1816     17.8061    155.2955
  1135.5000    189.9213     15.3317     15.0645     17.6126    144.1893
  1135.7500    189.8648     15.5335     15.1316     17.8225    136.5736
  1136.0000    189.6881     15.6409     15.1729     17.4790    139.5185
  1136.2500    189.4715     15.8798     15.4115     17.0226    155.8613
  1136.5000    189.0738     16.0910     15.3227     17.0935    180.4668
  1136.7500    188.6299     16.3894     15.7428     17.0244    177.3758
  1137.0000    188.0798     16.8585     16.5019     17.2125    142.8443
  1137.2500    187.5142     17.1079     17.0377     17.7079    143.9927
  1137.5000    186.7830     17.6574     17.3343     18.1200    148.2839
  1137.7500    185.9931     18.5323     17.3453     18.4731    175.6073
  1138.0000    185.0943     18.4480     18.1925     19.3967    181.9359
  1138.2500    184.2088     19.1014     18.9326     21.2720    138.2038
  1138.5000    183.4359     19.9235     20.0467     23.4200    144.0860
  1138.7500    182.7593     20.3380     21.3005     25.3494    161.4538
  1139.0000    182.1610     20.9359     21.7453     26.8595    146.3116
  1139.2500    181.4835     21.6561     22.7013     28.8016    133.5938
  1139.5000    180.7151     22.5380     23.2602     30.2203    126.8100
  1139.7500    179.9278     23.4342     24.4281     29.7598    128.7615
  1140.0000    179.1469     24.6563     25.4508     30.6164    134.2565
  1140.2500    178.4927     25.8927     26.2052     33.4039    151.5300
  1140.5000    178.0235     26.5951     27.6741     34.8157    143.3277
  1140.7500    177.7711     28.0473     29.6392     32.5764    156.8678
  1141.0000    177.5775     29.7640     30.9043     30.6376    123.5130
  1141.2500    177.4788     31.3830     32.7338     31.4292    128.2883
  1141.5000    177.5236     31.1658     36.4523     37.7076    149.0616
  1141.7500    177.9052     32.1492     39.5699     50.4527    135.9240
  1142.0000    178.6167     33.1811     43.5362     69.5865    134.6239
  1142.2500    179.5708     32.2290     44.8447     95.1664    132.9068
  1142.5000    180.7799     32.1925     47.4680    106.6234     96.1549
  1142.7500    182.3179     31.8290     46.0312     94.0270     88.2642
  1143.0000    184.1497     31.9109     44.2352     94.9315    118.0970
  1143.2500    185.9499     32.3427     42.3086    104.2389    119.0232
  1143.5000    187.6904     30.9689     38.7107     85.5595    115.8493
  1143.7500    189.1786     30.4470     35.0482     49.9280     86.9479
  1144.0000    190.3293     30.2361     32.1051     30.0848    101.7451
  1144.2500    190.9300     29.6361     30.7009     24.3262    130.2479
  1144.5000    191.0984     28.6523     28.8368     23.7480    142.5301
  1144.7500    191.1443     27.9319     27.6675     25.2283    129.8643
  1145.0000    191.1311     27.6112     26.6763     27.0819    146.0469
  1145.2500    191.2016     26.5660     25.8433     27.5384    155.4668
  1145.5000    191.1723     25.6690     25.0295     26.0066    159.0353
  1145.7500    191.1387     25.0266     24.4558     24.8763    139.8439
  1146.0000    191.1378     24.7043     23.2748     26.2317    131.7462
  1146.2500    191.1779     24.3815     23.1452     27.4052    137.3591
  1146.5000    191.3275     23.7764     23.1952     25.1249    141.1423
  1146.7500    191.4444     23.3928     23.2771     23.3427    158.4540
  1147.0000    191.7025     23.6511     23.0433     24.5358    140.7860
  1147.2500    192.2050     23.4816     23.2507     25.6156    136.8667
  1147.5000    192.9204     23.9954     23.5733     25.7301    163.3571
  1147.7500    193.5808     24.1920     23.5763     25.4210    164.3913
  1148.0000    194.0778     24.2935     24.0685     25.4934    140.4601
  1148.2500    194.2991     24.4988     24.0697     25.9741    141.2134
  1148.5000    194.2946     24.4745     24.4879     27.4010    147.7089
  1148.7500    193.9760     24.8818     24.6663     30.0818    160.6909
  1149.0000    193.3366     25.5191     24.9934     32.6111    158.0656
  1149.2500    192.3506     25.7577     25.0422     32.6044    144.7360
  1149.5000    191.2191     25.8808     25.1696     30.2767    126.6752
  1149.7500    189.8622     26.0652     25.5112     27.6627    124.2010
  1150.0000    188.2852     26.6338     25.5499     26.9861    108.8647
  1150.2500    186.7449     26.8377     26.6175     28.4168    107.7382
  1150.5000    185.3405     27.1859     27.5185     30.6565    134.6881
  1150.7500    184.1634     27.7536     27.5105     33.2722    137.7270
  1151.0000    183.0546     27.5464     28.7071     37.0320    145.2619
  1151.2500    181.9903     28.3867     28.6618     42.5223    130.3394
  1151.5000    181.0346     28.2309     29.2654     47.4283    128.1820
  1151.7500    180.2884     29.0012     29.4351     46.5348    129.1497
