~Version Information
VERS.                      2.0: CWLS Log ASCII Standard - VERSION 2.0
WRAP.                       NO: One line per depth step
~Well Information Block
STRT.FT               860.0000: 
STOP.FT              2733.7500: 
STEP.FT                 0.2500: 
NULL.                -999.2500: 
COMP.          Pioneer Natural Resources: COMPANY
WELL.          Beacon 11-18 Tr: WELL
FLD.           Purgatoire River: FIELD
LOC.           409' FNL & 203' FWL: LOCATION
PROV.                 Colorado: PROVINCE
CNTY.               Las Animas: COUNTRY
SRVC.                Patterson: SERVICE COMPANY
DATE.          Sun Jan 16 19:36:19 2005: LOG DATE
UWI.           05 071 08251 00: UNIQUE WELL ID
~Curve Information Block
DEPT.FT            0 000 00 00: Depth
SN.Ohm-m                      : IEL Short Normal
SP.mV                         : IEL Spontaneous Potential
DIR.Ohm-m                     : IEL Induction Resistivity
GR.GAPI                       : Gamma Ray
~Parameter Information Block
~A  Depth        SN          SP         DIR          GR     
# ...
  2334.0000      8.7051    -29.6316      8.4607    142.3900
  2334.2500      8.7175    -29.6113      8.3303    142.5096
  2334.5000      8.7737    -29.5689      8.2212    143.9512
  2334.7500      8.8571    -29.5107      8.1473    145.3060
  2335.0000      8.9580    -29.4473      8.1185    147.1219
  2335.2500      9.0702    -29.3919      8.1394    147.8061
  2335.5000      9.1969    -29.3566      8.2113    147.2839
  2335.7500      9.3606    -29.3507      8.3351    145.5027
  2336.0000      9.5967    -29.3795      8.5151    140.8682
  2336.2500      9.9332    -29.4454      8.7604    137.3427
  2336.5000     10.3801    -29.5495      9.0839    133.4673
  2336.7500     10.9318    -29.6911      9.4994    132.5914
  2337.0000     11.5707    -29.8643     10.0162    133.5158
  2337.2500     12.2668    -30.0554     10.6344    134.5794
  2337.5000     12.9776    -30.2419     11.3434    134.5188
  2337.7500     13.6604    -30.3967     12.1266    132.4348
  2338.0000     14.2950    -30.4957     12.9712    126.4026
  2338.2500     14.9049    -30.5253     13.8749    121.4304
  2338.5000     15.5581    -30.4846     14.8422    114.3771
  2338.7500     16.3392    -30.3833     15.8739    110.5399
  2339.0000     17.3012    -30.2353     16.9596    106.3369
  2339.2500     18.4192    -30.0532     18.0744    104.5372
  2339.5000     19.5729    -29.8468     19.1746    103.2015
  2339.7500     20.5771    -29.6260     20.1884    102.9507
  2340.0000     21.2585    -29.4032     21.0211    102.4614
  2340.2500     21.5393    -29.1953     21.5874    101.3755
  2340.5000     21.4762    -29.0198     21.8572     98.5796
  2340.7500     21.2250    -28.8894     21.8735     96.7533
  2341.0000     20.9513    -28.8067     21.7254     95.6074
  2341.2500     20.7422    -28.7633     21.5004     96.2007
  2341.5000     20.5732    -28.7436     21.2513     98.5852
  2341.7500     20.3436    -28.7314     20.9849    100.6290
  2342.0000     19.9471    -28.7154     20.6695    103.6001
  2342.2500     19.3354    -28.6904     20.2521    105.3136
  2342.5000     18.5469    -28.6563     19.6815    107.7888
  2342.7500     17.6865    -28.6144     18.9315    109.9629
  2343.0000     16.8705    -28.5662     18.0154    115.2454
  2343.2500     16.1707    -28.5137     16.9835    120.3900
  2343.5000     15.5929    -28.4610     15.9083    129.5148
  2343.7500     15.0977    -28.4149     14.8649    135.4221
  2344.0000     14.6431    -28.3848     13.9146    142.6823
  2344.2500     14.2116    -28.3814     13.0972    146.3650
  2344.5000     13.8074    -28.4144     12.4307    150.5212
  2344.7500     13.4378    -28.4912     11.9153    152.4636
  2345.0000     13.0998    -28.6142     11.5392    153.9338
  2345.2500     12.7787    -28.7792     11.2837    153.7848
  2345.5000     12.4519    -28.9752     11.1261    151.5805
  2345.7500     12.0938    -29.1858     11.0430    148.4670
  2346.0000     11.6876    -29.3913     11.0119    140.3763
  2346.2500     11.2409    -29.5725     11.0130    132.2962
  2346.5000     10.7951    -29.7127     11.0310    116.9711
  2346.7500     10.4144    -29.7989     11.0558    106.2199
  2347.0000     10.1522    -29.8231     11.0807     92.8387
  2347.2500     10.0149    -29.7828     11.0981     87.3847
  2347.5000      9.9522    -29.6815     11.0946     85.4115
  2347.7500      9.8879    -29.5282     11.0497     87.6351
  2348.0000      9.7718    -29.3360     10.9407     93.7639
  2348.2500      9.6134    -29.1200     10.7524     98.1408
  2348.5000      9.4690    -28.8957     10.4856    103.7639
  2348.7500      9.3982    -28.6778     10.1578    106.9707
  2349.0000      9.4243    -28.4791      9.7958    111.5516
  2349.2500      9.5256    -28.3094      9.4281    114.5034
  2349.5000      9.6510    -28.1734      9.0810    118.5276
  2349.7500      9.7493    -28.0699      8.7768    120.9989
  2350.0000      9.7936    -27.9921      8.5325    125.0070
  2350.2500      9.7902    -27.9292      8.3569    128.2952
  2350.5000      9.7640    -27.8691      8.2477    134.4270
  2350.7500      9.7337    -27.8012      8.1927    139.0378
  2351.0000      9.6915    -27.7181      8.1721    145.3590
  2351.2500      9.6109    -27.6175      8.1634    148.1044
  2351.5000      9.4771    -27.5019      8.1458    149.0204
  2351.7500      9.3108    -27.3766      8.1058    147.8923
  2352.0000      9.1575    -27.2462      8.0407    145.2231
  2352.2500      9.0604    -27.1118      7.9613    143.4333
  2352.5000      9.0440    -26.9690      7.8875    140.7745
  2352.7500      9.1119    -26.8095      7.8414    138.9490
  2353.0000      9.2476    -26.6230      7.8391    136.8510
  2353.2500      9.4130    -26.4012      7.8884    136.5840
  2353.5000      9.5548    -26.1416      7.9887    138.1056
  2353.7500      9.6258    -25.8518      8.1351    139.4880
  2354.0000      9.6057    -25.5502      8.3202    139.8488
  2354.2500      9.5017    -25.2630      8.5354    138.3233
  2354.5000      9.3291    -25.0177      8.7721    134.1958
  2354.7500      9.1048    -24.8331      9.0222    131.1141
  2355.0000      8.8677    -24.7142      9.2796    126.9536
  2355.2500      8.6990    -24.6511      9.5386    124.7273
  2355.5000      8.7104    -24.6250      9.7910    122.9011
  2355.7500      9.0010    -24.6158     10.0266    123.3694
  2356.0000      9.6060    -24.6083     10.2360    127.2390
  2356.2500     10.4660    -24.5948     10.4150    131.3869
  2356.5000     11.4399    -24.5746     10.5647    137.6823
  2356.7500     12.3606    -24.5520     10.6901    140.7229
  2357.0000     13.1058    -24.5351     10.7999    142.9782
  2357.2500     13.6352    -24.5358     10.9094    143.2574
  2357.5000     13.9812    -24.5676     11.0434    142.4108
  2357.7500     14.2126    -24.6434     11.2359    141.2201
  2358.0000     14.4002    -24.7709     11.5253    138.7178
  2358.2500     14.6033    -24.9488     11.9467    136.2918
  2358.5000     14.8781    -25.1655     12.5250    130.1262
  2358.7500     15.2919    -25.4011     13.2695    123.7300
  2359.0000     15.9231    -25.6312     14.1739    111.6106
  2359.2500     16.8431    -25.8315     15.2213    103.4380
  2359.5000     18.0859    -25.9831     16.3928     93.9422
  2359.7500     19.6146    -26.0765     17.6731     90.3793
  2360.0000     21.3034    -26.1152     19.0450     88.7671
  2360.2500     22.9580    -26.1170     20.4708     88.9209
  2360.5000     24.3751    -26.1088     21.8714     88.2700
  2360.7500     25.4158    -26.1178     23.1218     86.1863
  2361.0000     26.0562    -26.1614     24.0846     80.6723
  2361.2500     26.3887    -26.2414     24.6786     76.4688
  2361.5000     26.5692    -26.3458     24.9339     71.7207
  2361.7500     26.7356    -26.4568     24.9794     70.4071
  2362.0000     26.9440    -26.5593     24.9687     70.7571
  2362.2500     27.1601    -26.6472     25.0052     71.5206
  2362.5000     27.3039    -26.7240     25.1187     72.0199
  2362.7500     27.3124    -26.7979     25.2888     71.8329
  2363.0000     27.1749    -26.8761     25.4859     71.6668
  2363.2500     26.9298    -26.9588     25.6971     72.2021
  2363.5000     26.6352    -27.0370     25.9225     74.1472
  2363.7500     26.3379    -27.0932     26.1534     75.7848
  2364.0000     26.0562    -27.1068     26.3528     77.8176
  2364.2500     25.7792    -27.0605     26.4563     78.5937
  2364.5000     25.4804    -26.9474     26.3935     78.9357
  2364.7500     25.1419    -26.7750     26.1199     78.8530
  2365.0000     24.7809    -26.5658     25.6446     78.8995
  2365.2500     24.4560    -26.3521     25.0396     79.4633
  2365.5000     24.2418    -26.1670     24.4253     81.5211
  2365.7500     24.1845    -26.0341     23.9279     83.6222
  2366.0000     24.2727    -25.9626     23.6308     87.3686
  2366.2500     24.4467    -25.9481     23.5429     89.9458
  2366.5000     24.6358    -25.9800     23.6044     93.1624
  2366.7500     24.8019    -26.0498     23.7270     93.9827
  2367.0000     24.9683    -26.1546     23.8480     91.2880
  2367.2500     25.2223    -26.2948     23.9625     86.4867
