~Version Information
VERS.                      2.0: CWLS Log ASCII Standard - VERSION 2.0
WRAP.                       NO: One line per depth step
~Well Information Block
STRT.FT               395.0000: 
STOP.FT              1998.0000: 
STEP.FT                 0.2500: 
NULL.                -999.2500: 
COMP.          Pioneer Natural Resources: COMPANY
WELL.          Easton 12-30 Tr: WELL
FLD.           Purgatoire River: FIELD
LOC.           549' FWL & 2416' FNL--: LOCATION
PROV.                 Colorado: PROVINCE
CNTY.               Las Animas: COUNTRY
SRVC.                Patterson: SERVICE COMPANY
DATE.          Wed Jun 01 17:36:02 2005: LOG DATE
UWI.           05 071 08379 00: UNIQUE WELL ID
~Curve Information Block
DEPT.FT            0 000 00 00: Depth
SN.Ohm-m                      : IEL Short Normal
SP.mV                         : IEL Spontaneous Potential
DIR.Ohm-m                     : IEL Induction Resistivity
GR.GAPI                       : Gamma Ray
~Parameter Information Block
~A  Depth        SN          SP         DIR          GR     
# ...
   696.5000   2000.0000   -999.2500     45.3488     73.5363
   696.7500   2000.0000   -999.2500     44.2957     73.5063
   697.0000   2000.0000   -999.2500     43.1505     75.6990
   697.2500   2000.0000   -999.2500     42.0682     78.9368
   697.5000   2000.0000   -999.2500     41.1268     86.4099
   697.7500   2000.0000   -999.2500     40.3356     92.6499
   698.0000   2000.0000   -999.2500     39.6737    102.1048
   698.2500   2000.0000   -999.2500     39.1206    107.2142
   698.5000   2000.0000   -999.2500     38.6598    111.7934
   698.7500   2000.0000   -999.2500     38.2628    112.8388
   699.0000   2000.0000   -999.2500     37.8785    112.1863
   699.2500   2000.0000   -999.2500     37.4416    110.6384
   699.5000   2000.0000   -999.2500     36.8966    106.9760
   699.7500   2000.0000   -999.2500     36.2255    103.8874
   700.0000   2000.0000   -999.2500     35.4607     98.9984
   700.2500   2000.0000   -999.2500     34.6744     96.0492
   700.5000   2000.0000   -999.2500     33.9431     92.9445
   700.7500   2000.0000   -999.2500     33.3032     92.2828
   701.0000   2000.0000   -999.2500     32.7252     94.0754
   701.2500   2000.0000   -999.2500     32.1230     97.0789
   701.5000   2000.0000   -999.2500     31.3982    103.1813
   701.7500   2000.0000   -999.2500     30.4925    107.2710
   702.0000   2000.0000   -999.2500     29.4149    111.9689
   702.2500   2000.0000   -999.2500     28.2326    113.9413
   702.5000   2000.0000   -999.2500     27.0379    115.7920
   702.7500   2000.0000   -999.2500     25.9127    116.7266
   703.0000   2000.0000   -999.2500     24.9043    118.0752
   703.2500   2000.0000   -999.2500     24.0178    119.1155
   703.5000   2000.0000   -999.2500     23.2285    121.2828
   703.7500   2000.0000   -999.2500     22.5027    123.2476
   704.0000   2000.0000   -999.2500     21.8145    126.7135
   704.2500   2000.0000   -999.2500     21.1505    129.0309
   704.5000   2000.0000   -999.2500     20.5055    131.9726
   704.7500   2000.0000   -999.2500     19.8818    133.3600
   705.0000   2000.0000   -999.2500     19.2933    134.1520
   705.2500   2000.0000   -999.2500     18.7674    133.4707
   705.5000   2000.0000   -999.2500     18.3383    130.2619
   705.7500   2000.0000   -999.2500     18.0351    126.9457
   706.0000   2000.0000   -999.2500     17.8720    121.7227
   706.2500   2000.0000   -999.2500     17.8479    119.1777
   706.5000   2000.0000   -999.2500     17.9509    117.9114
   706.7500   2000.0000   -999.2500     18.1660    118.6447
   707.0000   2000.0000   -999.2500     18.4796    120.8368
   707.2500   2000.0000   -999.2500     18.8814    122.1202
   707.5000   2000.0000   -999.2500     19.3650    122.6341
   707.7500   2000.0000   -999.2500     19.9309    121.7855
   708.0000   2000.0000   -999.2500     20.5908    119.1578
   708.2500   2000.0000   -999.2500     21.3723    117.1804
   708.5000   2000.0000   -999.2500     22.3206    115.1277
   708.7500   2000.0000   -999.2500     23.4919    114.7161
   709.0000   2000.0000   -999.2500     24.9402    115.1099
   709.2500   2000.0000   -999.2500     26.6995    115.3303
   709.5000   2000.0000   -999.2500     28.7696    114.3051
   709.7500   2000.0000   -999.2500     31.1178    112.3642
   710.0000   2000.0000   -999.2500     33.6945    107.7996
   710.2500   2000.0000   -999.2500     36.4534    103.9450
   710.5000   2000.0000   -999.2500     39.3618     97.2831
   710.7500   2000.0000   -999.2500     42.3972     92.5122
   711.0000   2000.0000   -999.2500     45.5383     85.6955
   711.2500   2000.0000   -999.2500     48.7588     81.9110
   711.5000   2000.0000   -999.2500     52.0173     77.8338
   711.7500   2000.0000   -999.2500     55.2376     76.1140
   712.0000   2000.0000   -999.2500     58.2900     74.5359
   712.2500   2000.0000   -999.2500     61.0072     73.7573
   712.5000   2000.0000   -999.2500     63.2527     72.4263
   712.7500   2000.0000   -999.2500     64.9853     71.3676
   713.0000   2000.0000   -999.2500     66.2347     69.9801
   713.2500   2000.0000   -999.2500     66.9891     69.5372
   713.5000   2000.0000   -999.2500     67.1169     69.8154
   713.7500   2000.0000   -999.2500     66.4305     70.5491
   714.0000   2000.0000   -999.2500     64.8652     72.4020
   714.2500   2000.0000   -999.2500     62.5863     74.2274
   714.5000   2000.0000   -999.2500     59.8911     77.7688
   714.7500   2000.0000   -999.2500     57.0110     80.2354
   715.0000   2000.0000   -999.2500     54.0206     83.1929
   715.2500   2000.0000   -999.2500     50.9146     84.6815
   715.5000   2000.0000   -999.2500     47.7355     87.4846
   715.7500   2000.0000   -999.2500     44.6125     90.6210
   716.0000   2000.0000   -999.2500     41.6939     97.5684
   716.2500   2000.0000   -999.2500     39.0709    103.0534
   716.5000   2000.0000   -999.2500     36.7665    110.9283
   716.7500   2000.0000   -999.2500     34.7728    115.3342
   717.0000   2000.0000   -999.2500     33.0857    120.7677
   717.2500   2000.0000   -999.2500     31.7091    124.0252
   717.5000   2000.0000   -999.2500     30.6383    128.6416
   717.7500   2000.0000   -999.2500     29.8392    131.2743
   718.0000   2000.0000   -999.2500     29.2389    134.1180
   718.2500   2000.0000   -999.2500     28.7332    135.3302
   718.5000   2000.0000   -999.2500     28.2125    136.2396
   718.7500   2000.0000   -999.2500     27.5942    135.8863
   719.0000   2000.0000   -999.2500     26.8426    132.6266
   719.2500   2000.0000   -999.2500     25.9687    127.9874
   719.5000   2000.0000   -999.2500     25.0194    117.4076
   719.7500   2000.0000   -999.2500     24.0657    108.8615
   720.0000   2000.0000   -999.2500     23.1896     96.4220
   720.2500   2000.0000   -999.2500     22.4636     90.0744
   720.5000   2000.0000   -999.2500     21.9286     85.8052
   720.7500   2000.0000   -999.2500     21.5802     87.0320
   721.0000   2000.0000   -999.2500     21.3717     94.0681
   721.2500   2000.0000   -999.2500     21.2329    100.7745
   721.5000   2000.0000   -999.2500     21.0976    110.9638
   721.7500   2000.0000   -999.2500     20.9274    116.5255
   722.0000   2000.0000   -999.2500     20.7197    121.8789
   722.2500   2000.0000   -999.2500     20.4992    123.3418
   722.5000   2000.0000   -999.2500     20.3021    122.7258
   722.7500   2000.0000   -999.2500     20.1638    120.9158
   723.0000   2000.0000   -999.2500     20.1129    117.4782
   723.2500   2000.0000   -999.2500     20.1688    115.5330
   723.5000   2000.0000   -999.2500     20.3385    113.4937
   723.7500   2000.0000   -999.2500     20.6146    112.1649
   724.0000   2000.0000   -999.2500     20.9778    109.1447
   724.2500   2000.0000   -999.2500     21.4037    106.5101
   724.5000   2000.0000   -999.2500     21.8732    103.0831
   724.7500   2000.0000   -999.2500     22.3775    102.1640
   725.0000   2000.0000   -999.2500     22.9200    103.5902
   725.2500   2000.0000   -999.2500     23.5146    106.1096
   725.5000   2000.0000   -999.2500     24.1833    111.0826
   725.7500   2000.0000   -999.2500     24.9482    114.5042
   726.0000   2000.0000   -999.2500     25.8178    118.7556
   726.2500   2000.0000   -999.2500     26.7762    120.4992
   726.5000   2000.0000   -999.2500     27.7863    121.0836
   726.7500   2000.0000   -999.2500     28.8092    120.2795
   727.0000   2000.0000   -999.2500     29.8294    117.8659
   727.2500   2000.0000   -999.2500     30.8680    115.6367
   727.5000   2000.0000   -999.2500     31.9747    111.1963
   727.7500   2000.0000   -999.2500     33.2024    107.2677
   728.0000   2000.0000   -999.2500     34.5813     99.6735
   728.2500   2000.0000   -999.2500     36.1058     93.6324
   728.5000   2000.0000   -999.2500     37.7424     84.0689
   728.7500   2000.0000   -999.2500     39.4485     78.1977
   729.0000   2000.0000   -999.2500     41.1825     71.4391
   729.2500   2000.0000   -999.2500     42.8910     68.6840
   729.5000   2000.0000   -999.2500     44.4845     67.1118
   729.7500   2000.0000   -999.2500     45.8313     67.4267
