~Version Information
VERS.                      2.0: CWLS Log ASCII Standard - VERSION 2.0
WRAP.                       NO: One line per depth step
~Well Information Block
STRT.FT                60.5000: 
STOP.FT              1875.7500: 
STEP.FT                 0.2500: 
NULL.                -999.2500: 
COMP.          Petrogulf Corporation: COMPANY
WELL.             State 16-14R: WELL
FLD.           Purgatorie River: FIELD
LOC.           598' FSL & 682' FWL--: LOCATION
PROV.                       CO: PROVINCE
CNTY.               Las Animas: COUNTRY
SRVC.                         : SERVICE COMPANY
DATE.          Fri Nov 12 08:50:45 2004: LOG DATE
UWI.            005 071 08034 : UNIQUE WELL ID
~Curve Information Block
DEPT.FT            0 000 00 00: Depth
GR.GAPI                       : Gamma Ray
CCL.                          : Casing Collar Locator
TT3.usec                      : CBL 3' Travel Time
AMP3.mV                       : CBL 3' Amplitude
~Parameter Information Block
~A  Depth        GR         CCL         TT3         AMP3    
    60.5000   -999.2500   -999.2500   -999.2500   -999.2500
    60.7500   -999.2500   -999.2500   -999.2500   -999.2500
    61.0000   -999.2500   -999.2500   -999.2500   -999.2500
    61.2500   -999.2500   -999.2500   -999.2500   -999.2500
    61.5000   -999.2500   -999.2500    921.0000      1.0903
    61.7500   -999.2500   -999.2500    921.0000      1.1083
    62.0000   -999.2500   -999.2500    921.0000      1.1134
    62.2500   -999.2500   -999.2500    921.0000      1.1030
    62.5000   -999.2500   -999.2500    921.0000      1.0732
    62.7500   -999.2500   -999.2500    921.0000      1.0223
    63.0000   -999.2500   -999.2500    921.0000      0.9563
    63.2500   -999.2500   -999.2500    921.0000      0.8968
    63.5000   -999.2500   -999.2500    921.0000      0.8721
    63.7500   -999.2500   -999.2500    921.0000      0.8937
    64.0000   -999.2500   -999.2500    921.0000      0.9467
    64.2500   -999.2500   -999.2500    921.0000      1.0053
    64.5000   -999.2500   -999.2500    921.0000      1.0541
    64.7500   -999.2500   -999.2500    921.0000      1.0926
    65.0000   -999.2500   -999.2500    921.0000      1.1242
    65.2500   -999.2500   -999.2500    921.0000      1.1471
    65.5000   -999.2500   -999.2500    921.0000      1.1542
    65.7500   -999.2500   -999.2500    921.0000      1.1379
    66.0000   -999.2500   -999.2500    921.0000      1.0962
    66.2500   -999.2500   -999.2500    921.0000      1.0371
    66.5000   -999.2500   -999.2500    921.0000      0.9772
    66.7500   -999.2500   -999.2500    921.0000      0.9318
    67.0000   -999.2500      0.0000    921.0000      0.9087
    67.2500   -999.2500      0.0000    921.0000      0.9081
    67.5000   -999.2500      0.0000    921.0000      0.9236
    67.7500   -999.2500      0.0000    921.0000      0.9427
    68.0000   -999.2500      0.0000    921.0000      0.9530
    68.2500   -999.2500      0.0000    921.0000      0.9546
    68.5000   -999.2500      0.0000    921.0000      0.9621
    68.7500   -999.2500      0.0000    921.0000      0.9890
    69.0000   -999.2500      0.0000    921.0000      1.0293
    69.2500   -999.2500      0.0000    921.0000      1.0631
    69.5000   -999.2500      0.0000    921.0000      1.0804
    69.7500   -999.2500      0.0000    921.0000      1.0907
    70.0000   -999.2500      0.0000    921.0000      1.1054
    70.2500   -999.2500      0.0000    921.0000      1.1177
    70.5000   -999.2500      0.0000    921.0000      1.1094
    70.7500   -999.2500      0.0000    921.0000      1.0741
    71.0000   -999.2500      0.0000    921.0000      1.0249
    71.2500   -999.2500      0.0000    921.0000      0.9823
    71.5000   -999.2500      0.0000    921.0000      0.9633
    71.7500   -999.2500      0.0000    921.0000      0.9776
    72.0000     88.8255      0.0000    921.0000      1.0255
    72.2500     88.9064      0.0000    921.0000      1.0913
    72.5000     90.5002      0.0000    921.0000      1.1447
    72.7500     94.6304      0.0000    921.0000      1.1573
    73.0000    100.0942      0.0000    921.0000      1.1244
    73.2500    104.4336      0.0000    921.0000      1.0686
    73.5000    105.8038      0.0000    921.0000      1.0193
    73.7500    104.1038      0.0000    921.0000      0.9881
    74.0000    100.9696      2.0000    921.0000      0.9683
    74.2500     98.6958     -2.0000    921.0000      0.9525
    74.5000     98.4991      0.0000    921.0000      0.9455
    74.7500     99.6546      0.0000    921.0000      0.9568
    75.0000    100.4492      0.0000    921.0000      0.9875
    75.2500     99.7837      0.0000    921.0000      1.0262
    75.5000     97.8106      0.0000    921.0000      1.0573
    75.7500     95.4839      0.0000    921.0000      1.0688
    76.0000     93.9415      0.0000    921.0000      1.0567
    76.2500     94.4274      0.0000    921.0000      1.0258
    76.5000     98.3693      0.0000    921.0000      0.9886
    76.7500    106.5762      0.0000    921.0000      0.9647
    77.0000    117.8461      0.0000    921.0000      0.9730
    77.2500    129.1268      0.0000    921.0000      1.0134
    77.5000    137.9197      0.0000    921.0000      1.0568
    77.7500    144.1630      0.0000    921.0000      1.0648
    78.0000    149.1792      0.0000    921.0000      1.0243
    78.2500    153.3209      0.0000    921.0000      0.9602
    78.5000    155.4306      0.0000    921.0000      0.9124
    78.7500    154.3125      0.0000    921.0000      0.9038
    79.0000    149.9595      0.0000    921.0000      0.9296
    79.2500    143.2626      0.0000    921.0000      0.9731
    79.5000    135.2278      0.0000    921.0000      1.0247
    79.7500    127.0984      0.0000    921.0000      1.0844
    80.0000    120.8036      0.0000    921.0000      1.1487
    80.2500    118.1045      0.0000    921.0000      1.2013
    80.5000    118.8272      0.0000    921.0000      1.2207
    80.7500    120.5079      0.0000    921.0000      1.1973
    81.0000    120.3247      0.0000    921.0000      1.1408
    81.2500    117.3790      0.0000    921.0000      1.0770
    81.5000    113.0429      0.0000    921.0000      1.0340
    81.7500    109.5248      0.0000    921.0000      1.0236
    82.0000    108.3169      0.0000    921.0000      1.0334
    82.2500    109.5077      0.0000    921.0000      1.0397
    82.5000    112.0832      0.0000    921.0000      1.0311
    82.7500    114.9820      0.0000    921.0000      1.0139
    83.0000    117.8713      0.0000    921.0000      0.9952
    83.2500    120.7554      0.0000    921.0000      0.9691
    83.5000    123.2248      0.0000    921.0000      0.9268
    83.7500    124.5370      0.0000    921.0000      0.8754
    84.0000    124.2241      0.0000    921.0000      0.8349
    84.2500    122.3578      0.0000    921.0000      0.8178
    84.5000    119.3631      0.0000    921.0000      0.8200
    84.7500    115.6376      0.0000    921.0000      0.8319
    85.0000    111.4724      0.0000    921.0000      0.8491
    85.2500    107.4938      0.0000    921.0000      0.8703
    85.5000    104.6657      0.0000    921.0000      0.8917
    85.7500    103.2561      0.0000    921.0000      0.9070
    86.0000    102.4274      0.0000    921.0000      0.9154
    86.2500    101.6384      0.0000    921.0000      0.9276
    86.5000    101.8364      0.0000    921.0000      0.9586
    86.7500    104.4842      0.0000    921.0000      1.0082
    87.0000    109.6839      0.0000    921.0000      1.0522
    87.2500    115.7790      0.0000    921.0000      1.0596
    87.5000    120.7945      0.0000    921.0000      1.0230
    87.7500    124.0941      0.0000    921.0000      0.9664
    88.0000    126.3192      0.0000    921.0000      0.9236
    88.2500    127.5648      0.0000    921.0000      0.9099
    88.5000    126.3675      0.0000    921.0000      0.9182
    88.7500    121.3241      0.0000    921.0000      0.9351
    89.0000    113.2449      0.0000    921.0000      0.9538
    89.2500    104.7527      0.0000    921.0000      0.9714
    89.5000     97.9969      0.0000    921.0000      0.9811
    89.7500     93.5366      0.0000    921.0000      0.9712
    90.0000     91.0814      0.0000    921.0000      0.9327
    90.2500     90.2605      0.0000    921.0000      0.8698
    90.5000     90.5123      0.0000    921.0000      0.8061
    90.7500     90.9915      0.0000    921.0000      0.7773
    91.0000     91.0762      0.0000    921.0000      0.8189
    91.2500     90.6835      0.0000    921.0000      0.9724
    91.5000     89.8386      0.0000    921.0000      1.3281
    91.7500     88.3707      0.0000    921.0000      2.0625
    92.0000     86.2361      0.0000    921.0000      3.3732
    92.2500     83.7262      0.0000    921.0000      5.2970
    92.5000     81.3288      0.0000    921.0000      7.5764
    92.7500     79.7533     -1.8164    921.0000      9.7703
    93.0000     79.7949      0.0000    921.0000     11.5287
    93.2500     81.5436     -2.0000    921.0000     12.7548
    93.5000     83.8902      0.0000    921.0000     13.5412
    93.7500     85.3345      0.0000    921.0000     14.0232
