~Version Information
VERS.                      2.0: CWLS Log ASCII Standard - VERSION 2.0
WRAP.                       NO: One line per depth step
~Well Information Block
STRT.FT               819.0000: 
STOP.FT              2499.5000: 
STEP.FT                 0.2500: 
NULL.                -999.2500: 
COMP.          Petrogulf Corporation: COMPANY
WELL.             State 16-21V: WELL
FLD.           Purgatorie River: FIELD
LOC.           1738' FWL & 332' FWL: LOCATION
PROV.                 Colorado: PROVINCE
CNTY.               Las Animas: COUNTRY
SRVC.          Patterson Wireline: SERVICE COMPANY
DATE.          Sun Jul 13 13:34:36 2003: LOG DATE
UWI.           05 071 08829 00: UNIQUE WELL ID
~Curve Information Block
DEPT.FT            0 000 00 00: Depth
SP.mV                         : DIL Spontaneous Potential
RILD.Ohm-m                    : DIL Deep Resistivity
RILM.Ohm-m                    : DIL Medium Resistivity
RLL3.Ohm-m                    : DIL Shallow Resistivity
GR.GAPI                       : Gamma Ray
~Parameter Information Block
~A  Depth        SP         RILD        RILM        RLL3         GR     
# ...
  1379.0000   -174.2397      9.5085     10.3165     13.9366    147.0176
  1379.2500   -174.1357      9.5512     10.3987     14.1313    150.9677
  1379.5000   -174.0392      9.5967     10.4785     14.2915    154.4778
  1379.7500   -173.9501      9.6474     10.5539     14.4025    155.0262
  1380.0000   -173.8694      9.7034     10.6232     14.4757    154.3119
  1380.2500   -173.8069      9.7622     10.6855     14.5349    153.6762
  1380.5000   -173.7796      9.8192     10.7405     14.5938    153.4385
  1380.7500   -173.8043      9.8709     10.7888     14.6440    153.9234
  1381.0000   -173.8929      9.9168     10.8318     14.6638    155.2837
  1381.2500   -174.0513      9.9591     10.8721     14.6416    156.1946
  1381.5000   -174.2764     10.0010     10.9128     14.5939    157.0213
  1381.7500   -174.5467     10.0452     10.9578     14.5604    157.2733
  1382.0000   -174.8190     10.0946     11.0111     14.5830    157.8501
  1382.2500   -175.0369     10.1542     11.0770     14.6866    158.6396
  1382.5000   -175.1525     10.2304     11.1594     14.8673    160.0151
  1382.7500   -175.1461     10.3276     11.2617     15.0862    160.4793
  1383.0000   -175.0339     10.4457     11.3864     15.2827    160.0212
  1383.2500   -174.8568     10.5805     11.5347     15.4171    159.2835
  1383.5000   -174.6605     10.7263     11.7065     15.5172    158.5366
  1383.7500   -174.4768     10.8791     11.8994     15.6867    158.5520
  1384.0000   -174.3173     11.0357     12.1090     16.0697    158.8037
  1384.2500   -174.1769     11.1920     12.3285     16.7909    158.4661
  1384.5000   -174.0389     11.3417     12.5493     17.8930    156.5416
  1384.7500   -173.8783     11.4783     12.7605     19.2848    154.6046
  1385.0000   -173.6662     11.5979     12.9507     20.7221    151.9419
  1385.2500   -173.3798     11.6999     13.1084     21.8482    150.7587
  1385.5000   -173.0122     11.7837     13.2232     22.3073    149.3949
  1385.7500   -172.5775     11.8452     13.2869     21.8995    148.0840
  1386.0000   -172.1094     11.8749     13.2946     20.7014    144.6114
  1386.2500   -171.6578     11.8613     13.2443     19.0670    141.0014
  1386.5000   -171.2792     11.7960     13.1372     17.4982    133.1280
  1386.7500   -171.0170     11.6774     12.9773     16.4406    125.9254
  1387.0000   -170.8801     11.5097     12.7708     16.0883    112.3477
  1387.2500   -170.8352     11.2998     12.5256     16.2861    102.2449
  1387.5000   -170.8244     11.0555     12.2505     16.6100     87.6547
  1387.7500   -170.7929     10.7870     11.9550     16.6167     79.5476
  1388.0000   -170.7109     10.5095     11.6489     16.1083     71.5992
  1388.2500   -170.5803     10.2417     11.3414     15.2130     69.8608
  1388.5000   -170.4282     10.0003     11.0406     14.2415     72.5954
  1388.7500   -170.2935      9.7949     10.7536     13.4638     76.8130
  1389.0000   -170.2101      9.6246     10.4857     12.9825     83.4020
  1389.2500   -170.1940      9.4810     10.2405     12.7487     86.2946
  1389.5000   -170.2401      9.3534     10.0200     12.6518     87.3948
  1389.7500   -170.3314      9.2341      9.8249     12.5991     86.4578
  1390.0000   -170.4519      9.1202      9.6547     12.5485     84.2299
  1390.2500   -170.5961      9.0128      9.5084     12.5004     83.0780
  1390.5000   -170.7710      8.9144      9.3842     12.4727     82.4499
  1390.7500   -170.9859      8.8282      9.2804     12.4775     82.6393
  1391.0000   -171.2365      8.7575      9.1956     12.5139     83.5920
  1391.2500   -171.4943      8.7051      9.1285     12.5717     84.7828
  1391.5000   -171.7143      8.6729      9.0786     12.6378     87.6390
  1391.7500   -171.8537      8.6623      9.0464     12.7024     90.0722
  1392.0000   -171.8900      8.6749      9.0332     12.7594     93.5376
  1392.2500   -171.8286      8.7130      9.0413     12.8052     95.1003
  1392.5000   -171.7004      8.7802      9.0744     12.8390     95.9299
  1392.7500   -171.5511      8.8810      9.1369     12.8631     95.6689
  1393.0000   -171.4225      9.0203      9.2344     12.8755     94.3590
  1393.2500   -171.3344      9.2024      9.3732     12.8628     92.7696
  1393.5000   -171.2786      9.4302      9.5602     12.8135     89.1672
  1393.7500   -171.2263      9.7039      9.8025     12.7588     86.2749
  1394.0000   -171.1450     10.0209     10.1073     12.8170     82.3614
  1394.2500   -171.0125     10.3758     10.4812     13.2152     80.6577
  1394.5000   -170.8237     10.7610     10.9300     14.2787     79.8006
  1394.7500   -170.5919     11.1688     11.4575     16.4049     80.0877
  1395.0000   -170.3466     11.5927     12.0651     20.0242     80.7616
  1395.2500   -170.1299     12.0304     12.7511     25.5102     80.5688
  1395.5000   -169.9870     12.4869     13.5095     32.9552     78.1614
  1395.7500   -169.9493     12.9752     14.3302     41.7672     75.0654
  1396.0000   -170.0159     13.5133     15.1995     50.3154     69.4894
  1396.2500   -170.1471     14.1182     16.1009     56.1605     66.3671
  1396.5000   -170.2807     14.7987     17.0173     57.1968     64.1091
  1396.7500   -170.3616     15.5513     17.9328     53.0796     64.3444
  1397.0000   -170.3626     16.3579     18.8347     45.6384     66.5185
  1397.2500   -170.2843     17.1882     19.7132     37.7566     68.6600
  1397.5000   -170.1413     18.0018     20.5618     31.7163     72.3204
  1397.7500   -169.9498     18.7529     21.3745     28.3892     74.6493
  1398.0000   -169.7283     19.3961     22.1449     27.5730     76.9839
  1398.2500   -169.5004     19.8960     22.8641     28.7601     77.4215
  1398.5000   -169.2917     20.2399     23.5209     31.5810     76.7734
  1398.7500   -169.1196     20.4443     24.1033     35.6694     75.9120
  1399.0000   -168.9898     20.5505     24.6010     40.2323     74.2543
  1399.2500   -168.9026     20.6114     25.0084     43.9241     72.8900
  1399.5000   -168.8609     20.6780     25.3270     45.4050     70.7851
  1399.7500   -168.8670     20.7895     25.5671     44.2053     69.6865
  1400.0000   -168.9135     20.9694     25.7463     41.0650     68.6798
  1400.2500   -168.9786     21.2256     25.8873     37.4086     68.2847
  1400.5000   -169.0329     21.5523     26.0146     34.4757     67.9878
  1400.7500   -169.0503     21.9328     26.1511     32.8081     68.1063
  1401.0000   -169.0177     22.3405     26.3153     32.2719     68.9184
  1401.2500   -168.9382     22.7402     26.5194     32.3919     69.8378
  1401.5000   -168.8299     23.0943     26.7682     32.7740     71.5866
  1401.7500   -168.7186     23.3765     27.0590     33.4212     72.7977
  1402.0000   -168.6280     23.5843     27.3810     34.6931     74.0816
  1402.2500   -168.5685     23.7387     27.7170     36.8691     74.1810
  1402.5000   -168.5321     23.8702     28.0437     39.7001     72.8336
  1402.7500   -168.4939     23.9997     28.3340     42.4373     71.0884
  1403.0000   -168.4216     24.1295     28.5599     44.3748     68.1428
  1403.2500   -168.2864     24.2479     28.6954     45.3996     66.6961
  1403.5000   -168.0707     24.3391     28.7209     46.0107     66.0128
  1403.7500   -167.7699     24.3925     28.6265     46.7832     66.2787
  1404.0000   -167.3908     24.4056     28.4142     47.7416     66.6149
  1404.2500   -166.9532     24.3840     28.0985     48.1736     66.4458
  1404.5000   -166.4938     24.3392     27.7050     47.1138     66.2597
  1404.7500   -166.0613     24.2849     27.2670     44.1755     66.9340
  1405.0000   -165.7003     24.2313     26.8217     39.9741     69.8990
  1405.2500   -165.4319     24.1849     26.4066     35.7153     73.0850
  1405.5000   -165.2442     24.1536     26.0569     32.3809     78.9228
  1405.7500   -165.1008     24.1528     25.8036     30.2681     82.9052
  1406.0000   -164.9643     24.2040     25.6734     29.1312     87.9190
  1406.2500   -164.8173     24.3267     25.6890     28.6038     90.2425
  1406.5000   -164.6671     24.5304     25.8695     28.5154     92.2123
  1406.7500   -164.5361     24.8168     26.2318     28.9702     92.6263
