~Version Information
VERS.                      2.0: CWLS Log ASCII Standard - VERSION 2.0
WRAP.                       NO: One line per depth step
~Well Information Block
STRT.FT                -3.5000: 
STOP.FT              1745.0000: 
STEP.FT                 0.2500: 
NULL.                -999.2500: 
COMP.          Pioneer Natural Resources: COMPANY
WELL.           Labrador 34-30: WELL
FLD.           Purgatorie River: FIELD
LOC.           926' FSL & 2080' FEL--: LOCATION
PROV.                       CO: PROVINCE
CNTY.               Las Animas: COUNTRY
SRVC.                         : SERVICE COMPANY
DATE.          Fri Dec 10 09:58:23 2004: LOG DATE
UWI.                071-08202 : UNIQUE WELL ID
~Curve Information Block
DEPT.FT            0 000 00 00: Depth
GR.GAPI                       : Gamma Ray
CCL.                          : Casing Collar Locator
TT3.usec                      : CBL 3' Travel Time
AMP3.mV                       : CBL 3' Amplitude
~Parameter Information Block
~A  Depth        GR         CCL         TT3         AMP3    
# ...
    97.0000     70.0408      0.0000    911.1736     21.0252
    97.2500     69.6795      0.0000    899.4684     20.4573
    97.5000     70.0298      0.0000    882.0558     19.9282
    97.7500     70.9360      0.0000    861.7331     19.5066
    98.0000     71.6132      0.0000    843.3058     19.1928
    98.2500     71.8020      0.0000    830.7876     18.9178
    98.5000     71.8217      0.0000    824.7657     18.6064
    98.7500     71.8014      0.0000    821.8502     18.2428
    99.0000     71.7147      0.0000    817.1804     17.8798
    99.2500     72.0560      0.0000    808.5593     17.5981
    99.5000     73.6146      0.0000    798.2572     17.4592
    99.7500     76.3914      0.0000    790.7833     17.4733
   100.0000     79.4049      0.0000    789.8110     17.5964
   100.2500     81.8769      0.0000    797.1013     17.7613
   100.5000     84.0305      0.0000    812.1811     17.9254
   100.7500     86.4053      0.0000    831.4229     18.0948
   101.0000     88.8843      0.0000    848.4959     18.3037
   101.2500     90.7361      0.0000    858.0002     18.5728
   101.5000     91.3339      0.0000    859.3924     18.8839
   101.7500     90.6524      0.0000    856.5542     19.1855
   102.0000     89.1900      0.0000    853.4675     19.4127
   102.2500     87.5899      0.0000    851.5440     19.5034
   102.5000     86.3979      0.0000    851.2375     19.4159
   102.7500     85.9322      0.0000    853.6931     19.1572
   103.0000     86.0312      0.0000    858.7386     18.7992
   103.2500     86.1413      0.0000    862.7019     18.4469
   103.5000     85.9871      0.0000    860.9183     18.1734
   103.7500     86.1074      0.0000    852.5543     17.9820
   104.0000     87.4886      0.0000    841.4611     17.8273
   104.2500     90.5863      0.0000    832.3938     17.6591
   104.5000     94.7505      0.0000    827.6740     17.4462
   104.7500     98.6989      0.0000    827.3149     17.1765
   105.0000    101.4773      0.0000    830.5668     16.8558
   105.2500    102.7867      0.0000    836.1758     16.5115
   105.5000    102.6410      0.0000    841.6067     16.1921
   105.7500    101.3457      0.0000    843.5299     15.9533
   106.0000     99.9264      0.0000    840.0097     15.8394
   106.2500     99.9478      0.0000    831.8118     15.8651
   106.5000    102.2571      0.0000    821.1828     16.0036
   106.7500    105.8035      0.0000    810.0718     16.1943
   107.0000    108.1775      0.0000    799.8502     16.3749
   107.2500    107.6772      0.0000    791.6614     16.5114
   107.5000    104.6418      0.0000    786.1467     16.5970
   107.7500    100.6441      0.0000    783.0917     16.6353
   108.0000     96.7725      0.0000    781.7673     16.6390
   108.2500     93.0417      0.0000    781.6238     16.6357
   108.5000     89.1002      0.0000    782.6929     16.6541
   108.7500     84.8882      0.0000    785.5861     16.7013
   109.0000     80.7236      0.0000    791.1316     16.7632
   109.2500     77.5268      0.0000    799.9724     16.8303
   109.5000     76.9488      0.0000    812.6111     16.9130
   109.7500     80.2291      0.0000    829.6112     17.0287
   110.0000     86.4734      0.0000    850.7796     17.1823
   110.2500     92.7169      0.0000    873.6855     17.3741
   110.5000     96.0818      0.0000    894.0095     17.6200
   110.7500     95.5103      0.0000    908.3115     17.9446
   111.0000     91.4730      0.0000    916.1752     18.3401
   111.2500     84.9064      0.0000    919.5346     18.7391
   111.5000     77.0384      0.0000    920.6479     19.0476
   111.7500     69.7684      0.0000    920.8925     19.2138
   112.0000     65.2823      0.0000    920.6799     19.2639
   112.2500     64.7358      0.0000    919.3201     19.2776
   112.5000     67.2533      0.0000    913.9055     19.3387
   112.7500     70.3080      0.0000    897.2260     19.5030
   113.0000     71.1737      0.0000    857.2108     19.7914
   113.2500     68.4566      0.0000    782.4883     20.1909
   113.5000     62.9145      0.0000    673.9327     20.6474
   113.7500     56.9985      0.0000    551.7806     21.0637
   114.0000     53.0915      0.0000    447.1251     21.3299
   114.2500     51.7260      0.0000    383.8274     21.3842
   114.5000     51.5885      0.0000    367.5120     21.2530
   114.7500     51.3425      0.0000    386.1826     21.0352
   115.0000     51.2073      0.0000    416.2144     20.8437
   115.2500     52.5933      0.0000    433.5928     20.7517
   115.5000     56.4245      0.0000    430.1828     20.7678
   115.7500     62.1406      0.0000    419.4029     20.8467
   116.0000     68.2091      0.0000    419.2727     20.9238
   116.2500     73.2070      0.0000    429.8748     20.9581
   116.5000     76.3642      0.0000    433.1613     20.9560
   116.7500     77.5690      0.0000    414.8120     20.9629
   117.0000     77.3674      0.0000    379.8306     21.0368
   117.2500     76.8356      0.0000    344.7801     21.2292
   117.5000     76.8508      0.0000    321.0489     21.5763
   117.7500     77.2996      0.0000    309.2109     22.0839
   118.0000     77.5256      0.0000    304.5120     22.6994
   118.2500     77.7643      0.0000    302.8308     23.2990
   118.5000     79.4257      0.0000    302.2036     23.7258
   118.7500     83.3817      0.0000    301.9861     23.8733
   119.0000     88.5637      0.0000    301.9981     23.7507
   119.2500     92.8996      0.0000    302.1142     23.4717
   119.5000     95.1400      0.0000    302.2426     23.1894
   119.7500     95.1880      0.0000    302.3150     23.0397
   120.0000     93.4897      0.0000    302.2946     23.1111
   120.2500     91.0781      0.0000    302.1750     23.4210
   120.5000     89.7278      0.0000    301.9835     23.8941
   120.7500     91.1280      0.0000    301.7790     24.3738
   121.0000     95.7100      0.0000    301.6299     24.6827
   121.2500    102.1305      0.0000    301.5811     24.7137
   121.5000    107.7479      0.0000    301.6377     24.4885
   121.7500    110.0768      0.0000    301.7696     24.1471
   122.0000    108.4388      0.0000    301.9191     23.8743
   122.2500    104.3800      0.0000    302.0190     23.7989
   122.5000    100.3756      0.0000    302.0315     23.9091
   122.7500     98.0342      0.0000    301.9844     24.0517
   123.0000     97.4962      0.0000    301.9953     24.0427
   123.2500     98.2497      0.0000    302.3092     23.7994
   123.5000     99.8962      0.0000    303.7040     23.3639
   123.7500    101.8440      0.0000    308.6370     22.8211
   124.0000    102.8583      0.0000    322.7570     22.2259
   124.2500    101.7462      0.0000    354.2088     21.6064
   124.5000     98.7592      0.0000    407.1317     21.0043
   124.7500     95.8804      0.0000    471.7199     20.4887
   125.0000     95.1800      0.0000    523.9773     20.1211
   125.2500     96.8452      0.0000    542.9399     19.9034
   125.5000     99.1210      0.0000    528.2535     19.7750
   125.7500    100.0729      0.0000    495.1335     19.6830
   126.0000     98.9899      0.0000    455.5909     19.6526
   126.2500     96.1003      0.0000    413.1294     19.7642
   126.5000     91.5957      0.0000    371.6459     20.0639
   126.7500     85.4768      0.0000    338.4094     20.5125
   127.0000     78.2182      0.0000    317.7911     21.0073
   127.2500     71.1768      0.0000    308.0594     21.4285
   127.5000     66.3403      0.0000    304.8308     21.6846
   127.7500     65.6611      0.0000    305.3894     21.7580
   128.0000     70.0560      0.0000    310.9486     21.7211
   128.2500     78.3712      0.0000    328.1042     21.6688
   128.5000     87.4674      0.0000    368.6511     21.5836
   128.7500     93.9999      0.0000    443.7218     21.2886
   129.0000     96.4676      0.0000    552.3984     20.6126
   129.2500     95.5613      0.0000    675.1885     19.6190
   129.5000     92.8451      0.0000    783.3609     18.5903
   129.7500     89.5745      0.0000    857.5912     17.7701
   130.0000     86.7420      0.0000    897.0376     17.1857
   130.2500     85.4877     -2.0000    912.3997     16.7115
