~Version Information
VERS.                      2.0: CWLS Log ASCII Standard - VERSION 2.0
WRAP.                       NO: One line per depth step
~Well Information Block
STRT.FT               590.0000: 
STOP.FT              1563.5000: 
STEP.FT                 0.2500: 
NULL.                -999.2500: 
COMP.          Petrogulf Corporation: COMPANY
WELL.             State 16-43R: WELL
FLD.           Purgatorie River: FIELD
LOC.           2538' FSL & 716' FEL: LOCATION
PROV.                 Colorado: PROVINCE
CNTY.               Las Animas: COUNTRY
SRVC.                Patterson: SERVICE COMPANY
DATE.          Tue Aug 09 14:21:37 2005: LOG DATE
UWI.                          : UNIQUE WELL ID
~Curve Information Block
DEPT.FT            0 000 00 00: Depth
RILD.Ohm-m                    : DIL Deep Resistivity
RILM.Ohm-m                    : DIL Medium Resistivity
GR.GAPI                       : Gamma Ray
~Parameter Information Block
~A  Depth       RILD        RILM         GR     
# ...
   882.2500      9.7132      8.5363    151.5632
   882.5000      9.7413      8.6961    136.5662
   882.7500      9.6902      9.2258    135.1664
   883.0000      9.4641      9.8885    110.3851
   883.2500      9.2987     10.5452     95.4909
   883.5000      9.2145     11.0079     95.5461
   883.7500      8.7893     11.6021     92.1664
   884.0000      8.7183     11.2800     97.9627
   884.2500      8.6979     10.7376    107.6551
   884.5000      8.4601      9.9799    129.7157
   884.7500      8.3552      9.2439    136.9911
   885.0000      8.2668      8.5026    141.9454
   885.2500      8.1856      8.0190    151.3700
   885.5000      8.0378      7.8212    150.9183
   885.7500      7.6954      7.4416    153.1353
   886.0000      7.5696      7.2491    148.3177
   886.2500      7.4978      7.0726    152.2410
   886.5000      7.3557      6.7884    149.9724
   886.7500      7.1237      6.6714    148.0707
   887.0000      6.9324      6.5830    149.9187
   887.2500      6.9146      6.4983    158.8113
   887.5000      6.9626      6.6625    157.9182
   887.7500      6.8521      6.7448    145.5560
   888.0000      6.9222      6.9260    144.5260
   888.2500      6.8780      7.1900    143.3121
   888.5000      6.9163      7.4282    137.5418
   888.7500      6.9687      7.5769    132.6332
   889.0000      7.1028      7.5808    125.6756
   889.2500      7.0432      7.5658    124.6450
   889.5000      7.1933      7.6929    126.8105
   889.7500      7.2882      7.6126    126.3942
   890.0000      7.3789      7.5844    131.2995
   890.2500      7.5034      7.6051    125.6636
   890.5000      7.5121      7.7162    134.6996
   890.7500      7.5261      7.8063    133.0526
   891.0000      7.4824      7.7475    138.3521
   891.2500      7.4910      7.5999    135.8656
   891.5000      7.4945      7.6509    136.1844
   891.7500      7.5413      7.4791    142.1534
   892.0000      7.6216      7.5672    139.0657
   892.2500      7.4988      7.5945    142.8383
   892.5000      7.5193      7.7591    137.2160
   892.7500      7.5123      7.8256    140.1239
   893.0000      7.4648      7.9382    136.0470
   893.2500      7.5869      7.8061    139.2090
   893.5000      7.5892      7.7599    141.4564
   893.7500      7.6150      7.7005    134.6784
   894.0000      7.6847      7.6486    137.1598
   894.2500      7.9410      7.6143    136.9230
   894.5000      8.3114      7.5459    142.1863
   894.7500      8.5293      7.6828    135.7784
   895.0000      8.6993      7.7590    136.0084
   895.2500      8.9685      8.2121    132.4987
   895.5000      9.0490      8.9563    120.5257
   895.7500      8.9827      9.5618    117.1562
   896.0000      9.0229     10.4022    115.1292
   896.2500      9.0454     10.7364    115.5484
   896.5000      8.9535     10.7537    133.3038
   896.7500      8.8717     10.3154    141.9948
   897.0000      8.9016      9.6854    157.4430
   897.2500      9.0682      9.3627    151.4043
   897.5000      9.3660      9.1646    154.1606
   897.7500      9.4252      9.1348    154.8837
   898.0000      9.5196      9.1629    150.6497
   898.2500      9.5983      9.2632    145.0656
   898.5000      9.4522      9.2964    151.1754
   898.7500      9.3137      9.3429    158.4291
   899.0000      9.1156      9.2129    153.4771
   899.2500      8.7720      9.1660    149.4989
   899.5000      8.5844      9.2094    156.4205
   899.7500      8.4371      9.0801    161.0524
   900.0000      8.2234      8.7674    156.6024
   900.2500      8.3059      8.7014    156.1173
   900.5000      8.3969      8.5053    170.0261
   900.7500      8.3634      8.2595    168.6179
   901.0000      8.4496      8.1901    160.2100
   901.2500      8.5734      8.1983    172.2584
   901.5000      8.6360      8.2992    178.2487
   901.7500      8.4813      8.5454    191.1113
   902.0000      8.4622      8.7042    217.1872
   902.2500      8.2994      8.8000    204.4701
   902.5000      8.1994      8.7162    193.8144
   902.7500      8.1651      8.5484    170.5874
   903.0000      8.2872      8.5019    148.2504
   903.2500      8.2468      8.3265    141.1462
   903.5000      8.3250      8.3599    130.7205
   903.7500      8.3586      8.4678    130.3949
   904.0000      8.2571      8.4467    124.2264
   904.2500      8.4642      8.4991    125.8282
   904.5000      8.5086      8.5558    118.3433
   904.7500      8.4032      8.5711    119.0280
   905.0000      8.5115      8.5063    124.3090
   905.2500      8.5984      8.5479    127.6087
   905.5000      8.6102      8.5933    130.5045
   905.7500      8.5441      8.7153    129.4828
   906.0000      8.6634      8.9185    114.3991
   906.2500      8.6491      9.0638    119.1707
   906.5000      8.7099      9.2247    127.3696
   906.7500      8.7070      9.1213    125.4772
   907.0000      8.6566      9.1522    126.4248
   907.2500      8.8537      9.0173    125.6629
   907.5000      9.1333      9.0520    121.3425
   907.7500      8.9800      9.2605    126.2612
   908.0000      9.3165      9.0848    124.3314
   908.2500      9.6855      9.2685    126.0162
   908.5000      9.7789      9.7301    126.5526
   908.7500      9.7804     10.0406    128.5321
   909.0000     10.0206     10.2341    141.7257
   909.2500     10.0347     10.5634    145.0059
   909.5000      9.9895     10.9781    145.4060
   909.7500     10.0908     10.9609    149.0363
   910.0000     10.0855     10.8317    150.4272
   910.2500     10.1627     10.6964    149.2625
   910.5000     10.4109     10.6971    171.4932
   910.7500     10.8533     10.8271    182.4039
   911.0000     11.2173     10.7339    175.1454
   911.2500     11.7005     10.8143    171.6043
   911.5000     12.0027     11.4724    170.7466
   911.7500     12.5688     11.8310    158.6589
   912.0000     12.8577     12.1456    153.8052
   912.2500     13.1732     12.7845    142.5782
   912.5000     13.1876     13.9216    122.9291
   912.7500     14.1114     14.5519    114.6785
   913.0000     14.5350     15.2567    100.2751
   913.2500     15.2258     16.7837    102.5155
   913.5000     15.3931     17.8833     95.1489
   913.7500     17.2225     18.6308     99.0589
   914.0000     18.2931     20.3750     98.9460
   914.2500     19.6366     21.1451     98.1627
   914.5000     20.0327     22.6525    105.6758
   914.7500     21.3621     24.1302    102.2169
   915.0000     22.7605     24.9068    101.6151
   915.2500     22.2902     26.9907    100.1215
   915.5000     23.2441     27.0769    100.0190
   915.7500     23.4352     27.8589    102.1643
   916.0000     24.0900     28.0675    105.0568
   916.2500     24.2478     28.7541    100.8909
   916.5000     25.1364     27.2489    100.3846
   916.7500     25.9549     28.7020    100.4932
   917.0000     25.2543     27.9468     93.3670
   917.2500     25.5155     28.4720    105.4306
   917.5000     25.3624     27.2208    103.6037
   917.7500     25.7996     26.5873    102.2964
   918.0000     27.0053     27.7872    111.2940
   918.2500     25.9729     29.1996    116.0815
   918.5000     26.5408     27.9924    114.4691
   918.7500     27.0752     28.1224    105.6157
   919.0000     25.7383     29.2883    102.6377
   919.2500     25.8107     28.7073    106.7550
   919.5000     26.1036     31.1709    101.5865
   919.7500     25.2430     29.9706     92.3241
   920.0000     25.9999     30.8183     89.9418
   920.2500     26.8610     29.7060     91.7638
   920.5000     27.7397     28.9036     94.9608
   920.7500     26.7859     30.6776     96.8656
   921.0000     26.8339     30.3437     96.9852
   921.2500     27.2845     30.5551    100.5486
   921.5000     27.1301     29.5797    101.4815
   921.7500     28.5160     29.1388    108.8559
   922.0000     26.1019     29.5632    104.0493
   922.2500     27.3795     29.3077    101.3695
   922.5000     27.5862     29.7400    103.4635
   922.7500     28.8753     30.7479    106.3722
   923.0000     29.3388     30.0266    103.9560
   923.2500     29.3398     30.8584     92.7839
   923.5000     29.8933     32.5442     91.2921
   923.7500     29.9692     32.5985     87.8313
