~Version Information
 VERS.                                  2.0 : CWLS LAS VERSION
 WRAP.                                   NO : WRAPING MODE
 SWARE .                 MController 2.5.0I : SOFTWARE VERSION
~Well Information
 WELL.                        Montoya 6-14v : WELL
 COMP.                       Petrogulf Corp : COMPANY
 FLD.                      Purgatorie River : FIELD
 LOC.                 SW/SW Sec 6 T33S R67W : LOCATION
 DATE.                              8/12/04 : DATE(S) LOGGED
 SRVC.       Blanco Geological Services LLC : SERVICE COMPANY
 STAT.                                   CO : STATE
 CNTY.                           Las Animas : COUNTY
 CTRY.                                  USA : COUNTRY
 API.                       05-071-08070-00 : API NUMBER
 STRT.FT                             803.00 : START DEPTH
 STOP.FT                            2673.00 : STOP DEPTH
 STEP.FT                               1.00 : DEPTH INCREMENT
 NULL.                                -9999 : NULL VALUE
~Curve information
 DEPTH.FT                                   :
 ROP.MIN/FT                                 :
 GAS.UNITS                                  :
~ASCII Log data
# ...
      1003.0          0.2          1.3 
      1004.0          0.2          1.5 
      1005.0          0.2          1.4 
      1006.0          0.2          1.3 
      1007.0          0.1          1.5 
      1008.0          0.2          1.4 
      1009.0          0.2          1.4 
      1010.0          0.2          1.3 
      1011.0          0.2          1.4 
      1012.0          0.2          1.5 
      1013.0          0.2          1.5 
      1014.0          0.2          1.6 
      1015.0          0.2          1.7 
      1016.0          0.2          1.5 
      1017.0          0.2          1.6 
      1018.0          2.0          1.8 
      1019.0          0.4          1.7 
      1020.0          0.3          1.5 
      1021.0          0.3          1.8 
      1022.0          0.3          1.7 
      1023.0          0.2          1.7 
      1024.0          0.3          1.7 
      1025.0          0.2          1.6 
      1026.0          0.2          1.7 
      1027.0          0.2          1.5 
      1028.0          0.2          1.7 
      1029.0          0.2          1.6 
      1030.0          0.1          1.6 
      1031.0          0.2          1.6 
      1032.0          0.1          1.4 
      1033.0          0.2          1.6 
      1034.0          0.2          1.4 
      1035.0          0.2          1.6 
      1036.0          0.2          1.9 
      1037.0          0.2          1.6 
      1038.0          0.2          1.3 
      1039.0          0.2          1.2 
      1040.0          0.2          1.0 
      1041.0          0.2          1.3 
      1042.0          0.2          1.4 
      1043.0          0.2          1.3 
      1044.0          0.3          1.5 
      1045.0          0.3          1.5 
      1046.0          0.2          1.6 
      1047.0          0.2          1.3 
      1048.0          2.9          1.8 
      1049.0          0.4          1.7 
      1050.0          0.3          1.7 
      1051.0          0.4          1.6 
      1052.0          0.3          1.7 
      1053.0          0.4          1.8 
      1054.0          0.2          1.4 
      1055.0          0.2          1.7 
      1056.0          0.4          1.6 
      1057.0          0.3          1.6 
      1058.0          0.2          1.4 
      1059.0          0.2          1.5 
      1060.0          0.2          1.7 
      1061.0          0.2          1.5 
      1062.0          0.1          1.4 
      1063.0          0.3          1.6 
      1064.0          0.3          1.7 
      1065.0          0.3          1.5 
      1066.0          0.2          1.3 
      1067.0          0.1          1.2 
      1068.0          0.1          1.3 
      1069.0          0.2          1.4 
      1070.0          0.2          1.4 
      1071.0          0.2          1.5 
      1072.0          0.2          1.4 
      1073.0          0.2          1.4 
      1074.0          0.2          1.4 
      1075.0          0.2          1.3 
      1076.0          0.2          1.3 
      1077.0          0.2          1.3 
      1078.0          2.2          1.7 
      1079.0          0.2          1.5 
      1080.0          0.2          1.5 
      1081.0          0.2          1.4 
      1082.0          0.3          1.3 
      1083.0          0.2          1.4 
      1084.0          0.2          1.4 
      1085.0          0.2          1.4 
      1086.0          0.1          1.1 
      1087.0          0.1          1.3 
      1088.0          0.1          1.3 
      1089.0          0.1          1.2 
      1090.0          0.1          1.3 
      1091.0          0.1          1.2 
      1092.0          0.2          1.1 
      1093.0          0.2          1.1 
      1094.0          0.2          1.4 
      1095.0          0.2          1.6 
      1096.0          0.2          1.6 
      1097.0          0.2          1.5 
      1098.0          0.2          1.2 
      1099.0          0.1          1.0 
      1100.0          0.2          1.1 
      1101.0          0.2          1.0 
      1102.0          0.2          0.9 
      1103.0          0.3          1.2 
      1104.0          0.3          0.8 
      1105.0          0.2          0.4 
      1106.0          0.1          0.3 
      1107.0          0.1          0.5 
      1108.0          8.1          1.4 
      1109.0          0.4          0.7 
      1110.0          0.2          0.9 
      1111.0          0.3          0.9 
      1112.0          0.2          0.7 
      1113.0          0.2          0.6 
      1114.0          0.2          0.6 
      1115.0          0.3          0.3 
      1116.0          0.2          0.3 
      1117.0          0.2          0.6 
      1118.0          0.3          0.4 
      1119.0          0.2          0.4 
      1120.0          0.2          2.3 
      1121.0          0.2          1.8 
      1122.0          0.2          1.7 
      1123.0          0.2          1.6 
      1124.0          0.2          1.7 
      1125.0          0.2          1.7 
      1126.0          0.2          1.8 
      1127.0          0.2          1.7 
      1128.0          0.2          1.8 
      1129.0          0.2          1.7 
      1130.0          0.3          1.7 
      1131.0          0.3          1.7 
      1132.0          0.3          2.0 
      1133.0          0.3          2.0 
      1134.0          0.3          2.1 
      1135.0          0.3          2.0 
      1136.0          0.3          2.1 
      1137.0          0.2          2.0 
      1138.0          1.3          2.1 
      1139.0          0.2          1.9 
      1140.0          0.1          1.7 
      1141.0          0.2          2.0 
      1142.0          0.1          1.8 
      1143.0          0.1          1.8 
      1144.0          0.2          1.7 
      1145.0          0.3          1.9 
      1146.0          0.2          2.1 
      1147.0          0.2          1.9 
      1148.0          0.2          1.9 
      1149.0          0.2          1.8 
      1150.0          0.2          1.8 
      1151.0          0.2          2.0 
      1152.0          0.2          2.0 
      1153.0          0.2          1.9 
      1154.0          0.2          1.8 
      1155.0          0.1          1.9 
      1156.0          0.1          1.8 
      1157.0          0.2          1.9 
      1158.0          0.2          2.1 
      1159.0          0.2          2.0 
      1160.0          0.2          2.0 
      1161.0          0.2          2.0 
      1162.0          0.2          1.9 
      1163.0          0.2          2.0 
      1164.0          0.2          2.2 
      1165.0          0.3          1.9 
      1166.0          0.2          2.0 
      1167.0          0.3          2.1 
      1168.0          1.8          2.3 
      1169.0          0.4          2.0 
      1170.0          0.3          2.1 
      1171.0          0.3          2.1 
      1172.0          0.2          2.1 
      1173.0          0.2          1.8 
      1174.0          0.1          2.0 
      1175.0          0.2          2.0 
      1176.0          0.3          1.9 
      1177.0          0.2          1.9 
      1178.0          0.2          1.9 
      1179.0          0.2          1.9 
      1180.0          0.2          2.2 
      1181.0          0.2          2.0 
      1182.0          0.2          1.9 
      1183.0          0.2          1.9 
      1184.0          0.2          1.9 
      1185.0          0.2          1.9 
      1186.0          0.1          2.1 
      1187.0          0.2          2.0 
      1188.0          0.2          2.0 
      1189.0          0.2          1.9 
      1190.0          0.2          2.0 
      1191.0          0.2          2.1 
      1192.0          0.2          2.1 
      1193.0          0.2          2.2 
      1194.0          0.2          1.9 
      1195.0          0.2          1.9 
      1196.0          0.1          1.8 
      1197.0          0.3          2.0 
      1198.0          2.2          2.3 
      1199.0          0.4          2.0 
      1200.0          0.3          2.1 
      1201.0          0.2          2.0 
      1202.0          0.3          2.0 
