~Version Information
VERS.                      2.0: CWLS Log ASCII Standard - VERSION 2.0
WRAP.                       NO: One line per depth step
~Well Information Block
STRT.FT               -16.0000: 
STOP.FT              2454.2500: 
STEP.FT                 0.2500: 
NULL.                -999.2500: 
COMP.                         : COMPANY
WELL.                         : WELL
FLD.                          : FIELD
LOC.                          : LOCATION
CNTY.                         : COUNTY
SRVC.                         : SERVICE COMPANY
DATE.          Tue Aug 31 08:09:44 2004: LOG DATE
UWI.                          : UNIQUE WELL ID
STAT.                         : STATE
~Curve Information Block
DEPT.FT            0 000 00 00: Depth
GR.GAPI                       : Gamma Ray
CCL.                          : Casing Collar Locator
TT3.usec                      : CBL 3' Travel Time
AMP3.mV                       : CBL 3' Amplitude
~Parameter Information Block
~A  Depth        GR         CCL         TT3         AMP3    
# ...
  1793.0000    109.1172      0.0000    695.5790      8.6520
  1793.2500    107.6766      0.0000    661.2761      8.7394
  1793.5000    106.3338      0.0000    650.4597      8.7270
  1793.7500    104.6776      0.0000    667.4167      8.6483
  1794.0000    102.5275      0.0000    683.6438      8.5377
  1794.2500    100.4851      0.0000    681.4303      8.4025
  1794.5000     99.3852      0.0000    655.7205      8.2435
  1794.7500     99.3362      0.0000    607.3902      8.0776
  1795.0000     99.6735      0.0000    551.8158      7.9354
  1795.2500     99.7472      0.0000    506.4828      7.8415
  1795.5000     99.4041      0.0000    475.9941      7.8005
  1795.7500     98.8443      0.0000    457.9178      7.7965
  1796.0000     98.2929      0.0000    449.2748      7.7913
  1796.2500     97.7898      0.0000    447.2657      7.7338
  1796.5000     97.1511      0.0000    450.6260      7.5847
  1796.7500     96.1561      0.0000    458.9371      7.3516
  1797.0000     94.9252      0.0000    469.4519      7.0955
  1797.2500     94.1743      0.0000    477.5989      6.8801
  1797.5000     94.8491      0.0000    481.3216      6.7309
  1797.7500     97.0784      0.0000    481.7048      6.6456
  1798.0000     99.3925      0.0000    479.1856      6.6161
  1798.2500     99.3633      0.0000    471.9944      6.6208
  1798.5000     95.3269      0.0000    461.1296      6.6197
  1798.7500     87.4429      0.0000    458.8709      6.5836
  1799.0000     77.2862      0.0000    487.2699      6.5110
  1799.2500     66.9315      0.0000    551.4344      6.4216
  1799.5000     58.4976      0.0000    610.1393      6.3650
  1799.7500     53.8933      0.0000    607.5949      6.3756
  1800.0000     54.2631      0.0000    546.4344      6.3843
  1800.2500     59.4743      0.0000    485.6442      6.2624
  1800.5000     68.0837      0.0000    471.1900      5.9729
  1800.7500     77.6427      0.0000    511.7154      5.5853
  1801.0000     85.3293      0.0000    596.6420      5.1583
  1801.2500     89.0436      0.0000    699.3517      4.7223
  1801.5000     88.3255      0.0000    788.3045      4.3662
  1801.7500     84.2025      0.0000    855.0442      4.2264
  1802.0000     78.2897      0.0000    905.1702      4.3545
  1802.2500     72.2144      0.0000    929.7592      4.6588
  1802.5000     67.5859      0.0000    920.4884      5.0013
  1802.7500     65.8162      0.0000    892.3688      5.2894
  1803.0000     67.5236      0.0000    865.2772      5.4915
  1803.2500     72.1930      0.0000    845.9276      5.6344
  1803.5000     78.5873      0.0000    833.6813      5.7741
  1803.7500     85.3965      0.0000    827.4811      5.9325
  1804.0000     91.5304      0.0000    825.1798      6.0811
  1804.2500     96.2792      0.0000    823.0870      6.2074
  1804.5000     99.6128      0.0000    819.9928      6.3422
  1804.7500    102.1300      0.0000    816.1719      6.4818
  1805.0000    104.3168      0.0000    805.3951      6.5461
  1805.2500    105.8476      0.0000    771.1403      6.4755
  1805.5000    105.7627      0.0000    700.3135      6.3264
  1805.7500    103.2356      0.0000    608.5984      6.2123
  1806.0000     98.1017      0.0000    533.5416      6.1731
  1806.2500     90.7934      0.0000    495.8873      6.1618
  1806.5000     81.9583      0.0000    491.7852      6.1228
  1806.7500     72.3932      0.0000    514.2570      6.0387
  1807.0000     63.3543      0.0000    550.6151      5.9291
  1807.2500     56.3594      0.0000    569.5743      5.8349
  1807.5000     52.1690      0.0000    549.8636      5.7744
  1807.7500     50.1537      0.0000    509.9717      5.7231
  1808.0000     48.9935      0.0000    479.6213      5.6683
  1808.2500     47.8350      0.0000    467.9262      5.6343
  1808.5000     46.6028      0.0000    469.0407      5.6267
  1808.7500     45.4634      0.0000    474.1953      5.6186
  1809.0000     44.3875      0.0000    477.6519      5.5981
  1809.2500     43.3404      0.0000    478.6449      5.5775
  1809.5000     42.6722      0.0000    478.5918      5.5640
  1809.7500     43.0950      0.0000    478.4774      5.5571
  1810.0000     45.2280      0.0000    478.8527      5.5524
  1810.2500     49.2010      0.0000    481.3796      5.5272
  1810.5000     54.7203      0.0000    491.8468      5.4426
  1810.7500     61.4915      0.0000    521.0175      5.2691
  1811.0000     69.4764      0.0000    571.8964      5.0612
  1811.2500     78.6217      0.0000    619.3863      4.9778
  1811.5000     88.3561      0.0000    625.5407      5.0996
  1811.7500     97.4031      0.0000    591.4297      5.3010
  1812.0000    104.2473      0.0000    563.6766      5.4312
  1812.2500    108.0632      0.0000    577.5850      5.4768
  1812.5000    109.3117      5.0000    623.2465      5.4991
  1812.7500    109.3114      5.0000    672.1248      5.5656
  1813.0000    109.2286      0.0000    710.3997      5.7315
  1813.2500    109.5226      0.0000    734.0637      5.9898
  1813.5000    110.1756      0.0000    738.7033      6.2853
  1813.7500    111.0692      0.0000    728.6296      6.6419
  1814.0000    111.9438      0.0000    714.3842      7.1405
  1814.2500    112.3317      0.0000    709.6152      7.6919
  1814.5000    112.0278      0.0000    727.5493      8.1218
  1814.7500    111.5606      0.0000    759.2575      8.4340
  1815.0000    111.6471      0.0000    783.0914      8.6632
  1815.2500    112.0511      0.0000    791.7485      8.7391
  1815.5000    111.5497      0.0000    786.3787      8.6650
  1815.7500    109.3939      0.0000    761.2775      8.5415
  1816.0000    106.3161      0.0000    709.5255      8.4287
  1816.2500    103.6393      0.0000    639.5404      8.3375
  1816.5000    101.9583      0.0000    572.2275      8.2828
  1816.7500    101.1739      0.0000    520.9204      8.2847
  1817.0000    101.1125      0.0000    487.1136      8.3463
  1817.2500    101.4621      0.0000    468.8773      8.4474
  1817.5000    101.7683      0.0000    463.8855      8.5467
  1817.7500    102.1254      0.0000    470.3936      8.5934
  1818.0000    103.2618      0.0000    485.8383      8.5538
  1818.2500    105.3575      0.0000    502.5488      8.4377
  1818.5000    107.2517      0.0000    512.0067      8.3050
  1818.7500    107.4039      0.0000    513.6117      8.2301
  1819.0000    105.5384      0.0000    512.2570      8.2322
  1819.2500    102.9757      0.0000    511.1107      8.2592
  1819.5000    101.2685      0.0000    511.0101      8.2632
  1819.7500    100.7346      0.0000    514.0330      8.2488
  1820.0000    100.3549      0.0000    527.4788      8.2280
  1820.2500     98.7796      0.0000    563.5690      8.1930
  1820.5000     95.3815      0.0000    627.0368      8.1463
  1820.7500     90.8456      0.0000    700.6762      8.1125
  1821.0000     87.0039      0.0000    756.7737      8.1028
  1821.2500     85.5490      0.0000    784.6693      8.0826
  1821.5000     86.4969      0.0000    793.7404      8.0019
  1821.7500     88.1507      0.0000    795.7975      7.8547
  1822.0000     88.7703      0.0000    796.3044      7.6868
  1822.2500     88.1049      0.0000    796.3895      7.5477
  1822.5000     87.1454      0.0000    794.7415      7.4458
  1822.7500     86.6373      0.0000    786.2549      7.3582
  1823.0000     86.3289      0.0000    763.4763      7.2706
  1823.2500     85.8380      0.0000    730.7841      7.1966
  1823.5000     85.7161      0.0000    713.6934      7.1735
  1823.7500     86.9767      0.0000    729.9165      7.2253
  1824.0000     89.5530      0.0000    761.9548      7.3235
  1824.2500     91.9468      0.0000    782.8715      7.4063
  1824.5000     92.8144      0.0000    782.7708      7.4392
  1824.7500     92.3485      0.0000    758.4556      7.4259
  1825.0000     91.5117      0.0000    708.4623      7.3679
  1825.2500     90.3440      0.0000    648.0083      7.2741
  1825.5000     87.7963      0.0000    606.9150      7.2028
  1825.7500     83.1289      0.0000    603.9904      7.2333
  1826.0000     76.9160      0.0000    633.8348      7.3837
  1826.2500     70.7594      0.0000    672.4629      7.5832
