~Version Information
VERS.                      2.0: CWLS Log ASCII Standard - VERSION 2.0
WRAP.                       NO: One line per depth step
~Well Information Block
STRT.FT               650.0000: 
STOP.FT              2000.5000: 
STEP.FT                 0.1000: 
NULL.                -999.2500: 
COMP.          Pioneer Natural Resources: COMPANY
WELL.           Firehawk 34-26: WELL
FLD.           Purgatoire River: FIELD
LOC.           1196' FSL & 1595' FEL--: LOCATION
STAT.                 Colorado: State
CNTY.               Las Animas: COUNTY
CTRY. USA : Country
SECT. 26 : Section
TOWN. 32S : Township
RANG. 66W : Range
SRVC.                Patterson: SERVICE COMPANY
DATE.          Mon Oct 17 07:23:34 2005: LOG DATE
API.           05 071 08389 00: UNIQUE WELL ID
~Curve Information Block
DEPT.FT            0 000 00 00: Depth
DCAL.in                       : CDL Caliper
RHOB.g/cc                     : CDL Bulk Density
RHOC.g/cc                     : CDL Density Correction
DPOR.pu                       : CDL Density Porosity
NPOR.pu                       : Neutron Porosity
GR.GAPI                       : Gamma Ray
~Parameter Information Block
~A  Depth       DCAL        RHOB        RHOC        DPOR        NPOR         GR     
# ...
  1437.2000      8.0513      2.6040      0.0526      2.7861     16.7696     91.3473
  1437.3000      8.0485      2.5974      0.0540      3.1884     17.0490     89.6125
  1437.4000      8.0485      2.5834      0.0452      4.0367     17.2946     82.9362
  1437.5000      8.0501      2.5628      0.0169      5.2823     17.5038     77.0716
  1437.6000      8.0501      2.5477     -0.0039      6.1989     17.6132     77.8710
  1437.7000      8.0501      2.5431      0.0108      6.4787     17.9117     85.7568
  1437.8000      8.0544      2.5432      0.0285      6.4729     18.6204     93.8886
  1437.9000      8.0544      2.5389      0.0440      6.7304     19.5376     97.6245
  1438.0000      8.0573      2.5278      0.0215      7.4066     20.4270    100.0744
  1438.1000      8.0573      2.5140      0.0105      8.2439     21.4340    102.9971
  1438.2000      8.0573      2.4938      0.0508      9.4673     22.9221    104.1543
  1438.3000      8.0622      2.4634     -0.0124     11.3101     24.7560    102.7478
  1438.4000      8.0622      2.4268      0.0075     13.5283     26.1426     99.8396
  1438.5000      8.0690      2.3809      0.0072     16.3094     26.4215     98.0433
  1438.6000      8.0690      2.3215     -0.0174     19.9092     25.9691    100.7999
  1438.7000      8.0690      2.2456     -0.0037     24.5117     25.8383    105.7839
  1438.8000      8.0788      2.1482     -0.0433     30.4100     26.4480    108.2985
  1438.9000      8.0788      2.0493     -0.0864     36.4056     27.3709    109.0213
  1439.0000      8.1007      1.9876     -0.0587     40.1462     28.0169    111.8148
  1439.1000      8.1007      1.9838     -0.0547     40.3769     28.0879    115.3885
  1439.2000      8.1007      2.0362      0.0245     37.1980     27.8034    114.4742
  1439.3000      8.1645      2.1347      0.1319     31.2281     27.3349    110.5135
  1439.4000      8.1645      2.2543      0.3590     23.9789     26.4597    107.2043
  1439.5000      8.2714      2.3591      0.4153     17.6277     25.1916    102.5473
  1439.6000      8.2714      2.4387      0.3813     12.8085     23.5858     96.0464
  1439.7000      8.2714      2.4998      0.3467      9.1015     21.7098     90.5295
  1439.8000      8.2800      2.5367      0.2353      6.8678     20.1707     88.3828
  1439.9000      8.2800      2.5517      0.0704      5.9605     19.3339     88.1950
  1440.0000      8.1275      2.5577      0.0755      5.5950     18.9723     87.7360
  1440.1000      8.1275      2.5579      0.0573      5.5791     18.7783     86.7812
  1440.2000      8.1275      2.5652     -0.0098      5.1403     18.6454     85.6460
  1440.3000      8.0066      2.5917      0.0483      3.5319     18.7271     85.1138
  1440.4000      8.0066      2.6212      0.0686      1.7426     19.1173     83.3811
  1440.5000      7.9792      2.6329      0.0843      1.0364     19.7635     80.3562
  1440.6000      7.9792      2.6239      0.0506      1.5817     20.3134     82.1749
  1440.7000      7.9792      2.6035      0.0476      2.8167     20.2375     89.0552
  1440.8000      7.9769      2.5904      0.0210      3.6121     19.6742     92.5913
  1440.9000      7.9769      2.6019      0.0096      2.9181     19.1287     91.7488
  1441.0000      7.9731      2.6303      0.1100      1.1949     18.8172     91.5980
  1441.1000      7.9731      2.6483      0.0764      0.1058     18.6937     92.4419
  1441.2000      7.9731      2.6459      0.0575      0.2503     18.6431     95.1133
  1441.3000      7.9715      2.6317      0.0428      1.1116     18.5234    100.5439
  1441.4000      7.9715      2.6208      0.0358      1.7716     18.2292    102.8876
  1441.5000      7.9777      2.6210      0.0848      1.7557     17.8592     98.1176
  1441.6000      7.9777      2.6181      0.0871      1.9315     17.6107     90.5557
  1441.7000      7.9777      2.6013      0.0309      2.9491     17.6173     84.5334
  1441.8000      7.9846      2.5817      0.0044      4.1411     17.8433     82.0437
  1441.9000      7.9846      2.5688      0.0452      4.9192     18.2542     83.5068
  1442.0000      7.9869      2.5593      0.0226      5.4978     18.9515     87.4706
  1442.1000      7.9869      2.5528      0.0235      5.8914     19.6338     93.3787
  1442.2000      7.9869      2.5539      0.0020      5.8221     19.7399     98.8058
  1442.3000      7.9867      2.5671      0.0089      5.0260     19.2383    100.1513
  1442.4000      7.9867      2.5895      0.0421      3.6691     18.4485     98.3746
  1442.5000      7.9866      2.6022      0.0708      2.8983     17.7273     97.0443
  1442.6000      7.9866      2.5921      0.0522      3.5090     17.3965     97.6739
  1442.7000      7.9866      2.5731      0.0049      4.6597     17.4084     99.9512
  1442.8000      7.9876      2.5644      0.0103      5.1864     17.5108    101.4343
  1442.9000      7.9876      2.5672      0.0518      5.0163     17.7449     99.6615
  1443.0000      7.9885      2.5721     -0.0010      4.7235     17.9084     97.4192
  1443.1000      7.9885      2.5704      0.0410      4.8245     17.8180     98.3080
  1443.2000      7.9885      2.5643      0.0061      5.1965     17.8301    101.6230
  1443.3000      7.9878      2.5692      0.0335      4.8946     18.0171    104.3708
  1443.4000      7.9878      2.5908      0.0035      3.5885     17.9885    102.8502
  1443.5000      7.9860      2.6196      0.0855      1.8416     17.6689     96.3902
  1443.6000      7.9860      2.6433      0.0557      0.4053     17.3964     89.0949
  1443.7000      7.9860      2.6530      0.0673     -0.1824     17.3851     85.4343
  1443.8000      7.9869      2.6466      0.0517      0.2041     17.5515     87.0312
  1443.9000      7.9869      2.6255      0.0500      1.4872     17.6131     93.0867
  1444.0000      7.9914      2.5979      0.0124      3.1547     17.4153     98.5084
  1444.1000      7.9914      2.5778      0.0101      4.3752     17.1796     96.8218
  1444.2000      7.9914      2.5647      0.0425      5.1712     17.2013     91.4024
  1444.3000      8.0004      2.5494      0.0022      6.0967     17.6033     90.6016
  1444.4000      8.0004      2.5332      0.0010      7.0769     18.2271     91.9176
  1444.5000      8.0103      2.5237     -0.0527      7.6539     18.6197     88.6852
  1444.6000      8.0103      2.5267     -0.0185      7.4753     18.7403     83.4591
  1444.7000      8.0103      2.5370      0.0053      6.8459     19.0979     82.4726
  1444.8000      8.0144      2.5396      0.0311      6.6904     19.6190     86.3796
  1444.9000      8.0144      2.5232      0.0475      7.6820     19.7535     93.9121
  1445.0000      8.0172      2.4901      0.0362      9.6892     19.6614    103.4775
  1445.1000      8.0172      2.4519      0.0344     12.0080     20.0633    113.2813
  1445.2000      8.0172      2.4229      0.0048     13.7620     21.2002    120.5635
  1445.3000      8.0238      2.4126      0.0615     14.3879     22.3340    120.2479
  1445.4000      8.0238      2.4191      0.0493     13.9926     22.6982    112.1628
  1445.5000      8.0318      2.4387      0.0614     12.8088     22.6373    103.9751
  1445.6000      8.0318      2.4643      0.1054     11.2520     22.8531    100.4277
  1445.7000      8.0318      2.4853      0.1594      9.9790     23.4053    100.0361
  1445.8000      8.0460      2.4981      0.1565      9.2087     23.5644    101.5582
  1445.9000      8.0460      2.5032      0.2099      8.8967     22.9547    102.7142
  1446.0000      8.0876      2.4997      0.1926      9.1119     21.9559    102.7378
  1446.1000      8.0876      2.4884      0.2054      9.7942     20.8695    103.5099
  1446.2000      8.0876      2.4813      0.1103     10.2214     20.0992    104.8975
  1446.3000      8.1390      2.5018      0.0973      8.9810     19.7339    105.2649
  1446.4000      8.1390      2.5479      0.1409      6.1871     19.5391    103.9166
  1446.5000      8.1219      2.5868      0.1291      3.8288     19.5145    101.0209
  1446.6000      8.1219      2.6033      0.1000      2.8301     19.5387     98.3510
  1446.7000      8.1219      2.6099      0.0932      2.4283     19.3789     97.5399
