~Version Information
VERS.                      2.0: CWLS Log ASCII Standard - VERSION 2.0
WRAP.                       NO: One line per depth step
~Well Information Block
STRT.FT               652.0000: 
STOP.FT              1880.0000: 
STEP.FT                 0.1000: 
NULL.                -999.2500: 
COMP.          Pioneer Natural Resources: COMPANY
WELL.          Corkscrew 33-12 Tr: WELL
FLD.           Purgatoire River: FIELD
LOC.           1870' FSL & 1706' FEL: LOCATION
PROV.                 Colorado: PROVINCE
CNTY.               Las Animas: COUNTRY
SRVC.                Patterson: SERVICE COMPANY
DATE.          Tue Mar 29 09:18:51 2005: LOG DATE
UWI.           05 071 08295 00: UNIQUE WELL ID
~Curve Information Block
DEPT.FT            0 000 00 00: Depth
DCAL.in                       : CDL Caliper
RHOB.g/cc                     : CDL Bulk Density
RHOC.g/cc                     : CDL Density Correction
DPOR.pu                       : CDL Density Porosity
GR.GAPI                       : Gamma Ray
NPOR.pu                       : Neutron Porosity
~Parameter Information Block
~A  Depth       DCAL        RHOB        RHOC        DPOR         GR         NPOR    
# ...
   728.8000      8.3845      2.3265      0.0666     19.6032    127.5379     25.6693
   728.9000      8.3845      2.3848      0.0720     16.0748    131.4748     26.5077
   729.0000      8.2621      2.4413      0.1399     12.6467    136.0564     26.9110
   729.1000      8.2621      2.5004      0.1392      9.0674    135.8398     26.7038
   729.2000      8.2621      2.5609      0.2195      5.3983    132.1046     26.3807
   729.3000      8.2447      2.6144      0.2499      2.1592    128.2296     26.4088
   729.4000      8.2447      2.6420      0.2934      0.4828    123.5062     26.7735
   729.5000      8.1974      2.6276      0.2303      1.3564    117.1236     27.1318
   729.6000      8.1974      2.5821      0.1556      4.1155    111.7874     27.1911
   729.7000      8.1974      2.5314      0.0592      7.1906    111.7386     26.9745
   729.8000      8.2363      2.4932      0.0436      9.5053    112.7188     26.8472
   729.9000      8.2363      2.4723      0.0534     10.7699    109.1535     26.9074
   730.0000      8.0795      2.4614      0.0642     11.4320    106.2597     26.9410
   730.1000      8.0795      2.4559      0.0463     11.7627    107.3758     26.9187
   730.2000      8.0795      2.4697      0.0648     10.9250    110.0439     26.9440
   730.3000      8.0324      2.5147      0.0589      8.2021    113.8196     27.0460
   730.4000      8.0324      2.5772      0.0949      4.4106    113.4255     27.1825
   730.5000      8.0141      2.6288      0.1569      1.2877    105.2880     27.3002
   730.6000      8.0141      2.6525      0.1989     -0.1526     95.6709     27.3877
   730.7000      8.0141      2.6591      0.1128     -0.5487     91.8892     27.4120
   730.8000      8.0048      2.6700      0.0941     -1.2142     93.4381     27.2900
   730.9000      8.0048      2.6809      0.1002     -1.8735     97.4708     26.9606
   731.0000      7.9924      2.6797      0.0421     -1.7980    102.3452     26.4733
   731.1000      7.9924      2.6718      0.0625     -1.3220    104.8636     26.0993
   731.2000      7.9924      2.6561      0.0749     -0.3669    103.0097     26.0989
   731.3000      7.9864      2.6256      0.0214      1.4771     97.8511     26.3561
   731.4000      7.9864      2.5917      0.0211      3.5307     92.0702     26.3887
   731.5000      7.9876      2.5810     -0.0020      4.1829     87.3868     25.9356
   731.6000      7.9876      2.6082     -0.0280      2.5342     83.3983     25.3877
   731.7000      7.9876      2.6499      0.0524      0.0048     79.2132     25.1135
   731.8000      7.9814      2.6657      0.0607     -0.9532     76.7463     25.0562
   731.9000      7.9814      2.6493      0.0374      0.0412     75.8404     24.9111
   732.0000      7.9583      2.6237      0.0118      1.5910     74.3348     24.4977
   732.1000      7.9583      2.6000     -0.0174      3.0315     74.9022     23.9134
   732.2000      7.9583      2.5772      0.0018      4.4131     77.0820     23.3224
   732.3000      7.9349      2.5567      0.0006      5.6541     77.9678     22.8907
   732.4000      7.9349      2.5394     -0.0265      6.7035     79.2977     22.6580
   732.5000      7.9314      2.5332     -0.0762      7.0786     82.6639     22.5540
   732.6000      7.9314      2.5360      0.0286      6.9087     87.4062     22.5510
   732.7000      7.9314      2.5246     -0.0048      7.5996     90.6058     22.8907
   732.8000      7.9089      2.5048     -0.0446      8.8017     92.9364     23.7637
   732.9000      7.9089      2.5091     -0.0375      8.5413     99.8182     24.6667
   733.0000      7.9288      2.5384     -0.0061      6.7639    111.8706     24.8725
   733.1000      7.9288      2.5620      0.0867      5.3316    122.0880     24.5647
   733.2000      7.9288      2.5578      0.0663      5.5891    125.0211     24.5530
   733.3000      7.9350      2.5334      0.0248      7.0671    124.7734     25.0800
   733.4000      7.9350      2.5106      0.0354      8.4498    127.4299     25.7538
   733.5000      7.9488      2.5016      0.0304      8.9920    132.4193     26.1799
   733.6000      7.9488      2.5042      0.0367      8.8349    135.4898     26.2981
   733.7000      7.9488      2.5051      0.0552      8.7842    131.9533     26.3354
   733.8000      7.9811      2.5065     -0.0024      8.6996    122.8490     26.8041
   733.9000      7.9811      2.5337      0.0335      7.0503    116.1056     27.8613
   734.0000      7.9766      2.5939      0.0771      3.3975    115.1567     28.7803
   734.1000      7.9766      2.6651      0.1207     -0.9175    116.0380     29.1211
   734.2000      7.9766      2.7155      0.1754     -3.9692    117.0716     29.2293
   734.3000      7.9760      2.7289      0.1515     -4.7839    116.4199     29.4071
   734.4000      7.9760      2.7238      0.1048     -4.4711    109.4514     29.7094
   734.5000      7.9835      2.7163      0.1229     -4.0183     99.0505     30.0179
   734.6000      7.9835      2.7006      0.0093     -3.0646     94.6628     30.0146
   734.7000      7.9835      2.6827      0.0310     -1.9813     96.3423     29.5226
   734.8000      7.9630      2.6673      0.0286     -1.0500     97.0265     28.9328
   734.9000      7.9630      2.6501     -0.0385     -0.0082     96.9802     28.6696
   735.0000      7.9525      2.6411     -0.0253      0.5408     97.2939     28.5852
   735.1000      7.9525      2.6434     -0.0148      0.4026     95.2647     28.3430
   735.2000      7.9525      2.6377      0.0081      0.7442     91.3702     27.8119
   735.3000      7.9418      2.6125     -0.0021      2.2739     89.6868     26.9097
   735.4000      7.9418      2.5782     -0.0309      4.3533     94.3899     25.7867
   735.5000      7.9697      2.5567     -0.0930      5.6556    106.3595     25.0012
   735.6000      7.9697      2.5666     -0.0645      5.0545    119.6521     25.0627
   735.7000      7.9697      2.5936      0.0476      3.4171    123.9914     25.6523
   735.8000      7.9733      2.6004      0.0355      3.0052    117.7229     26.0733
   735.9000      7.9733      2.5800      0.0040      4.2395    110.8188     26.2648
   736.0000      7.9750      2.5647     -0.0114      5.1705    111.3940     26.5904
   736.1000      7.9750      2.5772      0.0205      4.4113    116.6312     27.2600
   736.2000      7.9750      2.6033      0.0300      2.8278    123.6067     27.9409
   736.3000      7.9877      2.6177      0.0628      1.9552    131.4323     28.1604
   736.4000      7.9877      2.6107      0.0360      2.3804    136.3539     27.9860
   736.5000      8.0164      2.5874      0.0441      3.7948    139.8022     27.9577
   736.6000      8.0164      2.5584      0.0352      5.5503    142.2998     28.3156
   736.7000      8.0164      2.5359      0.0092      6.9163    140.7091     28.5954
   736.8000      8.0259      2.5286      0.0222      7.3582    137.6236     28.5635
   736.9000      8.0259      2.5354      0.0187      6.9469    133.2339     28.4688
   737.0000      8.0173      2.5452      0.0243      6.3498    128.0088     28.3041
   737.1000      8.0173      2.5441      0.0187      6.4167    127.0641     28.0571
   737.2000      8.0173      2.5319     -0.0346      7.1584    130.0280     28.0784
   737.3000      8.0140      2.5233     -0.0691      7.6817    133.0162     28.4005
   737.4000      8.0140      2.5293     -0.0736      7.3177    133.1948     28.6730
   737.5000      8.0265      2.5402      0.0378      6.6531    127.2161     28.7619
   737.6000      8.0265      2.5412     -0.0116      6.5913    116.9984     28.5948
   737.7000      8.0265      2.5414      0.0109      6.5801    112.0933     28.1296
   737.8000      8.0239      2.5425      0.0058      6.5171    117.9775     27.6596
   737.9000      8.0239      2.5251      0.0368      7.5724    127.2038     27.4055
   738.0000      7.9870      2.4891     -0.0629      9.7490    132.6175     27.1722
   738.1000      7.9870      2.4551     -0.0061     11.8144    134.3847     26.9343
   738.2000      7.9870      2.4327     -0.0400     13.1704    132.0220     26.9447
   738.3000      7.9672      2.4272     -0.0445     13.5049    127.6019     27.0769
