~Version Information
VERS.                      2.0: CWLS Log ASCII Standard - VERSION 2.0
WRAP.                       NO: One line per depth step
~Well Information Block
STRT.FT               546.2500: 
STOP.FT              2496.7500: 
STEP.FT                 0.2500: 
NULL.                -999.2500: 
COMP.          Petrogulf Corporation: COMPANY
WELL.               Egan 9-11V: WELL
FLD.           Purgatorie River: FIELD
LOC.           724' FNL & 1379' FWL: LOCATION
PROV.                 Colorado: PROVINCE
CNTY.               Las Animas: COUNTRY
SRVC.          Patterson Wireline: SERVICE COMPANY
DATE.          Fri Jul 11 23:32:41 2003: LOG DATE
UWI.           05 071 07875 00: UNIQUE WELL ID
~Curve Information Block
DEPT.FT            0 000 00 00: Depth
SP.mV                         : DIL Spontaneous Potential
RILD.Ohm-m                    : DIL Deep Resistivity
RILM.Ohm-m                    : DIL Medium Resistivity
RLL3.Ohm-m                    : DIL Shallow Resistivity
GR.GAPI                       : Gamma Ray
~Parameter Information Block
~A  Depth        SP         RILD        RILM        RLL3         GR     
# ...
  1470.2500   -155.0650     10.7783     11.5184     20.8533    108.8573
  1470.5000   -154.7233     11.3694     12.2702     24.8161    105.6090
  1470.7500   -154.7067     12.0337     13.1477     29.8731    101.2850
  1471.0000   -154.9444     12.7695     14.1652     35.1521     93.3237
  1471.2500   -155.3198     13.5734     15.3354     40.0946     88.3611
  1471.5000   -155.7165     14.4440     16.6678     44.7166     82.8837
  1471.7500   -156.0442     15.3852     18.1663     49.3110     80.6333
  1472.0000   -156.2478     16.4036     19.8264     53.7291     78.5822
  1472.2500   -156.3081     17.4984     21.6323     56.9871     77.4186
  1472.5000   -156.2375     18.6501     23.5547     57.7969     75.0844
  1472.7500   -156.0743     19.8149     25.5490     55.6151     73.2077
  1473.0000   -155.8688     20.9306     27.5550     51.2237     71.0567
  1473.2500   -155.6659     21.9334     29.4987     46.3434     70.6754
  1473.5000   -155.4919     22.7749     31.2961     42.6265     71.5614
  1473.7500   -155.3530     23.4288     32.8583     40.7986     72.5586
  1474.0000   -155.2409     23.8832     34.0999     40.5435     73.8899
  1474.2500   -155.1372     24.1303     34.9477     41.0663     74.5724
  1474.5000   -155.0190     24.1637     35.3508     41.6701     75.6197
  1474.7500   -154.8689     23.9847     35.2877     41.8536     76.7228
  1475.0000   -154.6842     23.6082     34.7712     41.1797     79.7396
  1475.2500   -154.4810     23.0630     33.8469     39.4279     82.7968
  1475.5000   -154.2912     22.3904     32.5865     36.9353     88.0764
  1475.7500   -154.1553     21.6400     31.0776     34.5234     90.9894
  1476.0000   -154.1102     20.8593     29.4118     32.9046     92.6947
  1476.2500   -154.1721     20.0804     27.6748     32.1675     91.7326
  1476.5000   -154.3217     19.3149     25.9401     31.7879     88.2465
  1476.7500   -154.5092     18.5610     24.2652     31.0067     85.8219
  1477.0000   -154.6769     17.8178     22.6917     29.2656     83.9966
  1477.2500   -154.7866     17.0943     21.2460     26.5320     84.5174
  1477.5000   -154.8327     16.4089     19.9427     23.3248     87.7201
  1477.7500   -154.8357     15.7812     18.7867     20.3728     91.0154
  1478.0000   -154.8260     15.2226     17.7762     18.1852     96.8010
  1478.2500   -154.8297     14.7320     16.9044     16.8872    100.7247
  1478.5000   -154.8622     14.2981     16.1618     16.3538    105.9471
  1478.7500   -154.9254     13.9064     15.5375     16.4001    108.6738
  1479.0000   -155.0111     13.5483     15.0199     16.8278    111.5892
  1479.2500   -155.1089     13.2239     14.5980     17.3730    113.1233
  1479.5000   -155.2180     12.9404     14.2614     17.7462    115.7934
  1479.7500   -155.3564     12.7069     14.0016     17.8158    118.0964
  1480.0000   -155.5551     12.5306     13.8113     17.7174    121.7129
  1480.2500   -155.8352     12.4163     13.6856     17.7056    123.5271
  1480.5000   -156.1795     12.3678     13.6217     17.8957    124.6720
  1480.7500   -156.5244     12.3893     13.6191     18.1707    124.4468
  1481.0000   -156.7836     12.4850     13.6791     18.3107    122.8147
  1481.2500   -156.8890     12.6577     13.8056     18.1805    120.8155
  1481.5000   -156.8249     12.9074     14.0037     17.8311    116.6959
  1481.7500   -156.6339     13.2308     14.2802     17.5023    113.8123
  1482.0000   -156.3954     13.6204     14.6426     17.6075    110.4167
  1482.2500   -156.1882     14.0647     15.0990     18.7401    108.8205
  1482.5000   -156.0560     14.5486     15.6570     21.5986    106.1289
  1482.7500   -155.9913     15.0555     16.3239     26.6414    103.0892
  1483.0000   -155.9456     15.5721     17.1054     33.4751     95.7269
  1483.2500   -155.8571     16.0934     18.0057     40.4785     89.3006
  1483.5000   -155.6783     16.6250     19.0267     45.3883     79.2474
  1483.7500   -155.3892     17.1824     20.1677     46.7827     73.6085
  1484.0000   -154.9968     17.7849     21.4259     45.1919     68.4629
  1484.2500   -154.5272     18.4484     22.7957     42.6490     67.4426
  1484.5000   -154.0159     19.1776     24.2691     41.0974     68.4344
  1484.7500   -153.5001     19.9616     25.8345     41.1644     69.8373
  1485.0000   -153.0164     20.7742     27.4751     42.1688     71.9950
  1485.2500   -152.5977     21.5771     29.1656     43.0300     73.1889
  1485.5000   -152.2661     22.3267     30.8675     43.2860     74.2117
  1485.7500   -152.0270     22.9786     32.5229     43.5828     74.1829
  1486.0000   -151.8719     23.4891     34.0498     45.3528     73.0206
  1486.2500   -151.7853     23.8149     35.3405     49.8632     71.5352
  1486.5000   -151.7449     23.9169     36.2688     57.1490     68.2783
  1486.7500   -151.7187     23.7687     36.7079     65.4749     65.5977
  1487.0000   -151.6698     23.3662     36.5609     71.9815     61.5170
  1487.2500   -151.5767     22.7319     35.7924     74.5656     59.1455
  1487.5000   -151.4561     21.9135     34.4481     73.5654     56.4174
  1487.7500   -151.3669     20.9787     32.6502     71.2378     55.3205
  1488.0000   -151.3841     20.0065     30.5683     69.1156     55.3505
  1488.2500   -151.5608     19.0737     28.3797     66.1470     56.8518
  1488.5000   -151.9049     18.2397     26.2365     59.9685     61.6390
  1488.7500   -152.3807     17.5348     24.2485     49.8508     66.5590
  1489.0000   -152.9250     16.9595     22.4820     37.8603     76.3765
  1489.2500   -153.4640     16.4931     20.9672     27.2028     84.1766
  1489.5000   -153.9276     16.1080     19.7095     19.9527     96.5018
  1489.7500   -154.2633     15.7812     18.6992     16.3363    104.2075
  1490.0000   -154.4475     15.4982     17.9187     15.4784    113.5277
  1490.2500   -154.4882     15.2523     17.3482     16.3041    117.5334
  1490.5000   -154.4190     15.0435     16.9679     17.8971    119.2934
  1490.7500   -154.2872     14.8789     16.7601     19.5326    117.5740
  1491.0000   -154.1444     14.7721     16.7097     20.7486    112.1791
  1491.2500   -154.0418     14.7410     16.8039     21.4508    108.3475
  1491.5000   -154.0243     14.8040     17.0320     21.8562    104.5867
  1491.7500   -154.1180     14.9766     17.3843     22.2744    103.6989
  1492.0000   -154.3139     15.2657     17.8502     22.9224    103.7409
  1492.2500   -154.5647     15.6641     18.4159     23.8974    103.8829
  1492.5000   -154.8023     16.1440     19.0610     25.2488    103.3596
  1492.7500   -154.9681     16.6572     19.7549     27.0192    102.2413
  1493.0000   -155.0370     17.1415     20.4532     29.1959     99.3324
  1493.2500   -155.0215     17.5323     21.0957     31.6218     96.8792
  1493.5000   -154.9612     17.7713     21.6085     33.9725     93.4635
  1493.7500   -154.9070     17.8104     21.9130     35.8642     91.9497
  1494.0000   -154.9112     17.6189     21.9406     37.0359     91.2408
  1494.2500   -155.0204     17.1980     21.6509     37.4422     91.6271
  1494.5000   -155.2642     16.5911     21.0457     37.1260     92.7247
  1494.7500   -155.6401     15.8735     20.1704     35.9752     93.3834
  1495.0000   -156.1048     15.1232     19.1026     33.6804     94.2535
  1495.2500   -156.5867     14.3954     17.9325     30.0646     95.3612
  1495.5000   -157.0140     13.7153     16.7443     25.5003     99.2617
  1495.7500   -157.3416     13.0869     15.6042     20.9166    103.6703
  1496.0000   -157.5618     12.5076     14.5571     17.2852    111.9157
  1496.2500   -157.6954     11.9764     13.6283     15.0427    117.3978
  1496.5000   -157.7750     11.4968     12.8290     13.9573    124.1661
  1496.7500   -157.8289     11.0745     12.1605     13.4772    127.3177
  1497.0000   -157.8730     10.7148     11.6192     13.1743    129.8865
  1497.2500   -157.9096     10.4224     11.1991     12.9240    130.4437
  1497.5000   -157.9346     10.2025     10.8942     12.7932    130.6378
  1497.7500   -157.9520     10.0622     10.6994     12.8590    131.0493
  1498.0000   -157.9857     10.0100     10.6114     13.1359    132.6386
