~Version Information
VERS.                      2.0: CWLS Log ASCII Standard - VERSION 2.0
WRAP.                       NO: One line per depth step
~Well Information Block
STRT.FT                -7.2500: 
STOP.FT               868.2500: 
STEP.FT                 0.2500: 
NULL.                -999.2500: 
COMP.          Pioneer Natural Resources: COMPANY
WELL.              Venom 32-22: WELL
FLD.           Purgatorie River: FIELD
LOC.           2307' FNL & 2024' FWL--: LOCATION
PROV.                       CO: PROVINCE
CNTY.               Las Animas: COUNTRY
SRVC.          Patterson Wireline: SERVICE COMPANY
DATE.          Mon May 16 15:26:38 2005: LOG DATE
UWI.           05 071 08361 00: UNIQUE WELL ID
~Curve Information Block
DEPT.FT            0 000 00 00: Depth
CCL.                          : Casing Collar Locator
TT3.usec                      : CBL 3' Travel Time
AMP3.mV                       : CBL 3' Amplitude
GR.GAPI                       : Gamma Ray
~Parameter Information Block
~A  Depth       CCL         TT3         AMP3         GR     
# ...
   227.2500      0.0000    875.9131      7.0870     66.0838
   227.5000      0.0000    875.7379      7.1162     68.1375
   227.7500      0.0000    875.6118      7.1368     68.8582
   228.0000      0.0000    875.5368      7.1337     67.8501
   228.2500      0.0000    875.5052      7.0962     65.4562
   228.5000      0.0000    875.5154      7.0218     62.6111
   228.7500      0.0000    875.5803      6.9226     60.3920
   229.0000      0.0000    875.7096      6.8231     59.4411
   229.2500      0.0000    875.8749      6.7501     59.4587
   229.5000      0.0000    876.0046      6.7219     59.3444
   229.7500      0.0000    876.0311      6.7385     58.2074
   230.0000      0.0000    875.9493      6.7781     56.2211
   230.2500      0.0000    875.8286      6.8127     54.3940
   230.5000      0.0000    875.7703      6.8317     53.7600
   230.7500      0.0000    875.8559      6.8404     55.0375
   231.0000      0.0000    876.1127      6.8379     58.6261
   231.2500      0.0000    876.5036      6.8096     64.2700
   231.5000      0.0000    876.9442      6.7490     70.7181
   231.7500      0.0000    877.3490      6.6777     76.1988
   232.0000      0.0000    877.6746      6.6329     79.3797
   232.2500      0.0000    877.9257      6.6354     79.9246
   232.5000      0.0000    878.1260      6.6707     78.5240
   232.7500      0.0000    878.2878      6.7031     76.5007
   233.0000      0.0000    878.4044      6.7058     74.9440
   233.2500      0.0000    878.4571      6.6739     74.0317
   233.5000      0.0000    878.4243      6.6142     73.3031
   233.7500      0.0000    878.2550      6.5326     72.3457
   234.0000      0.0000    877.7718      6.4389     70.9901
   234.2500      0.0000    876.4965      6.3580     69.2245
   234.5000      0.0000    873.5079      6.3207     67.2293
   234.7500      0.0000    867.6229      6.3338     65.3000
   235.0000      0.0000    857.9158      6.3630     63.6161
   235.2500      0.0000    844.1572      6.3437     62.2230
   235.5000      0.0000    826.8772      6.2153     61.1661
   235.7500      0.0000    807.4970      5.9735     60.4941
   236.0000      0.0000    788.8208      5.6989     60.1678
   236.2500      0.0000    775.2897      5.4936     60.0605
   236.5000      0.0000    772.0854      5.3785     59.9816
   236.7500      0.0000    783.1592      5.2930     59.6527
   237.0000      0.0000    809.0974      5.1927     58.8346
   237.2500      0.0000    846.1559      5.0942     57.5852
   237.5000     -2.0000    886.8125      5.0274     56.3351
   237.7500     -2.0000    921.2875      4.9936     55.6506
   238.0000     -2.0000    940.2485      4.9764     55.8821
   238.2500      0.0000    939.1196      4.9805     56.9111
   238.5000      0.0000    921.7488      5.0581     58.2493
   238.7500      0.0000    898.7615      5.2828     59.5354
   239.0000      0.0000    880.2755      5.6648     60.8380
   239.2500      0.0000    869.7813      6.0995     62.2583
   239.5000      0.0000    864.5339      6.4383     63.4971
   239.7500      0.0000    860.2184      6.6096     64.1673
   240.0000      0.0000    854.3727      6.6472     64.2827
   240.2500      0.0000    846.4740      6.6180     64.0192
   240.5000      0.0000    836.7954      6.5586     63.1283
   240.7500      0.0000    826.2642      6.4792     61.1199
   241.0000      0.0000    816.8723      6.3965     58.2107
   241.2500      0.0000    811.2501      6.3370     55.7628
   241.5000      0.0000    811.0331      6.3100     55.3717
   241.7500      0.0000    814.7387      6.2948     57.3798
   242.0000      0.0000    817.2597      6.2642     60.3282
   242.2500      0.0000    812.8976      6.2134     61.9212
   242.5000      0.0000    799.7340      6.1637     60.6833
   242.7500      0.0000    780.8294      6.1423     56.9814
   243.0000      0.0000    761.5837      6.1580     52.6910
   243.2500      0.0000    746.2616      6.1912     49.8921
   243.5000      0.0000    736.1717      6.2044     49.7210
   243.7500      0.0000    730.1397      6.1668     52.0621
   244.0000      0.0000    726.5172      6.0769     55.8699
   244.2500      0.0000    724.9075      5.9675     59.6320
   244.5000      0.0000    725.8586      5.8827     61.8588
   244.7500      0.0000    729.3127      5.8421     61.8008
   245.0000      0.0000    734.6700      5.8295     60.0637
   245.2500      0.0000    742.5358      5.8152     58.2100
   245.5000      0.0000    755.2931      5.7841     57.3724
   245.7500      0.0000    775.3147      5.7421     57.3780
   246.0000      0.0000    803.7194      5.6992     57.3445
   246.2500      0.0000    840.4765      5.6511     56.8537
   246.5000      0.0000    882.9059      5.5794     56.4035
   246.7500      0.0000    922.6343      5.4753     56.9728
   247.0000      0.0000    946.5954      5.3550     59.2257
   247.2500      0.0000    944.1915      5.2530     62.8618
   247.5000      0.0000    915.0523      5.2011     66.6144
   247.7500      0.0000    870.4579      5.2093     69.0546
   248.0000      0.0000    826.2220      5.2575     69.4930
   248.2500      0.0000    792.2269      5.3092     68.1224
   248.5000      0.0000    768.5077      5.3393     65.6181
   248.7500      0.0000    750.9528      5.3486     63.0080
   249.0000      0.0000    737.9914      5.3541     61.7105
   249.2500      0.0000    730.6329      5.3697     62.8507
   249.5000      0.0000    728.8931      5.3996     66.0008
   249.7500      0.0000    730.3323      5.4416     68.8827
   250.0000      0.0000    731.4517      5.4869     68.8846
   250.2500      0.0000    729.7406      5.5155     65.0953
   250.5000      0.0000    725.2637      5.5024     58.9063
   250.7500      0.0000    720.8895      5.4357     52.8280
   251.0000      0.0000    720.8105      5.3301     48.8782
   251.2500      0.0000    728.1012      5.2225     47.9110
   251.5000      0.0000    743.2355      5.1529     50.0159
   251.7500      0.0000    764.7503      5.1434     55.1559
   252.0000      0.0000    791.0922      5.1868     63.1612
   252.2500      0.0000    821.2016      5.2474     73.0545
   252.5000      0.0000    852.8602      5.2824     82.6802
   252.7500      0.0000    881.1639      5.2755     89.5183
   253.0000      0.0000    899.7504      5.2497     92.1618
   253.2500      0.0000    903.9960      5.2443     90.9576
   253.5000      0.0000    893.3834      5.2798     87.3256
   253.7500      0.0000    871.5910      5.3489     82.8724
   254.0000      0.0000    844.9457      5.4320     79.2663
   254.2500      0.0000    820.5394      5.5094     78.1386
   254.5000      0.0000    804.3301      5.5611     80.1124
   254.7500      0.0000    798.6799      5.5698     83.9341
   255.0000      0.0000    800.8951      5.5318     87.3419
   255.2500      0.0000    805.5822      5.4640     89.1732
   255.5000      0.0000    809.5780      5.3937     90.3096
   255.7500      0.0000    813.8710      5.3427     92.2977
   256.0000      0.0000    820.3718      5.3230     95.3465
   256.2500      0.0000    828.2286      5.3471     98.0344
   256.5000      0.0000    834.3523      5.4257     98.8346
   256.7500      0.0000    836.6986      5.5498     97.4899
   257.0000      0.0000    835.8875      5.6834     94.8669
   257.2500      0.0000    833.9594      5.7861     91.9050
   257.5000      0.0000    832.5476      5.8403     88.9418
   257.7500      0.0000    832.3584      5.8510     85.8005
   258.0000      0.0000    833.5464      5.8265     82.3282
   258.2500      0.0000    835.8004      5.7678     78.8937
   258.5000      0.0000    838.1029      5.6797     76.3468
   258.7500      0.0000    839.0251      5.5864     75.3695
   259.0000      0.0000    837.7549      5.5232     75.9796
   259.2500      0.0000    834.6613      5.5063     77.8133
   259.5000      0.0000    830.7142      5.5175     80.6420
   259.7500      0.0000    826.7791      5.5264     84.2498
   260.0000      0.0000    823.7084      5.5232     88.0224
   260.2500      0.0000    822.4415      5.5168     91.2664
   260.5000      0.0000    823.3325      5.5075     93.9106
