~Version Information
VERS.                      2.0: CWLS Log ASCII Standard - VERSION 2.0
WRAP.                       NO: One line per depth step
~Well Information Block
STRT.FT               770.0000: 
STOP.FT              1997.7000: 
STEP.FT                 0.1000: 
NULL.                -999.2500: 
COMP.          Pioneer Natural Resources: COMPANY
WELL.          Titan Federal 34-17: WELL
FLD.           Purgatoire River: FIELD
LOC.           321' FSL & 1911' FEL--: LOCATION
STAT.                 Colorado: State
CNTY.               Las Animas: COUNTY
CTRY. USA : Country
SECT. 17 : Section
TOWN. 32S : Township
RANG. 65W : Range
SRVC.                Patterson: SERVICE COMPANY
DATE.          Thu Oct 06 15:09:27 2005: LOG DATE
API.           05 071 08272 00: UNIQUE WELL ID
~Curve Information Block
DEPT.FT            0 000 00 00: Depth
DCAL.in                       : CDL Caliper
RHOB.g/cc                     : CDL Bulk Density
RHOC.g/cc                     : CDL Density Correction
DPOR.pu                       : CDL Density Porosity
NPOR.pu                       : Neutron Porosity
GR.GAPI                       : Gamma Ray
~Parameter Information Block
~A  Depth       DCAL        RHOB        RHOC        DPOR        NPOR         GR     
# ...
  1413.2000      8.0648      2.4709      0.0610     10.8545     13.6465     80.0850
  1413.3000      8.0635      2.4604      0.0365     11.4914     14.1471     76.4169
  1413.4000      8.0635      2.4456      0.0154     12.3870     14.2331     76.3631
  1413.5000      8.0635      2.4453      0.0045     12.4071     14.0767     79.1030
  1413.6000      8.0635      2.4594      0.0246     11.5497     14.0142     79.9162
  1413.7000      8.0635      2.4716      0.0759     10.8138     13.9222     78.2785
  1413.8000      8.0648      2.4687      0.0491     10.9904     13.9212     78.0049
  1413.9000      8.0648      2.4565      0.0388     11.7265     14.2171     81.6984
  1414.0000      8.0652      2.4502      0.0275     12.1068     14.4728     85.6912
  1414.1000      8.0652      2.4520      0.0379     12.0025     14.4917     85.7567
  1414.2000      8.0652      2.4527      0.0253     11.9603     14.4955     83.0115
  1414.3000      8.0642      2.4501      0.0292     12.1164     14.5648     80.5165
  1414.4000      8.0642      2.4450      0.0563     12.4217     14.5774     79.6250
  1414.5000      8.0621      2.4362      0.0463     12.9552     14.3033     79.9678
  1414.6000      8.0621      2.4262      0.0424     13.5610     13.7294     78.5837
  1414.7000      8.0621      2.4181      0.0249     14.0546     13.1943     74.3944
  1414.8000      8.0608      2.4121      0.0124     14.4204     12.9965     71.4409
  1414.9000      8.0608      2.4094      0.0145     14.5816     13.1606     71.8604
  1415.0000      8.0615      2.4145      0.0318     14.2753     13.4917     74.0871
  1415.1000      8.0615      2.4323      0.0219     13.1916     13.7508     76.0872
  1415.2000      8.0615      2.4598      0.0535     11.5273     13.7274     76.9523
  1415.3000      8.0637      2.4824      0.0797     10.1597     13.3798     77.1735
  1415.4000      8.0637      2.4914      0.0536      9.6128     12.9160     77.7835
  1415.5000      8.0647      2.4850      0.0599     10.0008     12.7233     77.3218
  1415.6000      8.0647      2.4611      0.0557     11.4468     13.0623     74.6218
  1415.7000      8.0647      2.4321      0.0015     13.2085     13.6551     71.8518
  1415.8000      8.0632      2.4137      0.0275     14.3189     14.1152     71.3947
  1415.9000      8.0632      2.4041      0.0258     14.9009     14.4554     74.2141
  1416.0000      8.0619      2.4044     -0.0019     14.8843     14.5116     79.4975
  1416.1000      8.0619      2.4247      0.0296     13.6556     14.0960     84.3921
  1416.2000      8.0619      2.4545      0.0798     11.8483     13.6838     86.2150
  1416.3000      8.0638      2.4751      0.0664     10.6014     13.6155     84.9088
  1416.4000      8.0638      2.4885      0.0632      9.7872     13.7543     85.5538
  1416.5000      8.0654      2.4990      0.0702      9.1508     14.0020     91.1006
  1416.6000      8.0654      2.4997      0.0552      9.1061     14.1664     95.7519
  1416.7000      8.0654      2.4982      0.0072      9.2029     14.2607     93.6776
  1416.8000      8.0639      2.5069      0.0700      8.6733     14.4348     85.9960
  1416.9000      8.0639      2.5145      0.0370      8.2094     14.6940     79.6753
  1417.0000      8.0621      2.5070      0.0693      8.6642     15.1535     79.7489
  1417.1000      8.0621      2.4913     -0.0045      9.6194     15.6732     84.3065
  1417.2000      8.0621      2.4815      0.0186     10.2101     15.9878     89.7673
  1417.3000      8.0625      2.4773      0.0001     10.4696     15.8882     93.8379
  1417.4000      8.0625      2.4703      0.0055     10.8884     15.3219     93.1198
  1417.5000      8.0640      2.4613     -0.0295     11.4381     14.8940     87.4571
  1417.6000      8.0640      2.4561     -0.0173     11.7493     15.0911     81.4931
  1417.7000      8.0640      2.4521      0.0073     11.9969     15.4386     79.1051
  1417.8000      8.0650      2.4432     -0.0018     12.5338     15.2784     79.9309
  1417.9000      8.0650      2.4305      0.0169     13.3011     14.6296     83.3260
  1418.0000      8.0645      2.4236     -0.0281     13.7227     13.8813     89.3096
  1418.1000      8.0645      2.4357     -0.0226     12.9892     13.4762     93.3499
  1418.2000      8.0645      2.4600      0.0334     11.5177     13.4664     91.0074
  1418.3000      8.0643      2.4685      0.0656     11.0011     13.5783     86.3526
  1418.4000      8.0643      2.4511      0.0208     12.0526     13.8926     85.0987
  1418.5000      8.0652      2.4316      0.0075     13.2378     14.3421     84.0914
  1418.6000      8.0652      2.4291      0.0003     13.3859     14.3695     80.4665
  1418.7000      8.0652      2.4340      0.0390     13.0935     13.9919     76.8661
  1418.8000      8.0655      2.4316      0.0348     13.2341     13.8635     74.1040
  1418.9000      8.0655      2.4283     -0.0068     13.4354     14.0799     71.7061
  1419.0000      8.0640      2.4348      0.0270     13.0400     14.3706     70.6308
  1419.1000      8.0640      2.4469      0.0391     12.3098     14.6118     73.0776
  1419.2000      8.0640      2.4532      0.0649     11.9289     14.3885     79.4002
  1419.3000      8.0623      2.4473      0.0595     12.2841     13.5648     83.9138
  1419.4000      8.0623      2.4312      0.0547     13.2608     12.8629     81.6689
  1419.5000      8.0620      2.4158      0.0167     14.1958     12.8325     76.9884
  1419.6000      8.0620      2.4165      0.0220     14.1521     13.4235     74.3806
  1419.7000      8.0620      2.4394      0.0444     12.7657     14.1994     71.7327
  1419.8000      8.0613      2.4712      0.0884     10.8336     14.4942     69.1622
  1419.9000      8.0613      2.4920      0.0962      9.5775     14.3151     69.8304
  1420.0000      8.0616      2.4952      0.0890      9.3792     14.0887     72.2946
  1420.1000      8.0616      2.4881      0.1085      9.8123     13.7710     73.9607
  1420.2000      8.0616      2.4793      0.0812     10.3472     13.2955     75.1164
  1420.3000      8.0622      2.4743      0.0409     10.6460     12.7720     76.2923
  1420.4000      8.0622      2.4746      0.0597     10.6280     12.4057     77.3778
  1420.5000      8.0611      2.4799      0.0538     10.3081     12.3166     78.6069
  1420.6000      8.0611      2.4864      0.0758      9.9157     12.3009     79.5906
  1420.7000      8.0611      2.4886      0.0432      9.7817     12.3941     79.3025
  1420.8000      8.0592      2.4901      0.0565      9.6915     12.8710     78.9572
  1420.9000      8.0592      2.4960      0.0804      9.3327     13.5512     79.9063
  1421.0000      8.0586      2.5014      0.0602      9.0042     14.1675     79.4417
  1421.1000      8.0586      2.4977      0.0649      9.2288     14.6988     77.0050
  1421.2000      8.0586      2.4912     -0.0122      9.6225     14.9594     75.0274
  1421.3000      8.0604      2.5005      0.0078      9.0606     14.8877     74.0868
  1421.4000      8.0604      2.5214      0.0759      7.7921     14.9098     76.9558
  1421.5000      8.0627      2.5383      0.0292      6.7697     15.3446     84.3290
  1421.6000      8.0627      2.5534      0.0349      5.8544     16.2911     89.9729
  1421.7000      8.0627      2.5604      0.1078      5.4287     17.5082     90.1987
  1421.8000      8.0621      2.5445      0.0515      6.3968     18.2752     86.7587
  1421.9000      8.0621      2.5187     -0.0136      7.9567     18.3161     81.4612
  1422.0000      8.0603      2.4974      0.0136      9.2502     18.0673     77.7148
  1422.1000      8.0603      2.4727     -0.0228     10.7464     17.7204     78.7086
  1422.2000      8.0603      2.4450     -0.0087     12.4250     16.8790     81.1220
  1422.3000      8.0611      2.4293     -0.0450     13.3774     15.5419     79.4193
  1422.4000      8.0611      2.4381      0.0051     12.8436     14.5277     76.5677
  1422.5000      8.0627      2.4601      0.0462     11.5097     14.0594     77.6836
  1422.6000      8.0627      2.4733      0.0425     10.7079     13.6300     79.0374
  1422.7000      8.0627      2.4760      0.0505     10.5447     13.0643     77.3504
