~Version Information
VERS.                      2.0: CWLS Log ASCII Standard - VERSION 2.0
WRAP.                       NO: One line per depth step
~Well Information Block
STRT.FT               260.0000: 
STOP.FT              2269.5000: 
STEP.FT                 0.1000: 
NULL.                -999.2500: 
COMP.          Pioneer Natural Resources: COMPANY
WELL.            Moo Moo 31-36: WELL
FLD.           Purgatoire River: FIELD
LOC.           612' FNL & 2326' FEL: LOCATION
PROV.                 Colorado: PROVINCE
CNTY.               Las Animas: COUNTRY
SRVC.                Patterson: SERVICE COMPANY
DATE.          Fri Jun 17 07:04:43 2005: LOG DATE
UWI.           05 071 08395 00: UNIQUE WELL ID
~Curve Information Block
DEPT.FT            0 000 00 00: Depth
DCAL.in                       : CDL Caliper
RHOB.g/cc                     : CDL Bulk Density
RHOC.g/cc                     : CDL Density Correction
DPOR.pu                       : CDL Density Porosity
GR.GAPI                       : Gamma Ray
NPOR.pu                       : Neutron Porosity
~Parameter Information Block
~A  Depth       DCAL        RHOB        RHOC        DPOR         GR         NPOR    
# ...
  1853.6000      7.8642      2.6062      0.0734      2.6517     88.4808     23.9413
  1853.7000      7.8642      2.6178      0.0282      1.9529     89.5337     22.6332
  1853.8000      7.8730      2.6389      0.1402      0.6716     89.2901     21.9203
  1853.9000      7.8730      2.6459      0.1355      0.2503     89.3946     22.3809
  1854.0000      7.8654      2.6378      0.0906      0.7400     90.3903     23.7505
  1854.1000      7.8654      2.6474      0.0961      0.1594     94.3486     24.6636
  1854.2000      7.8654      2.6871      0.1895     -2.2508     99.5817     24.2502
  1854.3000      7.8342      2.7397      0.2406     -5.4391    100.8874     23.3815
  1854.4000      7.8342      2.7837      0.2316     -8.1056     96.7154     22.9420
  1854.5000      7.7862      2.8016      0.2290     -9.1862     90.5947     22.4883
  1854.6000      7.7862      2.7911      0.1774     -8.5505     89.9064     21.7379
  1854.7000      7.7862      2.7808      0.1152     -7.9293     97.8688     21.2791
  1854.8000      7.7841      2.8009      0.1190     -9.1469    108.3650     21.1385
  1854.9000      7.7841      2.8299      0.1934    -10.9017    113.0262     20.8365
  1855.0000      7.8175      2.8241      0.1128    -10.5535    108.8578     20.3421
  1855.1000      7.8175      2.7854      0.0953     -8.2084    101.2904     19.7785
  1855.2000      7.8175      2.7446      0.0443     -5.7359     99.8405     19.2613
  1855.3000      7.8379      2.7227      0.0291     -4.4054    106.6855     18.5662
  1855.4000      7.8379      2.7297      0.0154     -4.8314    116.8305     17.5331
  1855.5000      7.8982      2.7617      0.0530     -6.7714    122.8656     16.5896
  1855.6000      7.8982      2.7816      0.0913     -7.9732    120.7667     16.1156
  1855.7000      7.8982      2.7584      0.0174     -6.5690    115.1466     16.0378
  1855.8000      7.9093      2.7255     -0.0457     -4.5742    111.7091     15.8572
  1855.9000      7.9093      2.7265      0.0167     -4.6342    112.6176     15.2990
  1856.0000      7.9259      2.7458      0.0431     -5.8088    114.8989     14.8436
  1856.1000      7.9259      2.7477      0.0288     -5.9230    113.3477     14.8779
  1856.2000      7.9259      2.7359      0.0231     -5.2031    108.3386     15.3578
  1856.3000      7.9323      2.7378      0.0096     -5.3197    104.7784     15.8905
  1856.4000      7.9323      2.7563      0.0761     -6.4422    104.0169     15.9882
  1856.5000      7.9370      2.7740      0.0413     -7.5151    103.6695     15.6377
  1856.6000      7.9370      2.7858      0.0258     -8.2315    103.4220     15.2350
  1856.7000      7.9370      2.7799      0.0657     -7.8739    105.6731     15.2153
  1856.8000      7.9400      2.7450      0.0491     -5.7595    108.6303     15.5426
  1856.9000      7.9400      2.7063     -0.0001     -3.4117    106.1552     15.7870
  1857.0000      7.9357      2.6937     -0.0182     -2.6500     99.7657     15.7783
  1857.1000      7.9357      2.6983      0.0404     -2.9258     97.6139     15.5497
  1857.2000      7.9357      2.7071     -0.0278     -3.4611    101.1459     15.2698
  1857.3000      7.9444      2.7282      0.0121     -4.7391    104.4054     15.2298
  1857.4000      7.9444      2.7508      0.0326     -6.1100    102.9231     15.4582
  1857.5000      7.9179      2.7586      0.0433     -6.5829    100.2055     15.6254
  1857.6000      7.9179      2.7607      0.0345     -6.7068    101.0812     15.6087
  1857.7000      7.9179      2.7627      0.0097     -6.8305    101.4437     15.4569
  1857.8000      7.9235      2.7490      0.0736     -6.0000     98.8537     15.3688
  1857.9000      7.9235      2.7172     -0.0179     -4.0755     97.1180     15.5269
  1858.0000      7.9261      2.6943      0.0018     -2.6836     98.5746     15.8815
  1858.1000      7.9261      2.6968     -0.0485     -2.8390    103.1381     16.4698
  1858.2000      7.9261      2.7097      0.0001     -3.6193    106.8950     17.1684
  1858.3000      7.9261      2.7027      0.0466     -3.1911    105.3731     17.7978
  1858.4000      7.9261      2.6663      0.0371     -0.9862    101.2784     18.5420
  1858.5000      7.9273      2.6258     -0.0321      1.4663    100.0129     19.3700
  1858.6000      7.9273      2.6142      0.0158      2.1698     99.0970     19.6641
  1858.7000      7.9273      2.6386      0.0425      0.6917     96.3275     19.5033
  1858.8000      7.9229      2.6840      0.0379     -2.0632     96.0066     19.7702
  1858.9000      7.9229      2.7256      0.0839     -4.5827     97.3853     20.8078
  1859.0000      7.9233      2.7347      0.1441     -5.1328     96.1763     22.1427
  1859.1000      7.9233      2.7073      0.1264     -3.4732     92.6114     23.0536
  1859.2000      7.9233      2.6643      0.1033     -0.8664     87.7103     23.3104
  1859.3000      7.9187      2.6011      0.1275      2.9639     82.5631     23.2031
  1859.4000      7.9187      2.4955      0.0720      9.3640     78.2748     23.3625
  1859.5000      7.8554      2.3628     -0.0115     17.4055     75.1370     23.9641
  1859.6000      7.8554      2.2441     -0.1060     24.6030     74.2313     24.1939
  1859.7000      7.8554      2.1550     -0.0792     29.9990     74.6186     24.1942
  1859.8000      7.8689      2.0953     -0.1308     33.6185     75.7084     25.2738
  1859.9000      7.8689      2.0818     -0.1157     34.4390     79.7175     27.1158
  1860.0000      7.9356      2.1161      0.0291     32.3575     87.5620     28.0833
  1860.1000      7.9356      2.1713      0.0980     29.0104     97.2974     28.1814
  1860.2000      7.9356      2.2374      0.1404     25.0063    106.5944     28.7343
  1860.3000      7.9460      2.3183      0.2025     20.1026    115.4921     29.6958
  1860.4000      7.9460      2.3948      0.2002     15.4678    126.0629     29.8692
  1860.5000      7.9513      2.4406      0.2064     12.6889    136.8912     29.1739
  1860.6000      7.9513      2.4622      0.1154     11.3813    143.9550     28.6708
  1860.7000      7.9513      2.4908      0.1137      9.6474    147.6476     28.8511
  1860.8000      7.9542      2.5423      0.1246      6.5263    149.9615     29.0617
  1860.9000      7.9542      2.6051      0.1839      2.7202    150.0777     28.8518
  1861.0000      7.9734      2.6527      0.2064     -0.1622    147.5807     28.3595
  1861.1000      7.9734      2.6577      0.1921     -0.4681    145.6349     27.7317
  1861.2000      7.9734      2.6173      0.1512      1.9832    148.3886     27.1593
  1861.3000      7.9706      2.5720      0.0349      4.7300    154.0070     26.7334
  1861.4000      7.9706      2.5582      0.0668      5.5622    155.6795     26.0006
  1861.5000      7.9843      2.5505      0.0865      6.0274    151.5363     25.0481
  1861.6000      7.9843      2.5074      0.1032      8.6415    146.2192     24.7471
  1861.7000      7.9843      2.4334      0.0148     13.1286    141.8076     25.6563
  1861.8000      8.0125      2.3429      0.0078     18.6104    139.8490     27.2191
  1861.9000      8.0125      2.2221      0.0313     25.9317    136.5866     28.3478
  1862.0000      7.9970      2.0769     -0.0277     34.7328    126.6256     28.6456
  1862.1000      7.9970      1.9525     -0.0346     42.2747    117.7127     28.7297
  1862.2000      7.9970      1.8739     -0.0497     47.0364    117.5945     29.3520
  1862.3000      7.9814      1.8194     -0.0062     50.3393    122.7303     30.2480
  1862.4000      7.9814      1.7601     -0.0274     53.9322    124.4177     30.4075
  1862.5000      7.9693      1.6966     -0.0094     57.7793    116.8159     29.6771
  1862.6000      7.9693      1.6465      0.0529     60.8172    102.8644     29.1232
  1862.7000      7.9693      1.6146      0.0502     62.7511     91.1151     29.3480
  1862.8000      7.9703      1.5966      0.0602     63.8446     85.1520     30.2138
  1862.9000      7.9703      1.5953      0.0412     63.9228     86.0352     31.1797
  1863.0000      7.9728      1.6177      0.0748     62.5609     95.9064     31.8586
  1863.1000      7.9728      1.6666      0.0627     59.6027    110.7338     32.6035
