~Version Information
VERS.                      2.0: CWLS Log ASCII Standard - VERSION 2.0
WRAP.                       NO: One line per depth step
~Well Information Block
STRT.FT               510.5000: 
STOP.FT              2075.5000: 
STEP.FT                 0.1000: 
NULL.                -999.2500: 
COMP.          Petrogulf Corporation: COMPANY
WELL.          Robinson 15-11V: WELL
FLD.           Purgatorie River: FIELD
LOC.           226' FNL & 592' FWL: LOCATION
CNTY.               Las Animas: COUNTY
SRVC.                         : SERVICE COMPANY
DATE.          Wed Aug 04 06:17:53 2004: LOG DATE
UWI.           05 071 08027 00: UNIQUE WELL ID
STAT.                 Colorado: STATE
~Curve Information Block
DEPT.FT            0 000 00 00: Depth
DCAL.in                       : CDL Caliper
RHOB.g/cc                     : CDL Bulk Density
RHOC.g/cc                     : CDL Density Correction
DPOR.pu                       : CDL Density Porosity
GR.GAPI                       : Gamma Ray
NPOR.pu                       : Neutron Porosity
~Parameter Information Block
~A  Depth       DCAL        RHOB        RHOC        DPOR         GR         NPOR    
# ...
  1240.1000      7.8219      2.4864      0.1092      9.9122     51.8320     19.1989
  1240.2000      7.8219      2.4898      0.0868      9.7118     52.8786     19.0331
  1240.3000      7.8204      2.4947      0.1145      9.4112     56.3111     18.9001
  1240.4000      7.8204      2.4956      0.1009      9.3586     62.6133     18.6800
  1240.5000      7.8199      2.4941      0.0671      9.4466     68.4930     18.6202
  1240.6000      7.8199      2.4937      0.1012      9.4752     69.6227     19.0582
  1240.7000      7.8199      2.4854      0.0929      9.9768     68.0603     19.6221
  1240.8000      7.8203      2.4676      0.0660     11.0541     67.4712     19.8774
  1240.9000      7.8203      2.4541      0.0309     11.8737     69.4686     19.8257
  1241.0000      7.8209      2.4536      0.0630     11.9032     75.0111     19.5870
  1241.1000      7.8209      2.4594      0.0496     11.5515     79.6902     19.3408
  1241.2000      7.8209      2.4637      0.0459     11.2911     76.9466     19.1733
  1241.3000      7.8197      2.4701      0.0544     10.9034     70.1615     19.0424
  1241.4000      7.8197      2.4834      0.0943     10.0942     67.1149     18.8656
  1241.5000      7.8207      2.4988      0.1085      9.1638     67.8360     18.6267
  1241.6000      7.8207      2.5095      0.0729      8.5122     69.4119     18.6083
  1241.7000      7.8207      2.5122      0.0936      8.3511     71.0067     19.0561
  1241.8000      7.8191      2.5029      0.1015      8.9153     71.1938     19.5384
  1241.9000      7.8191      2.4866      0.0931      9.9055     70.0529     19.6971
  1242.0000      7.8221      2.4770      0.0640     10.4828     68.3378     19.7924
  1242.1000      7.8221      2.4789      0.1074     10.3672     66.8455     19.9940
  1242.2000      7.8221      2.4880      0.0893      9.8203     67.0234     20.1452
  1242.3000      7.8219      2.4999      0.1008      9.0950     67.3544     20.0903
  1242.4000      7.8219      2.5052      0.0987      8.7739     65.2822     19.8268
  1242.5000      7.8224      2.4951      0.0885      9.3899     64.3995     19.6896
  1242.6000      7.8224      2.4742      0.0570     10.6547     67.9563     19.9052
  1242.7000      7.8224      2.4580      0.0362     11.6345     70.0830     20.2299
  1242.8000      7.8243      2.4603      0.0491     11.4978     66.6855     20.2179
  1242.9000      7.8243      2.4778      0.1356     10.4384     62.7553     19.7988
  1243.0000      7.8237      2.4940      0.1232      9.4539     63.2594     19.4843
  1243.1000      7.8237      2.4990      0.1333      9.1534     67.1402     19.6231
  1243.2000      7.8237      2.4961      0.1121      9.3294     71.7955     19.9584
  1243.3000      7.8230      2.4926      0.1177      9.5421     75.1471     20.0223
  1243.4000      7.8230      2.4889      0.1236      9.7624     72.6955     19.7892
  1243.5000      7.8247      2.4845      0.1273     10.0302     64.5576     19.4780
  1243.6000      7.8247      2.4808      0.1072     10.2541     60.1504     19.0646
  1243.7000      7.8247      2.4736      0.0754     10.6888     65.1838     18.5973
  1243.8000      7.8258      2.4602      0.0959     11.5005     73.2004     18.1320
  1243.9000      7.8258      2.4489      0.0905     12.1859     76.2267     17.8039
  1244.0000      7.8184      2.4513      0.0615     12.0449     75.2488     17.9229
  1244.1000      7.8184      2.4645      0.1110     11.2432     75.1371     18.2621
  1244.2000      7.8184      2.4740      0.1103     10.6650     74.5951     18.3577
  1244.3000      7.8167      2.4775      0.0885     10.4520     70.4924     18.2762
  1244.4000      7.8167      2.4811      0.0966     10.2394     66.2978     18.3261
  1244.5000      7.8147      2.4827      0.1282     10.1406     63.8696     18.4455
  1244.6000      7.8147      2.4761      0.1366     10.5387     61.2592     18.4651
  1244.7000      7.8147      2.4656      0.0820     11.1729     59.9359     18.4245
  1244.8000      7.8144      2.4622      0.1040     11.3824     58.6194     18.4202
  1244.9000      7.8144      2.4653      0.1130     11.1945     55.4664     18.3687
  1245.0000      7.8136      2.4676      0.1038     11.0543     55.6322     18.1197
  1245.1000      7.8136      2.4696      0.1026     10.9359     60.5149     17.9307
  1245.2000      7.8136      2.4784      0.1310     10.3987     64.4674     18.0827
  1245.3000      7.8120      2.4958      0.1466      9.3459     63.1794     18.4787
  1245.4000      7.8120      2.5146      0.1417      8.2033     57.4592     18.8177
  1245.5000      7.8004      2.5276      0.1653      7.4208     53.4874     18.8568
  1245.6000      7.8004      2.5328      0.1661      7.1034     55.7366     18.7782
  1245.7000      7.8004      2.5348      0.1565      6.9828     59.9405     18.9573
  1245.8000      7.7955      2.5416      0.1485      6.5717     59.6115     19.3507
  1245.9000      7.7955      2.5547      0.1667      5.7760     56.2126     19.6474
  1246.0000      7.7953      2.5633      0.1814      5.2556     54.2611     19.6553
  1246.1000      7.7953      2.5550      0.1703      5.7558     53.5263     19.5706
  1246.2000      7.7953      2.5313      0.1343      7.1920     52.4969     19.7894
  1246.3000      7.7968      2.5092      0.0868      8.5337     52.1026     20.2076
  1246.4000      7.7968      2.4954      0.1135      9.3685     52.0683     20.4787
  1246.5000      7.7969      2.4801      0.0640     10.2997     52.9357     20.5811
  1246.6000      7.7969      2.4647      0.0626     11.2288     55.4666     20.5152
  1246.7000      7.7969      2.4600      0.0558     11.5147     57.5660     20.3261
  1246.8000      7.7966      2.4635      0.0744     11.3024     58.9473     20.2063
  1246.9000      7.7966      2.4648      0.0499     11.2241     59.4414     20.1982
  1247.0000      7.7970      2.4655      0.0521     11.1836     59.9640     20.2832
  1247.1000      7.7970      2.4794      0.0595     10.3416     62.2683     20.3873
  1247.2000      7.7970      2.5140      0.0920      8.2449     63.8546     20.4881
  1247.3000      7.7973      2.5586      0.1596      5.5392     63.1767     20.5514
  1247.4000      7.7973      2.6004      0.1387      3.0068     63.3611     20.5296
  1247.5000      7.7936      2.6393      0.2161      0.6486     64.7929     20.7292
  1247.6000      7.7936      2.6735      0.2357     -1.4240     64.7748     21.1409
  1247.7000      7.7936      2.6908      0.2328     -2.4753     64.7715     21.2468
  1247.8000      7.7930      2.6800      0.2308     -1.8178     69.1650     21.0726
  1247.9000      7.7930      2.6513      0.1291     -0.0800     75.7509     21.0806
  1248.0000      7.7926      2.6357      0.1149      0.8671     77.0565     21.2411
  1248.1000      7.7926      2.6412      0.1544      0.5318     72.7813     21.1870
  1248.2000      7.7926      2.6445      0.1273      0.3351     69.0514     21.0361
  1248.3000      7.7921      2.6318      0.1011      1.1051     67.3931     21.0798
  1248.4000      7.7921      2.6078      0.0950      2.5597     65.0360     21.0713
  1248.5000      7.7915      2.5780      0.0561      4.3664     60.6044     20.6662
  1248.6000      7.7915      2.5491      0.0705      6.1137     54.9945     19.9351
  1248.7000      7.7915      2.5313     -0.0019      7.1935     50.8533     19.2278
  1248.8000      7.7903      2.5293      0.0492      7.3181     51.3953     18.9119
  1248.9000      7.7903      2.5337      0.0647      7.0464     57.1511     18.9971
  1249.0000      7.7895      2.5389      0.0681      6.7352     63.3848     19.1729
  1249.1000      7.7895      2.5501      0.0548      6.0561     65.4244     19.3248
  1249.2000      7.7895      2.5715      0.0795      4.7555     63.3343     19.4518
  1249.3000      7.7866      2.5946      0.1067      3.3557     60.0888     19.4923
  1249.4000      7.7866      2.6056      0.1761      2.6910     58.4619     19.4677
  1249.5000      7.7784      2.6021      0.1467      2.9044     58.1526     19.3370
  1249.6000      7.7784      2.5935      0.1562      3.4257     56.5327     18.9400
