~Version Information
VERS.                      2.0: CWLS Log ASCII Standard - VERSION 2.0
WRAP.                       NO: One line per depth step
~Well Information Block
STRT.FT               475.0000: 
STOP.FT              2336.7000: 
STEP.FT                 0.1000: 
NULL.                -999.2500: 
COMP.          Pioneer Natural Resources: COMPANY
WELL.              Bobsy 34-11: WELL
FLD.           Purgatoire River: FIELD
LOC.           1937' FEL & 451' FSL----: LOCATION
PROV.                 Colorado: PROVINCE
CNTY.               Las Animas: COUNTRY
SRVC.                Patterson: SERVICE COMPANY
DATE.          Fri Apr 08 11:07:54 2005: LOG DATE
UWI.           05 071 08330 00: UNIQUE WELL ID
~Curve Information Block
DEPT.FT            0 000 00 00: Depth
DCAL.in                       : CDL Caliper
RHOB.g/cc                     : CDL Bulk Density
RHOC.g/cc                     : CDL Density Correction
DPOR.pu                       : CDL Density Porosity
NPOR.pu                       : Neutron Porosity
GR.GAPI                       : Gamma Ray
~Parameter Information Block
~A  Depth       DCAL        RHOB        RHOC        DPOR        NPOR         GR     
# ...
   715.0000      7.9810      2.5717      0.0621      4.7472     22.6979     85.1032
   715.1000      7.9810      2.5704      0.0319      4.8225     22.9045     87.1925
   715.2000      7.9810      2.5675      0.0175      4.9973     22.8696     90.6406
   715.3000      7.9755      2.5722      0.0472      4.7134     22.7824     91.3694
   715.4000      7.9755      2.5756      0.0665      4.5106     23.0901     88.7614
   715.5000      7.9748      2.5664      0.0662      5.0676     23.4774     86.7498
   715.6000      7.9748      2.5451      0.0584      6.3561     23.4841     87.6486
   715.7000      7.9748      2.5257      0.0254      7.5345     23.2724     89.3820
   715.8000      7.9753      2.5186      0.0245      7.9641     23.3770     89.4630
   715.9000      7.9753      2.5148      0.0231      8.1945     24.0837     88.8423
   716.0000      7.9754      2.5070      0.0282      8.6653     24.9814     90.6610
   716.1000      7.9754      2.5040     -0.0027      8.8482     25.5277     94.2715
   716.2000      7.9754      2.5079      0.0345      8.6105     25.8072     95.5343
   716.3000      7.9749      2.5178     -0.0317      8.0101     26.1809     94.3688
   716.4000      7.9749      2.5394      0.0287      6.7023     26.5553     95.4881
   716.5000      7.9749      2.5587      0.0537      5.5313     26.7513    100.0294
   716.6000      7.9749      2.5611      0.0237      5.3902     26.9068    102.9646
   716.7000      7.9749      2.5544      0.0441      5.7932     27.0333    100.0316
   716.8000      7.9753      2.5463      0.0388      6.2858     27.0365     94.6935
   716.9000      7.9753      2.5460     -0.0114      6.3008     27.0675     94.5243
   717.0000      7.9755      2.5584      0.0378      5.5527     27.2040     98.8863
   717.1000      7.9755      2.5669      0.0317      5.0370     27.4712    100.9207
   717.2000      7.9755      2.5624      0.0317      5.3078     27.9358     98.0098
   717.3000      7.9754      2.5544      0.0125      5.7937     28.3160     92.3152
   717.4000      7.9754      2.5530      0.0023      5.8779     28.2503     88.5099
   717.5000      7.9745      2.5551      0.0449      5.7499     27.9462     88.5847
   717.6000      7.9745      2.5465      0.0309      6.2725     27.8928     90.1026
   717.7000      7.9745      2.5219     -0.0132      7.7650     28.2113     91.4790
   717.8000      7.9727      2.4878     -0.0064      9.8278     28.6165     92.2861
   717.9000      7.9727      2.4552     -0.0190     11.8079     28.8087     93.1149
   718.0000      7.9707      2.4405     -0.0255     12.6964     29.0684     95.8324
   718.1000      7.9707      2.4548     -0.0213     11.8288     29.5777    100.9615
   718.2000      7.9707      2.4850      0.0424      9.9981     29.7639    104.3943
   718.3000      7.9706      2.5124      0.0251      8.3368     29.2536    100.5991
   718.4000      7.9706      2.5388      0.0817      6.7416     28.5931     94.3153
   718.5000      7.9716      2.5702      0.0820      4.8375     28.4722     94.8394
   718.6000      7.9716      2.5998      0.1374      3.0453     28.5953    100.8867
   718.7000      7.9716      2.6149      0.1190      2.1254     28.3041    104.8067
   718.8000      7.9719      2.6116      0.1290      2.3294     27.6207    103.1893
   718.9000      7.9719      2.5893      0.1403      3.6805     27.0658     98.0922
   719.0000      7.9714      2.5556      0.0548      5.7195     27.0774     92.9296
   719.1000      7.9714      2.5247      0.0640      7.5917     27.6124     88.9032
   719.2000      7.9714      2.4917      0.0299      9.5920     28.0941     86.9971
   719.3000      7.9720      2.4528     -0.0323     11.9502     28.2734     87.7662
   719.4000      7.9720      2.4239     -0.0138     13.7043     28.4880     90.2646
   719.5000      7.9739      2.4143     -0.0596     14.2864     28.7004     93.5179
   719.6000      7.9739      2.4166     -0.0143     14.1468     28.5528     97.3786
   719.7000      7.9739      2.4143     -0.0144     14.2820     28.0678    101.7752
   719.8000      7.9740      2.4001      0.0064     15.1459     27.1963    104.9309
   719.9000      7.9740      2.3826     -0.0069     16.2049     25.9110    106.4062
   720.0000      7.9726      2.3736     -0.0258     16.7485     24.7418    108.2850
   720.1000      7.9726      2.3760     -0.0039     16.6061     23.9969    111.0194
   720.2000      7.9726      2.3928      0.0023     15.5889     23.5017    113.0007
   720.3000      7.9724      2.4267      0.0518     13.5345     23.3741    113.4284
   720.4000      7.9724      2.4623      0.0775     11.3729     23.8159    113.6090
   720.5000      7.9735      2.4850      0.0777      9.9976     24.3529    112.2513
   720.6000      7.9735      2.5032      0.0652      8.8964     24.5806    110.0148
   720.7000      7.9735      2.5276      0.1064      7.4183     24.8452    110.1797
   720.8000      7.9736      2.5505      0.1105      6.0323     25.4398    110.6899
   720.9000      7.9736      2.5654      0.0641      5.1245     26.1017    111.0179
   721.0000      7.9729      2.5754      0.0895      4.5200     26.6714    114.7356
   721.1000      7.9729      2.5684      0.1091      4.9433     27.1232    119.4762
   721.2000      7.9729      2.5391      0.0060      6.7215     27.3914    120.3325
   721.3000      7.9734      2.5125      0.0214      8.3304     27.4846    118.7527
   721.4000      7.9734      2.5060     -0.0023      8.7266     27.4397    119.6749
   721.5000      7.9729      2.5145      0.0141      8.2093     27.5245    123.6052
   721.6000      7.9729      2.5223      0.0545      7.7408     28.1015    126.4827
   721.7000      7.9729      2.5245      0.0039      7.6058     28.9655    124.9515
   721.8000      7.9713      2.5381      0.0143      6.7804     29.3765    120.1769
   721.9000      7.9713      2.5598      0.0613      5.4684     29.0916    117.8899
   722.0000      7.9704      2.5664      0.0427      5.0690     28.7654    120.3239
   722.1000      7.9704      2.5566      0.0160      5.6601     28.8971    122.6541
   722.2000      7.9704      2.5423      0.0577      6.5275     29.0009    123.0343
   722.3000      7.9712      2.5301      0.0759      7.2653     28.5531    125.8017
   722.4000      7.9712      2.5236      0.0377      7.6624     27.9539    132.3831
   722.5000      7.9737      2.5208      0.0336      7.8278     27.8818    138.0491
   722.6000      7.9737      2.5169      0.0347      8.0644     28.2644    136.9525
   722.7000      7.9737      2.5180      0.0650      8.0003     28.6194    131.8662
   722.8000      7.9761      2.5315      0.0672      7.1834     28.5216    130.7805
   722.9000      7.9761      2.5465      0.1020      6.2740     27.9541    133.4086
   723.0000      7.9767      2.5448      0.0682      6.3762     27.4005    135.9803
   723.1000      7.9767      2.5275      0.0440      7.4263     26.8996    133.7504
   723.2000      7.9767      2.5172      0.0207      8.0502     26.3810    122.0705
   723.3000      7.9752      2.5235      0.0653      7.6692     26.3284    107.4823
   723.4000      7.9752      2.5266      0.1100      7.4774     26.6218    101.1302
   723.5000      7.9741      2.5211     -0.0028      7.8121     26.5273    104.7234
   723.6000      7.9741      2.5251      0.0483      7.5725     26.1642    110.0072
   723.7000      7.9741      2.5382      0.0662      6.7761     26.0867    109.8193
   723.8000      7.9736      2.5520      0.0783      5.9396     26.3691    106.5615
   723.9000      7.9736      2.5688      0.0748      4.9227     26.8465    105.4114
   724.0000      7.9725      2.5828      0.1266      4.0737     27.1713    108.9488
   724.1000      7.9725      2.5789      0.1246      4.3120     26.9874    114.5646
   724.2000      7.9725      2.5610      0.0549      5.3923     26.2467    114.1568
   724.3000      7.9713      2.5526      0.0467      5.9054     25.4703    106.4332
   724.4000      7.9713      2.5613      0.0452      5.3760     25.1935    100.4426
   724.5000      7.9708      2.5691      0.0798      4.9029     25.2665    100.6006
