~Version Information
VERS.                      2.0: CWLS Log ASCII Standard - VERSION 2.0
WRAP.                       NO: One line per depth step
~Well Information Block
STRT.FT               480.1000: 
STOP.FT              2029.0000: 
STEP.FT                 0.1000: 
NULL.                -999.2500: 
COMP.          Petrogulf Corporation: COMPANY
WELL.            Montoya 7-12R: WELL
FLD.           Purgatorie River: FIELD
LOC.           1769' FNL & 658' FWL: LOCATION
CNTY.               Las Animas: COUNTY
SRVC.                         : SERVICE COMPANY
DATE.          Mon Nov 22 07:21:54 2004: LOG DATE
UWI.           05 071 08240 00: UNIQUE WELL ID
STAT.                 Colorado: STATE
~Curve Information Block
DEPT.FT            0 000 00 00: Depth
DCAL.in                       : CDL Caliper
RHOB.g/cc                     : CDL Bulk Density
RHOC.g/cc                     : CDL Density Correction
DPOR.pu                       : CDL Density Porosity
GR.GAPI                       : Gamma Ray
NPOR.pu                       : Neutron Porosity
~Parameter Information Block
~A  Depth       DCAL        RHOB        RHOC        DPOR         GR         NPOR    
# ...
  1104.1000      8.1329      2.5571      0.0744      5.6297    122.9576     30.8065
  1104.2000      8.1329      2.5338      0.0411      7.0441    123.9499     31.0062
  1104.3000      8.0788      2.5128      0.0492      8.3159    122.1490     31.0965
  1104.4000      8.0788      2.5060      0.0169      8.7247    120.7512     31.0605
  1104.5000      8.1428      2.5185      0.0238      7.9681    119.2218     31.4951
  1104.6000      8.1428      2.5409      0.0293      6.6123    116.6266     32.4320
  1104.7000      8.1428      2.5459      0.0784      6.3088    116.3906     32.6862
  1104.8000      8.1247      2.5284     -0.0067      7.3716    120.1818     32.0401
  1104.9000      8.1247      2.5111     -0.0216      8.4177    122.8768     31.5023
  1105.0000      8.1400      2.4877     -0.0012      9.8378    120.0427     31.5922
  1105.1000      8.1400      2.4294      0.0251     13.3724    115.4354     31.8107
  1105.2000      8.1400      2.3394     -0.0545     18.8257    115.5567     31.5432
  1105.3000      8.1095      2.2375     -0.0179     25.0018    117.7794     30.9919
  1105.4000      8.1095      2.1139     -0.0369     32.4904    113.9607     30.7441
  1105.5000      8.0802      1.9668     -0.1042     41.4035    109.7012     31.0058
  1105.6000      8.0802      1.8327     -0.1172     49.5327    114.7567     31.5044
  1105.7000      8.0802      1.7285     -0.0939     55.8468    122.7148     31.9474
  1105.8000      8.0965      1.6260     -0.0602     62.0613    121.3348     32.5192
  1105.9000      8.0965      1.5183     -0.1542     68.5856    111.0255     33.3830
  1106.0000      8.1203      1.4512     -0.1135     72.6522    101.2641     34.0837
  1106.1000      8.1203      1.4549     -0.0260     72.4309     95.0919     34.3621
  1106.2000      8.1203      1.5094      0.0961     69.1243     87.4434     34.7873
  1106.3000      8.1022      1.5869      0.1154     64.4306     77.6215     35.7905
  1106.4000      8.1022      1.6809      0.0831     58.7317     70.7201     36.9324
  1106.5000      8.2285      1.7913      0.1233     52.0418     68.8114     37.4085
  1106.6000      8.2285      1.9143      0.1694     44.5906     68.3027     37.0688
  1106.7000      8.2285      2.0490      0.1951     36.4232     67.2171     36.6508
  1106.8000      8.1854      2.1884      0.2390     27.9761     67.8931     36.5264
  1106.9000      8.1854      2.3134      0.2645     20.3992     70.5887     35.7832
  1107.0000      8.0878      2.4143      0.2167     14.2829     74.1764     34.1920
  1107.1000      8.0878      2.4950      0.2065      9.3914     79.3987     32.9138
  1107.2000      8.0878      2.5489      0.2283      6.1277     86.3532     32.2271
  1107.3000      8.0846      2.5761      0.0772      4.4814     92.9221     31.3500
  1107.4000      8.0846      2.6008      0.0166      2.9826     96.1590     30.5654
  1107.5000      8.0370      2.6289      0.0485      1.2801     96.8397     30.3415
  1107.6000      8.0370      2.6415      0.0745      0.5127     97.2698     29.7137
  1107.7000      8.0370      2.6326      0.0721      1.0519     97.9959     28.0165
  1107.8000      8.0201      2.6134      0.0424      2.2196     98.6915     25.9435
  1107.9000      8.0201      2.6006     -0.0002      2.9933     98.0032     24.3260
  1108.0000      8.0148      2.6065      0.0163      2.6356     96.2965     23.5239
  1108.1000      8.0148      2.6289      0.0943      1.2815     96.4697     23.4142
  1108.2000      8.0148      2.6518      0.0802     -0.1088     97.2510     23.3901
  1108.3000      8.0040      2.6646      0.0542     -0.8859     93.3368     22.8365
  1108.4000      8.0040      2.6662      0.0735     -0.9847     87.6490     22.1003
  1108.5000      8.0069      2.6510      0.0471     -0.0609     86.9487     22.3744
  1108.6000      8.0069      2.6190      0.0360      1.8812     89.9659     23.9880
  1108.7000      8.0069      2.5893      0.0003      3.6762     93.3850     25.9755
  1108.8000      8.0025      2.5831      0.0210      4.0548     96.3561     27.4317
  1108.9000      8.0025      2.5966      0.0284      3.2391     98.4119     28.3896
  1109.0000      8.0157      2.5999      0.0722      3.0370    100.6692     29.0309
  1109.1000      8.0157      2.5796      0.0204      4.2649    104.0718     29.3178
  1109.2000      8.0157      2.5664     -0.0032      5.0641    105.6787     29.5224
  1109.3000      8.0096      2.5838      0.0539      4.0126    104.8364     29.8215
  1109.4000      8.0096      2.6131      0.0772      2.2355    106.1064     29.9661
  1109.5000      8.0387      2.6284      0.0400      1.3112    110.5462     29.7995
  1109.6000      8.0387      2.6246      0.0572      1.5399    113.7715     29.6942
  1109.7000      8.0387      2.6144      0.0020      2.1605    114.2711     30.1941
  1109.8000      8.0088      2.6054      0.0096      2.7023    114.0989     30.7327
  1109.9000      8.0088      2.6013      0.0037      2.9510    112.8285     30.5175
  1110.0000      8.0142      2.6201      0.0304      1.8123    111.9395     30.2848
  1110.1000      8.0142      2.6656      0.0698     -0.9480    115.0176     30.6333
  1110.2000      8.0142      2.7082      0.1391     -3.5272    118.9193     31.1410
  1110.3000      8.0169      2.7224      0.1004     -4.3896    117.8336     31.2206
  1110.4000      8.0169      2.7162      0.0462     -4.0103    114.4665     30.8043
  1110.5000      8.0397      2.7068      0.0461     -3.4448    114.0065     30.1821
  1110.6000      8.0397      2.6928      0.0834     -2.5933    113.8290     29.2533
  1110.7000      8.0397      2.6669      0.0528     -1.0259    111.2222     28.1610
  1110.8000      8.0328      2.6442     -0.0369      0.3530    111.9440     27.6799
  1110.9000      8.0328      2.6397      0.0058      0.6260    117.0952     27.7063
  1111.0000      7.9985      2.6412      0.0068      0.5363    119.3505     27.0029
  1111.1000      7.9985      2.6352      0.0697      0.8970    114.3444     25.6138
  1111.2000      7.9985      2.6334      0.0232      1.0046    106.2556     24.2882
  1111.3000      8.0258      2.6496      0.0159      0.0232    102.4832     22.9981
  1111.4000      8.0258      2.6606      0.0725     -0.6440    102.4402     22.1859
  1111.5000      8.0012      2.6424      0.0479      0.4580    102.6351     22.3301
  1111.6000      8.0012      2.6141      0.0561      2.1748    103.3788     23.1634
  1111.7000      8.0012      2.6082     -0.0381      2.5316    105.7478     24.5621
  1111.8000      8.0067      2.6311      0.0000      1.1439    109.6060     25.7318
  1111.9000      8.0067      2.6596      0.0254     -0.5817    113.1804     25.8099
  1112.0000      8.0092      2.6682      0.0645     -1.1051    114.8042     25.3777
  1112.1000      8.0092      2.6550      0.0003     -0.3021    117.1408     25.0451
  1112.2000      8.0092      2.6414     -0.0365      0.5200    123.2837     24.9001
  1112.3000      8.0165      2.6414     -0.0214      0.5185    126.5268     24.7744
  1112.4000      8.0165      2.6412      0.0213      0.5320    120.1706     24.8253
  1112.5000      8.0337      2.6290     -0.0177      1.2709    109.8016     25.7839
  1112.6000      8.0337      2.6182     -0.0359      1.9267    103.1133     27.2353
  1112.7000      8.0337      2.6198     -0.0690      1.8308    101.6440     27.9214
  1112.8000      8.0259      2.6330     -0.0510      1.0278    102.6295     27.6993
  1112.9000      8.0259      2.6572     -0.0136     -0.4371    102.1814     27.4749
  1113.0000      8.0150      2.6787      0.0396     -1.7416    100.7374     27.8610
  1113.1000      8.0150      2.6784      0.0445     -1.7226    100.9035     28.4636
  1113.2000      8.0150      2.6599      0.0653     -0.6014    102.4900     28.3283
  1113.3000      8.0024      2.6441     -0.0184      0.3592    103.4975     27.3038
  1113.4000      8.0024      2.6441     -0.0083      0.3575    101.0342     26.6889
  1113.5000      8.0267      2.6400      0.0857      0.6073     96.7977     27.1135
  1113.6000      8.0267      2.6100     -0.0159      2.4235     94.4367     27.3699
