~Version Information
VERS.                      2.0: CWLS Log ASCII Standard - VERSION 2.0
WRAP.                       NO: One line per depth step
~Well Information Block
STRT.FT               930.0000: 
STOP.FT              2783.2500: 
STEP.FT                 0.2500: 
NULL.                -999.2500: 
COMP.          Pioneer Natural Resources: COMPANY
WELL.           Desoto 13-7TR: WELL
FLD.           Purgatoire River: FIELD
LOC.           1404' FSL & 1115' FWL: LOCATION
PROV.                 Colorado: PROVINCE
CNTY.               Las Animas: COUNTRY
SRVC.                Patterson: SERVICE COMPANY
DATE.          Fri Jan 14 11:02:13 2005: LOG DATE
UWI.           05 071 08216 00: UNIQUE WELL ID
~Curve Information Block
DEPT.FT            0 000 00 00: Depth
SN.Ohm-m                      : IEL Short Normal
SP.mV                         : IEL Spontaneous Potential
DIR.Ohm-m                     : IEL Induction Resistivity
GR.GAPI                       : Gamma Ray
~Parameter Information Block
~A  Depth        SN          SP         DIR          GR     
# ...
  2370.5000     14.7531     16.6522     10.9588    132.3446
  2370.7500     15.1709     13.9143     11.3359    125.4059
  2371.0000     15.7167     11.0597     11.7665    111.1065
  2371.2500     16.4795      8.3804     12.2479    101.0323
  2371.5000     17.5480      6.1596     12.7917     88.3135
  2371.7500     18.9335      4.6234     13.4042     82.4114
  2372.0000     20.5019      3.8973     14.0642     77.9021
  2372.2500     21.9905      3.9847     14.7162     77.8257
  2372.5000     23.1194      4.7771     15.2869     81.9736
  2372.7500     23.7155      6.0904     15.7104     87.2008
  2373.0000     23.7581      7.7155     15.9400     97.1964
  2373.2500     23.3345      9.4651     15.9458    103.9705
  2373.5000     22.5649     11.2027     15.7167    112.2791
  2373.7500     21.5500     12.8513     15.2717    116.1861
  2374.0000     20.3621     14.3845     14.6663    120.2766
  2374.2500     19.0643     15.8101     13.9789    122.3131
  2374.5000     17.7350     17.1538     13.2879    124.4590
  2374.7500     16.4688     18.4449     12.6555    125.3128
  2375.0000     15.3485     19.7057     12.1211    126.8956
  2375.2500     14.4069     20.9437     11.7018    129.3524
  2375.5000     13.6103     22.1473     11.3931    136.1079
  2375.7500     12.8741     23.2877     11.1714    141.6414
  2376.0000     12.1056     24.3252     10.9997    147.7747
  2376.2500     11.2599     25.2183     10.8378    148.6654
  2376.5000     10.3892     25.9296     10.6581    145.2252
  2376.7500      9.6526     26.4263     10.4572    141.4201
  2377.0000      9.2604     26.6746     10.2567    136.9362
  2377.2500      9.3743     26.6325     10.0924    135.9082
  2377.5000     10.0205     26.2459      9.9998    137.0335
  2377.7500     11.0687     25.4536     10.0036    138.7654
  2378.0000     12.2923     24.2003     10.1155    141.9217
  2378.2500     13.4711     22.4574     10.3364    144.1816
  2378.5000     14.4725     20.2461     10.6610    146.7775
  2378.7500     15.2719     17.6569     11.0814    146.6876
  2379.0000     15.9251     14.8583     11.5898    141.5853
  2379.2500     16.5244     12.0906     12.1791    134.5550
  2379.5000     17.1588      9.6391     12.8418    120.2944
  2379.7500     17.8776      7.7916     13.5650    110.1042
  2380.0000     18.6599      6.7879     14.3209     96.9041
  2380.2500     19.4076      6.7752     15.0573     90.9270
  2380.5000     19.9797      7.7815     15.6969     87.5666
  2380.7500     20.2531      9.7137     16.1513     89.0417
  2381.0000     20.1667     12.3805     16.3478     95.5195
  2381.2500     19.7241     15.5286     16.2533    101.5753
  2381.5000     18.9788     18.8841     15.8823    111.7464
  2381.7500     18.0263     22.1876     15.2919    118.8303
  2382.0000     16.9893     25.2189     14.5651    129.4820
  2382.2500     15.9805     27.8111     13.7904    135.9886
  2382.5000     15.0689     29.8547     13.0438    143.1840
  2382.7500     14.2846     31.2953     12.3803    145.6362
  2383.0000     13.6453     32.1259     11.8349    146.3420
  2383.2500     13.1671     32.3773     11.4250    145.8011
  2383.5000     12.8557     32.1061     11.1543    144.7142
  2383.7500     12.6974     31.3826     11.0151    143.8025
  2384.0000     12.6591     30.2802     10.9919    141.2920
  2384.2500     12.6966     28.8669     11.0634    138.3630
  2384.5000     12.7655     27.2009     11.2057    131.7863
  2384.7500     12.8345     25.3328     11.3960    126.0887
  2385.0000     12.8969     23.3116     11.6181    116.2628
  2385.2500     12.9752     21.1929     11.8662    109.5829
  2385.5000     13.1195     19.0465     12.1427    101.1885
  2385.7500     13.3873     16.9582     12.4475     97.8631
  2386.0000     13.8030     15.0267     12.7674     97.5522
  2386.2500     14.3160     13.3563     13.0732    100.2110
  2386.5000     14.8018     12.0463     13.3256    106.2741
  2386.7500     15.1163     11.1802     13.4869    110.1002
  2387.0000     15.1634     10.8136     13.5285    114.1088
  2387.2500     14.9299     10.9643     13.4370    115.8953
  2387.5000     14.4760     11.6044     13.2184    118.4324
  2387.7500     13.8987     12.6585     12.8999    120.4670
  2388.0000     13.2926     14.0101     12.5246    124.3671
  2388.2500     12.7272     15.5148     12.1393    127.7235
  2388.5000     12.2429     17.0187     11.7835    133.8660
  2388.7500     11.8595     18.3770     11.4838    138.1623
  2389.0000     11.5919     19.4686     11.2536    143.5503
  2389.2500     11.4588     20.2043     11.0961    145.9123
  2389.5000     11.4722     20.5288     11.0090    147.3443
  2389.7500     11.6172     20.4181     10.9869    146.7838
  2390.0000     11.8487     19.8750     11.0244    143.2656
  2390.2500     12.1175     18.9253     11.1173    138.9702
  2390.5000     12.4003     17.6137     11.2645    130.1125
  2390.7500     12.7059     15.9999     11.4689    123.5200
  2391.0000     13.0567     14.1523     11.7358    114.7832
  2391.2500     13.4646     12.1409     12.0678    110.7914
  2391.5000     13.9188     10.0304     12.4570    108.2043
  2391.7500     14.3907      7.8774     12.8791    108.3993
  2392.0000     14.8518      5.7313     13.2961    110.1301
  2392.2500     15.2873      3.6402     13.6715    111.1877
  2392.5000     15.6946      1.6575     13.9903    111.1458
  2392.7500     16.0684     -0.1544     14.2654    109.8054
  2393.0000     16.3880     -1.7244     14.5243    106.6377
  2393.2500     16.6165     -2.9777     14.7856    104.3258
  2393.5000     16.7171     -3.8439     15.0443    100.7095
  2393.7500     16.6740     -4.2648     15.2737     98.1035
  2394.0000     16.5029     -4.2024     15.4353     94.5719
  2394.2500     16.2351     -3.6451     15.4892     93.2967
  2394.5000     15.8880     -2.6130     15.4017     93.9632
  2394.7500     15.4520     -1.1604     15.1538     96.1101
  2395.0000     14.9133      0.6257     14.7481    101.5288
  2395.2500     14.2864      2.6323     14.2104    106.5506
  2395.5000     13.6155      4.7316     13.5826    115.8273
  2395.7500     12.9486      6.7942     12.9114    122.4191
  2396.0000     12.3132      8.7028     12.2373    131.2634
  2396.2500     11.7126     10.3621     11.5901    135.8802
  2396.5000     11.1420     11.7052     10.9886    140.5797
  2396.7500     10.6115     12.6945     10.4434    142.1707
  2397.0000     10.1501     13.3206      9.9586    142.5718
  2397.2500      9.7858     13.5987      9.5346    142.1679
  2397.5000      9.5231     13.5638      9.1687    141.9606
  2397.7500      9.3404     13.2679      8.8573    142.6089
  2398.0000      9.2073     12.7756      8.5966    144.7810
  2398.2500      9.1018     12.1601      8.3824    146.6631
  2398.5000      9.0158     11.4987      8.2095    149.4940
  2398.7500      8.9447     10.8662      8.0704    151.3080
  2399.0000      8.8728     10.3281      7.9549    153.9151
  2399.2500      8.7721      9.9335      7.8520    155.1407
  2399.5000      8.6200      9.7087      7.7515    155.1400
  2399.7500      8.4173      9.6553      7.6465    154.0738
  2400.0000      8.1844      9.7503      7.5339    153.0208
  2400.2500      7.9434      9.9513      7.4146    153.9367
  2400.5000      7.7083     10.2028      7.2923    157.8012
  2400.7500      7.4943     10.4432      7.1737    160.9548
  2401.0000      7.3290     10.6112      7.0671    164.4391
  2401.2500      7.2502     10.6504      6.9832    165.2375
  2401.5000      7.2889     10.5148      6.9340    164.1376
  2401.7500      7.4523     10.1748      6.9313    162.3366
  2402.0000      7.7168      9.6250      6.9860    159.0307
  2402.2500      8.0361      8.8915      7.1060    156.8756
  2402.5000      8.3575      8.0368      7.2960    153.7715
  2402.7500      8.6373      7.1585      7.5558    151.1289
  2403.0000      8.8486      6.3805      7.8786    144.3494
  2403.2500      8.9885      5.8365      8.2503    137.2282
  2403.5000      9.0961      5.6454      8.6509    123.6386
  2403.7500      9.2760      5.8863      9.0604    114.3861
