~Version Information
VERS.                      2.0: CWLS Log ASCII Standard - VERSION 2.0
WRAP.                       NO: One line per depth step
~Well Information Block
STRT.FT               650.0000: 
STOP.FT              1080.5000: 
STEP.FT                 0.2500: 
NULL.                -999.2500: 
COMP.          Pioneer Natural Resources: COMPANY
WELL.            Galileo 21-11: WELL
FLD.           Purgatoire River: FIELD
LOC.           407' FNL & 2394' FWL: LOCATION
PROV.                 Colorado: PROVINCE
CNTY.               Las Animas: COUNTRY
SRVC.                Patterson: SERVICE COMPANY
DATE.          Mon Apr 11 11:14:18 2005: LOG DATE
UWI.           05 071 08353 00: UNIQUE WELL ID
~Curve Information Block
DEPT.FT            0 000 00 00: Depth
SN.Ohm-m                      : IEL Short Normal
SP.mV                         : IEL Spontaneous Potential
DIR.Ohm-m                     : IEL Induction Resistivity
GR.GAPI                       : Gamma Ray
~Parameter Information Block
~A  Depth        SN          SP         DIR          GR     
# ...
   750.5000    422.4927    106.1986     16.2036     95.4690
   750.7500    372.5535    130.8548     16.6330     94.8989
   751.0000    285.1067    152.2152     17.1402     94.9143
   751.2500    179.0252    168.0528     17.7190     95.2631
   751.5000     93.3015    176.0361     18.3539     95.5410
   751.7500     49.2776    174.2448     19.0209     95.2592
   752.0000     38.8315    161.5424     19.6900     94.1270
   752.2500     43.7896    137.5881     20.3297     93.0160
   752.5000     49.9467    102.8191     20.9127     91.0408
   752.7500     51.6290     59.0086     21.4186     89.8226
   753.0000     53.4906     10.2673     21.8343     89.0950
   753.2500     66.8598    -36.8164     22.1527     89.8250
   753.5000    105.6484    -75.0528     22.3724     92.5399
   753.7500    180.3283    -99.7000     22.4951     94.6333
   754.0000    281.9649   -110.2354     22.5218     96.6974
   754.2500    377.0412   -109.4930     22.4512     97.0794
   754.5000    435.0676   -101.3043     22.2854     96.8169
   754.7500    454.3956    -88.6400     22.0368     96.6366
   755.0000    449.2858    -73.0621     21.7282     96.8516
   755.2500    424.5745    -55.0579     21.3865     97.2758
   755.5000    374.0495    -34.6193     21.0399     97.8736
   755.7500    299.5971    -11.6966     20.7245     97.9554
   756.0000    220.5114     13.6067     20.4860     97.5102
   756.2500    155.0467     41.0248     20.3688     97.0838
   756.5000    106.1584     70.1365     20.3953     96.7733
   756.7500     71.7532    100.3265     20.5608     96.8663
   757.0000     50.3914    130.7295     20.8465     97.1700
   757.2500     37.8432    160.1782     21.2389     97.2856
   757.5000     29.4432    187.2155     21.7256     97.1566
   757.7500     23.5134    210.3277     22.2654     96.7324
   758.0000     20.7733    228.4303     22.7638     95.0410
   758.2500     22.0782    241.3296     23.0985     92.8543
   758.5000     27.1219    249.7641     23.1942     88.0595
   758.7500     34.3911    254.9539     23.0794     84.4943
   759.0000     41.4431    258.0303     22.8598     80.1246
   759.2500     45.4541    259.7843     22.6385     78.4499
   759.5000     44.1960    260.8138     22.4648     77.8797
   759.7500     37.6201    261.7736     22.3372     78.4844
   760.0000     28.6996    263.3737     22.2377     80.1655
   760.2500     21.5622    266.0532     22.1582     81.4846
   760.5000     18.7134    269.6436     22.1037     83.5627
   760.7500     20.4336    273.4373     22.0794     84.9995
   761.0000     25.6515    276.6774     22.0780     87.0247
   761.2500     32.2695    279.0227     22.0779     88.0685
   761.5000     37.7427    280.6093     22.0527     88.9158
   761.7500     40.6445    281.7735     21.9841     88.9731
   762.0000     41.1694    282.7447     21.8685     88.3757
   762.2500     40.0648    283.5117     21.7135     87.6367
   762.5000     38.0397    283.8813     21.5326     86.3800
   762.7500     35.9609    283.6303     21.3447     85.7430
   763.0000     34.6395    282.6309     21.1777     85.5746
   763.2500     34.3477    280.8924     21.0671     86.0842
   763.5000     34.8502    278.5320     21.0462     87.4282
   763.7500     35.7097    275.7214     21.1355     88.3089
   764.0000     36.4931    272.6266     21.3383     89.0120
   764.2500     37.1209    269.3228     21.6453     88.9253
   764.5000     38.1205    265.6856     22.0398     88.1269
   764.7500     40.0811    261.3513     22.4999     87.4202
   765.0000     42.7151    255.8595     22.9930     86.5449
   765.2500     44.8701    248.9387     23.4733     86.1293
   765.5000     45.8110    240.7312     23.8886     85.4696
   765.7500     46.1111    231.8197     24.1990     84.8728
   766.0000     46.9032    223.1381     24.3939     83.9241
   766.2500     49.1564    215.8955     24.4976     83.5070
   766.5000     54.2096    211.4445     24.5571     83.4683
   766.7500     63.1929    210.8915     24.6230     83.7778
   767.0000     73.6381    214.4588     24.7310     84.4542
   767.2500     78.5251    221.0598     24.8915     84.9519
   767.5000     73.0832    228.6471     25.0895     85.8481
   767.7500     60.8504    235.2467     25.2984     86.5681
   768.0000     49.5949    239.8202     25.5000     87.4668
   768.2500     43.5838    242.2827     25.6973     87.5889
   768.5000     41.6089    242.9339     25.9055     86.8011
   768.7500     40.8094    242.0110     26.1267     85.8920
   769.0000     39.8873    239.6570     26.3296     84.8772
   769.2500     38.8615    236.0583     26.4569     84.9304
   769.5000     38.1574    231.4498     26.4599     86.3503
   769.7500     38.1278    225.9576     26.3310     87.8639
   770.0000     38.6386    219.4279     26.1039     89.8818
   770.2500     39.4059    211.3781     25.8223     90.4642
   770.5000     40.6886    201.0673     25.5089     89.9023
   770.7500     43.6157    187.5529     25.1630     88.8897
   771.0000     49.5670    169.6013     24.7818     87.3525
   771.2500     57.2564    145.4995     24.3814     86.8001
   771.5000     61.1692    113.0648     23.9980     87.1314
   771.7500     57.8533     70.2543     23.6711     88.1119
   772.0000     52.3701     16.5420     23.4248     90.2412
   772.2500     54.1789    -45.4351     23.2582     91.6212
   772.5000     70.7299   -109.2610     23.1473     92.5956
   772.7500    107.8808   -166.4189     23.0544     91.9094
   773.0000    171.8236   -209.8647     22.9399     88.4648
   773.2500    260.2678   -237.0526     22.7757     85.0214
   773.5000    349.8386   -250.1126     22.5518     79.9522
   773.7500    410.2991   -253.4641     22.2728     77.7111
   774.0000    434.3299   -251.1725     21.9492     76.8810
   774.2500    437.0267   -245.7660     21.5960     77.7589
   774.5000    433.4760   -238.4209     21.2438     80.0365
   774.7500    429.6251   -229.5797     20.9468     81.5001
   775.0000    426.4109   -219.3933     20.7683     82.9876
   775.2500    423.7076   -207.9043     20.7485     83.5181
   775.5000    421.3821   -195.1033     20.8787     83.9140
   775.7500    419.4090   -180.9772     21.1009     84.0528
   776.0000    417.8625   -165.5645     21.3352     84.2071
   776.2500    416.7687   -148.9839     21.5197     84.2940
   776.5000    415.9511   -131.4361     21.6388     84.2145
   776.7500    414.6615   -113.2275     21.7198     83.8369
   777.0000    410.3828    -94.8509     21.8053     82.7902
   777.2500    398.4786    -77.0828     21.9244     82.1196
   777.5000    377.5469    -60.9659     22.0840     81.8659
   777.7500    355.5932    -47.4740     22.2818     82.2780
   778.0000    340.6178    -36.8150     22.5215     83.2136
   778.2500    326.8307    -27.7710     22.8163     83.6026
   778.5000    302.4329    -17.8219     23.1772     83.2684
   778.7500    265.1947     -4.3759     23.6015     82.2907
   779.0000    229.2171     13.6585     24.0718     79.9303
   779.2500    210.9121     35.1974     24.5639     78.1780
   779.5000    198.7588     57.5211     25.0553     75.9980
   779.7500    168.1325     77.2264     25.5250     74.9454
   780.0000    122.0654     90.8649     25.9472     73.6729
   780.2500     80.3101     95.4025     26.2882     72.9699
   780.5000     52.2959     88.9883     26.5139     72.7445
   780.7500     40.1955     71.9558     26.6050     73.7366
   781.0000     46.6098     47.2039     26.5704     77.3862
   781.2500     78.6281     19.1020     26.4456     80.8338
   781.5000    152.5253     -8.7602     26.2785     85.8924
   781.7500    273.0277    -35.2954     26.1093     88.2231
   782.0000    394.6945    -61.5218     25.9543     89.4082
   782.2500    440.9790    -88.2793     25.8015     88.9625
   782.5000    386.8119   -114.1430     25.6163     87.8131
   782.7500    294.8554   -135.5458     25.3548     87.4343
   783.0000    251.3400   -148.9906     24.9794     87.5657
   783.2500    278.5195   -153.1900     24.4770     87.6178
   783.5000    326.2479   -149.3036     23.8764     86.9494
   783.7500    344.3915   -139.5893     23.2479     86.2330
