~Version Information
VERS.                      2.0: CWLS Log ASCII Standard - VERSION 2.0
WRAP.                       NO: One line per depth step
~Well Information Block
STRT.FT               240.0000: 
STOP.FT              1709.2000: 
STEP.FT                 0.1000: 
NULL.                -999.2500: 
COMP.          Pioneer Natural Resources: COMPANY
WELL.              Patten 22-2: WELL
FLD.           Purgatoire River: FIELD
LOC.           2157' FNL & 1528' FWL: LOCATION
PROV.                 Colorado: PROVINCE
CNTY.               Las Animas: COUNTRY
SRVC.                Patterson: SERVICE COMPANY
DATE.          Fri Dec 10 09:15:13 2004: LOG DATE
UWI.           05 071 08168 00: UNIQUE WELL ID
~Curve Information Block
DEPT.FT            0 000 00 00: Depth
DCAL.in                       : CDL Caliper
RHOB.g/cc                     : CDL Bulk Density
RHOC.g/cc                     : CDL Density Correction
DPOR.pu                       : CDL Density Porosity
NPOR.pu                       : Neutron Porosity
GR.GAPI                       : Gamma Ray
~Parameter Information Block
~A  Depth       DCAL        RHOB        RHOC        DPOR        NPOR         GR     
# ...
   432.0000      8.2643      1.6186      0.2249     62.5061      9.9282     81.0674
   432.1000      8.2643      1.7573      0.2856     54.1057      9.5198     81.2195
   432.2000      8.2643      1.8907      0.2957     46.0177      9.5211     81.9126
   432.3000      8.2000      2.0045      0.3355     39.1182     10.0721     85.4117
   432.4000      8.2000      2.0980      0.3400     33.4519     11.0230     90.8542
   432.5000      8.1496      2.1861      0.2863     28.1175     12.1168     93.7232
   432.6000      8.1496      2.2816      0.3077     22.3259     13.3466     93.0551
   432.7000      8.1496      2.3675      0.3285     17.1193     14.6753     90.7409
   432.8000      8.1232      2.4098      0.2802     14.5595     16.0643     89.9439
   432.9000      8.1232      2.3956      0.1968     15.4200     17.3817     94.1987
   433.0000      8.1183      2.3506      0.0682     18.1425     18.4118    103.3692
   433.1000      8.1183      2.3151      0.0353     20.2954     19.3177    111.4423
   433.2000      8.1183      2.3039      0.0525     20.9779     20.0935    111.2707
   433.3000      8.1231      2.3074      0.0792     20.7640     20.5965    105.6396
   433.4000      8.1231      2.3178      0.0555     20.1359     21.1401    103.0664
   433.5000      8.1298      2.3331      0.1054     19.2056     21.8037    103.3566
   433.6000      8.1298      2.3435      0.1601     18.5749     22.2726    105.3524
   433.7000      8.1298      2.3424      0.1029     18.6429     22.3428    110.8007
   433.8000      8.1373      2.3405      0.1430     18.7558     22.1244    116.9279
   433.9000      8.1373      2.3458      0.1401     18.4372     22.1046    120.7440
   434.0000      8.1419      2.3589      0.1444     17.6454     22.3200    124.5377
   434.1000      8.1419      2.3790      0.1387     16.4233     22.2678    130.7677
   434.2000      8.1419      2.4016      0.0935     15.0532     22.0506    136.5808
   434.3000      8.1420      2.4181      0.1479     14.0547     22.0643    137.5907
   434.4000      8.1420      2.4209      0.1305     13.8861     22.1725    133.7180
   434.5000      8.1399      2.4182      0.0875     14.0507     22.2190    131.1824
   434.6000      8.1399      2.4253      0.1073     13.6181     22.2525    131.0700
   434.7000      8.1399      2.4402      0.0913     12.7143     22.3666    128.2528
   434.8000      8.1331      2.4475      0.1226     12.2711     22.6067    122.8164
   434.9000      8.1331      2.4411      0.0936     12.6612     22.7846    119.2691
   435.0000      8.1204      2.4326      0.0511     13.1732     22.8143    119.5580
   435.1000      8.1204      2.4331      0.0432     13.1441     23.0017    119.4834
   435.2000      8.1204      2.4375      0.0588     12.8817     23.5126    117.4792
   435.3000      8.1079      2.4322      0.0694     13.2023     23.7797    118.0077
   435.4000      8.1079      2.4221      0.0074     13.8113     23.3886    121.3383
   435.5000      8.0963      2.4269      0.0413     13.5234     22.8753    123.2573
   435.6000      8.0963      2.4445      0.0606     12.4557     22.6623    123.1473
   435.7000      8.0963      2.4609      0.0539     11.4589     22.7329    123.6635
   435.8000      8.0876      2.4792      0.0415     10.3520     23.1953    124.1930
   435.9000      8.0876      2.5086      0.0532      8.5714     23.7436    123.6233
   436.0000      8.0828      2.5451      0.0921      6.3561     23.7048    120.8353
   436.1000      8.0828      2.5755      0.1143      4.5168     23.1306    114.3283
   436.2000      8.0828      2.5884      0.1339      3.7340     22.7298    105.9653
   436.3000      8.0771      2.5879      0.0899      3.7635     22.9161     98.8927
   436.4000      8.0771      2.5990      0.0863      3.0903     23.4620     94.1107
   436.5000      8.0675      2.6454      0.0730      0.2774     23.8836     90.4391
   436.6000      8.0675      2.7181      0.1251     -4.1244     24.0421     88.1437
   436.7000      8.0675      2.7862      0.1718     -8.2563     24.2685     90.3414
   436.8000      8.0615      2.8459      0.1291    -11.8709     24.7443     94.0788
   436.9000      8.0615      2.9085      0.1732    -15.6676     25.1531     91.8987
   437.0000      8.0589      2.9521      0.2292    -18.3074     25.6535     81.8515
   437.1000      8.0589      2.9505      0.1386    -18.2148     26.6693     68.9678
   437.2000      8.0589      2.9180      0.1234    -16.2433     27.9975     61.4876
   437.3000      8.0528      2.8760      0.0371    -13.6944     29.3464     62.6028
   437.4000      8.0528      2.8239      0.0167    -10.5416     30.5148     67.5249
   437.5000      8.0471      2.7566     -0.0535     -6.4581     31.2140     71.9871
   437.6000      8.0471      2.6893     -0.1477     -2.3796     31.3246     74.6076
   437.7000      8.0471      2.6451     -0.1304      0.2958     30.9120     74.2809
   437.8000      8.0560      2.6224     -0.0905      1.6749     30.0859     74.1673
   437.9000      8.0560      2.6101     -0.0720      2.4160     29.1300     78.3673
   438.0000      8.0693      2.6112     -0.0375      2.3506     28.4400     82.7593
   438.1000      8.0693      2.6245      0.0208      1.5453     28.0117     83.0140
   438.2000      8.0693      2.6359      0.0272      0.8568     27.6631     83.1085
   438.3000      8.0624      2.6363      0.0548      0.8277     27.4631     85.9859
   438.4000      8.0624      2.6233      0.0538      1.6163     27.4436     88.1882
   438.5000      8.0447      2.5938      0.0552      3.4058     27.4659     87.8419
   438.6000      8.0447      2.5541      0.0741      5.8140     27.4791     88.6963
   438.7000      8.0447      2.5239      0.0410      7.6395     27.4811     92.0786
   438.8000      8.0388      2.5168      0.0194      8.0736     27.4721     95.1308
   438.9000      8.0388      2.5221      0.0816      7.7531     27.4625     98.1832
   439.0000      8.0543      2.5230      0.0212      7.6945     27.4092    103.2976
   439.1000      8.0543      2.5145      0.0440      8.2145     27.3564    109.2121
   439.2000      8.0543      2.4983     -0.0056      9.1957     27.2138    114.2742
   439.3000      8.0876      2.4872      0.0104      9.8667     26.7900    117.8900
   439.4000      8.0876      2.4958      0.0161      9.3463     26.2684    119.4359
   439.5000      8.1163      2.5156      0.0775      8.1457     25.9914    118.4864
   439.6000      8.1163      2.5215      0.0589      7.7907     26.0865    115.0380
   439.7000      8.1163      2.5068      0.0578      8.6760     26.3776    112.8011
   439.8000      8.1339      2.4869      0.0525      9.8857     26.3748    114.4755
   439.9000      8.1339      2.4663      0.0343     11.1341     25.8785    117.2992
   440.0000      8.1613      2.4371      0.0380     12.9041     25.2778    121.0087
   440.1000      8.1613      2.4098      0.0081     14.5554     24.8125    126.7432
   440.2000      8.1613      2.4081      0.0507     14.6622     24.5272    130.9990
   440.3000      8.2129      2.4297      0.0671     13.3525     24.5166    130.4702
   440.4000      8.2129      2.4506      0.0455     12.0865     24.4656    128.8489
   440.5000      8.2666      2.4540      0.0604     11.8787     24.1570    130.8311
   440.6000      8.2666      2.4428      0.0279     12.5595     23.8151    131.8810
   440.7000      8.2666      2.4351      0.0114     13.0245     23.4254    127.4572
   440.8000      8.2820      2.4333      0.0967     13.1318     22.9714    121.3877
   440.9000      8.2820      2.4226      0.0661     13.7809     22.5791    117.9965
   441.0000      8.2550      2.4126      0.0527     14.3899     22.2958    119.4021
   441.1000      8.2550      2.4275      0.0458     13.4867     22.1463    124.2983
   441.2000      8.2550      2.4653      0.1289     11.1941     22.1156    126.3837
   441.3000      8.2198      2.5004      0.1577      9.0672     22.2509    123.9662
   441.4000      8.2198      2.5184      0.1384      7.9730     22.6628    122.9543
   441.5000      8.1995      2.5224      0.1625      7.7328     23.3336    125.3687
