~Version Information
VERS.                      2.0: CWLS Log ASCII Standard - VERSION 2.0
WRAP.                       NO: One line per depth step
~Well Information Block
STRT.FT               679.2000: 
STOP.FT              2289.5000: 
STEP.FT                 0.1000: 
NULL.                -999.2500: 
COMP.          Petrogulf Corporation: COMPANY
WELL.          Anderson 18-43V: WELL
FLD.           Purgatorie River: FIELD
LOC.           1782' FSL & 887' FEL: LOCATION
CNTY.               Las Animas: COUNTY
SRVC.                         : SERVICE COMPANY
DATE.          Thu Sep 02 08:33:50 2004: LOG DATE
UWI.           05 071 08156 00: UNIQUE WELL ID
STAT.                 Colorado: STATE
~Curve Information Block
DEPT.FT            0 000 00 00: Depth
GR.GAPI                       : Gamma Ray
DCAL.in                       : CDL Caliper
DPOR.pu                       : CDL Density Porosity
NPOR.pu                       : Neutron Porosity
RHOB.g/cc                     : CDL Bulk Density
RHOC.g/cc                     : CDL Density Correction
~Parameter Information Block
~A  Depth        GR         DCAL        DPOR        NPOR        RHOB        RHOC    
# ...
   698.4000     83.1070   -999.2500   -999.2500     47.7577   -999.2500   -999.2500
   698.5000     82.8379   -999.2500   -999.2500     47.6902   -999.2500   -999.2500
   698.6000     82.3613   -999.2500   -999.2500     47.5420   -999.2500   -999.2500
   698.7000     81.6387   -999.2500   -999.2500     47.1333   -999.2500   -999.2500
   698.8000     80.6492   -999.2500   -999.2500     46.9224   -999.2500   -999.2500
   698.9000     79.3957   -999.2500   -999.2500     47.1647   -999.2500   -999.2500
   699.0000     77.9038   -999.2500   -999.2500     47.2971   -999.2500   -999.2500
   699.1000     76.2230   -999.2500   -999.2500     47.0530   -999.2500   -999.2500
   699.2000     74.4179   -999.2500   -999.2500     46.6263   -999.2500   -999.2500
   699.3000     72.5624   -999.2500   -999.2500     46.3008   -999.2500   -999.2500
   699.4000     70.7345   -999.2500   -999.2500     46.3524   -999.2500   -999.2500
   699.5000     69.0089   -999.2500   -999.2500     46.5114   -999.2500   -999.2500
   699.6000     67.4551   -999.2500   -999.2500     46.3273   -999.2500   -999.2500
   699.7000     66.1358   -999.2500   -999.2500     45.8364   -999.2500   -999.2500
   699.8000     65.1015   -999.2500   -999.2500     45.1632   -999.2500   -999.2500
   699.9000     64.3854   -999.2500   -999.2500     44.6171   -999.2500   -999.2500
   700.0000     63.9993   -999.2500   -999.2500     44.6358   -999.2500   -999.2500
   700.1000     63.9301   -999.2500   -999.2500     44.9860   -999.2500   -999.2500
   700.2000     64.1368   -999.2500   -999.2500     45.0747   -999.2500   -999.2500
   700.3000     64.5577   -999.2500   -999.2500     44.6386   -999.2500   -999.2500
   700.4000     65.1166   -999.2500   -999.2500     43.9361   -999.2500   -999.2500
   700.5000     65.7368   -999.2500   -999.2500     43.3677   -999.2500   -999.2500
   700.6000     66.3542   -999.2500   -999.2500     43.0264   -999.2500   -999.2500
   700.7000     66.9284   -999.2500   -999.2500     43.1265   -999.2500   -999.2500
   700.8000     67.4498   -999.2500   -999.2500     43.7120   -999.2500   -999.2500
   700.9000     67.9379   -999.2500   -999.2500     44.1689   -999.2500     -0.3848
   701.0000     68.4362      2.4133   -999.2500     44.0869   -999.2500     -0.3598
   701.1000     69.0006      2.4133   -999.2500     43.6748   -999.2500     -0.3502
   701.2000     69.6847      2.4133   -999.2500     43.4376   -999.2500     -0.4043
   701.3000     70.5259      2.4132   -999.2500     43.6207   -999.2500     -0.3878
   701.4000     71.5358      2.4132     28.0579     44.1141      2.1870     -0.3758
   701.5000     72.6977      2.4129     29.2381     44.7084      2.1676     -0.4064
   701.6000     73.9636      2.4129     30.3922     45.0531      2.1485     -0.3850
   701.7000     75.2661      2.4129     30.9485     45.1735      2.1393     -0.4063
   701.8000     76.5244      2.4134     30.9538     45.3515      2.1393     -0.4106
   701.9000     77.6583      2.4134     30.6814     45.5454      2.1438     -0.3822
   702.0000     78.5972      2.4146     30.3910     45.7794      2.1485     -0.3791
   702.1000     79.2895      2.4146     30.7214     46.2394      2.1431     -0.3636
   702.2000     79.7053      2.4146     31.7815     46.8606      2.1256     -0.4178
   702.3000     79.8397      2.4125     32.3245     47.3497      2.1166     -0.4181
   702.4000     79.7101      2.4125     31.6695     47.4821      2.1275     -0.4215
   702.5000     79.3554      2.4149     30.9672     47.4509      2.1390     -0.3371
   702.6000     78.8306      2.4149     31.3196     47.4743      2.1332     -0.4155
   702.7000     78.2041      2.4149     31.3504     47.3524      2.1327     -0.4565
   702.8000     77.5532      2.4162     29.6026     47.1373      2.1616     -0.4059
   702.9000     76.9542      2.4162     27.9489     47.2249      2.1888     -0.3413
   703.0000     76.4770      2.4149     28.6534     47.5966      2.1772     -0.4213
   703.1000     76.1767      2.4149     30.1733     47.7830      2.1521     -0.4494
   703.2000     76.0850      2.4149     29.7990     47.5471      2.1583     -0.4602
   703.3000     76.2042      2.4149     27.6077     47.1562      2.1945     -0.4161
   703.4000     76.5097      2.4149     25.3863     46.9180      2.2311     -0.4142
   703.5000     76.9555      2.4137     24.2498     46.9278      2.2499     -0.3963
   703.6000     77.4831      2.4137     24.2655     47.0057      2.2496     -0.4168
   703.7000     78.0339      2.4137     25.3206     46.9460      2.2322     -0.4167
   703.8000     78.5604      2.4122     27.7223     46.8998      2.1926     -0.3991
   703.9000     79.0333      2.4122     30.5511     47.0139      2.1459     -0.5190
   704.0000     79.4428      2.4134     31.4022     47.2405      2.1319     -0.5055
   704.1000     79.7906      2.4134     29.6685     47.6090      2.1605     -0.4652
   704.2000     80.0835      2.4134     27.4131     47.9608      2.1977     -0.4381
   704.3000     80.3208      2.4129     27.1501     47.8968      2.2020     -0.3748
   704.4000     80.4860      2.4129     29.5825     47.4112      2.1619     -0.4562
   704.5000     80.5417      2.4129     32.9080     47.0250      2.1070     -0.5205
   704.6000     80.4343      2.4129     35.3876     47.1103      2.0661     -0.5327
   704.7000     80.1018      2.4129     36.8246     47.5002      2.0424     -0.5137
   704.8000     79.4874      2.4139     37.3554     47.6530      2.0336     -0.5327
   704.9000     78.5528      2.4139     36.9327     47.2693      2.0406     -0.4816
   705.0000     77.2899      2.4135     36.0777     46.7909      2.0547     -0.4130
   705.1000     75.7270      2.4135     35.5593     46.7407      2.0633     -0.4975
   705.2000     73.9286      2.4135     35.0776     46.8803      2.0712     -0.4695
   705.3000     71.9903      2.4146     34.5684     46.5716      2.0796     -0.4177
   705.4000     70.0293      2.4146     34.5648     46.0350      2.0797     -0.4699
   705.5000     68.1701      2.4130     34.3293     45.9038      2.0836     -0.4797
   705.6000     66.5304      2.4130     32.8668     45.9426      2.1077     -0.4324
   705.7000     65.2104      2.4130     30.9201     45.6779      2.1398     -0.3950
   705.8000     64.2790      2.4156     29.8295     45.2435      2.1578     -0.3815
   705.9000     63.7736      2.4156     29.6620     44.9668      2.1606     -0.3759
   706.0000     63.6910      2.4151     29.9904     44.8861      2.1552     -0.3332
   706.1000     63.9940      2.4151     30.7569     44.9135      2.1425     -0.3573
   706.2000     64.6153      2.4151     31.5810     45.0186      2.1289     -0.3774
   706.3000     65.4676      2.4145     32.1453     44.9398      2.1196     -0.3636
   706.4000     66.4523      2.4145     32.6481     44.4498      2.1113     -0.3889
   706.5000     67.4742      2.4158     33.2436     43.9088      2.1015     -0.4558
   706.6000     68.4509      2.4158     33.9536     43.9136      2.0898     -0.4206
   706.7000     69.3243      2.4158     34.8439     44.5914      2.0751     -0.4061
   706.8000     70.0622      2.4151     35.3972     45.2823      2.0659     -0.4590
   706.9000     70.6634      2.4151     35.2853     45.3750      2.0678     -0.4070
   707.0000     71.1530      2.4143     35.5574     45.0679      2.0633     -0.4298
   707.1000     71.5751      2.4143     36.5390     44.7938      2.0471     -0.4847
   707.2000     71.9825      2.4143     37.2924     44.7135      2.0347     -0.4574
   707.3000     72.4250      2.4146     37.6530     44.8113      2.0287     -0.4245
   707.4000     72.9403      2.4146     37.7249     45.1137      2.0275     -0.4742
   707.5000     73.5410      2.4146     37.0414     45.4449      2.0388     -0.4709
   707.6000     74.2156      2.4146     35.9144     45.5064      2.0574     -0.4015
   707.7000     74.9238      2.4146     35.1399     45.5189      2.0702     -0.4597
   707.8000     75.6061      2.4140     34.4534     45.7339      2.0815     -0.4743
   707.9000     76.1875      2.4140     33.6950     45.9582      2.0940     -0.4273
