~Version Information
 VERS.                                  2.0 : CWLS LAS VERSION
 WRAP.                                   NO : WRAPING MODE
 SWARE .                 MController 2.5.0J : SOFTWARE VERSION
~Well Information
 WELL.                  Great Plains 22-21R : WELL
 COMP.                Petrogulf Corporation : COMPANY
 FLD.                      Purgatoire River : FIELD
 LOC.                NE/NW Sec 22 T33S R67W : LOCATION
 DATE.                               9/7/05 : DATE(S) LOGGED
 SRVC.       BLANCO Geological Services LLC : SERVICE COMPANY
 STAT.                                   CO : STATE
 CNTY.                           Las Animas : COUNTY
 CTRY.                                  USA : COUNTRY
 API.                       05-071-08343-00 : API NUMBER
 STRT.FT                             554.00 : START DEPTH
 STOP.FT                            1620.00 : STOP DEPTH
 STEP.FT                               1.00 : DEPTH INCREMENT
 NULL.                                -9999 : NULL VALUE
~Curve information
 DEPTH.FT                                   :
 ROP.MIN/FT                                 :
 GAS.UNITS                                  :
~ASCII Log data
# ...
       754.0         0.30         93.3 
       755.0         0.17         77.1 
       756.0         0.22         70.7 
       757.0         0.13         63.8 
       758.0         0.20         66.1 
       759.0         0.13         68.6 
       760.0         0.13         69.8 
       761.0         0.07         70.1 
       762.0         0.10         70.1 
       763.0         0.13         69.6 
       764.0         0.17         67.7 
       765.0         0.13         64.5 
       766.0         0.17         61.1 
       767.0         0.20         57.1 
       768.0         0.17         51.4 
       769.0         0.17         46.9 
       770.0         0.27         42.1 
       771.0         0.23         32.4 
       772.0         0.23         30.2 
       773.0         0.50         41.0 
       774.0         0.28         39.7 
       775.0         0.23         30.7 
       776.0         3.18       1738.1 
       777.0         0.33        440.0 
       778.0         0.23         95.2 
       779.0         0.23         68.4 
       780.0         0.20         51.2 
       781.0         0.20         42.0 
       782.0         0.23         36.1 
       783.0         0.27         31.5 
       784.0         0.27         27.1 
       785.0         0.23         23.5 
       786.0         0.20         21.2 
       787.0         0.27         19.7 
       788.0         0.30         15.4 
       789.0         2.52        106.3 
       790.0         0.33        107.8 
       791.0         0.30         98.4 
       792.0         0.28         74.8 
       793.0         0.27         52.4 
       794.0         0.20         37.9 
       795.0         0.23         32.0 
       796.0         0.27         29.2 
       797.0         0.23         33.3 
       798.0         0.20         36.3 
       799.0         0.23         36.4 
       800.0         0.13         36.8 
       801.0         0.20         37.9 
       802.0         0.13         37.9 
       803.0         0.10         36.5 
       804.0         0.10         39.2 
       805.0         0.13         53.1 
       806.0         1.55       1275.7 
       807.0         0.20        803.4 
       808.0         0.13        618.4 
       809.0         0.17        527.3 
       810.0         0.27        440.0 
       811.0         0.17        440.0 
       812.0         0.20        103.7 
       813.0         0.17         78.1 
       814.0         0.13         64.9 
       815.0         0.17         57.3 
       816.0         0.23         50.2 
       817.0         0.20         42.3 
       818.0         0.20         37.0 
       819.0         0.20         32.4 
       820.0         0.20         34.1 
       821.0         0.15         39.9 
       822.0         0.10         43.2 
       823.0         0.07         46.0 
       824.0         0.10         48.6 
       825.0         0.20         54.2 
       826.0         0.17         57.5 
       827.0         0.20         57.8 
       828.0         0.27         55.7 
       829.0         0.27         47.5 
       830.0         0.27         37.9 
       831.0         0.23         30.6 
       832.0         0.27         29.4 
       833.0         0.17         27.7 
       834.0         0.27         24.4 
       835.0         0.20         29.4 
       836.0         2.32        448.9 
       837.0         0.20        311.7 
       838.0         0.30        225.7 
       839.0         0.20        132.4 
       840.0         0.23         93.7 
       841.0         0.33         63.2 
       842.0         0.38         39.2 
       843.0         0.27         24.5 
       844.0         0.23         19.3 
       845.0         0.20         16.3 
       846.0         0.27         13.5 
       847.0         0.23         11.6 
       848.0         0.30         13.6 
       849.0         0.17         15.3 
       850.0         0.20         20.7 
       851.0         0.17         26.2 
       852.0         0.17         31.2 
       853.0         0.17         34.7 
       854.0         0.17         42.9 
       855.0         0.10         50.2 
       856.0         0.10         58.3 
       857.0         0.10         65.5 
       858.0         0.10         70.0 
       859.0         0.13         74.4 
       860.0         0.08         74.7 
       861.0         0.13         74.0 
       862.0         0.17         69.0 
       863.0         0.17         58.4 
       864.0         0.20         65.7 
       865.0         0.23        121.6 
       866.0         1.53       1264.6 
       867.0         0.23        678.1 
       868.0         0.27        502.9 
       869.0         0.20        440.0 
       870.0         0.22         99.5 
       871.0         0.20         69.1 
       872.0         0.17         51.0 
       873.0         0.23         45.6 
       874.0         0.20         48.3 
       875.0         0.17         49.1 
       876.0         0.23         48.9 
       877.0         0.13         46.6 
       878.0         0.20         43.9 
       879.0         0.23         39.7 
       880.0         0.20         32.9 
       881.0         0.17         26.8 
       882.0         0.17         24.0 
       883.0         0.17         21.4 
       884.0         0.20         19.7 
       885.0         0.17         19.3 
       886.0         0.23         18.9 
       887.0         0.20         23.7 
       888.0         0.15         29.5 
       889.0         0.10         35.4 
       890.0         0.17         43.4 
       891.0         0.17         48.3 
       892.0         0.20         50.9 
       893.0         0.20         50.4 
       894.0         0.20         44.8 
       895.0         0.17         35.8 
       896.0         0.20         28.3 
       897.0         0.20         24.6 
       898.0        13.17        438.4 
       899.0         0.30        163.0 
       900.0         0.27         93.6 
       901.0         0.20         58.5 
       902.0         0.17         47.0 
       903.0         0.13         44.6 
       904.0         0.17         44.1 
       905.0         0.17         42.7 
       906.0         0.23         40.3 
       907.0         0.17         35.7 
       908.0         0.18         31.6 
       909.0         0.13         27.1 
       910.0         0.20         23.4 
       911.0         0.20         20.2 
       912.0         0.13         17.9 
       913.0         0.13         15.9 
       914.0         0.13         14.2 
       915.0         0.13         13.0 
       916.0         0.17         12.0 
       917.0         0.20         10.9 
       918.0         0.17         10.9 
       919.0         0.17         10.3 
       920.0         0.20         10.4 
       921.0         0.17          9.7 
       922.0         0.13          8.6 
       923.0         0.17          8.6 
       924.0         0.20          7.7 
       925.0         0.13          6.1 
       926.0         0.13          5.4 
       927.0         0.13          4.3 
       928.0         1.95       1049.7 
       929.0         0.37        587.0 
       930.0         0.27        440.0 
       931.0         0.27         85.7 
       932.0         0.37         55.1 
       933.0         0.42         31.7 
       934.0         0.17         21.0 
       935.0         0.10         20.6 
       936.0         0.17         23.4 
       937.0         0.13         27.4 
       938.0         0.10         32.1 
       939.0         0.10         35.5 
       940.0         0.10         38.1 
       941.0         0.17         41.4 
       942.0         0.17         44.3 
       943.0         0.10         46.6 
       944.0         0.10         48.7 
       945.0         0.10         49.5 
       946.0         0.13         50.5 
       947.0         0.13         50.6 
       948.0         0.20         50.5 
       949.0         0.30         50.2 
       950.0         0.20         48.3 
       951.0         0.13         45.7 
       952.0         0.17         45.7 
       953.0         0.10         46.1 
