~Version Information
VERS.                      2.0: CWLS Log ASCII Standard - VERSION 2.0
WRAP.                       NO: One line per depth step
~Well Information Block
STRT.FT                -7.2500: 
STOP.FT               862.2500: 
STEP.FT                 0.2500: 
NULL.                -999.2500: 
COMP.          Pioneer Natural Resources: COMPANY
WELL.          Santisteven 13-22: WELL
FLD.           Purgatorie River: FIELD
LOC.           1861' FSL & 992' FWL--: LOCATION
PROV.                       CO: PROVINCE
CNTY.               Las Animas: COUNTRY
SRVC.          Patterson Wireline: SERVICE COMPANY
DATE.          Thu Apr 07 09:08:11 2005: LOG DATE
UWI.           05 071 08337 00: UNIQUE WELL ID
~Curve Information Block
DEPT.FT            0 000 00 00: Depth
CCL.                          : Casing Collar Locator
TT3.usec                      : CBL 3' Travel Time
AMP3.mV                       : CBL 3' Amplitude
GR.GAPI                       : Gamma Ray
~Parameter Information Block
~A  Depth       CCL         TT3         AMP3         GR     
# ...
    59.7500      0.0000    975.9355      5.4938     75.7551
    60.0000      0.0000    971.1050      5.4664     73.2803
    60.2500      0.0000    959.4114      5.4357     71.1616
    60.5000      0.0000    948.9329      5.4132     70.6630
    60.7500      0.0000    943.7151      5.4126     72.8365
    61.0000      0.0000    940.3537      5.4395     78.0377
    61.2500      0.0000    932.1168      5.4907     85.6679
    61.5000      0.0000    916.2388      5.5600     94.0109
    61.7500      0.0000    896.3677      5.6377    100.6768
    62.0000      0.0000    878.7226      5.7117    103.8910
    62.2500      0.0000    867.5905      5.7765    103.5658
    62.5000      0.0000    863.7281      5.8400    101.1121
    62.7500      0.0000    864.9279      5.9183     98.3631
    63.0000      0.0000    867.5964      6.0267     96.6968
    63.2500      0.0000    868.9754      6.1737     96.7215
    63.5000      0.0000    868.5037      6.3596     98.1424
    63.7500      0.0000    867.1945      6.5787     99.7164
    64.0000      0.0000    866.0137      6.8177     99.8341
    64.2500      0.0000    865.3644      7.0532     97.7652
    64.5000      0.0000    865.9898      7.2558     94.3031
    64.7500      0.0000    869.6086      7.4018     90.8250
    65.0000      0.0000    877.6993      7.4878     87.8194
    65.2500      0.0000    888.8652      7.5315     84.7536
    65.5000      0.0000    897.5444      7.5526     81.3633
    65.7500      0.0000    897.1063      7.5519     78.4959
    66.0000      0.0000    885.7391      7.5169     77.2875
    66.2500      0.0000    868.5017      7.4504     77.8629
    66.5000      0.0000    852.6627      7.3779     79.4751
    66.7500      0.0000    841.8824      7.3267     81.8109
    67.0000      0.0000    835.2057      7.3027     85.4557
    67.2500      0.0000    829.9935      7.2862     90.8044
    67.5000      0.0000    824.6696      7.2448     97.0075
    67.7500      0.0000    819.4290      7.1545    102.4775
    68.0000      0.0000    815.5364      7.0140    106.3534
    68.2500      0.0000    814.3388      6.8404    108.9018
    68.5000      0.0000    816.3531      6.6532    110.2906
    68.7500      0.0000    820.7141      6.4657    109.5141
    69.0000      0.0000    825.5464      6.2876    105.1538
    69.2500      0.0000    829.2202      6.1344     97.0992
    69.5000      0.0000    831.2475      6.0280     87.1539
    69.7500      0.0000    832.0757      5.9807     77.9963
    70.0000      0.0000    832.3788      5.9812     71.6666
    70.2500      0.0000    832.7243      6.0058     68.6360
    70.5000      0.0000    833.7359      6.0397     67.8472
    70.7500      0.0000    836.3710      6.0750     67.5972
    71.0000      0.0000    841.6603      6.0987     66.6205
    71.2500      0.0000    849.4412      6.0958     64.6311
    71.5000      0.0000    857.0695      6.0627     62.1845
    71.7500      0.0000    860.4119      6.0085     60.2011
    72.0000      0.0000    857.2702      5.9540     59.4399
    72.2500      0.0000    849.3996      5.9312     60.0349
    72.5000      0.0000    840.5256      5.9681     61.3918
    72.7500      0.0000    833.2534      6.0626     62.6652
    73.0000      0.0000    828.4423      6.1816     63.5304
    73.2500      0.0000    826.1664      6.2862     64.6076
    73.5000      0.0000    825.9219      6.3449     67.1836
    73.7500      0.0000    826.4391      6.3310     72.3606
    74.0000      0.0000    826.4749      6.2347     80.2019
    74.2500      0.0000    825.9844      6.0863     89.4472
    74.5000      0.0000    826.0115      5.9554     98.0410
    74.7500      0.0000    827.3025      5.9111    104.1087
    75.0000      0.0000    829.3173      5.9774    106.6281
    75.2500      0.0000    830.7194      6.1187    105.4921
    75.5000      0.0000    830.5254      6.2672    101.4750
    75.7500      0.0000    828.7528      6.3669     96.1611
    76.0000      0.0000    826.3054      6.3969     91.1034
    76.2500      0.0000    824.2964      6.3602     86.6503
    76.5000      0.0000    823.3277      6.2613     82.0833
    76.7500      0.0000    823.4492      6.1086     77.0037
    77.0000      0.0000    824.6230      5.9321     72.0465
    77.2500      0.0000    826.7209      5.7831     68.2502
    77.5000      0.0000    829.1701      5.7007     66.1406
    77.7500      0.0000    831.2004      5.6804     65.3053
    78.0000      0.0000    832.5049      5.6829     64.5589
    78.2500      0.0000    833.4001      5.6741     62.7894
    78.5000      0.0000    834.4830      5.6503     59.9602
    78.7500      0.0000    836.2875      5.6261     57.0592
    79.0000      0.0000    838.9821      5.6068     54.8897
    79.2500      0.0000    842.1735      5.5831     53.1926
    79.5000      0.0000    845.3005      5.5463     51.1308
    79.7500      0.0000    848.5972      5.5010     48.4004
    80.0000      0.0000    853.5343      5.4565     45.6537
    80.2500      0.0000    862.1658      5.4082     43.8828
    80.5000      0.0000    875.5865      5.3327     43.4896
    80.7500      0.0000    892.0941      5.2142     43.9536
    81.0000      0.0000    906.7397      5.0792     44.3584
    81.2500      0.0000    914.8992      4.9916     44.1470
    81.5000      0.0000    917.9489      4.9945     43.3351
    81.7500      0.0000    923.0507      5.0685     42.2744
    82.0000      2.0000    934.0678      5.1611     41.5455
    82.2500      2.0000    944.3749      5.2449     41.8676
    82.5000      0.0000    942.8103      5.3423     43.5955
    82.7500      0.0000    925.8257      5.5089     46.2364
    83.0000      0.0000    899.8264      5.7966     48.7701
    83.2500      0.0000    872.9505      6.2065     50.5185
    83.5000      0.0000    849.0214      6.6581     51.5754
    83.7500      0.0000    828.8643      7.0257     52.5357
    84.0000      0.0000    813.2386      7.2199     54.1388
    84.2500      0.0000    803.2428      7.2313     57.1894
    84.5000      0.0000    799.3841      7.1156     62.4313
    84.7500      0.0000    801.0563      6.9499     70.0689
    85.0000      0.0000    806.3203      6.7887     79.2621
    85.2500      0.0000    812.0513      6.6432     88.1805
    85.5000      0.0000    815.0411      6.5057     94.7633
    85.7500      0.0000    813.8005      6.3860     97.7108
    86.0000      0.0000    809.4666      6.3050     96.9509
    86.2500      0.0000    804.7792      6.2623     93.2330
    86.5000      0.0000    802.0141      6.2356     87.5730
    86.7500      0.0000    801.5519      6.2130     81.3083
    87.0000      0.0000    801.8237      6.2044     76.2529
    87.2500      0.0000    800.5676      6.2155     74.0556
    87.5000      0.0000    796.7577      6.2325     75.2116
    87.7500      0.0000    791.6967      6.2464     78.8954
    88.0000      0.0000    787.9651      6.2778     83.8552
    88.2500      0.0000    787.1232      6.3572     89.4662
    88.5000      0.0000    788.5892      6.4836     95.9082
    88.7500      0.0000    790.6375      6.6170    103.3051
    89.0000      0.0000    792.0086      6.7168    110.9123
    89.2500      0.0000    792.4897      6.7771    117.4155
    89.5000      0.0000    792.4670      6.8189    121.8698
    89.7500      0.0000    792.3351      6.8572    124.0292
    90.0000      0.0000    792.2527      6.8914    123.9229
    90.2500      0.0000    792.1998      6.9224    121.5362
    90.5000      0.0000    792.1132      6.9639    117.0298
    90.7500      0.0000    791.9794      7.0279    111.0256
    91.0000      0.0000    791.8339      7.1039    104.4208
    91.2500      0.0000    791.7079      7.1577     97.9118
    91.5000      0.0000    791.5939      7.1508     91.8148
    91.7500      0.0000    791.4717      7.0605     86.2354
    92.0000      0.0000    791.3506      6.8950     81.3017
    92.2500      0.0000    791.2692      6.6993     77.3759
    92.5000      0.0000    791.2675      6.5381     74.9404
    92.7500      0.0000    791.3631      6.4534     73.9238
    93.0000      0.0000    791.5237      6.4318     73.2662
