~Version Information
VERS.                      2.0: CWLS Log ASCII Standard - VERSION 2.0
WRAP.                       NO: One line per depth step
~Well Information Block
STRT.FT                -6.5000: 
STOP.FT              2698.5000: 
STEP.FT                 0.2500: 
NULL.                -999.2500: 
COMP.          Pioneer Natural Resources: COMPANY
WELL.              Cluck 21-25: WELL
FLD.           Purgatorie River: FIELD
LOC.           91' FNL & 1834' FWL--: LOCATION
PROV.                       CO: PROVINCE
CNTY.               Las Animas: COUNTRY
SRVC.          Patterson Wireline: SERVICE COMPANY
DATE.          Mon Jun 13 14:54:35 2005: LOG DATE
UWI.           05 071 08397 00: UNIQUE WELL ID
~Curve Information Block
DEPT.FT            0 000 00 00: Depth
CCL.                          : Casing Collar Locator
TT3.usec                      : CBL 3' Travel Time
AMP3.mV                       : CBL 3' Amplitude
GR.GAPI                       : Gamma Ray
~Parameter Information Block
~A  Depth       CCL         TT3         AMP3         GR     
# ...
  1065.5000      0.0000    841.3188      5.1496     71.9880
  1065.7500      0.0000    843.6716      5.0845     71.8093
  1066.0000      0.0000    844.8763      4.9036     72.6303
  1066.2500      0.0000    843.5895      4.7227     75.1780
  1066.5000      0.0000    840.2249      4.6269     79.4220
  1066.7500      0.0000    836.4841      4.6066     84.3337
  1067.0000      0.0000    834.0214      4.5811     88.4946
  1067.2500      0.0000    833.1249      4.4999     90.8933
  1067.5000      0.0000    832.2849      4.4120     91.1326
  1067.7500      0.0000    829.3768      4.4237     89.4618
  1068.0000      0.0000    823.5374      4.5908     86.9635
  1068.2500      0.0000    815.6675      4.8598     85.0686
  1068.5000      0.0000    807.4028      5.1122     84.3291
  1068.7500      0.0000    800.3892      5.2566     83.9556
  1069.0000      0.0000    796.3173      5.2901     82.7646
  1069.2500      0.0000    796.4783      5.2882     80.3484
  1069.5000      0.0000    800.8843      5.3363     77.3016
  1069.7500      0.0000    808.4522      5.4548     74.5871
  1070.0000      0.0000    818.1934      5.5927     72.7834
  1070.2500      0.0000    829.6974      5.6901     71.8581
  1070.5000      0.0000    842.4427      5.7309     71.5142
  1070.7500      0.0000    855.1176      5.7277     71.5647
  1071.0000      0.0000    865.6846      5.6801     71.8829
  1071.2500      0.0000    872.0204      5.5637     72.1698
  1071.5000      0.0000    872.9737      5.3590     72.0349
  1071.7500      0.0000    868.9940      5.0890     71.3357
  1072.0000      0.0000    861.2415      4.8230     70.2705
  1072.2500      0.0000    850.2823      4.6294     69.1592
  1072.5000      0.0000    836.9545      4.5266     68.3678
  1072.7500      0.0000    824.5138      4.4914     68.4659
  1073.0000      0.0000    817.6369      4.5083     70.0618
  1073.2500      0.0000    817.5791      4.5866     73.1405
  1073.5000      0.0000    819.4409      4.7279     76.7110
  1073.7500      0.0000    815.9547      4.8901     79.5049
  1074.0000      0.0000    803.7584      4.9957     81.1359
  1074.2500      0.0000    785.3019      4.9757     82.4647
  1074.5000      0.0000    765.7089      4.8081     84.6666
  1074.7500      0.0000    749.1221      4.5285     87.8079
  1075.0000      0.0000    737.3749      4.2232     90.3234
  1075.2500      0.0000    730.3486      4.0005     89.9626
  1075.5000      0.0000    726.8275      3.9301     85.3239
  1075.7500      0.0000    725.3516      3.9832     76.7499
  1076.0000      0.0000    724.7999      4.0462     66.2349
  1076.2500      0.0000    724.5308      4.0220     56.5236
  1076.5000      0.0000    724.2778      3.9237     49.7501
  1076.7500      0.0000    724.0174      3.8586     46.4402
  1077.0000      0.0000    723.8943      3.9128     45.6787
  1077.2500      0.0000    724.2310      4.0592     46.0920
  1077.5000      0.0000    725.6884      4.1868     46.6246
  1077.7500      0.0000    729.4741      4.2134     46.7270
  1078.0000      0.0000    737.1789      4.1486     46.3021
  1078.2500      0.0000    749.8206      4.0485     45.6035
  1078.5000      0.0000    766.5732      3.9349     45.0404
  1078.7500      0.0000    784.3517      3.7690     44.9216
  1079.0000      0.0000    799.0073      3.4964     45.2925
  1079.2500      0.0000    807.6472      3.1195     46.0095
  1079.5000      0.0000    810.4653      2.7320     46.9078
  1079.7500      0.0000    810.2548      2.4793     47.8065
  1080.0000      0.0000    809.6766      2.4715     48.5203
  1080.2500      0.0000    809.2870      2.7143     49.0246
  1080.5000      0.0000    808.6437      3.1043     49.3982
  1080.7500      0.0000    808.5939      3.4943     49.5368
  1081.0000      0.0000    811.1614      3.7863     49.3676
  1081.2500      0.0000    817.0672      3.9762     49.3337
  1081.5000      0.0000    824.6384      4.1109     50.0554
  1081.7500      0.0000    831.6221      4.2147     51.4309
  1082.0000      0.0000    836.4319      4.2729     52.6924
  1082.2500      0.0000    837.2739      4.2775     53.5925
  1082.5000      0.0000    832.6710      4.2617     55.1909
  1082.7500      0.0000    824.1300      4.2765     59.2690
  1083.0000      0.0000    816.5781      4.3483     66.9997
  1083.2500      0.0000    815.0724      4.4635     77.9800
  1083.5000      0.0000    821.5394      4.5763     90.3251
  1083.7500      0.0000    834.3534      4.6204    101.7490
  1084.0000      0.0000    849.8846      4.5360    110.7131
  1084.2500      0.0000    864.1313      4.3120    116.6852
  1084.5000      0.0000    873.7957      4.0099    119.6723
  1084.7500      0.0000    877.3018      3.7433    119.8506
  1085.0000      0.0000    875.5603      3.6196    117.5409
  1085.2500      0.0000    871.3084      3.6763    113.3710
  1085.5000      0.0000    867.1084      3.8576    108.4960
  1085.7500      0.0000    863.8635      4.0490    104.4588
  1086.0000      0.0000    860.7483      4.1462    102.5157
  1086.2500      0.0000    855.8798      4.1135    103.0671
  1086.5000      0.0000    847.3207      4.0068    105.7906
  1086.7500      0.0000    834.6651      3.9403    110.1859
  1087.0000      0.0000    820.3503      4.0032    115.8430
  1087.2500      0.0000    808.8310      4.1875    122.4548
  1087.5000      0.0000    803.5164      4.3988    129.7573
  1087.7500      0.0000    804.2858      4.5423    137.1218
  1088.0000      0.0000    808.1219      4.5910    143.1345
  1088.2500      0.0000    811.8461      4.5857    146.0292
  1088.5000      0.0000    813.9948      4.5924    144.8075
  1088.7500      0.0000    814.7286      4.6520    140.0553
  1089.0000      0.0000    814.9397      4.7497    133.7815
  1089.2500      0.0000    815.7019      4.8310    128.0798
  1089.5000      0.0000    818.0137      4.8560    123.5757
  1089.7500      0.0000    822.2534      4.8335    119.5572
  1090.0000      0.0000    827.3749      4.7989    115.7453
  1090.2500      0.0000    830.9172      4.7760    113.3526
  1090.5000      0.0000    830.5160      4.7776    114.0853
  1090.7500      0.0000    825.6108      4.8175    118.3962
  1091.0000      0.0000    817.2170      4.8842    124.8804
  1091.2500      0.0000    806.3506      4.9157    131.2553
  1091.5000      0.0000    793.8666      4.8476    135.8418
  1091.7500      0.0000    782.0028      4.6953    138.3149
  1092.0000      0.0000    774.4927      4.5540    139.2455
  1092.2500      0.0000    773.9564      4.5018    139.0194
  1092.5000      0.0000    779.7875      4.5268    137.2932
  1092.7500      0.0000    789.0775      4.5678    133.5790
  1093.0000      0.0000    798.7678      4.5939    128.1535
  1093.2500      0.0000    806.7538      4.6147    122.2471
  1093.5000      0.0000    812.0953      4.6371    117.5819
  1093.7500      0.0000    814.8535      4.6554    115.8206
  1094.0000      0.0000    815.3207      4.6708    117.7740
  1094.2500      0.0000    812.6941      4.6823    122.4819
  1094.5000      0.0000    804.0923      4.6665    127.3591
  1094.7500      0.0000    785.5382      4.5972    129.9407
  1095.0000      0.0000    755.8678      4.4843    129.5734
  1095.2500      0.0000    721.1159      4.3746    127.2395
  1095.5000      0.0000    693.6931      4.3179    124.1831
  1095.7500      0.0000    684.4708      4.3380    121.2379
  1096.0000      0.0000    694.5358      4.4215    118.9899
  1096.2500      0.0000    714.9461      4.5288    117.5781
  1096.5000      0.0000    733.7490      4.6295    116.1679
  1096.7500      0.0000    742.8577      4.7203    113.4784
  1097.0000      0.0000    740.7764      4.7996    109.3670
  1097.2500      0.0000    732.1683      4.8471    105.4928
  1097.5000      0.0000    724.9680      4.8494    103.7847
  1097.7500      0.0000    725.3565      4.8226    104.2868
  1098.0000      0.0000    733.9097      4.7897    104.9567
  1098.2500      0.0000    746.5422      4.7588    103.8215
  1098.5000      0.0000    758.9711      4.7446    101.1569
  1098.7500      0.0000    770.1265      4.7809     99.3276
