~Version Information
VERS.                      2.0: CWLS Log ASCII Standard - VERSION 2.0
WRAP.                       NO: One line per depth step
~Well Information Block
STRT.FT               350.0000: 
STOP.FT              1391.5000: 
STEP.FT                 0.2500: 
NULL.                -999.2500: 
COMP.          Petrogulf Corporation: COMPANY
WELL.             Leier 17-42R: WELL
FLD.           Purgatorie River: FIELD
LOC.           2398' FNL & 1109' FEL: LOCATION
PROV.                 Colorado: PROVINCE
CNTY.               Las Animas: COUNTRY
SRVC.                Patterson: SERVICE COMPANY
DATE.          Mon Oct 17 09:42:26 2005: LOG DATE
UWI.                          : UNIQUE WELL ID
~Curve Information Block
DEPT.FT            0 000 00 00: Depth
SP.mV                         : DIL Spontaneous Potential
RILD.Ohm-m                    : DIL Deep Resistivity
RILM.Ohm-m                    : DIL Medium Resistivity
RLL3.Ohm-m                    : DIL Shallow Resistivity
GR.GAPI                       : Gamma Ray
~Parameter Information Block
~A  Depth        SP         RILD        RILM        RLL3         GR     
# ...
   966.0000    186.1832     51.9043     59.3676     69.9431     40.5023
   966.2500    186.4283     52.7092     60.1229     71.4973     39.5824
   966.5000    186.9391     53.3569     60.7729     73.4933     40.0310
   966.7500    187.7435     53.7779     61.2838     75.4465     41.1798
   967.0000    188.8516     53.9528     61.6313     76.8199     43.2338
   967.2500    190.2522     53.9080     61.8097     77.2304     44.3945
   967.5000    191.9136     53.6819     61.8328     76.5687     45.6300
   967.7500    193.7884     53.2881     61.7253     75.0326     46.2414
   968.0000    195.8256     52.7014     61.5066     73.0762     46.9762
   968.2500    197.9819     51.8775     61.1721     71.2636     47.3162
   968.5000    200.2268     50.7865     60.6787     70.0812     47.7807
   968.7500    202.5427     49.4348     59.9410     69.8082     48.3454
   969.0000    204.9250     47.8579     58.8452     70.4697     49.8612
   969.2500    207.3799     46.1054     57.2814     71.8032     51.2244
   969.5000    209.9174     44.2399     55.1890     73.1885     53.5192
   969.7500    212.5414     42.3451     52.5946     73.6141     55.1601
   970.0000    215.2409     40.5185     49.6229     71.8610     57.9478
   970.2500    217.9769     38.8426     46.4678     67.0391     60.3592
   970.5000    220.6665     37.3574     43.3404     59.2712     65.7491
   970.7500    223.1850     36.0566     40.4203     49.9459     70.9331
   971.0000    225.4027     34.9088     37.8284     41.1272     80.8102
   971.2500    227.2394     33.8856     35.6243     34.4789     87.9662
   971.5000    228.6954     32.9744     33.8193     30.5539     97.3184
   971.7500    229.8376     32.1708     32.3934     28.8976    101.2769
   972.0000    230.7585     31.4658     31.3108     28.6567    102.7344
   972.2500    231.5366     30.8424     30.5316     29.1208    101.3337
   972.5000    232.2188     30.2865     30.0177     29.9068     98.0189
   972.7500    232.8220     29.8014     29.7367     30.8601     96.0496
   973.0000    233.3474     29.4093     29.6608     31.8953     93.6032
   973.2500    233.7963     29.1372     29.7654     32.9387     91.7022
   973.5000    234.1757     28.9982     30.0246     33.9912     87.4533
   973.7500    234.4932     28.9803     30.4072     35.2164     83.7615
   974.0000    234.7493     29.0539     30.8733     36.9506     78.5224
   974.2500    234.9385     29.1876     31.3739     39.5360     76.4536
   974.5000    235.0572     29.3604     31.8539     42.9398     76.3308
   974.7500    235.1096     29.5585     32.2603     46.4074     77.5456
   975.0000    235.1029     29.7633     32.5517     48.6522     79.1089
   975.2500    235.0377     29.9430     32.7066     48.6732     79.1634
   975.5000    234.9049     30.0582     32.7247     46.4815     78.2123
   975.7500    234.6928     30.0746     32.6218     43.0008     77.8846
   976.0000    234.3975     29.9725     32.4201     39.3535     79.2702
   976.2500    234.0307     29.7472     32.1377     36.3093     81.5273
   976.5000    233.6234     29.4024     31.7828     34.2041     85.8478
   976.7500    233.2265     28.9463     31.3534     33.0580     88.5688
   977.0000    232.9019     28.3938     30.8403     32.6682     91.8099
   977.2500    232.7020     27.7683     30.2343     32.7071     93.5707
   977.5000    232.6437     27.0989     29.5321     32.8610     96.1887
   977.7500    232.6974     26.4114     28.7407     32.9117     98.1633
   978.0000    232.8024     25.7234     27.8785     32.6849    101.6941
   978.2500    232.8992     25.0480     26.9726     31.9663    104.4719
   978.5000    232.9534     24.4011     26.0545     30.5722    109.1925
   978.7500    232.9541     23.8020     25.1556     28.5624    112.5662
   979.0000    232.8982     23.2668     24.3035     26.3205    117.6233
   979.2500    232.7828     22.7985     23.5189     24.3386    120.7294
   979.5000    232.6056     22.3826     22.8150     22.9155    124.6936
   979.7500    232.3639     21.9914     22.1972     22.0743    126.9837
   980.0000    232.0512     21.5957     21.6636     21.7106    130.1903
   980.2500    231.6612     21.1782     21.2058     21.7416    131.8675
   980.5000    231.1983     20.7419     20.8101     22.0988    132.4005
   980.7500    230.6817     20.3087     20.4608     22.6198    131.0427
   981.0000    230.1388     19.9088     20.1427     23.0014    127.3471
   981.2500    229.5949     19.5683     19.8459     22.9139    124.8320
   981.5000    229.0702     19.3002     19.5676     22.2073    122.3200
   981.7500    228.5821     19.1015     19.3132     21.0352    121.5427
   982.0000    228.1427     18.9574     19.0932     19.7863    120.7076
   982.2500    227.7482     18.8462     18.9191     18.8722    119.7008
   982.5000    227.3702     18.7464     18.7985     18.5297    117.2927
   982.7500    226.9647     18.6401     18.7316     18.7491    115.5650
   983.0000    226.4948     18.5146     18.7096     19.3395    113.7896
   983.2500    225.9490     18.3619     18.7153     20.0699    113.2960
   983.5000    225.3416     18.1789     18.7253     20.7921    112.7535
   983.7500    224.6998     17.9683     18.7137     21.4675    111.8069
   984.0000    224.0521     17.7382     18.6562     22.0967    109.1831
   984.2500    223.4228     17.5013     18.5345     22.6371    107.2050
   984.5000    222.8315     17.2710     18.3389     22.9840    105.2025
   984.7500    222.2953     17.0571     18.0700     23.0124    104.9232
   985.0000    221.8324     16.8629     17.7386     22.6322    106.3438
   985.2500    221.4665     16.6858     17.3628     21.8340    108.6987
   985.5000    221.2230     16.5207     16.9644     20.7165    114.3267
   985.7500    221.1166     16.3641     16.5654     19.4765    118.8598
   986.0000    221.1379     16.2157     16.1849     18.3396    125.0740
   986.2500    221.2527     16.0770     15.8371     17.4637    128.1057
   986.5000    221.4136     15.9498     15.5314     16.8908    130.9773
   986.7500    221.5707     15.8352     15.2727     16.5967    132.0928
   987.0000    221.6725     15.7355     15.0630     16.5818    132.6431
   987.2500    221.6652     15.6568     14.9035     16.8845    132.0567
   987.5000    221.5037     15.6103     14.7964     17.4714    129.8701
   987.7500    221.1684     15.6123     14.7467     18.1219    128.1173
   988.0000    220.6664     15.6793     14.7632     18.4875    126.3191
   988.2500    220.0162     15.8216     14.8584     18.3521    126.1044
   988.5000    219.2368     16.0367     15.0458     17.9165    126.9238
   988.7500    218.3568     16.3062     15.3376     17.9603    127.3218
   989.0000    217.4345     16.5991     15.7388     19.8936    125.4099
   989.2500    216.5717     16.8806     16.2431     25.6347    121.3655
   989.5000    215.9101     17.1243     16.8277     36.8826    110.7790
   989.7500    215.6064     17.3196     17.4521     53.4826    101.3558
   990.0000    215.7845     17.4764     18.0622     71.8170     85.4429
   990.2500    216.4874     17.6237     18.6025     85.3332     74.8672
   990.5000    217.6654     17.8023     19.0335     88.1003     61.6615
   990.7500    219.2126     18.0506     19.3458     78.9241     56.3471
   991.0000    221.0136     18.3856     19.5623     62.2045     55.7100
   991.2500    222.9677     18.7873     19.7270     44.7692     60.1155
   991.5000    224.9948     19.1938     19.8849     31.7836     71.2670
   991.7500    227.0447     19.5139     20.0640     24.9672     79.3300
   992.0000    229.1043     19.6570     20.2626     23.4162     88.8030
   992.2500    231.1854     19.5700     20.4473     25.2610     92.2617
   992.5000    233.2958     19.2601     20.5606     28.7183     93.0743
   992.7500    235.4171     18.7908     20.5389     32.3406     91.5455
   993.0000    237.5005     18.2528     20.3359     34.9509     88.4545
   993.2500    239.4780     17.7328     19.9422     35.7436     87.1278
   993.5000    241.2803     17.2943     19.3907     34.5572     87.6535
   993.7500    242.8564     16.9744     18.7452     31.8976     90.2437
