~Version Information
VERS.                      2.0: CWLS Log ASCII Standard - VERSION 2.0
WRAP.                       NO: One line per depth step
~Well Information Block
STRT.FT                -3.2500: 
STOP.FT              1637.5000: 
STEP.FT                 0.2500: 
NULL.                -999.2500: 
COMP.          Pioneer Natural Resources: COMPANY
WELL.            Mad Dog 42-31: WELL
FLD.           Purgatorie River: FIELD
LOC.           2064' FNL & 479' FEL--: LOCATION
PROV.                       CO: PROVINCE
CNTY.               Las Animas: COUNTRY
SRVC.                         : SERVICE COMPANY
DATE.          Fri Oct 15 16:13:39 2004: LOG DATE
UWI.          005 071 08195   : UNIQUE WELL ID
~Curve Information Block
DEPT.FT            0 000 00 00: Depth
HVOLTA.V                      : Head Voltage Apparent
GR.GAPI                       : Gamma Ray
CCL.                          : Casing Collar Locator
TT3.usec                      : CBL 3' Travel Time
AMP3.mV                       : CBL 3' Amplitude
~Parameter Information Block
~A  Depth      HVOLTA        GR         CCL         TT3         AMP3    
# ...
   752.7500     97.3894    136.7376      0.0000    651.5010     19.2352
   753.0000     97.4647    141.8334      0.0000    632.1786     19.8242
   753.2500     97.3106    146.3339      0.0000    639.6364     19.7527
   753.5000     97.2592    147.8908      0.0000    668.9933     19.2082
   753.7500     97.1672    145.7746      0.0000    704.1925     18.4101
   754.0000     97.4133    141.6783      0.0000    731.5838     17.5278
   754.2500     97.2114    138.3607      0.0000    747.1652     16.6586
   754.5000     97.2831    137.8809      0.0000    753.8629     15.8361
   754.7500     97.3477    140.7265      0.0000    755.9814     15.0479
   755.0000     97.2414    145.7518      0.0000    756.3846     14.2681
   755.2500     97.2664    150.8558      0.0000    756.3835     13.4872
   755.5000     97.2018    154.4131      0.0000    756.3969     12.7094
   755.7500     97.3309    156.4973      0.0000    756.4787     11.9340
   756.0000     97.2114    158.4848      0.0000    756.5688     11.1613
   756.2500     97.1397    161.1703      0.0000    756.6437     10.4146
   756.5000     97.2735    163.6130      0.0000    756.7411      9.7326
   756.7500     97.1087    164.4711      0.0000    756.9136      9.1407
   757.0000     97.2353    164.2995      0.0000    757.1606      8.6437
   757.2500     97.0263    165.5139      0.0000    757.3545      8.2375
   757.5000     97.2903    169.5743      0.0000    757.1700      7.9095
   757.7500     97.2760    174.7579      0.0000    756.1954      7.6290
   758.0000     97.3416    177.4143      0.0000    754.3901      7.3573
   758.2500     97.1672    175.4629      0.0000    752.5368      7.0739
   758.5000     97.3619    170.3788      0.0000    751.8778      6.7917
   758.7500     97.3070    165.8661      0.0000    752.9263      6.5423
   759.0000     97.2246    164.8496      0.0000    754.7531      6.3515
   759.2500     97.2318    167.4336      0.0000    755.7497      6.2279
   759.5000     97.2820    171.0992      0.0000    755.1166      6.1711
   759.7500     97.3106    172.6766      0.0000    753.5733      6.1779
   760.0000     97.2318    170.4935      0.0000    752.6289      6.2369
   760.2500     97.3106    165.1738      0.0000    753.0560      6.3240
   760.5000     97.2521    158.8992      0.0000    753.9900      6.4119
   760.7500     97.3177    154.1359      0.0000    753.4997      6.4839
   761.0000     97.2795    152.5230      0.0000    750.0527      6.5369
   761.2500     97.3166    154.0508      0.0000    743.7626      6.5751
   761.5000     97.1875    157.0337      0.0000    736.6817      6.6030
   761.7500     97.1971    159.2943      0.0000    731.8566      6.6206
   762.0000     97.3238    159.6404      0.0000    731.5774      6.6222
   762.2500     97.2699    158.1149      0.0000    736.0427      6.6004
   762.5000     97.2974    155.1394      0.0000    743.4862      6.5537
   762.7500     97.1255    151.1741      0.0000    751.5229      6.4909
   763.0000     97.3177    147.3000      0.0000    758.3250      6.4300
   763.2500     97.2628    145.1034      0.0000    762.6510      6.3856
   763.5000     97.2999    145.0474      0.0000    763.5343      6.3605
   763.7500     97.3380    145.1719      0.0000    760.8989      6.3486
   764.0000     97.1433    142.3337      0.0000    756.4236      6.3405
   764.2500     97.2449    135.0754      0.0000    752.8583      6.3296
   764.5000     97.2795    124.7218      0.0000    751.9685      6.3215
   764.7500     97.1708    113.4958      0.0000    753.3856      6.3389
   765.0000     97.2221    102.4933      0.0000    755.5099      6.4084
   765.2500     97.0812     92.0372      0.0000    757.0953      6.5366
   765.5000     97.1636     83.2412      0.0000    757.8669      6.6985
   765.7500     97.2771     78.3508      0.0000    758.1247      6.8534
   766.0000     97.2938     79.3183      0.0000    758.2045      6.9684
   766.2500     97.2760     85.9361      0.0000    758.2665      7.0344
   766.5000     97.3045     95.3232      0.0000    758.3497      7.0644
   766.7500     97.2460    103.5339      0.0000    758.4553      7.0771
   767.0000     97.2460    108.0299      0.0000    758.5662      7.0821
   767.2500     97.1505    108.7929      0.0000    758.6293      7.0841
   767.5000     97.3691    107.2701      0.0000    758.5752      7.0963
   767.7500     97.2186    104.4889      0.0000    758.3701      7.1308
   768.0000     97.0991    100.2210      0.0000    758.0468      7.1781
   768.2500     97.2150     93.6799      0.0000    757.6785      7.2123
   768.5000     97.3177     84.7476      0.0000    757.3282      7.2155
   768.7500     97.4001     74.5252      0.0000    757.0210      7.1859
   769.0000     97.4372     64.8795      0.0000    756.7528      7.1223
   769.2500     97.2735     57.4211      0.0000    756.5089      7.0163
   769.5000     97.2389     52.7250      0.0000    756.2825      6.8657
   769.7500     97.4169     50.4185      0.0000    756.0907      6.6850
   770.0000     97.3965     49.9220      0.0000    755.9703      6.4992
   770.2500     97.3081     50.9092      0.0000    755.9422      6.3276
   770.5000     97.3152     52.9815      0.0000    755.9752      6.1755
   770.7500     97.2293     55.2284      0.0000    756.0024      6.0414
   771.0000     97.3284     56.7001      0.0000    755.9818      5.9286
   771.2500     97.3869     57.4710      0.0000    755.9436      5.8497
   771.5000     97.3869     58.7465      0.0000    755.9771      5.8245
   771.7500     97.3666     61.5961      0.0000    756.1660      5.8745
   772.0000     97.2532     65.8403      0.0000    756.5252      6.0139
   772.2500     97.1947     70.3399      0.0000    756.9829      6.2396
   772.5000     97.2054     73.8950      0.0000    757.4171      6.5289
   772.7500     97.2831     75.6172      0.0000    757.7255      6.8435
   773.0000     97.4037     75.1020      0.0000    757.8872      7.1359
   773.2500     97.2018     72.8708      0.0000    757.9731      7.3641
   773.5000     97.0777     70.4684      0.0000    758.0891      7.5130
   773.7500     97.3345     69.8203      0.0000    758.2853      7.6065
   774.0000     97.2938     72.5588      0.0000    758.5131      7.6901
   774.2500     97.2735     79.7558      0.0000    758.6811      7.7940
   774.5000     97.3070     91.4360      0.0000    758.7684      7.9107
   774.7500     97.2221    105.8335      0.0000    758.9525      8.0031
   775.0000     97.3762    119.7709      0.0000    759.8220      8.0259
   775.2500     97.3416    130.6822      0.0000    762.7534      7.9379
   775.5000     97.3141    138.1473      0.0000    770.1780      7.7070
   775.7500     97.2257    142.8564      0.0000    784.7579      7.3233
   776.0000     97.2628    144.6026      0.0000    806.8549      6.8206
   776.2500     97.3141    142.3762      0.0000    831.8446      6.2780
   776.5000     97.2974    136.1081      0.0000    850.6422      5.7733
   776.7500     97.3309    127.1850      0.0000    854.7119      5.3348
   777.0000     97.2903    117.2351      0.0000    842.0760      4.9613
   777.2500     97.2079    107.2562      0.0000    819.0735      4.6721
   777.5000     97.1732     97.9534      0.0000    796.3019      4.4978
   777.7500     97.3894     90.0455      0.0000    782.7530      4.4365
   778.0000     97.3213     83.8758      2.0000    783.0609      4.4540
   778.2500     97.2699     79.1570      0.0000    797.7771      4.5220
   778.5000     97.2221     75.3700      0.0000    823.2435      4.6479
   778.7500     97.3655     72.4777      0.0000    850.9488      4.8683
   779.0000     97.3894     71.4355      0.0000    869.7618      5.1921
   779.2500     97.2389     73.9704      0.0000    871.4728      5.5403
   779.5000     97.2221     81.2633      0.0000    855.4429      5.7909
   779.7500     97.2125     92.4969      0.0000    828.5776      5.9261
   780.0000     97.1708    104.9708      0.0000    800.8311      6.0759
   780.2500     97.3452    115.9874      0.0000    779.6208      6.3645
   780.5000     97.2400    124.6050      0.0000    767.0825      6.7628
