~Version Information
VERS.                      2.0: CWLS Log ASCII Standard - VERSION 2.0
WRAP.                       NO: One line per depth step
~Well Information Block
STRT.FT               294.0000: 
STOP.FT              1958.0000: 
STEP.FT                 0.1000: 
NULL.                -999.2500: 
COMP.          Pioneer Natural Resources: COMPANY
WELL.          Commander 43-26 Tr: WELL
FLD.           Purgatoire River: FIELD
LOC.           2439' FSL & 446' FEL: LOCATION
PROV.                 Colorado: PROVINCE
CNTY.               Las Animas: COUNTRY
SRVC.                Patterson: SERVICE COMPANY
DATE.          Fri Apr 15 07:31:08 2005: LOG DATE
UWI.           05 071 08341 00: UNIQUE WELL ID
~Curve Information Block
DEPT.FT            0 000 00 00: Depth
DCAL.in                       : CDL Caliper
RHOB.g/cc                     : CDL Bulk Density
RHOC.g/cc                     : CDL Density Correction
DPOR.pu                       : CDL Density Porosity
GR.GAPI                       : Gamma Ray
NPOR.pu                       : Neutron Porosity
~Parameter Information Block
~A  Depth       DCAL        RHOB        RHOC        DPOR         GR         NPOR    
# ...
  1282.8000      8.0309      2.5365      0.0273      6.8770    133.0133     28.9998
  1282.9000      8.0309      2.5515      0.0474      5.9698    128.7235     29.2165
  1283.0000      8.0801      2.5269      0.0508      7.4600    126.7578     28.9944
  1283.1000      8.0801      2.4889     -0.0318      9.7608    127.6273     29.2362
  1283.2000      8.0801      2.4760      0.0030     10.5470    126.2943     30.0659
  1283.3000      8.0863      2.4951      0.0058      9.3881    121.2696     31.1728
  1283.4000      8.0863      2.5236      0.0305      7.6630    119.2451     31.7356
  1283.5000      8.0959      2.5376      0.0727      6.8139    121.7820     31.1736
  1283.6000      8.0959      2.5327      0.0200      7.1097    122.2888     30.2402
  1283.7000      8.0959      2.5261      0.0314      7.5080    120.0666     29.5773
  1283.8000      8.0848      2.5244      0.0772      7.6122    118.0701     29.0002
  1283.9000      8.0848      2.5181      0.0524      7.9922    115.9234     28.9247
  1284.0000      8.0848      2.5131     -0.0352      8.2954    114.0714     29.8459
  1284.1000      8.0848      2.5221     -0.0105      7.7492    112.2040     31.0018
  1284.2000      8.0848      2.5343      0.0202      7.0123    108.8553     31.3055
  1284.3000      8.0462      2.5398     -0.0188      6.6760    107.4456     30.5018
  1284.4000      8.0462      2.5557     -0.0357      5.7155    109.6852     29.2761
  1284.5000      8.0319      2.5860      0.1027      3.8800    110.7728     28.7631
  1284.6000      8.0319      2.6033      0.1113      2.8304    107.2638     29.4398
  1284.7000      8.0319      2.5986      0.0615      3.1174    103.1850     30.7798
  1284.8000      8.0227      2.5854      0.0645      3.9172    106.7493     31.3737
  1284.9000      8.0227      2.5637      0.0558      5.2315    116.1764     30.6106
  1285.0000      8.0234      2.5311      0.0388      7.2069    118.9871     29.6804
  1285.1000      8.0234      2.4990      0.0187      9.1494    112.2484     29.4085
  1285.2000      8.0234      2.4788     -0.0262     10.3730    106.1739     29.3691
  1285.3000      8.0163      2.4688     -0.0092     10.9816    106.6612     29.0815
  1285.4000      8.0163      2.4548     -0.0041     11.8299    110.7645     28.8320
  1285.5000      8.0165      2.4375     -0.0263     12.8782    114.5624     29.1138
  1285.6000      8.0165      2.4254      0.0567     13.6110    114.5507     30.0685
  1285.7000      8.0165      2.4117     -0.0074     14.4395    109.1822     31.2326
  1285.8000      8.0309      2.3906      0.0230     15.7231    101.8996     31.4793
  1285.9000      8.0309      2.3586      0.0280     17.6603     96.5264     30.4976
  1286.0000      8.0706      2.3162      0.0216     20.2277     94.8786     29.9183
  1286.1000      8.0706      2.2705      0.0036     23.0028     97.7904     30.4935
  1286.2000      8.0706      2.2183      0.0276     26.1633    102.0281     30.7208
  1286.3000      8.0888      2.1465      0.0135     30.5160    104.8854     30.0332
  1286.4000      8.0888      2.0562     -0.0172     35.9849    107.5651     29.4423
  1286.5000      8.1134      1.9624      0.0510     41.6757    107.7449     29.7499
  1286.6000      8.1134      1.8874     -0.0407     46.2166    104.1001     31.1365
  1286.7000      8.1134      1.8538     -0.0522     48.2519    103.1667     32.8313
  1286.8000      8.0810      1.8508      0.0245     48.4368    106.6055     33.5634
  1286.9000      8.0810      1.8533      0.0496     48.2863    107.9694     33.3220
  1287.0000      8.0739      1.8652      0.0400     47.5634    106.9373     33.0746
  1287.1000      8.0739      1.9039      0.0672     45.2197    106.4167     33.4508
  1287.2000      8.0739      1.9774      0.1000     40.7619    105.8566     33.9279
  1287.3000      8.1005      2.0871      0.1355     34.1169    104.9131     33.8008
  1287.4000      8.1005      2.2148      0.2479     26.3746    103.0899     33.5624
  1287.5000      8.2100      2.3294      0.2083     19.4301     98.8235     33.3659
  1287.6000      8.2100      2.4199      0.1606     13.9442     93.7965     32.5958
  1287.7000      8.2100      2.4885      0.1340      9.7880     91.1555     31.4351
  1287.8000      8.3123      2.5371      0.1069      6.8422     91.5591     30.3702
  1287.9000      8.3123      2.5721      0.1159      4.7201     93.5506     29.5755
  1288.0000      8.2052      2.5918      0.1287      3.5302     92.8780     28.9131
  1288.1000      8.2052      2.5878      0.0496      3.7713     89.6000     28.6426
  1288.2000      8.2052      2.5667      0.0376      5.0486     88.8715     28.5910
  1288.3000      8.1071      2.5543     -0.0308      5.7982     89.4982     28.1989
  1288.4000      8.1071      2.5743      0.0704      4.5850     87.0028     27.5648
  1288.5000      8.0774      2.6299      0.0341      1.2188     82.6945     27.0341
  1288.6000      8.0774      2.7060      0.1538     -3.3932     80.4123     26.2366
  1288.7000      8.0774      2.7684      0.1631     -7.1731     81.7679     24.6988
  1288.8000      8.0122      2.7865      0.1950     -8.2706     86.2131     23.1815
  1288.9000      8.0122      2.7633      0.1368     -6.8641     91.1143     22.8235
  1289.0000      7.9359      2.7306      0.0869     -4.8849     92.8278     23.7013
  1289.1000      7.9359      2.7121      0.0937     -3.7622     90.4348     25.0301
  1289.2000      7.9359      2.7065      0.0470     -3.4235     86.1482     26.1346
  1289.3000      7.9269      2.7093      0.0038     -3.5942     82.0840     26.8818
  1289.4000      7.9269      2.7200      0.0173     -4.2432     81.8481     27.2111
  1289.5000      7.9514      2.7426     -0.0441     -5.6102     88.3876     26.9982
  1289.6000      7.9514      2.7641      0.0913     -6.9130     99.1987     26.2965
  1289.7000      7.9514      2.7455      0.0797     -5.7905    108.4638     25.5134
  1289.8000      7.9711      2.6882      0.0589     -2.3163    113.9090     25.3236
  1289.9000      7.9711      2.6319      0.0557      1.0998    117.8218     26.0552
  1290.0000      7.9933      2.5943      0.0441      3.3757    123.2539     26.7585
  1290.1000      7.9933      2.5751      0.0229      4.5400    129.6133     26.2813
  1290.2000      7.9933      2.5738     -0.0306      4.6197    134.3107     25.2158
  1290.3000      7.9881      2.5768      0.0477      4.4384    139.0914     25.0040
  1290.4000      7.9881      2.5610      0.0333      5.3930    145.2346     25.6631
  1290.5000      8.0170      2.5234      0.0063      7.6717    147.7243     26.1685
  1290.6000      8.0170      2.4772      0.0010     10.4723    143.0542     26.4166
  1290.7000      8.0170      2.4356     -0.0435     12.9913    136.0341     27.1118
  1290.8000      8.0264      2.4002     -0.0377     15.1419    132.1566     27.9065
  1290.9000      8.0264      2.3572     -0.0181     17.7479    132.9492     28.4516
  1291.0000      8.0140      2.3097     -0.0233     20.6214    136.7889     29.5068
  1291.1000      8.0140      2.2721      0.0231     22.9054    137.4932     30.8678
  1291.2000      8.0140      2.2358      0.0263     25.1032    131.8267     31.2229
  1291.3000      8.0276      2.1957     -0.0139     27.5313    125.2601     30.5562
  1291.4000      8.0276      2.1726      0.0098     28.9306    124.7607     30.4945
  1291.5000      8.0420      2.1707      0.0449     29.0484    128.6154     31.4624
  1291.6000      8.0420      2.1738      0.0345     28.8590    129.3524     32.1668
  1291.7000      8.0420      2.1847      0.0159     28.2009    127.7280     32.3100
  1291.8000      8.0758      2.2127      0.0760     26.5060    128.2185     32.5815
  1291.9000      8.0758      2.2469      0.1127     24.4287    129.4903     32.6208
  1292.0000      8.1046      2.2768      0.0951     22.6195    129.1160     32.2932
  1292.1000      8.1046      2.3058      0.1039     20.8631    126.6425     32.4101
  1292.2000      8.1046      2.3242      0.1154     19.7451    121.8679     32.9026
  1292.3000      8.1425      2.3209     -0.0281     19.9448    117.7454     33.0159
