~Version Information
VERS.                      2.0: CWLS Log ASCII Standard - VERSION 2.0
WRAP.                       NO: One line per depth step
~Well Information Block
STRT.FT               -10.0000: 
STOP.FT              2297.5000: 
STEP.FT                 0.2500: 
NULL.                -999.2500: 
COMP.          Pioneer Natural Resources: COMPANY
WELL.              Bobsy 34-11: WELL
FLD.           Purgatorie River: FIELD
LOC.           1937' FEL & 451' FSL----------: LOCATION
PROV.                       CO: PROVINCE
CNTY.               Las Animas: COUNTRY
SRVC.          Patterson Wireline: SERVICE COMPANY
DATE.          Mon Apr 18 09:37:11 2005: LOG DATE
UWI.           05 071 08330 00: UNIQUE WELL ID
~Curve Information Block
DEPT.FT            0 000 00 00: Depth
CCL.                          : Casing Collar Locator
TT3.usec                      : CBL 3' Travel Time
AMP3.mV                       : CBL 3' Amplitude
GR.GAPI                       : Gamma Ray
~Parameter Information Block
~A  Depth       CCL         TT3         AMP3         GR     
# ...
   291.5000      0.0000    263.5478     83.0174     50.6708
   291.7500      0.0000    263.5374     82.8290     51.0705
   292.0000      0.0000    263.5344     82.7011     52.9426
   292.2500      0.0000    263.5359     82.6962     56.8317
   292.5000      0.0000    263.5342     82.8279     62.0427
   292.7500      0.0000    263.5276     83.0302     67.0934
   293.0000      0.0000    263.5236     83.1612     70.9215
   293.2500      0.0000    263.5351     83.0266     73.5982
   293.5000      0.0000    263.5927     82.3744     75.8030
   293.7500      0.0000    263.7812     80.8645     77.8013
   294.0000      0.0000    264.2599     78.1125     79.2549
   294.2500      0.0000    265.2008     73.9069     79.9951
   294.5000      0.0000    266.6367     68.5224     80.5153
   294.7500      0.0000    268.3439     62.8337     81.4580
   295.0000      0.0000    269.9249     57.9758     82.8498
   295.2500      0.0000    271.0594     54.7064     84.0460
   295.5000      0.0000    271.6850     53.0312     84.3282
   295.7500      0.0000    271.9484     52.4096     83.6068
   296.0000      2.0000    272.0325     52.2356     82.6165
   296.2500      0.0000    272.0387     52.1216     82.2472
   296.5000     -2.0000    271.9701     51.9159     82.5154
   296.7500      0.0000    271.7523     51.6752     82.3948
   297.0000      0.0000    271.2575     51.7418     80.9507
   297.2500      0.0000    270.3553     52.8145     78.4240
   297.5000      0.0000    269.0191     55.7245     75.9095
   297.7500      0.0000    267.4203     60.8075     74.2616
   298.0000      0.0000    265.8843     67.3348     73.6550
   298.2500      0.0000    264.7040     73.7371     73.8431
   298.5000      0.0000    263.9810     78.6039     74.4542
   298.7500      0.0000    263.6292     81.4987     75.3691
   299.0000      0.0000    263.4931     82.8741     77.0472
   299.2500      0.0000    263.4482     83.4340     79.9938
   299.5000      0.0000    263.4319     83.6612     83.6367
   299.7500      0.0000    263.4265     83.7492     86.2830
   300.0000      0.0000    263.4305     83.7460     86.6204
   300.2500      0.0000    263.4411     83.6786     85.0082
   300.5000      0.0000    263.4544     83.5903     83.0630
   300.7500      0.0000    263.4673     83.5245     82.2393
   301.0000      0.0000    263.4784     83.5110     82.9654
   301.2500      0.0000    263.4868     83.5564     84.7999
   301.5000      0.0000    263.4918     83.6417     87.0706
   301.7500      0.0000    263.4902     83.7380     89.2371
   302.0000      0.0000    263.4792     83.8279     90.8088
   302.2500      0.0000    263.4631     83.9073     91.3411
   302.5000      0.0000    263.4533     83.9682     90.7262
   302.7500      0.0000    263.4600     83.9932     89.3123
   303.0000      0.0000    263.4844     83.9693     87.6308
   303.2500      0.0000    263.5194     83.9016     86.0544
   303.5000      0.0000    263.5527     83.8160     84.5744
   303.7500      0.0000    263.5734     83.7453     82.8196
   304.0000      0.0000    263.5792     83.7004     80.5112
   304.2500      0.0000    263.5756     83.6573     77.9503
   304.5000      0.0000    263.5684     83.5856     75.7465
   304.7500      0.0000    263.5589     83.4875     74.0047
   305.0000      0.0000    263.5490     83.3979     72.2120
   305.2500      0.0000    263.5414     83.3541     70.0368
   305.5000      0.0000    263.5355     83.3736     67.7693
   305.7500      0.0000    263.5277     83.4422     65.8367
   306.0000      0.0000    263.5181     83.5146     64.3494
   306.2500      0.0000    263.5107     83.5509     63.3264
   306.5000      0.0000    263.5065     83.5623     62.9420
   306.7500      0.0000    263.5027     83.6039     63.2334
   307.0000      0.0000    263.4948     83.7149     63.7759
   307.2500      0.0000    263.4789     83.8804     63.9195
   307.5000      0.0000    263.4539     84.0481     63.2220
   307.7500      0.0000    263.4247     84.1681     61.5434
   308.0000      0.0000    263.4006     84.2202     58.9875
   308.2500      0.0000    263.3880     84.2150     56.0029
   308.5000      0.0000    263.3874     84.1727     53.3096
   308.7500      0.0000    263.3944     84.1033     51.4495
   309.0000      0.0000    263.4022     84.0160     50.5389
   309.2500      0.0000    263.4047     83.9360     50.5190
   309.5000      0.0000    263.4022     83.8920     51.3399
   309.7500      0.0000    263.4016     83.8867     52.7669
   310.0000      0.0000    263.4091     83.8942     54.2911
   310.2500      0.0000    263.4250     83.8886     55.3389
   310.5000      0.0000    263.4470     83.8685     55.4843
   310.7500      0.0000    263.4701     83.8584     54.6896
   311.0000      0.0000    263.4840     83.8869     53.5687
   311.2500      0.0000    263.4778     83.9567     53.1618
   311.5000      0.0000    263.4518     84.0344     54.0872
   311.7500      0.0000    263.4193     84.0736     55.9270
   312.0000      0.0000    263.3950     84.0483     57.6280
   312.2500      0.0000    263.3834     83.9605     58.4619
   312.5000      0.0000    263.3800     83.8049     58.4760
   312.7500      0.0000    263.3842     83.4920     58.2021
   313.0000      0.0000    263.4155     82.7562     58.2785
   313.2500      0.0000    263.5504     81.1210     59.2515
   313.5000      0.0000    264.0097     78.0199     61.2095
   313.7500      0.0000    265.2898     73.0779     63.4307
   314.0000      0.0000    268.1829     66.3844     64.7508
   314.2500      0.0000    273.4401     58.5260     64.4300
   314.5000      0.0000    281.1122     50.3364     62.5850
   314.7500      0.0000    290.5041     42.5571     59.8854
   315.0000      0.0000    301.6904     35.6343     56.9160
   315.2500      0.0000    318.1998     29.7122     53.8368
   315.5000      0.0000    348.1324     24.7442     50.7190
   315.7500      0.0000    400.4160     20.6055     48.0726
   316.0000      0.0000    476.4872     17.1479     46.6674
   316.2500      0.0000    564.5418     14.2240     46.8266
   316.5000      0.0000    644.5454     11.7338     48.1375
   316.7500      0.0000    701.8108      9.6605     49.7647
   317.0000      0.0000    735.9678      8.0424     50.8577
   317.2500      0.0000    756.1876      6.9041     50.8257
   317.5000      0.0000    769.1818      6.2107     49.4437
   317.7500      0.0000    774.4079      5.8671     46.8325
   318.0000      0.0000    770.4540      5.7502     43.5092
   318.2500      0.0000    761.7808      5.7492     40.3942
   318.5000      0.0000    756.9877      5.7834     38.4965
   318.7500      0.0000    762.9124      5.7995     38.5579
   319.0000      0.0000    781.5040      5.7724     41.0730
   319.2500      0.0000    809.1716      5.7129     46.2692
   319.5000      0.0000    837.0800      5.6569     53.5149
   319.7500      0.0000    854.8622      5.6371     60.8583
   320.0000      0.0000    857.2343      5.6643     65.8377
   320.2500      0.0000    847.2714      5.7266     67.1475
   320.5000      0.0000    832.6151      5.7979     65.3982
   320.7500      0.0000    819.0229      5.8509     62.3461
   321.0000      0.0000    807.7131      5.8697     59.7639
   321.2500      0.0000    797.5280      5.8522     58.7989
   321.5000      0.0000    787.9717      5.8079     59.4713
   321.7500      0.0000    779.8701      5.7584     60.4541
   322.0000      0.0000    774.1165      5.7295     59.8886
   322.2500      0.0000    770.6887      5.7323     56.7965
   322.5000      0.0000    768.8882      5.7568     51.6947
   322.7500      0.0000    768.0441      5.7837     46.0172
   323.0000      0.0000    767.9149      5.7978     41.0944
   323.2500      0.0000    768.7582      5.7911     37.4643
   323.5000      0.0000    771.2551      5.7661     34.9638
   323.7500      0.0000    776.1159      5.7346     33.4283
   324.0000      0.0000    783.3044      5.7071     33.1380
   324.2500      0.0000    791.5507      5.6844     34.5586
   324.5000      0.0000    798.9444      5.6655     37.8599
   324.7500      0.0000    804.2092      5.6582     42.7610
