~Version Information
VERS.                      2.0: CWLS Log ASCII Standard - VERSION 2.0
WRAP.                       NO: One line per depth step
~Well Information Block
STRT.FT               802.1000: 
STOP.FT              1915.0000: 
STEP.FT                 0.1000: 
NULL.                -999.2500: 
COMP.          Petrogulf Corporation: COMPANY
WELL.             State 16-32R: WELL
FLD.           Purgatorie River: FIELD
LOC.           1849' FNL & 1677' FEL: LOCATION
CNTY.               Las Animas: COUNTY
SRVC.                         : SERVICE COMPANY
DATE.          Thu May 13 18:17:16 2004: LOG DATE
UWI.           05 071 08033 00: UNIQUE WELL ID
STAT.                 Colorado: STATE
~Curve Information Block
DEPT.FT            0 000 00 00: Depth
DCAL.in                       : CDL Caliper
RHOB.g/cc                     : CDL Bulk Density
RHOC.g/cc                     : CDL Density Correction
DPOR.pu                       : CDL Density Porosity
GR.GAPI                       : Gamma Ray
NPOR.pu                       : Neutron Porosity
~Parameter Information Block
~A  Depth       DCAL        RHOB        RHOC        DPOR         GR         NPOR    
# ...
  1339.7000      7.8981      2.4717     -0.1240     10.8069     86.6442     28.8424
  1339.8000      7.9026      2.5182      0.0782      7.9882     85.7392     29.3109
  1339.9000      7.9026      2.5709      0.0574      4.7911     76.9433     29.1915
  1340.0000      7.9049      2.6062      0.1071      2.6527     72.6173     28.5987
  1340.1000      7.9049      2.6237      0.0705      1.5935     84.3876     27.7831
  1340.2000      7.9049      2.6423      0.0890      0.4682    103.3080     27.0404
  1340.3000      7.8839      2.6576      0.1615     -0.4577    112.5975     26.6282
  1340.4000      7.8839      2.6458      0.0566      0.2538    104.4972     26.6993
  1340.5000      7.8796      2.6226      0.0191      1.6630     89.3408     26.9685
  1340.6000      7.8796      2.6305      0.0158      1.1842     81.8682     26.9061
  1340.7000      7.8796      2.6616      0.1633     -0.7004     80.4005     26.5040
  1340.8000      7.8719      2.6723      0.0628     -1.3509     76.1857     26.0194
  1340.9000      7.8719      2.6512      0.0997     -0.0744     72.5181     25.4897
  1341.0000      7.8883      2.6115      0.0091      2.3341     82.1886     24.9529
  1341.1000      7.8883      2.5796      0.0026      4.2686    101.2382     24.6212
  1341.2000      7.8883      2.5810     -0.0492      4.1818    110.3288     24.8165
  1341.3000      7.9052      2.6118      0.0356      2.3171    105.9186     25.3525
  1341.4000      7.9052      2.6348      0.0342      0.9204     99.7199     25.6355
  1341.5000      7.9075      2.6228      0.0303      1.6479    101.5295     25.5248
  1341.6000      7.9075      2.5958     -0.0375      3.2825    115.4702     25.2239
  1341.7000      7.9075      2.5869     -0.0031      3.8260    131.2545     24.9894
  1341.8000      7.9103      2.5869      0.0713      3.8255    133.9285     25.0337
  1341.9000      7.9103      2.5746      0.0635      4.5716    124.0348     25.4437
  1342.0000      7.9161      2.5525      0.0128      5.9094    114.3035     26.0111
  1342.1000      7.9161      2.5275      0.0469      7.4220    116.1781     26.3885
  1342.2000      7.9161      2.5067     -0.0179      8.6831    128.4387     26.6905
  1342.3000      7.9142      2.5083     -0.0384      8.5905    142.3615     26.8907
  1342.4000      7.9142      2.5372      0.0346      6.8371    145.8587     26.7611
  1342.5000      7.9197      2.5698      0.0928      4.8631    134.3732     26.7303
  1342.6000      7.9197      2.5843      0.0445      3.9806    119.5810     27.4124
  1342.7000      7.9197      2.5744      0.0933      4.5835    112.6360     28.6292
  1342.8000      7.9552      2.5370      0.0396      6.8465    113.7599     29.5360
  1342.9000      7.9552      2.4933     -0.0027      9.4981    117.0620     29.7448
  1343.0000      8.0068      2.4718      0.0627     10.8008    118.8470     29.5714
  1343.1000      8.0068      2.4686     -0.0401     10.9964    122.5085     29.2494
  1343.2000      8.0068      2.4777     -0.0365     10.4412    126.1026     28.9290
  1343.3000      8.0006      2.5068      0.0243      8.6801    124.6307     28.6932
  1343.4000      8.0006      2.5263      0.0924      7.4965    122.0783     28.5140
  1343.5000      7.9877      2.4739      0.0302     10.6750    126.2731     28.4624
  1343.6000      7.9877      2.3156     -0.0881     20.2674    133.5706     28.4210
  1343.7000      7.9877      2.1021     -0.0489     33.2083    131.3969     28.0819
  1343.8000      7.9555      2.0007     -0.2072     39.3531    121.4527     27.5696
  1343.9000      7.9555      2.1141      0.0362     32.4776    119.0678     27.5112
  1344.0000      7.9001      2.2982      0.0613     21.3187    127.3683     27.8897
  1344.1000      7.9001      2.3952      0.0943     15.4423    136.6717     27.9991
  1344.2000      7.9001      2.4072      0.1064     14.7122    142.2868     27.8313
  1344.3000      7.8712      2.3901      0.0358     15.7514    147.2760     27.7976
  1344.4000      7.8712      2.3800      0.0631     16.3616    154.4092     27.8294
  1344.5000      7.9085      2.3871      0.0689     15.9355    158.7000     27.9509
  1344.6000      7.9085      2.4107      0.1446     14.5017    157.6797     28.2932
  1344.7000      7.9085      2.4448      0.1827     12.4382    154.8553     28.6591
  1344.8000      7.9232      2.4799      0.2131     10.3072    145.8107     29.0980
  1344.9000      7.9232      2.5184      0.1792      7.9731    130.3485     29.7520
  1345.0000      7.9066      2.5518      0.2097      5.9510    118.5603     30.5537
  1345.1000      7.9066      2.5570      0.1695      5.6352    112.3443     31.3411
  1345.2000      7.9066      2.5415      0.1689      6.5786    112.1052     31.7592
  1345.3000      7.9042      2.5398      0.0710      6.6771    122.6708     31.7182
  1345.4000      7.9042      2.5727      0.1030      4.6839    135.6411     31.6430
  1345.5000      7.8783      2.6280      0.1737      1.3307    134.6413     31.8177
  1345.6000      7.8783      2.6772      0.1281     -1.6477    120.7139     32.0052
  1345.7000      7.8783      2.6942      0.1952     -2.6801    109.3692     31.8379
  1345.8000      7.8836      2.6652      0.1112     -0.9239    106.0377     31.3647
  1345.9000      7.8836      2.6186      0.0300      1.9023    103.0409     31.0062
  1346.0000      7.8857      2.6032      0.0246      2.8369     94.2775     30.7037
  1346.1000      7.8857      2.6176      0.0435      1.9634     81.8653     30.1356
  1346.2000      7.8857      2.6139      0.0868      2.1881     76.3792     29.5611
  1346.3000      7.8849      2.5794     -0.0591      4.2783     84.1252     29.2670
  1346.4000      7.8849      2.5661     -0.0051      5.0824     98.8463     28.9038
  1346.5000      7.8849      2.6086      0.0511      2.5103    109.4154     28.0908
  1346.6000      7.8849      2.6722      0.1688     -1.3453    109.1082     27.1964
  1346.7000      7.8849      2.6994      0.1756     -2.9966    101.7520     26.7963
  1346.8000      7.8741      2.6787      0.1232     -1.7396     94.2630     26.7532
  1346.9000      7.8741      2.6448      0.1069      0.3163     94.1201     26.5121
  1347.0000      7.8432      2.6162      0.0822      2.0457    106.9797     25.8562
  1347.1000      7.8432      2.5817      0.0755      4.1388    129.7621     25.1713
  1347.2000      7.8432      2.5325      0.0296      7.1233    149.6535     25.0345
  1347.3000      7.8365      2.4836      0.0007     10.0858    155.5698     25.3907
  1347.4000      7.8365      2.4669     -0.0073     11.0988    146.9548     25.8815
  1347.5000      7.8400      2.4897      0.0664      9.7159    132.8079     26.3022
  1347.6000      7.8400      2.5087      0.1327      8.5665    125.3176     26.4317
  1347.7000      7.8400      2.4940     -0.0071      9.4546    127.1732     26.3997
  1347.8000      7.8644      2.4820     -0.0166     10.1843    133.8039     26.4656
  1347.9000      7.8644      2.5045      0.0285      8.8167    141.6272     26.7033
  1348.0000      7.9328      2.5360      0.0660      6.9107    145.5691     27.0968
  1348.1000      7.9328      2.5428      0.0599      6.4995    141.9223     27.4117
  1348.2000      7.9328      2.5321      0.0369      7.1461    136.7597     27.3850
  1348.3000      7.9299      2.5273      0.0703      7.4352    131.3414     27.2836
  1348.4000      7.9299      2.5228      0.1251      7.7118    123.9924     27.4052
  1348.5000      7.9803      2.5049      0.0046      8.7935    121.3672     27.5073
  1348.6000      7.9803      2.4964      0.0180      9.3086    121.7389     27.5276
  1348.7000      7.9803      2.5111      0.0525      8.4183    114.0070     27.8435
  1348.8000      7.9754      2.5133      0.0423      8.2826    102.3897     28.5755
  1348.9000      7.9754      2.4905     -0.0332      9.6689     98.8059     29.4211
  1349.0000      7.9989      2.4837     -0.0300     10.0790    102.8943     29.9065
  1349.1000      7.9989      2.5040     -0.0058      8.8461    107.0403     29.9142
  1349.2000      7.9989      2.5205      0.0315      7.8515    108.6554     29.8202
