~Version Information
 VERS.                      2.0: CWLS Log ASCII Standard - VERSION 2.0
 WRAP.                       NO: One line per depth step
 ~Well Information Block
 STRT.FT               887.5000: 
 STOP.FT              2605.5000: 
 STEP.FT                 0.2500: 
 NULL.                -999.2500: 
 COMP.          Petrogulf Corporation: COMPANY
 WELL.               YWAM 7-23V: WELL
 FLD.           Purgatorie River: FIELD
 LOC.           230' FSL & 225' FWL: LOCATION
 CNTY.               Las Animas: COUNTY
 SRVC.                         : SERVICE COMPANY
 DATE.          Sat Oct 30 08:34:45 2004: LOG DATE
 UWI.           05 071 08227 00: UNIQUE WELL ID
 STAT.                 Colorado: STATE
 PROV.                         :Province
 ~Curve Information Block
 DEPT.FT            0 000 00 00: Depth
 SP.mV                         : DIL Spontaneous Potential
 RILD.Ohm-m                    : DIL Deep Resistivity
 RILM.Ohm-m                    : DIL Medium Resistivity
 RLL3.Ohm-m                    : DIL Shallow Resistivity
 GR.GAPI                       : Gamma Ray
 ~Parameter Information Block
 ~A  Depth        SP         RILD        RILM        RLL3         GR     
# ...
  2231.5000    -55.5398     16.5468     21.6682     18.4329     48.9687
  2231.7500    -56.2488     16.5616     21.6160     18.9677     50.5125
  2232.0000    -56.6317     16.5084     21.4387     19.6789     52.4927
  2232.2500    -56.6519     16.3837     21.1220     20.4623     53.0680
  2232.5000    -56.3412     16.1899     20.6638     21.1675     52.8437
  2232.7500    -55.7800     15.9341     20.0760     21.6285     52.5187
  2233.0000    -55.0603     15.6272     19.3817     21.7028     53.1657
  2233.2500    -54.2682     15.2815     18.6115     21.3115     55.1667
  2233.5000    -53.4713     14.9093     17.7983     20.4626     61.2905
  2233.7500    -52.7302     14.5210     16.9733     19.2497     67.1751
  2234.0000    -52.1034     14.1248     16.1627     17.8248     77.0233
  2234.2500    -51.6558     13.7273     15.3864     16.3562     83.1409
  2234.5000    -51.4443     13.3339     14.6577     14.9855     90.4945
  2234.7500    -51.5028     12.9504     13.9847     13.7998     94.0636
  2235.0000    -51.8317     12.5826     13.3712     12.8249     97.8559
  2235.2500    -52.3864     12.2372     12.8191     12.0394     99.8108
  2235.5000    -53.0822     11.9206     12.3290     11.3990    102.6381
  2235.7500    -53.8041     11.6382     11.9013     10.8630    104.6280
  2236.0000    -54.4264     11.3938     11.5363     10.4114    107.6495
  2236.2500    -54.8296     11.1888     11.2343     10.0491    109.5142
  2236.5000    -54.9178     11.0221     10.9946      9.7997    111.5798
  2236.7500    -54.6338     10.8910     10.8154      9.6933    112.0206
  2237.0000    -53.9687     10.7912     10.6931      9.7518    110.6770
  2237.2500    -52.9653     10.7182     10.6220      9.9800    108.5068
  2237.5000    -51.7115     10.6682     10.5946     10.3616    104.1758
  2237.7500    -50.3309     10.6386     10.6019     10.8597    101.1710
  2238.0000    -48.9575     10.6286     10.6341     11.4217     97.1142
  2238.2500    -47.7142     10.6390     10.6813     11.9871     94.7853
  2238.5000    -46.6873     10.6718     10.7349     12.4964     91.8064
  2238.7500    -45.9099     10.7295     10.7889     12.9027     90.1718
  2239.0000    -45.3574     10.8140     10.8402     13.1798     88.2997
  2239.2500    -44.9625     10.9261     10.8895     13.3272     87.4479
  2239.5000    -44.6394     11.0646     10.9415     13.3673     86.7844
  2239.7500    -44.3156     11.2263     11.0039     13.3391     86.7720
  2240.0000    -43.9611     11.4060     11.0869     13.2920     87.3226
  2240.2500    -43.6009     11.5969     11.2023     13.2839     87.9004
  2240.5000    -43.3043     11.7922     11.3617     13.3828     88.6607
  2240.7500    -43.1633     11.9857     11.5753     13.6644     88.8883
  2241.0000    -43.2487     12.1733     11.8504     14.1991     88.6253
  2241.2500    -43.5817     12.3537     12.1898     15.0276     87.9604
  2241.5000    -44.1112     12.5291     12.5906     16.1341     85.9442
  2241.7500    -44.7203     12.7036     13.0428     17.4328     83.8238
  2242.0000    -45.2542     12.8829     13.5296     18.7802     80.0293
  2242.2500    -45.5608     13.0720     14.0283     20.0118     77.8503
  2242.5000    -45.5287     13.2738     14.5126     20.9902     76.2011
  2242.7500    -45.1241     13.4876     14.9565     21.6418     76.1760
  2243.0000    -44.3971     13.7091     15.3378     21.9682     76.8837
  2243.2500    -43.4657     13.9297     15.6407     22.0298     77.3814
  2243.5000    -42.4846     14.1388     15.8575     21.9131     77.8391
  2243.7500    -41.5992     14.3252     15.9884     21.6983     77.8503
  2244.0000    -40.9076     14.4802     16.0403     21.4417     77.2002
  2244.2500    -40.4393     14.5995     16.0260     21.1751     76.3675
  2244.5000    -40.1650     14.6843     15.9632     20.9173     75.3189
  2244.7500    -40.0187     14.7415     15.8730     20.6865     75.5109
  2245.0000    -39.9408     14.7818     15.7791     20.5064     78.0797
  2245.2500    -39.9071     14.8169     15.7054     20.4042     81.3160
  2245.5000    -39.9421     14.8571     15.6747     20.4211     87.7862
  2245.7500    -40.1066     14.9089     15.7069     20.6451     92.6911
  2246.0000    -40.4624     14.9739     15.8183     21.2586     99.9162
  2246.2500    -41.0373     15.0487     16.0206     22.5935    103.8123
  2246.5000    -41.7909     15.1263     16.3198     25.1576    106.8255
  2246.7500    -42.6124     15.1987     16.7153     29.5834    106.4840
  2247.0000    -43.3330     15.2591     17.1979     36.4628    102.4697
  2247.2500    -43.7681     15.3047     17.7474     46.0822     97.6971
  2247.5000    -43.7641     15.3373     18.3301     58.1283     87.7951
  2247.7500    -43.2408     15.3628     18.8985     71.4996     79.6652
  2248.0000    -42.2195     15.3890     19.3945     84.3626     66.2291
  2248.2500    -40.8174     15.4232     19.7572     94.5169     57.4558
  2248.5000    -39.2123     15.4689     19.9357     99.9894     46.6189
  2248.7500    -37.5882     15.5250     19.9025     99.6417     41.9379
  2249.0000    -36.0773     15.5846     19.6616     93.5352     39.4490
  2249.2500    -34.7291     15.6364     19.2461     82.8924     40.5344
  2249.5000    -33.5052     15.6667     18.7084     69.6831     44.9802
  2249.7500    -32.3127     15.6621     18.1054     56.0293     48.9381
  2250.0000    -31.0530     15.6132     17.4872     43.6736     55.1184
  2250.2500    -29.6700     15.5158     16.8902     33.6806     58.9272
  2250.5000    -28.1811     15.3730     16.3366     26.4044     63.8180
  2250.7500    -26.6772     15.1933     15.8368     21.6456     66.5042
  2251.0000    -25.2957     14.9887     15.3938     18.8830     69.7293
  2251.2500    -24.1790     14.7727     15.0072     17.4902     71.3707
  2251.5000    -23.4328     14.5576     14.6761     16.8923     73.0931
  2251.7500    -23.1002     14.3533     14.4010     16.6536     73.7937
  2252.0000    -23.1479     14.1670     14.1835     16.5074     74.5172
  2252.2500    -23.4858     14.0035     14.0264     16.3401     75.2092
  2252.5000    -23.9972     13.8650     13.9310     16.1481     77.3456
  2252.7500    -24.5698     13.7522     13.8966     15.9776     79.5799
  2253.0000    -25.1310     13.6635     13.9188     15.8759     83.2706
  2253.2500    -25.6442     13.5948     13.9886     15.8674     85.2099
  2253.5000    -26.0949     13.5391     14.0920     15.9451     86.5551
  2253.7500    -26.4615     13.4864     14.2099     16.0795     86.2794
  2254.0000    -26.6885     13.4240     14.3188     16.2350     83.9391
  2254.2500    -26.6795     13.3383     14.3926     16.3862     81.0486
  2254.5000    -26.3190     13.2167     14.4053     16.5226     75.2239
  2254.7500    -25.5102     13.0509     14.3340     16.6443     71.0096
  2255.0000    -24.2127     12.8383     14.1640     16.7495     65.4202
  2255.2500    -22.4641     12.5837     13.8909     16.8214     62.6774
  2255.5000    -20.3713     12.2982     13.5227     16.8204     60.3596
  2255.7500    -18.0890     11.9966     13.0788     16.6879     59.9573
  2256.0000    -15.7756     11.6952     12.5864     16.3619     60.8943
  2256.2500    -13.5688     11.4087     12.0758     15.7978     62.5528
  2256.5000    -11.5703     11.1485     11.5768     14.9905     66.7112
  2256.7500     -9.8559     10.9219     11.1146     13.9845     70.5599
  2257.0000     -8.4916     10.7322     10.7088     12.8715     77.5653
  2257.2500     -7.5492     10.5800     10.3726     11.7738     82.7506
  2257.5000     -7.1088     10.4634     10.1142     10.8199     90.7326
  2257.7500     -7.2475     10.3802      9.9373     10.1206     95.7270
  2258.0000     -8.0170     10.3287      9.8425      9.7498    101.6933
  2258.2500     -9.4233     10.3084      9.8281      9.7424    104.1097
  2258.5000    -11.4104     10.3207      9.8909     10.1024    104.8741
  2258.7500    -13.8683     10.3688     10.0264     10.8201    103.4122
  2259.0000    -16.6454     10.4566     10.2292     11.8962     98.5441
  2259.2500    -19.5792     10.5887     10.4926     13.3582     93.9458
