~Version Information
VERS.                      2.0: CWLS Log ASCII Standard - VERSION 2.0
WRAP.                       NO: One line per depth step
~Well Information Block
STRT.FT                -9.5000: 
STOP.FT              1862.5000: 
STEP.FT                 0.2500: 
NULL.                -999.2500: 
COMP.          Petrogulf Corporation: COMPANY
WELL.             State 16-34R: WELL
FLD.           Purgatoire River: FIELD
LOC.           1095' FSL & 1498' FEL--: LOCATION
CNTY.               Las Animas: COUNTY
SRVC.                         : SERVICE COMPANY
DATE.          Mon May 10 14:56:57 2004: LOG DATE
UWI.                          : UNIQUE WELL ID
STAT.                       CO: STATE
~Curve Information Block
DEPT.FT            0 000 00 00: Depth
GR.GAPI                       : Gamma Ray
CCL.                          : Casing Collar Locator
TT3.usec                      : CBL 3' Travel Time
AMP3.mV                       : CBL 3' Amplitude
~Parameter Information Block
~A  Depth        GR         CCL         TT3         AMP3    
# ...
  1330.5000     69.4684      0.0000    780.1208      4.8338
  1330.7500     70.0954      0.0000    766.2850      4.7513
  1331.0000     72.6619      0.0000    745.4260      4.7534
  1331.2500     76.9586      0.0000    724.3962      4.7754
  1331.5000     81.6868      0.0000    710.3138      4.7535
  1331.7500     84.9756      0.0000    704.2010      4.7049
  1332.0000     85.6702      0.0000    702.5352      4.6626
  1332.2500     84.0392      0.0000    702.3179      4.6138
  1332.5000     81.3096      0.0000    703.4986      4.5548
  1332.7500     78.8640      0.0000    708.9229      4.5244
  1333.0000     77.7803      0.0000    721.8152      4.5693
  1333.2500     78.4946      0.0000    740.4173      4.7084
  1333.5000     80.4930      0.0000    756.1426      4.9025
  1333.7500     82.5882      0.0000    761.1530      5.0923
  1334.0000     83.7798      0.0000    756.6766      5.2757
  1334.2500     83.7193      0.0000    750.0826      5.4633
  1334.5000     82.4049      0.0000    746.0685      5.6280
  1334.7500     79.9823      0.0000    744.4512      5.7653
  1335.0000     77.1946      0.0000    743.7488      5.8898
  1335.2500     75.6867      0.0000    743.3498      5.9601
  1335.5000     77.1776      0.0000    743.1606      5.9299
  1335.7500     82.1397      0.0000    742.9208      5.8348
  1336.0000     89.7179      0.0000    741.9066      5.7230
  1336.2500     99.1878      0.0000    739.0941      5.5830
  1336.5000    110.9390      0.0000    734.6721      5.3925
  1336.7500    125.3734      0.0000    730.8542      5.1649
  1337.0000    141.0519      0.0000    728.2203      4.9456
  1337.2500    154.5782      0.0000    724.1182      4.7935
  1337.5000    162.3896      0.0000    718.6516      4.7497
  1337.7500    162.5145      0.0000    715.5548      4.8074
  1338.0000    155.0891      0.0000    715.3951      4.9049
  1338.2500    142.0725      0.0000    716.5909      4.9725
  1338.5000    126.8237      0.0000    720.0867      4.9711
  1338.7500    113.2893      0.0000    725.4808      4.8878
  1339.0000    104.4594      0.0000    730.1182      4.7832
  1339.2500    100.9311      0.0000    735.5402      4.7826
  1339.5000    100.9731      0.0000    744.9326      4.8942
  1339.7500    102.1377      0.0000    755.4894      4.9538
  1340.0000    102.9015      0.0000    762.3400      4.8644
  1340.2500    103.0494      0.0000    765.7264      4.7186
  1340.5000    102.9362      0.0000    769.8110      4.6018
  1340.7500    102.6273      0.0000    778.3531      4.4887
  1341.0000    101.6072      0.0000    792.5554      4.3737
  1341.2500     99.0520      0.0000    810.0789      4.3270
  1341.5000     94.5556      0.0000    823.6914      4.3649
  1341.7500     89.0095      0.0000    824.7301      4.3984
  1342.0000     84.5931      0.0000    811.3080      4.3653
  1342.2500     83.3277      0.0000    794.8934      4.3024
  1342.5000     85.6050      0.0000    796.7416      4.2939
  1342.7500     90.2013      0.0000    823.2354      4.3922
  1343.0000     95.2843      0.0000    848.4703      4.5701
  1343.2500     99.0617      0.0000    845.7380      4.7766
  1343.5000    100.0195      0.0000    822.8727      4.9944
  1343.7500     97.5370      0.0000    802.7384      5.2205
  1344.0000     92.7362      0.0000    799.1527      5.4355
  1344.2500     88.3253      0.0000    819.1052      5.6107
  1344.5000     86.9689      0.0000    857.7298      5.7428
  1344.7500     89.6052      0.0000    893.8865      5.8687
  1345.0000     95.4616      0.0000    901.7664      6.0405
  1345.2500    103.4486      0.0000    872.5773      6.2945
  1345.5000    112.8849      0.0000    826.7066      6.6246
  1345.7500    122.7910      0.0000    790.6066      6.9741
  1346.0000    131.4125      0.0000    769.8165      7.2360
  1346.2500    137.4441      0.0000    755.7181      7.2884
  1346.5000    141.6971      0.0000    744.1667      7.1307
  1346.7500    146.8709      0.0000    738.0190      6.9298
  1347.0000    155.1332      0.0000    738.2750      6.8280
  1347.2500    165.8208      0.0000    740.3322      6.7828
  1347.5000    175.5727      0.0000    739.3582      6.6757
  1347.7500    180.7220      0.0000    735.2951      6.5107
  1348.0000    179.7137      0.0000    730.8839      6.4069
  1348.2500    173.8257      0.0000    724.5273      6.4183
  1348.5000    166.2089      0.0000    709.1285      6.4749
  1348.7500    160.0798      0.0000    684.8918      6.5271
  1349.0000    157.0123      0.0000    665.8676      6.6111
  1349.2500    156.4079      0.0000    662.7743      6.7553
  1349.5000    156.4362      0.0000    671.1263      6.9550
  1349.7500    155.4430      0.0000    683.9244      7.2128
  1350.0000    152.8580      0.0000    699.6960      7.5095
  1350.2500    149.3268      0.0000    716.9169      7.7817
  1350.5000    146.0262      0.0000    731.9461      7.9888
  1350.7500    143.5660      0.0000    741.8231      8.1720
  1351.0000    141.5197      0.0000    746.3892      8.4205
  1351.2500    139.1906      0.0000    747.5547      8.8212
  1351.5000    136.6344      0.0000    746.7836      9.4007
  1351.7500    134.5101      0.0000    744.1090     10.0761
  1352.0000    133.1147      0.0000    739.9495     10.7163
  1352.2500    132.2819      0.0000    736.4493     11.1951
  1352.5000    132.3533      0.0000    734.3555     11.3746
  1352.7500    134.4615      0.0000    731.4943     11.1871
  1353.0000    139.2981      0.0000    728.1915     10.7623
  1353.2500    146.0899      0.0000    728.2275     10.3748
  1353.5000    153.4104      0.0000    731.9011     10.1712
  1353.7500    160.5633      0.0000    736.4214     10.0276
  1354.0000    167.3498      0.0000    743.2213      9.7930
  1354.2500    172.7612      0.0000    755.0241      9.5413
  1354.5000    175.0663      0.0000    767.9935      9.3988
  1354.7500    173.5298      0.0000    779.2486      9.1949
  1355.0000    169.3949      0.0000    797.7762      8.7183
  1355.2500    164.9961      0.0000    829.2849      8.1917
  1355.5000    162.4611      0.0000    858.3514      7.9177
  1355.7500    162.9950      5.0000    869.0811      7.8236
  1356.0000    166.3136      0.0000    865.2317      7.7149
  1356.2500    170.6764      0.0000    854.2129      7.5435
  1356.5000    174.3842      0.0000    834.6958      7.2930
  1356.7500    177.1521      0.0000    805.1796      6.9031
  1357.0000    179.2484      0.0000    773.7344      6.3441
  1357.2500    179.7074      0.0000    752.8962      5.6010
  1357.5000    176.4922      0.0000    748.9464      4.6795
  1357.7500    168.3328      0.0000    769.3079      3.8369
  1358.0000    155.6704      0.0000    833.6351      3.4305
  1358.2500    140.0714      0.0000    947.3453      3.3856
  1358.5000    123.5770      0.0000   1070.4064      3.3726
  1358.7500    108.5780      0.0000   1151.8840      3.3089
  1359.0000     97.5822      0.0000   1174.6274      3.3040
  1359.2500     92.4944      0.0000   1149.6377      3.4122
  1359.5000     93.6081      0.0000   1104.4366      3.6068
  1359.7500     99.0460      0.0000   1062.7137      3.8788
  1360.0000    105.5987      0.0000   1025.4274      4.2898
  1360.2500    110.6723      0.0000    983.9821      4.9640
  1360.5000    113.4577      0.0000    930.8658      6.0338
  1360.7500    114.4490      0.0000    862.6620      7.5365
  1361.0000    114.6659      0.0000    787.0844      9.3749
  1361.2500    115.4502      0.0000    712.6975     11.3966
  1361.5000    118.0206      0.0000    643.4771     13.5303
  1361.7500    122.5525      0.0000    591.6196     15.8401
  1362.0000    127.8379      0.0000    563.5098     18.4224
  1362.2500    132.0233      0.0000    532.6058     21.2107
  1362.5000    133.7673      0.0000    472.5999     23.8484
  1362.7500    132.9372      0.0000    405.0110     25.9068
  1363.0000    130.4118      0.0000    367.1825     27.2943
  1363.2500    127.1980      0.0000    361.4441     28.3113
  1363.5000    123.9428      0.0000    364.8922     29.2534
  1363.7500    121.5231      0.0000    358.9742     30.1193
