~Version Information
VERS.                      2.0: CWLS Log ASCII Standard - VERSION 2.0
WRAP.                       NO: One line per depth step
~Well Information Block
STRT.FT               450.0000: 
STOP.FT              1739.2500: 
STEP.FT                 0.2500: 
NULL.                -999.2500: 
COMP.          Pioneer Natural Resources: COMPANY
WELL.            Harlee L 34-9: WELL
FLD.           Purgatoire River: FIELD
LOC.           600' FSL & 2125' FEL: LOCATION
PROV.                 Colorado: PROVINCE
CNTY.               Las Animas: COUNTRY
SRVC.                Patterson: SERVICE COMPANY
DATE.          Wed Jan 26 02:00:08 2005: LOG DATE
UWI.           05 071 08009 00: UNIQUE WELL ID
~Curve Information Block
DEPT.FT            0 000 00 00: Depth
SN.Ohm-m                      : IEL Short Normal
SP.mV                         : IEL Spontaneous Potential
DIR.Ohm-m                     : IEL Induction Resistivity
GR.GAPI                       : Gamma Ray
~Parameter Information Block
~A  Depth        SN          SP         DIR          GR     
# ...
   617.5000   2000.0000   2000.0000      7.4297    123.3643
   617.7500   2000.0000   2000.0000      7.2424    123.0972
   618.0000   2000.0000   2000.0000      7.1431    123.0933
   618.2500   2000.0000   2000.0000      7.1218    123.1819
   618.5000   2000.0000   2000.0000      7.1657    124.0087
   618.7500   2000.0000   2000.0000      7.2599    125.2990
   619.0000   2000.0000   2000.0000      7.3882    127.7457
   619.2500   2000.0000   2000.0000      7.5350    128.9618
   619.5000   2000.0000   2000.0000      7.6869    129.4857
   619.7500   2000.0000   2000.0000      7.8345    129.2648
   620.0000   2000.0000   2000.0000      7.9714    129.0835
   620.2500   2000.0000   2000.0000      8.0925    129.3914
   620.5000   2000.0000   2000.0000      8.1913    130.3650
   620.7500   2000.0000   2000.0000      8.2603    131.1373
   621.0000   2000.0000   2000.0000      8.2950    132.3191
   621.2500   2000.0000   2000.0000      8.2989    133.1060
   621.5000   2000.0000   2000.0000      8.2868    134.0449
   621.7500   2000.0000   2000.0000      8.2832    134.1669
   622.0000   2000.0000   2000.0000      8.3171    132.8273
   622.2500   2000.0000   2000.0000      8.4167    130.5397
   622.5000   2000.0000   2000.0000      8.6063    124.6364
   622.7500   2000.0000   2000.0000      8.9032    118.9066
   623.0000   2000.0000   2000.0000      9.3162    107.5352
   623.2500   2000.0000   2000.0000      9.8434     98.5213
   623.5000   2000.0000   2000.0000     10.4724     84.9354
   623.7500   2000.0000   2000.0000     11.1812     77.4607
   624.0000   2000.0000   2000.0000     11.9400     70.5363
   624.2500   2000.0000   2000.0000     12.7102     68.9559
   624.5000   2000.0000   2000.0000     13.4422     70.4661
   624.7500   2000.0000   2000.0000     14.0742     73.6256
   625.0000   2000.0000   2000.0000     14.5416     80.8978
   625.2500   2000.0000   2000.0000     14.7957     86.7324
   625.5000   2000.0000   2000.0000     14.8234     95.1197
   625.7500   2000.0000   2000.0000     14.6551     99.5060
   626.0000   2000.0000   2000.0000     14.3573    103.7651
   626.2500   2000.0000   2000.0000     14.0133    105.3033
   626.5000   2000.0000   2000.0000     13.7041    106.0005
   626.7500   2000.0000   2000.0000     13.4931    105.3555
   627.0000   2000.0000   2000.0000     13.4205    102.8491
   627.2500   2000.0000   2000.0000     13.5007    100.5867
   627.5000   2000.0000   2000.0000     13.7238     97.2034
   627.7500   2000.0000   2000.0000     14.0572     95.1512
   628.0000   2000.0000   2000.0000     14.4525     92.0542
   628.2500   2000.0000   2000.0000     14.8574     89.8093
   628.5000   2000.0000   2000.0000     15.2268     86.7850
   628.7500   2000.0000   2000.0000     15.5267     85.9128
   629.0000   2000.0000   2000.0000     15.7330     87.7676
   629.2500   2000.0000   2000.0000     15.8309     91.1428
   629.5000   2000.0000   2000.0000     15.8230     97.6137
   629.7500   2000.0000   2000.0000     15.7374    101.2034
   630.0000   2000.0000   2000.0000     15.6284    103.1200
   630.2500   2000.0000   2000.0000     15.5624    101.6215
   630.5000   2000.0000   2000.0000     15.5941     96.1404
   630.7500   2000.0000   2000.0000     15.7460     91.4204
   631.0000   2000.0000   2000.0000     16.0012     84.5491
   631.2500   2000.0000   2000.0000     16.3116     80.9157
   631.5000   2000.0000   2000.0000     16.6146     77.9630
   631.7500   2000.0000   2000.0000     16.8459     78.1440
   632.0000   2000.0000   2000.0000     16.9459     81.9768
   632.2500   2000.0000   2000.0000     16.8641     86.6279
   632.5000   2000.0000   2000.0000     16.5716     95.4236
   632.7500   2000.0000   2000.0000     16.0772    101.4787
   633.0000   2000.0000   2000.0000     15.4349    109.3986
   633.2500   2000.0000   2000.0000     14.7309    113.4469
   633.5000   2000.0000   2000.0000     14.0564    117.4777
   633.7500   2000.0000   2000.0000     13.4822    118.8903
   634.0000   2000.0000   2000.0000     13.0460    119.4192
   634.2500   2000.0000   2000.0000     12.7509    118.9368
   634.5000   2000.0000   2000.0000     12.5699    117.2625
   634.7500   2000.0000   2000.0000     12.4578    115.5671
   635.0000   2000.0000   2000.0000     12.3694    112.1432
   635.2500   2000.0000   2000.0000     12.2802    109.4669
   635.5000   2000.0000   2000.0000     12.1936    106.0430
   635.7500   2000.0000   2000.0000     12.1285    105.1273
   636.0000   2000.0000   2000.0000     12.0961    106.6729
   636.2500   2000.0000   2000.0000     12.0795    109.1537
   636.5000   2000.0000   2000.0000     12.0321    112.9051
   636.7500   2000.0000   2000.0000     11.8962    114.2399
   637.0000   2000.0000   2000.0000     11.6359    113.9650
   637.2500   2000.0000   2000.0000     11.2586    113.0173
   637.5000   2000.0000   2000.0000     10.8090    112.5917
   637.7500   2000.0000   2000.0000     10.3418    113.8980
   638.0000   2000.0000   2000.0000      9.8978    118.3879
   638.2500   2000.0000   2000.0000      9.4968    122.4139
   638.5000   2000.0000   2000.0000      9.1427    128.3006
   638.7500   2000.0000   2000.0000      8.8316    131.1860
   639.0000   2000.0000   2000.0000      8.5592    133.2634
   639.2500   2000.0000   2000.0000      8.3231    133.5464
   639.5000   2000.0000   2000.0000      8.1220    133.7724
   639.7500   2000.0000   2000.0000      7.9551    134.3844
   640.0000   2000.0000   2000.0000      7.8221    135.9791
   640.2500   2000.0000   2000.0000      7.7250    137.0798
   640.5000   2000.0000   2000.0000      7.6671    137.8156
   640.7500   2000.0000   2000.0000      7.6506    137.1976
   641.0000   2000.0000   2000.0000      7.6739    134.5748
   641.2500   2000.0000   2000.0000      7.7314    132.3013
   641.5000   2000.0000   2000.0000      7.8153    129.4534
   641.7500   2000.0000   2000.0000      7.9176    128.4133
   642.0000   2000.0000   2000.0000      8.0312    128.3218
   642.2500   2000.0000   2000.0000      8.1510    129.0513
   642.5000   2000.0000   2000.0000      8.2749    130.5486
   642.7500   2000.0000   2000.0000      8.4041    131.2594
   643.0000   2000.0000   2000.0000      8.5411    131.3128
   643.2500   2000.0000   2000.0000      8.6867    130.6351
   643.5000   2000.0000   2000.0000      8.8384    128.7347
   643.7500   2000.0000   2000.0000      8.9923    127.0750
   644.0000   2000.0000   2000.0000      9.1456    124.5773
   644.2500   2000.0000   2000.0000      9.2971    123.3509
   644.5000   2000.0000   2000.0000      9.4457    122.7434
   644.7500   2000.0000   2000.0000      9.5881    123.1433
   645.0000   2000.0000   2000.0000      9.7184    124.2780
   645.2500   2000.0000   2000.0000      9.8306    124.9141
   645.5000   2000.0000   2000.0000      9.9212    125.2279
   645.7500   2000.0000   2000.0000      9.9912    124.9390
   646.0000   2000.0000   2000.0000     10.0466    123.8115
   646.2500   2000.0000   2000.0000     10.0963    122.7849
   646.5000   2000.0000   2000.0000     10.1473    121.5232
   646.7500   2000.0000   2000.0000     10.2020    121.3520
   647.0000   2000.0000   2000.0000     10.2574    122.6513
   647.2500   2000.0000   2000.0000     10.3082    124.5628
   647.5000   2000.0000   2000.0000     10.3487    128.4554
   647.7500   2000.0000   2000.0000     10.3757    131.1683
   648.0000   2000.0000   2000.0000     10.3907    134.4197
   648.2500   2000.0000   2000.0000     10.4010    135.7729
   648.5000   2000.0000   2000.0000     10.4171    136.7624
   648.7500   2000.0000   2000.0000     10.4492    136.8553
   649.0000   2000.0000   2000.0000     10.5040    135.9668
   649.2500   2000.0000   2000.0000     10.5853    134.6863
   649.5000   2000.0000   2000.0000     10.6956    132.6290
   649.7500   2000.0000   2000.0000     10.8367    131.9499
   650.0000   2000.0000   2000.0000     11.0097    132.5300
   650.2500   2000.0000   2000.0000     11.2151    133.6095
   650.5000   2000.0000   2000.0000     11.4513    135.1003
   650.7500   2000.0000   2000.0000     11.7121    135.4767
