~Version Information
 VERS.                      2.0: CWLS Log ASCII Standard - VERSION 2.0
 WRAP.                       NO: One line per depth step
 ~Well Information Block
 STRT.FT               763.7500: 
 STOP.FT              2577.0000: 
 STEP.FT                 0.2500: 
 NULL.                -999.2500: 
 COMP.          Petrogulf Corporation: COMPANY
 WELL.               J&P 12-33V: WELL
 FLD.           Purgatorie River: FIELD
 LOC.           2005' FSL & 1928' FEL: LOCATION
 CNTY.               Las Animas: COUNTY
 SRVC.                         : SERVICE COMPANY
 DATE.          Sat Aug 28 09:00:36 2004: LOG DATE
 UWI.           05 071 08092 00: UNIQUE WELL ID
 STAT.                 Colorado: STATE
 PROV.                         :Province
 ~Curve Information Block
 DEPT.FT            0 000 00 00: Depth
 SP.mV                         : DIL Spontaneous Potential
 RILD.Ohm-m                    : DIL Deep Resistivity
 RILM.Ohm-m                    : DIL Medium Resistivity
 RLL3.Ohm-m                    : DIL Shallow Resistivity
 GR.GAPI                       : Gamma Ray
 ~Parameter Information Block
 ~A  Depth        SP         RILD        RILM        RLL3         GR     
# ...
   903.7500   2000.0000     17.6493     25.0913   1998.0000    104.9950
   904.0000   2000.0000     17.6541     24.5214   1998.0000    115.6548
   904.2500   2000.0000     17.5779     23.7028   1998.0000    123.3467
   904.5000   2000.0000     17.4049     22.7453   1998.0000    133.3787
   904.7500   2000.0000     17.1452     21.7464   1998.0000    138.4462
   905.0000   2000.0000     16.8259     20.7809   1998.0000    144.2078
   905.2500   2000.0000     16.4779     19.8981   1998.0000    147.5179
   905.5000   2000.0000     16.1270     19.1247   1998.0000    152.2669
   905.7500   2000.0000     15.7921     18.4702   1998.0000    155.1602
   906.0000   2000.0000     15.4863     17.9314   1998.0000    158.5369
   906.2500   2000.0000     15.2191     17.4982   1998.0000    159.8688
   906.5000   2000.0000     14.9943     17.1567   1998.0000    160.3357
   906.7500   2000.0000     14.8097     16.8927   1998.0000    159.7570
   907.0000   2000.0000     14.6565     16.6943   1998.0000    158.0374
   907.2500   2000.0000     14.5237     16.5522   1998.0000    156.7062
   907.5000   2000.0000     14.4033     16.4607   1998.0000    155.0714
   907.7500   2000.0000     14.2951     16.4170   1998.0000    154.3827
   908.0000   2000.0000     14.2065     16.4202   1998.0000    153.7150
   908.2500   2000.0000     14.1498     16.4706   1998.0000    153.2867
   908.5000   2000.0000     14.1357     16.5681   1998.0000    152.6932
   908.7500   2000.0000     14.1701     16.7116   1998.0000    152.6610
   909.0000   2000.0000     14.2523     16.8983   1998.0000    153.6326
   909.2500   2000.0000     14.3769     17.1232   1998.0000    154.6513
   909.5000   2000.0000     14.5369     17.3796   1998.0000    155.0608
   909.7500   2000.0000     14.7272     17.6591   1998.0000    153.7087
   910.0000   2000.0000     14.9481     17.9537   1998.0000    149.4517
   910.2500   2000.0000     15.2090     18.2581   1998.0000    146.1545
   910.5000   2000.0000     15.5288     18.5733   1998.0000    142.1811
   910.7500   2000.0000     15.9333     18.9090   1998.0000    140.5583
   911.0000   2000.0000     16.4498     19.2851   1998.0000    139.8483
   911.2500   2000.0000     17.1014     19.7300   1998.0000    140.6129
   911.5000   2000.0000     17.9025     20.2784   1998.0000    143.0848
   911.7500   2000.0000     18.8561     20.9658   1998.0000    144.7389
   912.0000   2000.0000     19.9509     21.8241   1998.0000    145.8675
   912.2500   2000.0000     21.1546     22.8784   1998.0000    145.5887
   912.5000   2000.0000     22.4077     24.1445   1998.0000    143.9155
   912.7500   2000.0000     23.6248     25.6274   1998.0000    141.7330
   913.0000   2000.0000     24.7115     27.3236   1998.0000    135.8926
   913.2500   2000.0000     25.5969     29.2215   1998.0000    130.1103
   913.5000   2000.0000     26.2611     31.3042   1998.0000    119.6035
   913.7500   2000.0000     26.7411     33.5483   1998.0000    112.3469
   914.0000   2000.0000     27.1088     35.9195   1998.0000    102.5557
   914.2500   2000.0000     27.4394     38.3621   1998.0000     97.3307
   914.5000   2000.0000     27.7817     40.7892   1998.0000     91.8075
   914.7500   2000.0000     28.1413     43.0778   1998.0000     89.4906
   915.0000   2000.0000     28.4802     45.0810   1998.0000     87.3201
   915.2500   2000.0000     28.7364     46.6619   1998.0000     86.2923
   915.5000   2000.0000     28.8634     47.7415   1998.0000     84.9774
   915.7500   2000.0000     28.8699     48.3392   1998.0000     84.3358
   916.0000   2000.0000     28.8308     48.5778   1998.0000     84.1305
   916.2500   2000.0000     28.8571     48.6541   1998.0000     84.5405
   916.5000   2000.0000     29.0455     48.7842   1998.0000     85.3920
   916.7500   2000.0000     29.4331     49.1578   1998.0000     85.6239
   917.0000   2000.0000     29.9789     49.9114   1998.0000     85.0708
   917.2500   2000.0000     30.5754     51.1172   1998.0000     84.2361
   917.5000   2000.0000     31.0908     52.7817   1998.0000     82.5967
   917.7500   2000.0000     31.4248     54.8541   1998.0000     81.1786
   918.0000   2000.0000     31.5499     57.2287   1998.0000     78.2307
   918.2500   2000.0000     31.5104     59.7554   1998.0000     75.7999
   918.5000   2000.0000     31.3940     62.2512   1998.0000     72.3374
   918.7500   2000.0000     31.3015     64.5225   1998.0000     70.7266
   919.0000   2000.0000     31.3205     66.4070   1998.0000     69.5690
   919.2500   2000.0000     31.4997     67.8109   1998.0000     69.2910
   919.5000   2000.0000     31.8231     68.7438   1998.0000     68.9545
   919.7500   2000.0000     32.2022     69.3068   1998.0000     68.6111
   920.0000   2000.0000     32.5075     69.6560   1998.0000     67.8212
   920.2500   2000.0000     32.6412     69.9394   1998.0000     67.0394
   920.5000   2000.0000     32.6027     70.2496   1998.0000     65.3630
   920.7500   2000.0000     32.5000     70.6126   1998.0000     63.9242
   921.0000   2000.0000     32.4910     70.9938   1998.0000     61.6252
   921.2500   2000.0000     32.7152     71.3447   1998.0000     60.4433
   921.5000   2000.0000     33.2542     71.6363   1998.0000     60.1724
   921.7500   2000.0000     34.1329     71.8876   1998.0000     61.3076
   922.0000   2000.0000     35.3383     72.1532   1998.0000     64.3588
   922.2500   2000.0000     36.8411     72.5023   1998.0000     66.3050
   922.5000   2000.0000     38.6073     72.9873   1998.0000     67.5863
   922.7500   2000.0000     40.6037     73.6241   1998.0000     67.2854
   923.0000   2000.0000     42.8098     74.3867   1998.0000     66.2377
   923.2500   2000.0000     45.2276     75.2074   1998.0000     65.7567
   923.5000   2000.0000     47.8735     75.9865   1998.0000     65.3458
   923.7500   2000.0000     50.7205     76.6184   1998.0000     64.8581
   924.0000   2000.0000     53.5967     77.0132   1998.0000     63.3505
   924.2500   2000.0000     56.1292     77.1402   1998.0000     61.9704
   924.5000   2000.0000     57.8577     77.0579   1998.0000     59.9859
   924.7500   2000.0000     58.5284     76.9181   1998.0000     58.9890
   925.0000   2000.0000     58.3353     76.9414   1998.0000     57.8519
   925.2500   2000.0000     57.8348     77.3584   1998.0000     57.0350
   925.5000   2000.0000     57.6129     78.3538   1998.0000     55.5391
   925.7500   2000.0000     58.0084     80.0061   1998.0000     54.6549
   926.0000   2000.0000     59.0325     82.2142   1998.0000     54.2000
   926.2500   2000.0000     60.4356     84.6444   1998.0000     54.5813
   926.5000   2000.0000     61.8539     86.6988   1998.0000     55.7836
   926.7500   2000.0000     62.9607     87.5836   1998.0000     56.7851
   927.0000   2000.0000     63.5289     86.5297   1998.0000     58.6708
   927.2500   2000.0000     63.3889     83.1162   1998.0000     60.3544
   927.5000   2000.0000     62.3827     77.5006   1998.0000     63.4352
   927.7500   2000.0000     60.4253     70.3643   1998.0000     65.5126
   928.0000   2000.0000     57.6146     62.6004   1998.0000     68.1048
   928.2500   2000.0000     54.2475     54.9960   1998.0000     69.4864
   928.5000   2000.0000     50.6856     48.0701   1998.0000     71.5629
   928.7500   2000.0000     47.1988     42.0685   1998.0000     73.4131
   929.0000   2000.0000     43.9079     37.0399   1998.0000     78.0779
   929.2500   2000.0000     40.8244     32.9186   1998.0000     83.3414
   929.5000   2000.0000     37.9324     29.5873   1998.0000     95.3755
   929.7500   2000.0000     35.2492     26.9172   1998.0000    105.7312
   930.0000   2000.0000     32.8418     24.7885   1998.0000    122.5616
   930.2500   2000.0000     30.8064     23.1021   1998.0000    133.1854
   930.5000   2000.0000     29.2278     21.7820   1998.0000    146.5141
   930.7500   2000.0000     28.1510     20.7756   1998.0000    153.2379
   931.0000   2000.0000     27.5690     20.0503   1998.0000    159.9153
   931.2500   2000.0000     27.4307     19.5903   1998.0000    162.1032
   931.5000   2000.0000     27.6576     19.3909   1998.0000    162.3168
