~Version Information
VERS.                      2.0: CWLS Log ASCII Standard - VERSION 2.0
WRAP.                       NO: One line per depth step
~Well Information Block
STRT.FT                -8.5000: 
STOP.FT              2286.0000: 
STEP.FT                 0.2500: 
NULL.                -999.2500: 
COMP.          Pioneer Natural Resources: COMPANY
WELL.             Culver 14-12: WELL
FLD.           Purgatorie River: FIELD
LOC.           913' FSL & 1140' FWL--: LOCATION
PROV.                       CO: PROVINCE
CNTY.               Las Animas: COUNTRY
SRVC.          Patterson Wireline: SERVICE COMPANY
DATE.          Wed Jun 15 13:05:36 2005: LOG DATE
UWI.           05 071 08386 00: UNIQUE WELL ID
~Curve Information Block
DEPT.FT            0 000 00 00: Depth
CCL.                          : Casing Collar Locator
TT3.usec                      : CBL 3' Travel Time
AMP3.mV                       : CBL 3' Amplitude
GR.GAPI                       : Gamma Ray
~Parameter Information Block
~A  Depth       CCL         TT3         AMP3         GR     
# ...
   762.0000      0.0000    727.0488      3.5052    123.9350
   762.2500      0.0000    738.7014      3.4776    123.9955
   762.5000      0.0000    759.0008      3.3298    121.7524
   762.7500      0.0000    783.5039      3.1090    119.2209
   763.0000      0.0000    805.0620      2.8683    118.2260
   763.2500      0.0000    817.6026      2.6703    118.9571
   763.5000      0.0000    817.5837      2.5838    120.7165
   763.7500      0.0000    805.0968      2.6567    123.1749
   764.0000      0.0000    785.0019      2.8795    126.4531
   764.2500      0.0000    765.1625      3.1749    130.5347
   764.5000      0.0000    752.4314      3.4344    135.2419
   764.7500      0.0000    750.7128      3.5796    140.6003
   765.0000      0.0000    761.6618      3.5926    146.5875
   765.2500      0.0000    784.4605      3.4950    152.4589
   765.5000      0.0000    814.2506      3.3151    156.7632
   765.7500      0.0000    843.2354      3.0883    158.2430
   766.0000      0.0000    864.8062      2.8757    156.5905
   766.2500      0.0000    875.8868      2.7512    152.2766
   766.5000      0.0000    875.7626      2.7513    145.7826
   766.7500      0.0000    865.4486      2.8487    137.1337
   767.0000      0.0000    848.8967      2.9785    126.3342
   767.2500      0.0000    832.6137      3.0802    114.2501
   767.5000      0.0000    822.9438      3.1137    102.6729
   767.7500      0.0000    824.3152      3.0564     93.2248
   768.0000      0.0000    838.7311      2.9099     86.3259
   768.2500      0.0000    863.8967      2.7129     81.3037
   768.5000      0.0000    891.1004      2.5317     77.2166
   768.7500      0.0000    907.9949      2.4140     73.4610
   769.0000      0.0000    907.0580      2.3513     70.0261
   769.2500      0.0000    891.1348      2.3033     67.6327
   769.5000      0.0000    868.7441      2.2527     67.4494
   769.7500      0.0000    845.4323      2.2141     70.0844
   770.0000      0.0000    822.2120      2.2007     74.6824
   770.2500      0.0000    800.9963      2.2171     79.3940
   770.5000      0.0000    787.6809      2.2804     82.8232
   770.7500      0.0000    788.3607      2.4197     84.6178
   771.0000      0.0000    803.4883      2.6534     84.7285
   771.2500      0.0000    826.6698      2.9785     82.9742
   771.5000      0.0000    849.0528      3.3656     79.9703
   771.7500      0.0000    865.0901      3.7512     78.0118
   772.0000      0.0000    874.9208      4.0586     80.0677
   772.2500      0.0000    882.0513      4.2492     87.4852
   772.5000      0.0000    888.9076      4.3475     98.8450
   772.7500      0.0000    894.4047      4.4132    111.2599
   773.0000      0.0000    895.2953      4.4955    122.5868
   773.2500      0.0000    888.9810      4.6103    132.0033
   773.5000      0.0000    875.2264      4.7391    138.8099
   773.7500      0.0000    856.8527      4.8357    141.9741
   774.0000      0.0000    839.5234      4.8493    141.6310
   774.2500      0.0000    829.1089      4.7580    139.9615
   774.5000      0.0000    827.2617      4.5804    139.3044
   774.7500      0.0000    829.4296      4.3567    139.7646
   775.0000      0.0000    827.4526      4.1313    139.5378
   775.2500      0.0000    814.0165      3.9415    137.4133
   775.5000      0.0000    785.9055      3.7923    134.4296
   775.7500      0.0000    745.4550      3.6462    133.0426
   776.0000      0.0000    700.4883      3.4639    134.8851
   776.2500      0.0000    663.4890      3.2636    139.4332
   776.5000      0.0000    649.0867      3.1197    144.5880
   776.7500      0.0000    666.9645      3.0928    148.2077
   777.0000      0.0000    713.1373      3.1721    149.0825
   777.2500      0.0000    769.7839      3.3001    146.8080
   777.5000      0.0000    816.8141      3.4373    141.2980
   777.7500      0.0000    844.0433      3.5816    132.9509
   778.0000      0.0000    853.1317      3.7315    123.2108
   778.2500      0.0000    851.5145      3.8635    114.4554
   778.5000      0.0000    846.5858      3.9514    109.1220
   778.7500      0.0000    843.2203      3.9887    108.6268
   779.0000      0.0000    843.1265      3.9842    112.4234
   779.2500      0.0000    845.1396      3.9501    117.7627
   779.5000      0.0000    846.6855      3.9027    120.9721
   779.7500      0.0000    845.8685      3.8631    119.7249
   780.0000      0.0000    842.8859      3.8437    114.1704
   780.2500      0.0000    839.9019      3.8324    105.9353
   780.5000      0.0000    839.4162      3.7974     96.6636
   780.7500      0.0000    842.2929      3.7094     87.9190
   781.0000      0.0000    847.1641      3.5585     81.6873
   781.2500      0.0000    851.7653      3.3563     79.8939
   781.5000      0.0000    854.7507      3.1332     83.1581
   781.7500      0.0000    856.2305      2.9325     90.1396
   782.0000      0.0000    856.9311      2.7870     98.1745
   782.2500      0.0000    857.1373      2.6953    104.9350
   782.5000      0.0000    856.2875      2.6337    109.8765
   782.7500      0.0000    853.4398      2.5891    114.1159
   783.0000      0.0000    848.3699      2.5626    118.9431
   783.2500      0.0000    842.4521      2.5532    124.7438
   783.5000      0.0000    838.2000      2.5627    131.3128
   783.7500      0.0000    837.3245      2.6041    138.5497
   784.0000      0.0000    838.5944      2.6799    146.3038
   784.2500      0.0000    837.4426      2.7655    153.8346
   784.5000      0.0000    828.5396      2.8379    160.1251
   784.7500      0.0000    810.0986      2.9004    164.7372
   785.0000      0.0000    786.0828      2.9571    167.9353
   785.2500      0.0000    763.5965      2.9887    170.1510
   785.5000      0.0000    747.7933      2.9758    171.4526
   785.7500      0.0000    739.3067      2.9256    171.0409
   786.0000      0.0000    735.8483      2.8558    167.4821
   786.2500      0.0000    735.2993      2.7665    160.2597
   786.5000      0.0000    737.5859      2.6540    150.8917
   786.7500      0.0000    744.6597      2.5505    141.9405
   787.0000      0.0000    758.6592      2.5224    135.1334
   787.2500      0.0000    779.0712      2.6157    130.6058
   787.5000      0.0000    801.4782      2.8100    127.4749
   787.7500      0.0000    819.9840      3.0288    124.9772
   788.0000      0.0000    831.0929      3.1839    123.2722
   788.2500      0.0000    835.0391      3.2257    123.0929
   788.5000      0.0000    834.3351      3.1778    124.3608
   788.7500      0.0000    832.1137      3.1270    125.3007
   789.0000      0.0000    831.0726      3.1580    123.4576
   789.2500      0.0000    832.5524      3.2886    117.9074
   789.5000      0.0000    836.1555      3.4724    110.3433
   789.7500      0.0000    840.2001      3.6528    103.9188
   790.0000      0.0000    842.6355      3.7995    101.1825
   790.2500      0.0000    842.2538      3.9054    103.0785
   790.5000      0.0000    839.8041      3.9750    109.1628
   790.7500      0.0000    837.7942      4.0183    117.7407
   791.0000      0.0000    838.5040      4.0453    125.8805
   791.2500      0.0000    841.9095      4.0634    130.5179
   791.5000      0.0000    845.8421      4.0786    130.2533
   791.7500      0.0000    848.2861      4.0940    125.8835
   792.0000      0.0000    849.2620      4.1068    119.1940
   792.2500      0.0000    850.5027      4.1148    111.6699
   792.5000      0.0000    853.6158      4.1248    104.2555
   792.7500      0.0000    858.6885      4.1477     97.6032
   793.0000      0.0000    864.3189      4.1840     92.0992
   793.2500      0.0000    868.5525      4.2198     87.7604
   793.5000      0.0000    869.8290      4.2390     84.3398
   793.7500      0.0000    867.4800      4.2365     81.7997
   794.0000      0.0000    861.7557      4.2189     80.8041
   794.2500      0.0000    853.5121      4.1962     82.4689
   794.5000      0.0000    843.7098      4.1711     87.2764
   794.7500      0.0000    832.7554      4.1288     94.3639
   795.0000      0.0000    819.9009      4.0453    102.0289
   795.2500      0.0000    803.5878      3.9163    108.7309
