~Version Information
VERS.                      2.0: CWLS Log ASCII Standard - VERSION 2.0
WRAP.                       NO: One line per depth step
~Well Information Block
STRT.FT               742.5000: 
STOP.FT              2463.5000: 
STEP.FT                 0.2500: 
NULL.                -999.2500: 
COMP.          Petrogulf Corporation: COMPANY
WELL.           Montoya 12-44V: WELL
FLD.           Purgatorie River: FIELD
LOC.           698' FSL & 599' FEL: LOCATION
CNTY.               Las Animas: COUNTY
SRVC.                         : SERVICE COMPANY
DATE.          Sun Aug 08 06:43:17 2004: LOG DATE
UWI.           05 071 08094 00: UNIQUE WELL ID
STAT.                 Colorado: STATE
~Curve Information Block
DEPT.FT            0 000 00 00: Depth
SN.Ohm-m                      : IEL Short Normal
SP.mV                         : IEL Spontaneous Potential
DIR.Ohm-m                     : IEL Induction Resistivity
GR.GAPI                       : Gamma Ray
~Parameter Information Block
~A  Depth        SN          SP         DIR          GR     
# ...
  2417.5000     12.9816     34.0437     12.9982     57.8300
  2417.7500     13.1239     34.1195     12.9768     57.6815
  2418.0000     13.3119     34.1333     13.0291     57.8629
  2418.2500     13.5497     34.1631     13.1343     58.3637
  2418.5000     13.8279     34.2926     13.2652     59.7073
  2418.7500     14.1212     34.5904     13.4096     60.6686
  2419.0000     14.3999     35.0962     13.5722     61.2441
  2419.2500     14.6469     35.8066     13.7592     60.7100
  2419.5000     14.8684     36.6694     13.9606     59.0355
  2419.7500     15.0899     37.5907     14.1463     58.0691
  2420.0000     15.3405     38.4465     14.2843     57.7227
  2420.2500     15.6358     39.1114     14.3727     58.1456
  2420.5000     15.9704     39.4879     14.4507     59.0326
  2420.7500     16.3233     39.5380     14.5747     59.4934
  2421.0000     16.6681     39.2947     14.7763     59.9166
  2421.2500     16.9805     38.8589     15.0422     60.0199
  2421.5000     17.2408     38.3753     15.3321     59.8753
  2421.7500     17.4341     37.9947     15.6172     59.7175
  2422.0000     17.5540     37.8348     15.9038     59.8186
  2422.2500     17.6082     37.9474     16.2186     60.2026
  2422.5000     17.6224     38.3093     16.5741     61.0461
  2422.7500     17.6370     38.8315     16.9454     61.6432
  2423.0000     17.6922     39.3965     17.2763     62.3898
  2423.2500     17.8071     39.8884     17.5094     62.6212
  2423.5000     17.9685     40.2331     17.6199     62.2772
  2423.7500     18.1391     40.4039     17.6308     61.5379
  2424.0000     18.2822     40.4170     17.6023     59.8787
  2424.2500     18.3802     40.3085     17.6020     58.6923
  2424.5000     18.4349     40.1119     17.6751     57.3711
  2424.7500     18.4514     39.8482     17.8295     56.9974
  2425.0000     18.4241     39.5258     18.0389     57.1159
  2425.2500     18.3355     39.1577     18.2623     57.4169
  2425.5000     18.1686     38.7745     18.4659     57.7153
  2425.7500     17.9230     38.4257     18.6316     57.5850
  2426.0000     17.6217     38.1679     18.7473     56.8640
  2426.2500     17.3033     38.0319     18.7904     56.3356
  2426.5000     17.0036     38.0065     18.7261     56.2900
  2426.7500     16.7398     38.0242     18.5180     57.0151
  2427.0000     16.5074     37.9749     18.1435     58.6962
  2427.2500     16.2888     37.7337     17.6005     59.4653
  2427.5000     16.0661     37.2045     16.9118     59.1941
  2427.7500     15.8286     36.3456     16.1242     58.2628
  2428.0000     15.5700     35.1884     15.2975     56.9535
  2428.2500     15.2831     33.8319     14.4856     56.6479
  2428.5000     14.9560     32.4156     13.7229     56.8628
  2428.7500     14.5759     31.0884     13.0237     57.0718
  2429.0000     14.1349     29.9758     12.3941     57.2992
  2429.2500     13.6338     29.1598     11.8456     57.5979
  2429.5000     13.0820     28.6733     11.3989     58.5202
  2429.7500     12.4976     28.4986     11.0740     59.4089
  2430.0000     11.9064     28.5818     10.8703     61.1207
  2430.2500     11.3380     28.8445     10.7528     62.6732
  2430.5000     10.8163     29.1927     10.6560     66.0456
  2430.7500     10.3528     29.5360     10.5119     69.1397
  2431.0000      9.9515     29.8000     10.2862     74.7210
  2431.2500      9.6245     29.9393      9.9948     78.3429
  2431.5000      9.4060     29.9577      9.6868     81.7768
  2431.7500      9.3436     29.9102      9.4151     81.9294
  2432.0000      9.4674     29.8984      9.2167     79.1388
  2432.2500      9.7596     30.0462      9.1107     76.2153
  2432.5000     10.1490     30.4746      9.1020     72.0128
  2432.7500     10.5383     31.2683      9.1862     69.8487
  2433.0000     10.8439     32.4591      9.3512     67.6682
  2433.2500     11.0252     34.0133      9.5780     66.9905
  2433.5000     11.0874     35.8369      9.8441     67.5645
  2433.7500     11.0650     37.7905     10.1253     69.1299
  2434.0000     11.0020     39.7100     10.3970     72.5298
  2434.2500     10.9437     41.4264     10.6354     74.4958
  2434.5000     10.9357     42.7968     10.8238     75.2798
  2434.7500     11.0186     43.7219     10.9625     74.1524
  2435.0000     11.2122     44.1629     11.0740     71.4005
  2435.2500     11.5020     44.1456     11.1941     70.0051
  2435.5000     11.8398     43.7487     11.3546     69.3447
  2435.7500     12.1624     43.0803     11.5661     69.3760
  2436.0000     12.4174     42.2518     11.8076     68.7486
  2436.2500     12.5826     41.3486     12.0316     67.4367
  2436.5000     12.6683     40.4248     12.1864     64.3772
  2436.7500     12.7028     39.4992     12.2473     62.1137
  2437.0000     12.7130     38.5734     12.2311     59.2960
  2437.2500     12.7128     37.6472     12.1810     58.1706
  2437.5000     12.7048     36.7361     12.1361     57.7792
  2437.7500     12.6859     35.8786     12.1096     58.2178
  2438.0000     12.6514     35.1357     12.0817     59.4727
  2438.2500     12.5950     34.5814     12.0054     60.5612
  2438.5000     12.5092     34.2879     11.8258     62.6188
  2438.7500     12.3863     34.3079     11.5082     64.2746
  2439.0000     12.2201     34.6518     11.0588     66.7452
  2439.2500     12.0052     35.2800     10.5212     67.9242
  2439.5000     11.7359     36.0968      9.9561     68.3657
  2439.7500     11.4038     36.9675      9.4203     67.7600
  2440.0000     10.9975     37.7474      8.9549     66.2042
  2440.2500     10.5077     38.3228      8.5791     65.3834
  2440.5000      9.9355     38.6394      8.2881     65.3520
  2440.7500      9.2999     38.7120      8.0599     66.2920
  2441.0000      8.6383     38.6172      7.8656     69.1052
  2441.2500      7.9962     38.4542      7.6809     72.0189
  2441.5000      7.4121     38.3146      7.4896     78.2827
  2441.7500      6.9075     38.2498      7.2805     83.5464
  2442.0000      6.4872     38.2627      7.0464     91.4461
  2442.2500      6.1498     38.3218      6.7882     95.2385
  2442.5000      5.8988     38.3861      6.5197     96.7974
  2442.7500      5.7438     38.4271      6.2638     95.0052
  2443.0000      5.6921     38.4453      6.0419     89.4699
  2443.2500      5.7331     38.4739      5.8650     84.7403
  2443.5000      5.8296     38.5635      5.7318     76.0911
  2443.7500      5.9218     38.7636      5.6352     68.3764
  2444.0000      5.9446     39.1006      5.5678     52.5772
  2444.2500      5.8508     39.5623      5.5241     39.9327
  2444.5000      5.6324     40.1017      5.4975     21.7253
  2444.7500      5.3287     40.6485      5.4766     12.4532
  2445.0000      5.0152     41.1324      5.4464      4.2113
  2445.2500      4.7728     41.5062      5.3959      1.7147
  2445.5000      4.6521     41.7607      5.3256      0.3379
  2445.7500      4.6557     41.9224      5.2487      0.0944
  2446.0000      4.7473     42.0384      5.1839      0.0093
  2446.2500      4.8800     42.1595      5.1475      0.0000
  2446.5000      5.0198     42.3137      5.1493   -999.2500
  2446.7500      5.1554     42.5019      5.1947   -999.2500
  2447.0000      5.2937     42.6944      5.2884   -999.2500
  2447.2500      5.4526     42.8369      5.4367   -999.2500
  2447.5000      5.6515     42.8634      5.6454   -999.2500
  2447.7500      5.9055     42.7077      5.9137   -999.2500
  2448.0000      6.2218     42.3197      6.2305   -999.2500
  2448.2500      6.6012     41.6840      6.5778   -999.2500
  2448.5000      7.0430     40.8343      6.9400   -999.2500
  2448.7500      7.5526     39.8562      7.3129   -999.2500
  2449.0000      8.1482     38.8753      7.7042   -999.2500
  2449.2500      8.8615     38.0221      8.1250   -999.2500
  2449.5000      9.7252     37.4000      8.5808   -999.2500
  2449.7500     10.7440     37.0556      9.0698   -999.2500
  2450.0000     11.8667     36.9719      9.5847   -999.2500
  2450.2500     12.9821     37.0821     10.1386   -999.2500
  2450.5000     13.9517     37.2983     10.7321   -999.2500
  2450.7500     14.6604     37.5397     11.3583   -999.2500
