~Version Information
VERS.                      2.0: CWLS Log ASCII Standard - VERSION 2.0
WRAP.                       NO: One line per depth step
~Well Information Block
STRT.FT               481.5000: 
STOP.FT              2033.5000: 
STEP.FT                 0.2500: 
NULL.                -999.2500: 
COMP.          Petrogulf Corporation: COMPANY
WELL.            Montoya 7-12R: WELL
FLD.           Purgatorie River: FIELD
LOC.           1769' FNL & 658' FWL: LOCATION
CNTY.               Las Animas: COUNTY
SRVC.                         : SERVICE COMPANY
DATE.          Sat Nov 20 02:31:05 2004: LOG DATE
UWI.           05 071 08240 00: UNIQUE WELL ID
STAT.                 Colorado: STATE
~Curve Information Block
DEPT.FT            0 000 00 00: Depth
SP.mV                         : DIL Spontaneous Potential
RILD.Ohm-m                    : DIL Deep Resistivity
RILM.Ohm-m                    : DIL Medium Resistivity
RLL3.Ohm-m                    : DIL Shallow Resistivity
GR.GAPI                       : Gamma Ray
~Parameter Information Block
~A  Depth        SP         RILD        RILM        RLL3         GR     
# ...
  1685.5000    -22.5739      8.4409      9.1801      9.5212    118.1457
  1685.7500    -22.7043      8.4471      9.2303      9.5270    116.8797
  1686.0000    -22.8249      8.4484      9.2653      9.5257    116.3848
  1686.2500    -22.9443      8.4449      9.2825      9.5172    117.2911
  1686.5000    -23.0732      8.4368      9.2805      9.4980    120.2336
  1686.7500    -23.2222      8.4244      9.2588      9.4637    122.5946
  1687.0000    -23.3998      8.4084      9.2185      9.4123    125.4818
  1687.2500    -23.6109      8.3898      9.1619      9.3445    126.6463
  1687.5000    -23.8557      8.3699      9.0923      9.2647    127.5503
  1687.7500    -24.1297      8.3504      9.0140      9.1793    127.9772
  1688.0000    -24.4250      8.3331      8.9314      9.0957    128.9302
  1688.2500    -24.7317      8.3201      8.8492      9.0208    129.9798
  1688.5000    -25.0399      8.3136      8.7718      8.9598    132.2005
  1688.7500    -25.3410      8.3158      8.7037      8.9156    133.8848
  1689.0000    -25.6289      8.3288      8.6490      8.8888    135.9781
  1689.2500    -25.9001      8.3545      8.6120      8.8786    136.6070
  1689.5000    -26.1531      8.3942      8.5968      8.8848    135.8862
  1689.7500    -26.3877      8.4490      8.6073      8.9092    134.2644
  1690.0000    -26.6043      8.5193      8.6473      8.9569    130.5383
  1690.2500    -26.8030      8.6049      8.7202      9.0364    127.7802
  1690.5000    -26.9830      8.7050      8.8286      9.1584    124.7724
  1690.7500    -27.1422      8.8179      8.9741      9.3331    124.3241
  1691.0000    -27.2769      8.9415      9.1567      9.5683    126.1214
  1691.2500    -27.3815      9.0732      9.3747      9.8661    128.1844
  1691.5000    -27.4493      9.2101      9.6242     10.2206    130.6875
  1691.7500    -27.4726      9.3492      9.8985     10.6170    131.1889
  1692.0000    -27.4443      9.4878     10.1885     11.0321    130.0003
  1692.2500    -27.3590      9.6235     10.4828     11.4364    128.3845
  1692.5000    -27.2140      9.7546     10.7684     11.7978    125.9389
  1692.7500    -27.0104      9.8796     11.0317     12.0866    124.8852
  1693.0000    -26.7533      9.9975     11.2608     12.2801    124.4985
  1693.2500    -26.4511     10.1074     11.4464     12.3658    124.7421
  1693.5000    -26.1149     10.2082     11.5834     12.3434    124.9872
  1693.7500    -25.7576     10.2993     11.6720     12.2255    124.8915
  1694.0000    -25.3933     10.3801     11.7167     12.0362    125.0637
  1694.2500    -25.0365     10.4504     11.7261     11.8090    125.9018
  1694.5000    -24.7015     10.5111     11.7112     11.5833    128.0145
  1694.7500    -24.4023     10.5643     11.6839     11.3993    129.1339
  1695.0000    -24.1506     10.6136     11.6564     11.2926    128.7882
  1695.2500    -23.9552     10.6639     11.6397     11.2873    126.8813
  1695.5000    -23.8201     10.7214     11.6439     11.3911    122.3179
  1695.7500    -23.7442     10.7929     11.6780     11.5957    119.0816
  1696.0000    -23.7205     10.8852     11.7502     11.8815    115.3254
  1696.2500    -23.7382     11.0047     11.8684     12.2313    113.8680
  1696.5000    -23.7836     11.1565     12.0406     12.6472    113.1041
  1696.7500    -23.8434     11.3441     12.2755     13.1709    113.3157
  1697.0000    -23.9064     11.5685     12.5821     13.8999    114.1620
  1697.2500    -23.9647     11.8282     12.9698     14.9940    114.5845
  1697.5000    -24.0136     12.1189     13.4468     16.6670    114.2015
  1697.7500    -24.0507     12.4334     14.0192     19.1543    113.0965
  1698.0000    -24.0736     12.7620     14.6877     22.6521    110.2173
  1698.2500    -24.0782     13.0933     15.4445     27.2334    107.4098
  1698.5000    -24.0571     13.4146     16.2693     32.7646    101.6385
  1698.7500    -23.9995     13.7133     17.1258     38.8552     96.9765
  1699.0000    -23.8923     13.9774     17.9606     44.8754     90.0768
  1699.2500    -23.7223     14.1966     18.7076     50.0563     86.4423
  1699.5000    -23.4789     14.3623     19.2969     53.6525     83.2634
  1699.7500    -23.1565     14.4681     19.6704     55.1187     82.6515
  1700.0000    -22.7561     14.5093     19.7957     54.2419     83.7852
  1700.2500    -22.2856     14.4832     19.6734     51.1854     85.9255
  1700.5000    -21.7588     14.3890     19.3336     46.4379     91.2063
  1700.7500    -21.1934     14.2283     18.8250     40.6888     95.7623
  1701.0000    -20.6086     14.0053     18.2008     34.6740    102.8952
  1701.2500    -20.0225     13.7275     17.5085     29.0324    107.0704
  1701.5000    -19.4508     13.4051     16.7848     24.2065    111.6643
  1701.7500    -18.9062     13.0507     16.0557     20.4016    113.4772
  1702.0000    -18.3979     12.6783     15.3389     17.6055    114.3533
  1702.2500    -17.9331     12.3017     14.6469     15.6519    113.9070
  1702.5000    -17.5176     11.9331     13.9894     14.3049    112.6536
  1702.7500    -17.1563     11.5828     13.3750     13.3357    112.2977
  1703.0000    -16.8538     11.2577     12.8107     12.5732    113.7369
  1703.2500    -16.6138     10.9624     12.3019     11.9206    116.1612
  1703.5000    -16.4381     10.6985     11.8519     11.3447    121.1395
  1703.7500    -16.3263     10.4660     11.4613     10.8512    124.5627
  1704.0000    -16.2747     10.2636     11.1285     10.4578    128.8654
  1704.2500    -16.2766     10.0892     10.8497     10.1764    130.9933
  1704.5000    -16.3222      9.9409     10.6198     10.0053    133.1090
  1704.7500    -16.3996      9.8172     10.4332      9.9277    133.7686
  1705.0000    -16.4959      9.7168     10.2845      9.9154    133.3547
  1705.2500    -16.5984      9.6388     10.1690      9.9366    132.0908
  1705.5000    -16.6957      9.5823     10.0832      9.9613    129.4029
  1705.7500    -16.7789      9.5461     10.0250      9.9675    127.9340
  1706.0000    -16.8415      9.5282      9.9932      9.9445    127.5302
  1706.2500    -16.8804      9.5258      9.9873      9.8957    128.6178
  1706.5000    -16.8946      9.5352     10.0067      9.8368    131.4555
  1706.7500    -16.8856      9.5516     10.0498      9.7931    133.4211
  1707.0000    -16.8560      9.5697     10.1138      9.7937    135.4946
  1707.2500    -16.8095      9.5843     10.1934      9.8645    136.0289
  1707.5000    -16.7501      9.5908     10.2812     10.0203    135.6372
  1707.7500    -16.6819      9.5857     10.3676     10.2580    134.8297
  1708.0000    -16.6091      9.5670     10.4415     10.5518    133.1343
  1708.2500    -16.5351      9.5344     10.4916     10.8553    131.6596
  1708.5000    -16.4630      9.4885     10.5082     11.1091    128.7255
  1708.7500    -16.3953      9.4313     10.4849     11.2543    126.3040
  1709.0000    -16.3334      9.3647     10.4199     11.2490    122.4090
  1709.2500    -16.2780      9.2908     10.3160     11.0800    120.1366
  1709.5000    -16.2291      9.2110     10.1806     10.7678    118.3471
  1709.7500    -16.1861      9.1262     10.0234     10.3608    118.6695
  1710.0000    -16.1480      9.0372      9.8550      9.9217    120.8732
  1710.2500    -16.1138      8.9445      9.6855      9.5118    122.5068
  1710.5000    -16.0828      8.8487      9.5229      9.1770    123.7910
  1710.7500    -16.0548      8.7511      9.3732      8.9419    123.7763
  1711.0000    -16.0305      8.6533      9.2398      8.8094    123.2212
  1711.2500    -16.0119      8.5574      9.1242      8.7671    122.9659
  1711.5000    -16.0027      8.4659      9.0264      8.7947    122.9649
  1711.7500    -16.0083      8.3812      8.9454      8.8694    122.9060
  1712.0000    -16.0348      8.3055      8.8792      8.9699    121.7413
  1712.2500    -16.0889      8.2406      8.8260      9.0773    119.8512
  1712.5000    -16.1760      8.1876      8.7838      9.1750    115.6787
  1712.7500    -16.2986      8.1473      8.7509      9.2495    112.6184
  1713.0000    -16.4558      8.1198      8.7262      9.2906    108.4354
  1713.2500    -16.6420      8.1047      8.7091      9.2936    106.0829
