~Version Information
VERS.                      2.0: CWLS Log ASCII Standard - VERSION 2.0
WRAP.                       NO: One line per depth step
~Well Information Block
STRT.FT               -10.0000: 
STOP.FT              2544.2500: 
STEP.FT                 0.2500: 
NULL.                -999.2500: 
COMP.          Pioneer Natural Resources: COMPANY
WELL.            Cortina 23-25: WELL
FLD.           Purgatorie River: FIELD
LOC.           2344' FWL  & 2526' FSL------: LOCATION
PROV.                       CO: PROVINCE
CNTY.               Las Animas: COUNTRY
SRVC.          Patterson Wireline: SERVICE COMPANY
DATE.          Fri Apr 01 11:50:55 2005: LOG DATE
UWI.           05 071 08340 00: UNIQUE WELL ID
~Curve Information Block
DEPT.FT            0 000 00 00: Depth
CCL.                          : Casing Collar Locator
TT3.usec                      : CBL 3' Travel Time
AMP3.mV                       : CBL 3' Amplitude
GR.GAPI                       : Gamma Ray
~Parameter Information Block
~A  Depth       CCL         TT3         AMP3         GR     
# ...
   157.5000      0.0000    866.1706      7.9069     56.2399
   157.7500      0.0000    869.1158      8.0086     52.7581
   158.0000      0.0000    873.3280      8.1464     51.1172
   158.2500      0.0000    878.2864      8.3038     51.5906
   158.5000      0.0000    882.4842      8.4491     53.4969
   158.7500      0.0000    885.6027      8.5532     55.7274
   159.0000      0.0000    887.7606      8.6029     57.2766
   159.2500      0.0000    887.5172      8.5996     57.7491
   159.5000      0.0000    882.5421      8.5551     57.8002
   159.7500      0.0000    872.3058      8.4905     59.0211
   160.0000      0.0000    858.9347      8.4318     62.9925
   160.2500      0.0000    845.5886      8.3988     70.0866
   160.5000      0.0000    834.6086      8.3931     78.9991
   160.7500      0.0000    826.1415      8.3982     87.5032
   161.0000      0.0000    817.9357      8.3901     93.7510
   161.2500      0.0000    807.7794      8.3513     96.8995
   161.5000      0.0000    796.3062      8.2775     96.9425
   161.7500      0.0000    786.3154      8.1767     94.5971
   162.0000      0.0000    779.7767      8.0662     91.1910
   162.2500      0.0000    776.5057      7.9682     87.9367
   162.5000      0.0000    775.2098      7.9029     85.2561
   162.7500      0.0000    774.7562      7.8813     83.1364
   163.0000      0.0000    774.6459      7.8997     81.7611
   163.2500      0.0000    775.0012      7.9401     81.3469
   163.5000      0.0000    776.4756      7.9842     81.6291
   163.7500      0.0000    780.0110      8.0268     81.8085
   164.0000      0.0000    786.3224      8.0687     80.9441
   164.2500      0.0000    795.3499      8.1023     78.4471
   164.5000      0.0000    806.3174      8.1136     74.4696
   164.7500      0.0000    818.3788      8.0975     69.8596
   165.0000      0.0000    830.9082      8.0639     65.5889
   165.2500      0.0000    842.9831      8.0301     62.1218
   165.5000      0.0000    852.7178      8.0087     59.2828
   165.7500      0.0000    857.3213      8.0027     56.6983
   166.0000      0.0000    854.5632      8.0101     54.3402
   166.2500      0.0000    845.0157      8.0300     52.5687
   166.5000      0.0000    832.3549      8.0632     51.6841
   166.7500      0.0000    820.3156      8.1091     51.5643
   167.0000      0.0000    809.7494      8.1612     51.7804
   167.2500      0.0000    799.6465      8.2063     52.0123
   167.5000      0.0000    790.1653      8.2327     52.2885
   167.7500      0.0000    783.2575      8.2384     52.7040
   168.0000      0.0000    781.1324      8.2306     53.0019
   168.2500      0.0000    785.3176      8.2159     52.8497
   168.5000      0.0000    796.3731      8.1909     52.5842
   168.7500      0.0000    812.9091      8.1462     53.0362
   169.0000      0.0000    830.9028      8.0768     54.3725
   169.2500      0.0000    845.2784      7.9872     55.6652
   169.5000      0.0000    852.8831      7.8882     55.9559
   169.7500      0.0000    853.8930      7.7919     55.3752
   170.0000      0.0000    850.6520      7.7089     54.9079
   170.2500      0.0000    845.7172      7.6433     55.2408
   170.5000      0.0000    840.8206      7.5907     56.0632
   170.7500      0.0000    836.5818      7.5444     56.4070
   171.0000      0.0000    832.4737      7.5056     55.5563
   171.2500      0.0000    827.5079      7.4837     53.7341
   171.5000      0.0000    821.5519      7.4832     52.0117
   171.7500      0.0000    815.7303      7.4919     51.4657
   172.0000      0.0000    811.4042      7.4860     52.2618
   172.2500      0.0000    809.1919      7.4488     53.5687
   172.5000      0.0000    809.1588      7.3824     54.4660
   172.7500      0.0000    811.3107      7.3015     54.8880
   173.0000      0.0000    815.1943      7.2169     55.4715
   173.2500      0.0000    819.0794      7.1232     56.5757
   173.5000      0.0000    820.4899      7.0011     57.9131
   173.7500      0.0000    818.5419      6.8375     59.3531
   174.0000      0.0000    815.8470      6.6512     61.7473
   174.2500      0.0000    817.6086      6.4889     66.4844
   174.5000      0.0000    828.2192      6.3795     73.9830
   174.7500      0.0000    848.0854      6.2993     82.5503
   175.0000      0.0000    873.1802      6.2065     88.9785
   175.2500      0.0000    897.2622      6.0959     90.8150
   175.5000      0.0000    914.8204      5.9931     88.2676
   175.7500     -2.0000    923.3552      5.9133     83.6952
   176.0000     -2.0000    923.9347      5.8545     79.2022
   176.2500      2.0000    918.5733      5.8200     74.9956
   176.5000      0.0000    907.1478      5.8330     70.0772
   176.7500      0.0000    889.1864      5.9336     64.0955
   177.0000      0.0000    868.8116      6.1538     58.0755
   177.2500      0.0000    854.8812      6.4731     53.5032
   177.5000      0.0000    854.9386      6.8045     51.1565
   177.7500      0.0000    869.8867      7.0508     50.8179
   178.0000      0.0000    894.2780      7.1764     51.6238
   178.2500      0.0000    920.5609      7.2130     52.5183
   178.5000      0.0000    942.7399      7.2115     52.7445
   178.7500      0.0000    957.0873      7.2060     52.1843
   179.0000      0.0000    961.5251      7.2102     51.2909
   179.2500      0.0000    956.4095      7.2256     50.7293
   179.5000      0.0000    945.7787      7.2469     51.0034
   179.7500      0.0000    935.8467      7.2630     52.2127
   180.0000      0.0000    931.1582      7.2649     54.0446
   180.2500      0.0000    932.2923      7.2545     56.0481
   180.5000      0.0000    936.8376      7.2450     57.8283
   180.7500      0.0000    941.3013      7.2451     58.8906
   181.0000      0.0000    942.1563      7.2487     58.5645
   181.2500      0.0000    936.7384      7.2395     56.4638
   181.5000      0.0000    924.7327      7.2063     53.0348
   181.7500      0.0000    909.1604      7.1518     49.4543
   182.0000      0.0000    895.4636      7.0877     46.9436
   182.2500      0.0000    889.0477      7.0230     46.2505
   182.5000      0.0000    892.8385      6.9613     47.6158
   182.7500      0.0000    905.7657      6.9071     50.8500
   183.0000      0.0000    922.4445      6.8688     55.4748
   183.2500      0.0000    935.2169      6.8526     61.0837
   183.5000      0.0000    938.7702      6.8554     67.5361
   183.7500      0.0000    933.6868      6.8643     74.6556
   184.0000      0.0000    924.9578      6.8698     81.9092
   184.2500      0.0000    917.3035      6.8794     88.6315
   184.5000      0.0000    912.4688      6.9140     94.4090
   184.7500      0.0000    909.9435      6.9865     98.9361
   185.0000      0.0000    908.7383      7.0843    101.4970
   185.2500      0.0000    908.2578      7.1731    101.0255
   185.5000      0.0000    908.4145      7.2188     97.0666
   185.7500      0.0000    909.4645      7.2111     90.4972
   186.0000      0.0000    911.3039      7.1644     83.0580
   186.2500      0.0000    912.4313      7.1037     76.3516
   186.5000      0.0000    910.1375      7.0497     71.3375
   186.7500      0.0000    902.8140      7.0113     68.3195
   187.0000      0.0000    892.0202      6.9842     67.0482
   187.2500      0.0000    881.4854      6.9598     66.9365
   187.5000      0.0000    874.4042      6.9368     67.5534
   187.7500      0.0000    872.2704      6.9218     69.1567
   188.0000      0.0000    875.5845      6.9201     72.5415
   188.2500      0.0000    884.0518      6.9306     78.0844
   188.5000      0.0000    895.4897      6.9488     85.1458
   188.7500      0.0000    905.3128      6.9689     92.7509
   189.0000      0.0000    908.2957      6.9863    100.3795
   189.2500      0.0000    902.0961      7.0032    107.3671
   189.5000      0.0000    889.9538      7.0311    112.0176
   189.7500      0.0000    879.3140      7.0842    112.6205
   190.0000      0.0000    876.4097      7.1635    109.6204
   190.2500      0.0000    881.5800      7.2465    105.7637
   190.5000      0.0000    889.8127      7.2998    103.7563
   190.7500      0.0000    895.5525      7.3097    104.4637
