~Version Information
VERS.                      2.0: CWLS Log ASCII Standard - VERSION 2.0
WRAP.                       NO: One line per depth step
~Well Information Block
STRT.FT               456.0000: 
STOP.FT              1700.7000: 
STEP.FT                 0.1000: 
NULL.                -999.2500: 
COMP.          Pioneer Natural Resources: COMPANY
WELL.                Mead 11-9: WELL
FLD.           Purgatoire River: FIELD
LOC.           1127' FNL & 668' FWL: LOCATION
PROV.                 Colorado: PROVINCE
CNTY.               Las Animas: COUNTRY
SRVC.                Patterson: SERVICE COMPANY
DATE.          Sat Feb 19 09:18:18 2005: LOG DATE
UWI.           05 071 08160 00: UNIQUE WELL ID
~Curve Information Block
DEPT.FT            0 000 00 00: Depth
DCAL.in                       : CDL Caliper
RHOB.g/cc                     : CDL Bulk Density
RHOC.g/cc                     : CDL Density Correction
DPOR.pu                       : CDL Density Porosity
GR.GAPI                       : Gamma Ray
NPOR.pu                       : Neutron Porosity
~Parameter Information Block
~A  Depth       DCAL        RHOB        RHOC        DPOR         GR         NPOR    
# ...
  1435.2000      7.8952      2.5079      0.0769      8.6128     99.7952     28.7363
  1435.3000      7.9189      2.5075      0.0775      8.6357     99.9788     27.7248
  1435.4000      7.9189      2.4977      0.0851      9.2303     99.5273     26.8931
  1435.5000      7.9332      2.4823      0.0576     10.1608     95.3368     27.0093
  1435.6000      7.9332      2.4759      0.0359     10.5501     89.9292     27.4495
  1435.7000      7.9332      2.4841      0.0623     10.0575     86.8155     27.4503
  1435.8000      7.9332      2.4909      0.0849      9.6432     85.6809     27.1622
  1435.9000      7.9332      2.4827      0.0493     10.1392     84.0733     26.9606
  1436.0000      7.9246      2.4693      0.0291     10.9500     80.9874     26.6673
  1436.1000      7.9246      2.4588      0.0171     11.5867     80.0126     26.0222
  1436.2000      7.9246      2.4475      0.0395     12.2727     82.8104     25.6227
  1436.3000      7.9211      2.4450     -0.0035     12.4262     85.3598     25.9528
  1436.4000      7.9211      2.4641      0.0541     11.2689     85.6149     26.5773
  1436.5000      7.9214      2.4876      0.0976      9.8397     85.5510     27.0383
  1436.6000      7.9214      2.4849      0.0862     10.0083     86.4855     27.4048
  1436.7000      7.9214      2.4527      0.0154     11.9575     87.5440     27.8256
  1436.8000      7.9264      2.4192     -0.0343     13.9882     88.4420     28.1127
  1436.9000      7.9264      2.4043      0.0304     14.8909     89.5731     28.1711
  1437.0000      7.9312      2.4049      0.0035     14.8573     90.8821     28.1999
  1437.1000      7.9312      2.4130      0.0355     14.3638     91.2891     28.2412
  1437.2000      7.9312      2.4166      0.0309     14.1435     89.1383     28.2104
  1437.3000      7.9322      2.4118     -0.0060     14.4367     84.3954     27.8817
  1437.4000      7.9322      2.4159      0.0017     14.1900     79.1027     27.3343
  1437.5000      7.9303      2.4416      0.0214     12.6275     76.0928     27.3214
  1437.6000      7.9303      2.4722      0.0612     10.7743     75.0659     27.7517
  1437.7000      7.9303      2.4796      0.0590     10.3275     72.0570     27.8655
  1437.8000      7.9263      2.4572      0.0376     11.6824     67.2795     27.8550
  1437.9000      7.9263      2.4202      0.0302     13.9248     66.4375     27.8779
  1438.0000      7.9142      2.3846      0.0015     16.0853     70.9191     27.6784
  1438.1000      7.9142      2.3629     -0.0416     17.3985     76.3224     27.3561
  1438.2000      7.9142      2.3513      0.0153     18.1001     78.5267     26.9723
  1438.3000      7.9033      2.3203      0.0307     19.9822     74.8325     26.6186
  1438.4000      7.9033      2.2614     -0.0414     23.5494     69.1555     26.6022
  1438.5000      7.9011      2.2088     -0.0670     26.7394     68.0521     27.0552
  1438.6000      7.9011      2.1812      0.0058     28.4125     71.2782     27.4535
  1438.7000      7.9011      2.1592     -0.0538     29.7437     74.7677     27.4855
  1438.8000      7.9021      2.1193      0.0071     32.1637     77.0608     27.6385
  1438.9000      7.9021      2.0550     -0.0194     36.0612     79.8133     27.9948
  1439.0000      7.9003      1.9949     -0.0722     39.7013     82.4384     27.9761
  1439.1000      7.9003      1.9725      0.0307     41.0605     81.1697     27.8064
  1439.2000      7.9003      1.9675      0.0800     41.3637     75.8021     28.1677
  1439.3000      7.8911      1.9269      0.1248     43.8223     68.8958     29.1363
  1439.4000      7.8911      1.8359      0.0383     49.3406     61.6542     30.7001
  1439.5000      7.8850      1.7362     -0.0134     55.3814     55.2706     32.1271
  1439.6000      7.8850      1.6679     -0.0143     59.5241     52.3897     32.5885
  1439.7000      7.8850      1.6237      0.0322     62.2004     53.4416     32.6836
  1439.8000      7.9110      1.5742      0.0076     65.2021     55.9039     32.8336
  1439.9000      7.9110      1.5114     -0.0453     69.0071     56.1795     32.7590
  1440.0000      7.9599      1.4501     -0.0819     72.7229     52.7442     32.6369
  1440.1000      7.9599      1.3963     -0.0204     75.9815     47.8577     32.7850
  1440.2000      7.9599      1.3471     -0.0648     78.9656     43.4285     32.9993
  1440.3000      8.0002      1.3090     -0.0514     81.2746     38.5780     33.0079
  1440.4000      8.0002      1.2821     -0.0334     82.9045     33.7594     32.7250
  1440.5000      8.0190      1.2599     -0.0771     84.2459     31.4474     32.3197
  1440.6000      8.0190      1.2512     -0.0995     84.7784     30.5760     32.1723
  1440.7000      8.0190      1.2661     -0.0647     83.8722     27.9202     32.2531
  1440.8000      8.0043      1.3114     -0.0485     81.1285     24.3623     32.3812
  1440.9000      8.0043      1.3981     -0.0428     75.8726     22.6560     32.9918
  1441.0000      7.9976      1.5199     -0.0064     68.4931     25.3419     33.6643
  1441.1000      7.9976      1.6514      0.0109     60.5232     31.6042     33.3429
  1441.2000      7.9976      1.7881      0.0506     52.2375     38.1462     32.4757
  1441.3000      8.0327      1.9499      0.0878     42.4280     43.9151     31.8971
  1441.4000      8.0327      2.1345      0.1830     31.2452     48.0335     31.3837
  1441.5000      8.0724      2.2908      0.2409     21.7667     50.1781     30.6168
  1441.6000      8.0724      2.3745      0.1671     16.6986     52.4770     29.8202
  1441.7000      8.0724      2.4057      0.1073     14.8040     55.8350     29.5840
  1441.8000      8.0503      2.4323      0.0459     13.1966     59.7226     29.7334
  1441.9000      8.0503      2.4647      0.0695     11.2304     64.5151     29.2554
  1442.0000      7.9800      2.4845      0.0786     10.0293     69.1515     27.8803
  1442.1000      7.9800      2.4914      0.0274      9.6143     72.0225     26.6062
  1442.2000      7.9800      2.4947      0.0629      9.4119     74.8187     26.0916
  1442.3000      7.9173      2.4885      0.0430      9.7854     77.5993     25.7198
  1442.4000      7.9173      2.4783      0.0050     10.4040     77.6936     24.7334
  1442.5000      7.8753      2.4818      0.0059     10.1947     77.4290     23.7214
  1442.6000      7.8753      2.4907      0.0458      9.6533     79.2516     23.6179
  1442.7000      7.8753      2.4852      0.0197      9.9856     79.1532     24.2324
  1442.8000      7.8503      2.4735      0.0054     10.6952     76.9203     24.6196
  1442.9000      7.8503      2.4748      0.0005     10.6196     78.2450     24.4306
  1443.0000      7.8414      2.4900      0.0358      9.6967     81.1892     24.2934
  1443.1000      7.8414      2.5096      0.0214      8.5087     78.7203     24.2890
  1443.2000      7.8414      2.5268      0.0713      7.4641     72.3309     23.6457
  1443.3000      7.8410      2.5294      0.0798      7.3100     68.0992     22.3690
  1443.4000      7.8410      2.5088      0.0469      8.5556     69.1140     21.5545
  1443.5000      7.8396      2.4908     -0.0343      9.6479     74.4474     21.7658
  1443.6000      7.8396      2.5049      0.0320      8.7920     80.9032     22.2197
  1443.7000      7.8396      2.5399      0.0276      6.6750     85.5805     22.2281
  1443.8000      7.8375      2.5713      0.0874      4.7671     86.1342     21.9908
  1443.9000      7.8375      2.5948      0.0229      3.3431     82.7018     21.6140
  1444.0000      7.8394      2.6144      0.1274      2.1559     76.7722     21.2372
  1444.1000      7.8394      2.6232      0.1103      1.6245     71.2175     20.8944
  1444.2000      7.8394      2.6151      0.0704      2.1168     69.7150     20.4454
  1444.3000      7.8423      2.5976      0.0420      3.1753     72.6051     20.1896
  1444.4000      7.8423      2.5844      0.0341      3.9739     76.5496     20.1555
  1444.5000      7.8435      2.5785      0.0968      4.3334     77.9868     20.3870
  1444.6000      7.8435      2.5699      0.0600      4.8568     75.3360     21.2159
  1444.7000      7.8435      2.5567      0.0406      5.6575     71.1626     21.9306
