~Version Information
VERS.                      2.0: CWLS Log ASCII Standard - VERSION 2.0
WRAP.                       NO: One line per depth step
~Well Information Block
STRT.FT                -9.7500: 
STOP.FT              2612.5000: 
STEP.FT                 0.2500: 
NULL.                -999.2500: 
COMP.                         : COMPANY
WELL.                         : WELL
FLD.                          : FIELD
LOC.                          : LOCATION
CNTY.                         : COUNTY
SRVC.                         : SERVICE COMPANY
DATE.          Mon Nov 17 14:56:03 2003: LOG DATE
UWI.                          : UNIQUE WELL ID
STAT.                         : STATE
~Curve Information Block
DEPT.FT            0 000 00 00: Depth
CCL.                          : Casing Collar Locator
TT3.usec                      : CBL 3' Travel Time
AMP3.mV                       : CBL 3' Amplitude
GR.GAPI                       : Gamma Ray
~Parameter Information Block
~A  Depth       CCL         TT3         AMP3         GR     
# ...
  1196.2500      0.0000    262.0203     72.3407    101.6004
  1196.5000      0.0000    262.0124     72.2052     95.8398
  1196.7500      0.0000    261.9616     72.2265     91.6059
  1197.0000      0.0000    261.8743     72.4975     88.1996
  1197.2500      0.0000    261.7816     72.9631     85.5786
  1197.5000      0.0000    261.7225     73.4567     85.0916
  1197.7500      0.0000    261.7210     73.8001     88.1044
  1198.0000      0.0000    261.7735     73.9010     93.9388
  1198.2500      0.0000    261.8489     73.7932     99.9639
  1198.5000      0.0000    261.9042     73.6033    103.9123
  1198.7500      0.0000    261.9091     73.4805    105.6281
  1199.0000      0.0000    261.8674     73.5285    106.5138
  1199.2500      0.0000    261.8199     73.7467    107.7822
  1199.5000      0.0000    261.8553     73.9902    109.5534
  1199.7500      0.0000    262.1472     73.9935    111.5032
  1200.0000      0.0000    263.0391     73.4233    113.9382
  1200.2500      0.0000    265.0704     71.9210    117.8852
  1200.5000      0.0000    268.7726     69.1708    124.2170
  1200.7500      0.0000    274.2833     65.0587    132.6566
  1201.0000      0.0000    281.1492     59.8972    141.1694
  1201.2500      0.0000    288.4997     54.5630    146.6226
  1201.5000      0.0000    295.3261     50.2598    147.1534
  1201.7500      0.0000    300.7294     47.8078    143.8875
  1202.0000      0.0000    304.2443     47.0542    139.5021
  1202.2500      0.0000    306.0373     47.1293    135.8348
  1202.5000      0.0000    306.6643     47.2901    134.1186
  1202.7500      0.0000    306.5847     47.3835    136.2762
  1203.0000      0.0000    305.8548     47.6698    143.6508
  1203.2500      0.0000    304.1920     48.4905    154.4943
  1203.5000      0.0000    301.3678     50.0608    164.3438
  1203.7500      0.0000    297.5652     52.3299    169.1822
  1204.0000      0.0000    293.1799     55.0664    167.8651
  1204.2500      0.0000    288.2248     58.2166    162.3310
  1204.5000      0.0000    282.3858     61.9328    156.2858
  1204.7500      0.0000    275.9060     66.0361    152.8826
  1205.0000      0.0000    269.9321     69.7716    152.6180
  1205.2500      0.0000    265.6344     72.3696    153.4070
  1205.5000      0.0000    263.2754     73.6652    152.7097
  1205.7500      0.0000    262.2917     74.0686    149.3862
  1206.0000      0.0000    261.9639     74.1257    143.8952
  1206.2500      0.0000    261.8454     74.1843    137.4055
  1206.5000      0.0000    261.7771     74.3260    130.8056
  1206.7500      0.0000    261.7448     74.4511    124.3592
  1207.0000      0.0000    261.7618     74.4211    118.1104
  1207.2500      0.0000    261.8190     74.1886    112.2067
  1207.5000      0.0000    261.8816     73.8634    106.7222
  1207.7500      0.0000    261.9107     73.6463    101.6229
  1208.0000      0.0000    261.8962     73.6603     97.1487
  1208.2500      0.0000    261.8705     73.8397     93.9047
  1208.5000      0.0000    261.8776     73.9924     92.4544
  1208.7500      0.0000    261.9305     73.9567     92.9578
  1209.0000      0.0000    261.9997     73.7094     94.8264
  1209.2500      0.0000    262.0424     73.3710     96.3008
  1209.5000      0.0000    262.0347     73.1293     94.9474
  1209.7500      0.0000    261.9846     73.1116     89.4824
  1210.0000      0.0000    261.9263     73.2873     81.1436
  1210.2500      0.0000    261.8986     73.4979     72.8568
  1210.5000      0.0000    261.9164     73.5993     66.9832
  1210.7500      0.0000    261.9577     73.5732     63.8071
  1211.0000      0.0000    261.9830     73.5041     61.8123
  1211.2500      0.0000    261.9739     73.4748     59.2720
  1211.5000      0.0000    261.9483     73.4896     55.8321
  1211.7500      0.0000    261.9398     73.4773     52.7040
  1212.0000      0.0000    261.9649     73.3565     51.2714
  1212.2500      0.0000    262.0113     73.1197     51.6035
  1212.5000      0.0000    262.0504     72.8632     52.5348
  1212.7500      0.0000    262.0640     72.7073     53.1438
  1213.0000      0.0000    262.0609     72.6794     53.7960
  1213.2500      0.0000    262.0664     72.6992     55.5423
  1213.5000      0.0000    262.0906     72.6824     58.6817
  1213.7500      0.0000    262.1150     72.6269     62.1835
  1214.0000      0.0000    262.1140     72.5881     64.5774
  1214.2500      0.0000    262.0877     72.5987     65.3707
  1214.5000      0.0000    262.0647     72.6273     65.5446
  1214.7500      0.0000    262.0729     72.5985     66.7000
  1215.0000      0.0000    262.1143     72.4503     69.7044
  1215.2500      0.0000    262.1634     72.2009     73.9570
  1215.5000      0.0000    262.1883     71.9688     77.7866
  1215.7500      0.0000    262.1764     71.8921     79.6594
  1216.0000      0.0000    262.1463     72.0021     79.1634
  1216.2500      0.0000    262.1328     72.1882     76.9880
  1216.5000      0.0000    262.1543     72.3074     74.2326
  1216.7500      0.0000    262.1927     72.3209     71.7991
  1217.0000      0.0000    262.2112     72.3040     70.0281
  1217.2500      0.0000    262.1935     72.3294     68.7548
  1217.5000      0.0000    262.1618     72.3742     67.9852
  1217.7500      0.0000    262.1501     72.3607     68.4392
  1218.0000      0.0000    262.1660     72.2686     71.1867
  1218.2500      0.0000    262.1849     72.1717     77.0303
  1218.5000      0.0000    262.1823     72.1606     86.2480
  1218.7500      0.0000    262.1604     72.2570     98.2110
  1219.0000      0.0000    262.1435     72.3990    111.0639
  1219.2500      0.0000    262.1521     72.4858    122.6093
  1219.5000      0.0000    262.1832     72.4507    131.8335
  1219.7500      0.0000    262.2108     72.3336    139.0742
  1220.0000      0.0000    262.2072     72.2667    144.8549
  1220.2500      0.0000    262.1703     72.3460    149.2842
  1220.5000      0.0000    262.1268     72.5175    152.4121
  1220.7500      0.0000    262.1076     72.6317    154.4595
  1221.0000      0.0000    262.1175     72.6140    155.6018
  1221.2500      0.0000    262.1349     72.5416    155.7945
  1221.5000      0.0000    262.1398     72.5308    154.9901
  1221.7500      0.0000    262.1392     72.5821    153.7245
  1222.0000      0.0000    262.1689     72.5819    153.1867
  1222.2500      0.0000    262.3076     72.4406    154.0692
  1222.5000      0.0000    262.8221     72.1326    155.5238
  1222.7500      0.0000    264.4551     71.5221    155.9497
  1223.0000      0.0000    268.7235     70.1623    154.6386
  1223.2500      0.0000    277.6459     67.4302    152.0732
  1223.5000      0.0000    292.5178     63.0520    148.7521
  1223.7500      0.0000    312.2378     57.5242    144.1367
  1224.0000      0.0000    332.5443     51.9054    136.9341
  1224.2500      0.0000    347.2461     47.1945    126.5292
  1224.5000      0.0000    351.4437     43.9624    114.0938
  1224.7500      0.0000    344.9804     42.3390    102.1617
  1225.0000      0.0000    332.8192     42.0379     93.3386
  1225.2500      0.0000    321.2590     42.4525     89.3825
  1225.5000      0.0000    313.6989     42.9841     90.5102
  1225.7500     -2.0000    309.8746     43.3679     94.7724
  1226.0000     -2.0000    307.8393     43.7901     98.7963
  1226.2500      0.0000    305.8224     44.8113    100.2885
  1226.5000      0.0000    302.9408     47.0129     99.9658
  1226.7500      0.0000    299.1735     50.4065    100.5986
  1227.0000      0.0000    294.8241     54.2614    104.0751
  1227.2500      0.0000    289.7974     57.8444    109.6775
  1227.5000      0.0000    283.7225     61.1401    115.2039
  1227.7500      0.0000    276.8912     64.4548    119.2135
  1228.0000      0.0000    270.5585     67.6080    121.9526
  1228.2500      0.0000    265.9679     70.0219    124.7060
  1228.5000      0.0000    263.3929     71.4305    128.7009
  1228.7500      0.0000    262.2611     72.1017    134.0634
  1229.0000      0.0000    261.8533     72.4483    139.1244
  1229.2500      0.0000    261.7185     72.6757    141.0332
  1229.5000      0.0000    261.6690     72.8037    138.0871
