~Version Information
 VERS.                      2.0: CWLS Log ASCII Standard - VERSION 2.0
 WRAP.                       NO: One line per depth step
 ~Well Information Block
 STRT.FT               887.5000: 
 STOP.FT              2605.5000: 
 STEP.FT                 0.2500: 
 NULL.                -999.2500: 
 COMP.          Petrogulf Corporation: COMPANY
 WELL.               YWAM 7-23V: WELL
 FLD.           Purgatorie River: FIELD
 LOC.           230' FSL & 225' FWL: LOCATION
 CNTY.               Las Animas: COUNTY
 SRVC.                         : SERVICE COMPANY
 DATE.          Sat Oct 30 08:34:45 2004: LOG DATE
 UWI.           05 071 08227 00: UNIQUE WELL ID
 STAT.                 Colorado: STATE
 PROV.                         :Province
 ~Curve Information Block
 DEPT.FT            0 000 00 00: Depth
 SP.mV                         : DIL Spontaneous Potential
 RILD.Ohm-m                    : DIL Deep Resistivity
 RILM.Ohm-m                    : DIL Medium Resistivity
 RLL3.Ohm-m                    : DIL Shallow Resistivity
 GR.GAPI                       : Gamma Ray
 ~Parameter Information Block
 ~A  Depth        SP         RILD        RILM        RLL3         GR     
# ...
  1139.5000   2000.0000     43.4265     49.3939   2000.0000     55.2243
  1139.7500   2000.0000     43.3127     48.9655   2000.0000     55.0250
  1140.0000   2000.0000     43.2625     48.5218   2000.0000     54.6716
  1140.2500   2000.0000     43.2307     48.0680   2000.0000     54.0225
  1140.5000   2000.0000     43.1835     47.6002   2000.0000     52.2580
  1140.7500   2000.0000     43.1037     47.1078   2000.0000     50.9338
  1141.0000   2000.0000     42.9928     46.5892   2000.0000     49.5012
  1141.2500   2000.0000     42.8699     46.0549   2000.0000     48.9765
  1141.5000   2000.0000     42.7625     45.5338   2000.0000     48.4052
  1141.7500   2000.0000     42.6970     45.0713   2000.0000     48.0651
  1142.0000   2000.0000     42.6936     44.7234   2000.0000     48.1149
  1142.2500   2000.0000     42.7563     44.5452   2000.0000     48.9638
  1142.5000   2000.0000     42.8740     44.5805   2000.0000     51.8157
  1142.7500   2000.0000     43.0226     44.8534   2000.0000     54.5940
  1143.0000   2000.0000     43.1745     45.3598   2000.0000     59.3393
  1143.2500   2000.0000     43.3070     46.0660   2000.0000     62.3765
  1143.5000   2000.0000     43.4179     46.9072   2000.0000     65.8273
  1143.7500   2000.0000     43.5239     47.7927   2000.0000     66.8630
  1144.0000   2000.0000     43.6639     48.6206   2000.0000     65.9889
  1144.2500   2000.0000     43.8834     49.2934   2000.0000     63.9852
  1144.5000   2000.0000     44.2198     49.7391   2000.0000     60.0743
  1144.7500   2000.0000     44.6861     49.9250   2000.0000     57.7185
  1145.0000   2000.0000     45.2647     49.8640   2000.0000     55.4640
  1145.2500   2000.0000     45.8993     49.6084   2000.0000     54.9118
  1145.5000   2000.0000     46.5054     49.2322   2000.0000     55.3724
  1145.7500   2000.0000     46.9855     48.8124   2000.0000     56.4741
  1146.0000   2000.0000     47.2522     48.4094   2000.0000     59.0168
  1146.2500   2000.0000     47.2484     48.0553   2000.0000     60.8011
  1146.5000   2000.0000     46.9601     47.7480   2000.0000     62.4172
  1146.7500   2000.0000     46.4122     47.4483   2000.0000     62.3363
  1147.0000   2000.0000     45.6552     47.0924   2000.0000     60.6075
  1147.2500   2000.0000     44.7476     46.6003   2000.0000     58.8987
  1147.5000   2000.0000     43.7420     45.8989   2000.0000     56.7517
  1147.7500   2000.0000     42.6791     44.9448   2000.0000     56.3340
  1148.0000   2000.0000     41.5859     43.7359   2000.0000     58.1383
  1148.2500   2000.0000     40.4794     42.3181   2000.0000     61.2340
  1148.5000   2000.0000     39.3732     40.7721   2000.0000     68.9900
  1148.7500   2000.0000     38.2803     39.1936   2000.0000     76.3269
  1149.0000   2000.0000     37.2186     37.6745   2000.0000     90.0963
  1149.2500   2000.0000     36.2108     36.2876   2000.0000    100.1119
  1149.5000   2000.0000     35.2840     35.0814   2000.0000    113.6977
  1149.7500   2000.0000     34.4662     34.0794   2000.0000    120.3942
  1150.0000   2000.0000     33.7800     33.2855   2000.0000    126.1041
  1150.2500   2000.0000     33.2385     32.6874   2000.0000    127.6617
  1150.5000   2000.0000     32.8411     32.2650   2000.0000    128.8440
  1150.7500   2000.0000     32.5734     31.9961   2000.0000    130.0760
  1151.0000   2000.0000     32.4086     31.8593   2000.0000    133.1153
  1151.2500   2000.0000     32.3124     31.8387   2000.0000    135.1333
  1151.5000   2000.0000     32.2514     31.9263   2000.0000    136.2244
  1151.7500   2000.0000     32.1999     32.1201   2000.0000    135.2412
  1152.0000   2000.0000     32.1477     32.4223   2000.0000    132.1271
  1152.2500   2000.0000     32.0983     32.8360   2000.0000    129.8800
  1152.5000   2000.0000     32.0669     33.3591   2000.0000    127.4682
  1152.7500   2000.0000     32.0721     33.9806   2000.0000    126.7659
  1153.0000   2000.0000     32.1275     34.6768   2000.0000    126.5736
  1153.2500   2000.0000     32.2341     35.4067   2000.0000    126.3536
  1153.5000   2000.0000     32.3787     36.1140   2000.0000    125.0777
  1153.7500   2000.0000     32.5329     36.7314   2000.0000    123.6930
  1154.0000   2000.0000     32.6583     37.1882   2000.0000    121.6165
  1154.2500   2000.0000     32.7108     37.4185   2000.0000    120.6037
  1154.5000   2000.0000     32.6526     37.3750   2000.0000    119.4826
  1154.7500   2000.0000     32.4553     37.0326   2000.0000    118.5181
  1155.0000   2000.0000     32.1091     36.3918   2000.0000    116.3168
  1155.2500   2000.0000     31.6227     35.4781   2000.0000    114.7882
  1155.5000   2000.0000     31.0229     34.3368   2000.0000    113.6573
  1155.7500   2000.0000     30.3497     33.0282   2000.0000    113.9514
  1156.0000   2000.0000     29.6463     31.6233   2000.0000    115.5751
  1156.2500   2000.0000     28.9537     30.1953   2000.0000    117.2891
  1156.5000   2000.0000     28.3018     28.8114   2000.0000    120.9019
  1156.7500   2000.0000     27.7063     27.5261   2000.0000    123.8130
  1157.0000   2000.0000     27.1661     26.3755   2000.0000    127.9353
  1157.2500   2000.0000     26.6668     25.3763   2000.0000    130.0635
  1157.5000   2000.0000     26.1862     24.5264   2000.0000    132.5996
  1157.7500   2000.0000     25.7001     23.8097   2000.0000    134.3933
  1158.0000   2000.0000     25.1922     23.2007   2000.0000    137.7170
  1158.2500   2000.0000     24.6570     22.6708   2000.0000    140.1104
  1158.5000   2000.0000     24.1022     22.1952   2000.0000    143.1723
  1158.7500   2000.0000     23.5454     21.7578   2000.0000    144.5553
  1159.0000   2000.0000     23.0090     21.3538   2000.0000    145.5844
  1159.2500   2000.0000     22.5156     20.9888   2000.0000    145.7331
  1159.5000   2000.0000     22.0838     20.6763   2000.0000    145.6824
  1159.7500   2000.0000     21.7270     20.4328   2000.0000    145.8649
  1160.0000   2000.0000     21.4543     20.2732   2000.0000    146.7547
  1160.2500   2000.0000     21.2722     20.2083   2000.0000    147.3652
  1160.5000   2000.0000     21.1850     20.2434   2000.0000    146.8827
  1160.7500   2000.0000     21.1963     20.3772   2000.0000    144.9992
  1161.0000   2000.0000     21.3083     20.6025   2000.0000    140.1842
  1161.2500   2000.0000     21.5210     20.9078   2000.0000    136.5762
  1161.5000   2000.0000     21.8314     21.2783   2000.0000    131.8983
  1161.7500   2000.0000     22.2317     21.6988   2000.0000    129.2021
  1162.0000   2000.0000     22.7095     22.1554   2000.0000    124.6741
  1162.2500   2000.0000     23.2479     22.6381   2000.0000    120.9666
  1162.5000   2000.0000     23.8275     23.1427   2000.0000    115.0081
  1162.7500   2000.0000     24.4282     23.6704   2000.0000    111.4561
  1163.0000   2000.0000     25.0331     24.2271   2000.0000    107.3714
  1163.2500   2000.0000     25.6302     24.8220   2000.0000    105.3659
  1163.5000   2000.0000     26.2156     25.4664   2000.0000    102.9997
  1163.7500   2000.0000     26.7902     26.1711   2000.0000    101.7784
  1164.0000   2000.0000     27.3594     26.9485   2000.0000    100.5997
  1164.2500   2000.0000     27.9281     27.8118   2000.0000    100.1790
  1164.5000   2000.0000     28.4976     28.7767   2000.0000     99.6209
  1164.7500   2000.0000     29.0629     29.8619   2000.0000     99.0825
  1165.0000   2000.0000     29.6130     31.0879   2000.0000     98.1367
  1165.2500   2000.0000     30.1340     32.4748   2000.0000     97.6640
  1165.5000   2000.0000     30.6117     34.0365   2000.0000     97.4387
  1165.7500   2000.0000     31.0384     35.7748   2000.0000     97.3931
  1166.0000   2000.0000     31.4138     37.6666   2000.0000     96.5219
  1166.2500   2000.0000     31.7453     39.6506   2000.0000     94.9328
  1166.5000   2000.0000     32.0437     41.6126   2000.0000     91.1796
  1166.7500   2000.0000     32.3158     43.3794   2000.0000     88.3457
  1167.0000   2000.0000     32.5596     44.7299   2000.0000     84.6119
  1167.2500   2000.0000     32.7583     45.4407   2000.0000     82.7350
