~Version Information
VERS.                      2.0: CWLS Log ASCII Standard - VERSION 2.0
WRAP.                       NO: One line per depth step
~Well Information Block
STRT.FT               400.0000: 
STOP.FT              2201.0000: 
STEP.FT                 0.2500: 
NULL.                -999.2500: 
COMP.          Evergreen Operating Corporation: COMPANY
WELL.            Triumph 13-10: WELL
FLD.           Purgatorie River: FIELD
LOC.           1551' FSL & 522' FWL: LOCATION
PROV.                 Colorado: PROVINCE
CNTY.               Las Animas: COUNTRY
SRVC.                Patterson: SERVICE COMPANY
DATE.          Fri Jul 23 20:28:37 2004: LOG DATE
UWI.           05 071 08108 00: UNIQUE WELL ID
~Curve Information Block
DEPT.FT            0 000 00 00: Depth
SN.Ohm-m                      : IEL Short Normal
SP.mV                         : IEL Spontaneous Potential
DIR.Ohm-m                     : IEL Induction Resistivity
GR.GAPI                       : Gamma Ray
~Parameter Information Block
~A  Depth        SN          SP         DIR          GR     
# ...
  1807.0000     31.3675    104.6519     25.1343     35.9425
  1807.2500     30.2350    104.6373     24.3032     38.5671
  1807.5000     28.9242    104.6232     23.5378     46.1642
  1807.7500     27.5952    104.6333     22.8051     53.8224
  1808.0000     26.3678    104.6842     22.0387     67.9066
  1808.2500     25.2521    104.7796     21.1964     77.7665
  1808.5000     24.2073    104.9103     20.2986     91.4814
  1808.7500     23.2263    105.0549     19.4201     99.3154
  1809.0000     22.3724    105.1843     18.6494    108.4987
  1809.2500     21.7361    105.2710     18.0506    112.6646
  1809.5000     21.3319    105.3005     17.6458    115.8751
  1809.7500     21.0731    105.2761     17.4173    116.1904
  1810.0000     20.8640    105.2154     17.3234    114.4857
  1810.2500     20.6870    105.1433     17.3205    112.0279
  1810.5000     20.6058    105.0872     17.3797    106.0492
  1810.7500     20.7166    105.0704     17.4930    100.4527
  1811.0000     21.0868    105.0994     17.6703     90.6172
  1811.2500     21.6984    105.1530     17.9313     84.1568
  1811.5000     22.4372    105.1909     18.2939     75.8272
  1811.7500     23.1531    105.1820     18.7643     71.1366
  1812.0000     23.7493    105.1245     19.3311     64.7607
  1812.2500     24.2248    105.0382     19.9671     60.7803
  1812.5000     24.6427    104.9445     20.6360     55.3638
  1812.7500     25.0693    104.8571     21.2983     52.2706
  1813.0000     25.5412    104.7867     21.9156     48.4754
  1813.2500     26.0649    104.7450     22.4510     46.3567
  1813.5000     26.6224    104.7408     22.8666     43.3540
  1813.7500     27.1915    104.7749     23.1254     41.3962
  1814.0000     27.7691    104.8372     23.1996     39.0344
  1814.2500     28.3301    104.9110     23.0803     38.3447
  1814.5000     28.7648    104.9797     22.7756     39.2918
  1814.7500     28.8958    105.0334     22.2993     41.3443
  1815.0000     28.5627    105.0716     21.6651     46.3238
  1815.2500     27.7135    105.1016     20.8943     50.8084
  1815.5000     26.4330    105.1368     20.0255     59.7077
  1815.7500     24.8887    105.1940     19.1126     67.5504
  1816.0000     23.2710    105.2889     18.2103     82.2237
  1816.2500     21.7566    105.4264     17.3580     93.1916
  1816.5000     20.4458    105.5934     16.5724    109.4954
  1816.7500     19.3235    105.7598     15.8515    119.3505
  1817.0000     18.3454    105.8929     15.1847    131.6252
  1817.2500     17.5300    105.9742     14.5638    137.7158
  1817.5000     16.9064    106.0095     13.9887    143.3138
  1817.7500     16.4494    106.0234     13.4688    144.8381
  1818.0000     16.1127    106.0419     13.0197    144.6227
  1818.2500     15.8746    106.0777     12.6582    143.2640
  1818.5000     15.7372    106.1266     12.3987    139.8342
  1818.7500     15.7033    106.1775     12.2518    136.8828
  1819.0000     15.7615    106.2240     12.2249    132.2554
  1819.2500     15.9062    106.2709     12.3211    129.5347
  1819.5000     16.1549    106.3293     12.5370    126.6120
  1819.7500     16.5199    106.4060     12.8595    125.7311
  1820.0000     16.9820    106.4952     13.2653    126.2530
  1820.2500     17.4957    106.5797     13.7254    127.4463
  1820.5000     18.0307    106.6417     14.2127    129.0050
  1820.7500     18.6199    106.6743     14.7082    129.1697
  1821.0000     19.3351    106.6842     15.2045    127.8498
  1821.2500     20.2202    106.6867     15.7057    126.0507
  1821.5000     21.2536    106.6959     16.2261    122.0451
  1821.7500     22.3566    106.7186     16.7870    118.5735
  1822.0000     23.4381    106.7516     17.4123    112.6754
  1822.2500     24.4472    106.7818     18.1220    108.7168
  1822.5000     25.3689    106.7893     18.9232    103.3208
  1822.7500     26.1533    106.7584     19.8032    100.1467
  1823.0000     26.6989    106.6959     20.7281     95.5131
  1823.2500     26.9825    106.6353     21.6496     92.0435
  1823.5000     27.1354    106.6164     22.5169     85.9342
  1823.7500     27.3101    106.6584     23.2898     81.5297
  1824.0000     27.5634    106.7535     23.9529    100.2200
  1824.2500     27.8894    106.8817     24.5238     94.9690
  1824.5000     28.2669    107.0263     25.0461     87.1521
  1824.7500     28.6574    107.1761     25.5590     81.5907
  1825.0000     29.0306    107.3221     26.0645     72.8639
  1825.2500     29.4154    107.4598     26.5193     67.3872
  1825.5000     29.8550    107.5917     26.8662     60.8043
  1825.7500     30.3259    107.7208     27.0829     57.7686
  1826.0000     30.7707    107.8426     27.1992     54.9070
  1826.2500     31.1566    107.9459     27.2696     53.7163
  1826.5000     31.4622    108.0216     27.3295     52.4300
  1826.7500     31.6618    108.0697     27.3786     51.7637
  1827.0000     31.7526    108.0992     27.3975     51.0307
  1827.2500     31.7666    108.1197     27.3796     50.6798
  1827.5000     31.7442    108.1334     27.3448     50.1531
  1827.7500     31.6959    108.1344     27.3260     49.7102
  1828.0000     31.5967    108.1145     27.3414     49.0684
  1828.2500     31.4423    108.0735     27.3798     48.8877
  1828.5000     31.2835    108.0214     27.4126     49.1475
  1828.7500     31.1683    107.9737     27.4192     49.4076
  1829.0000     31.0936    107.9437     27.4013     49.1315
  1829.2500     31.0341    107.9361     27.3753     48.2994
  1829.5000     30.9954    107.9469     27.3541     46.5551
  1829.7500     31.0290    107.9654     27.3381     45.5631
  1830.0000     31.1716    107.9769     27.3186     44.9512
  1830.2500     31.3948    107.9645     27.2856     45.2428
  1830.5000     31.6457    107.9109     27.2286     46.5088
  1830.7500     31.8707    107.8066     27.1347     47.5118
  1831.0000     31.9979    107.6592     26.9899     48.3684
  1831.2500     31.9646    107.4946     26.7883     48.2433
  1831.5000     31.7569    107.3437     26.5412     47.5031
  1831.7500     31.3959    107.2269     26.2742     47.3083
  1832.0000     30.9160    107.1520     26.0111     48.4111
  1832.2500     30.3578    107.1218     25.7557     50.2810
  1832.5000     29.7574    107.1354     25.4893     54.7217
  1832.7500     29.1313    107.1795     25.1864     58.5619
  1833.0000     28.4798    107.2283     24.8344     64.8696
  1833.2500     27.8114    107.2624     24.4371     68.8163
  1833.5000     27.1558    107.2835     24.0026     73.3460
  1833.7500     26.5485    107.3077     23.5313     74.9202
  1834.0000     26.0134    107.3455     23.0212     74.3417
  1834.2500     25.5543    107.3922     22.4815     71.9065
  1834.5000     25.1594    107.4368     21.9401     66.2034
  1834.7500     24.8210    107.4740     21.4353     62.1404
  1835.0000     24.5381    107.5062     21.0012     57.4274
  1835.2500     24.2837    107.5350     20.6563     55.7836
  1835.5000     24.0062    107.5526     20.3990     55.6571
  1835.7500     23.6914    107.5424     20.2081     56.7764
  1836.0000     23.3749    107.4883     20.0479     59.2531
  1836.2500     23.0578    107.3819     19.8809     60.8492
  1836.5000     22.7018    107.2280     19.6845     62.5089
  1836.7500     22.3150    107.0431     19.4614     62.9520
  1837.0000     21.9481    106.8503     19.2335     62.4089
  1837.2500     21.6401    106.6716     19.0271     61.1555
  1837.5000     21.4203    106.5225     18.8588     58.2038
  1837.7500     21.3122    106.4075     18.7351     56.0098
  1838.0000     21.2999    106.3199     18.6584     53.3742
  1838.2500     21.3291    106.2484     18.6327     52.3511
  1838.5000     21.3640    106.1860     18.6634     51.7388
  1838.7500     21.4224    106.1345     18.7534     51.7583
  1839.0000     21.5440    106.1017     18.9000     52.5414
  1839.2500     21.7425    106.0963     19.0931     53.6900
  1839.5000     21.9832    106.1242     19.3153     55.8586
  1839.7500     22.2155    106.1880     19.5445     56.9723
  1840.0000     22.4312    106.2882     19.7590     57.6436
  1840.2500     22.6569    106.4212     19.9445     57.7657
