~Version Information
 VERS.                                  2.0 : CWLS LAS VERSION
 WRAP.                                   NO : WRAPING MODE
 SWARE .                 MController 2.5.0N : SOFTWARE VERSION
~Well Information
 WELL.                     Commander 43-25Tr : WELL
 COMP.    Pioneer Natural Resources USA Inc : COMPANY
 FLD.                      Purgatoire River : FIELD
 LOC.                NE/SE Sec 26 T32S R67W : LOCATION
 DATE.                              4/14/05 : DATE(S) LOGGED
 SRVC.       Blanco Geological Services LLC : SERVICE COMPANY
 STAT.                                   CO : STATE
 CNTY.                           Las Animas : COUNTY
 CTRY.                                  USA : COUNTRY
 API.                       05-071-08341-00 : API NUMBER
 STRT.FT                             275.00 : START DEPTH
 STOP.FT                            1979.00 : STOP DEPTH
 STEP.FT                               1.00 : DEPTH INCREMENT
 NULL.                                -9999 : NULL VALUE
~Curve information
 DEPTH.FT                                   :
 ROP.MIN/FT                                 :
 GAS.UNITS                                  :
~ASCII Log data
# ...
      1075.0         0.27         57.8 
      1076.0         3.75        779.4 
      1077.0         0.10        802.3 
      1078.0         0.10        788.9 
      1079.0         0.17        749.0 
      1080.0         0.10        665.2 
      1081.0         0.17        599.5 
      1082.0         0.13        515.4 
      1083.0         0.13        483.4 
      1084.0         0.17        450.3 
      1085.0         0.20        440.0 
      1086.0         0.17        199.9 
      1087.0         0.23        187.8 
      1088.0         0.23        176.4 
      1089.0         0.25        165.6 
      1090.0         0.23        154.6 
      1091.0         0.23        145.7 
      1092.0         0.23        139.1 
      1093.0         0.23        133.6 
      1094.0         0.27        128.1 
      1095.0         0.20        122.3 
      1096.0         0.23        116.9 
      1097.0         0.23        110.6 
      1098.0         0.20        104.6 
      1099.0         0.20         98.7 
      1100.0         0.20         95.6 
      1101.0         0.20         92.3 
      1102.0         0.20         94.2 
      1103.0         0.20         94.6 
      1104.0         0.22         91.2 
      1105.0         0.20         86.9 
      1106.0         4.55        355.0 
      1107.0         0.33        343.8 
      1108.0         0.27        277.5 
      1109.0         0.27        224.1 
      1110.0         0.27        192.0 
      1111.0         0.23        172.3 
      1112.0         0.23        157.7 
      1113.0         0.25        143.8 
      1114.0         0.20        134.7 
      1115.0         0.23        129.2 
      1116.0         0.20        119.4 
      1117.0         0.23        112.4 
      1118.0         0.17        102.4 
      1119.0         0.20         97.4 
      1120.0         0.20         90.9 
      1121.0         0.17         83.9 
      1122.0         0.20         78.5 
      1123.0         0.20         73.0 
      1124.0         0.10         68.4 
      1125.0         0.10         67.1 
      1126.0         0.13         66.7 
      1127.0         0.13         68.6 
      1128.0         0.20         73.9 
      1129.0         0.23         84.8 
      1130.0         0.23        100.2 
      1131.0         0.25        125.5 
      1132.0         0.23        141.2 
      1133.0         0.20        141.4 
      1134.0         0.23        140.6 
      1135.0         0.20        137.3 
      1136.0         4.05        851.4 
      1137.0         0.43        620.4 
      1138.0         0.37        482.7 
      1139.0         0.27        440.0 
      1140.0         0.20        203.3 
      1141.0         0.17        197.6 
      1142.0         0.10        192.2 
      1143.0         0.17        188.7 
      1144.0         0.18        184.4 
      1145.0         0.20        179.4 
      1146.0         0.17        172.1 
      1147.0         0.27        167.1 
      1148.0         0.20        159.5 
      1149.0         0.20        155.6 
      1150.0         0.30        152.0 
      1151.0         0.20        147.6 
      1152.0         0.17        143.1 
      1153.0         0.23        139.4 
      1154.0         0.23        133.4 
      1155.0         0.27        125.0 
      1156.0         0.27        115.8 
      1157.0         0.17        111.3 
      1158.0         0.17        110.5 
      1159.0         0.18        110.2 
      1160.0         0.20        109.4 
      1161.0         0.23        110.6 
      1162.0         0.17        105.2 
      1163.0         0.17        100.0 
      1164.0         0.17         96.9 
      1165.0         0.23         95.2 
      1166.0         4.65        432.2 
      1167.0         0.27        203.7 
      1168.0         0.10        197.6 
      1169.0         0.20        200.6 
      1170.0         0.23        204.0 
      1171.0         0.28        204.6 
      1172.0         0.27        201.0 
      1173.0         0.27        193.4 
      1174.0         0.30        183.9 
      1175.0         0.20        171.6 
      1176.0         0.37        164.2 
      1177.0         0.17        150.7 
      1178.0         0.23        144.2 
      1179.0         0.27        136.0 
      1180.0         0.30        129.4 
      1181.0         0.27        123.5 
      1182.0         0.17        117.7 
      1183.0         0.20        115.0 
      1184.0         0.18        112.5 
      1185.0         0.17        110.6 
      1186.0         0.17        108.6 
      1187.0         0.17        106.9 
      1188.0         0.17        107.4 
      1189.0         0.17        107.5 
      1190.0         0.13        104.0 
      1191.0         0.20        100.0 
      1192.0         0.13         94.5 
      1193.0         0.33         91.3 
      1194.0         0.40         85.2 
      1195.0         0.53         76.4 
      1196.0         3.18        843.9 
      1197.0         0.20        650.9 
      1198.0         0.13        560.6 
      1199.0         0.20        522.9 
      1200.0         0.22        474.8 
      1201.0         0.23        497.4 
      1202.0         0.23        459.5 
      1203.0         0.20        440.0 
      1204.0         0.17        207.9 
      1205.0         0.30        196.2 
      1206.0         0.13        183.8 
      1207.0         0.13        179.2 
      1208.0         0.20        174.8 
      1209.0         0.20        170.1 
      1210.0         0.20        164.0 
      1211.0         0.20        156.4 
      1212.0         0.23        147.8 
      1213.0         0.20        140.0 
      1214.0         0.23        134.2 
      1215.0         0.23        129.6 
      1216.0         0.25        126.0 
      1217.0         0.20        122.6 
      1218.0         0.20        120.4 
      1219.0         0.20        124.6 
      1220.0         0.27        127.4 
      1221.0         0.20        121.3 
      1222.0         0.17        114.7 
      1223.0         0.17        109.1 
      1224.0         0.23        103.0 
      1225.0         0.20         97.6 
      1226.0         3.55       1201.4 
      1227.0         0.20       1005.2 
      1228.0         0.20        829.2 
      1229.0         0.27        683.2 
      1230.0         0.20        556.6 
      1231.0         0.27        498.4 
      1232.0         0.25        486.3 
      1233.0         0.23        440.0 
      1234.0         0.27        207.3 
      1235.0         0.23        189.4 
      1236.0         0.27        179.5 
      1237.0         0.23        170.5 
      1238.0         0.27        164.9 
      1239.0         0.23        157.7 
      1240.0         0.27        149.4 
      1241.0         0.20        140.4 
      1242.0         0.20        133.7 
      1243.0         0.23        129.1 
      1244.0         0.17        125.6 
      1245.0         0.27        120.2 
      1246.0         0.18        114.4 
      1247.0         0.17        111.6 
      1248.0         0.13        107.7 
      1249.0         0.13        104.0 
      1250.0         0.13        106.2 
      1251.0         0.17        106.4 
      1252.0         0.13        101.2 
      1253.0         0.13         94.9 
      1254.0         0.17         90.4 
      1255.0         0.13         85.9 
      1256.0         2.55        133.6 
      1257.0         0.27        171.9 
      1258.0         0.33        214.9 
      1259.0         0.20        225.6 
      1260.0         0.20        226.5 
      1261.0         0.17        222.7 
      1262.0         0.23        215.9 
      1263.0         0.20        219.2 
      1264.0         0.20        230.8 
      1265.0         0.20        240.0 
      1266.0         0.23        241.9 
      1267.0         0.27        239.8 
      1268.0         0.23        223.8 
      1269.0         0.18        204.7 
      1270.0         0.17        193.6 
      1271.0         0.17        185.8 
      1272.0         0.17        179.9 
      1273.0         0.13        173.2 
      1274.0         0.20        168.0 
