~Version Information
VERS.                      2.0: CWLS Log ASCII Standard - VERSION 2.0
WRAP.                       NO: One line per depth step
~Well Information Block
STRT.FT                -8.2500: 
STOP.FT              1119.7500: 
STEP.FT                 0.2500: 
NULL.                -999.2500: 
COMP.          Pioneer Natural Resources: COMPANY
WELL.             Linda T 32-3: WELL
FLD.           Purgatorie River: FIELD
LOC.           1350' FNL & 2290' FEL------: LOCATION
PROV.                       CO: PROVINCE
CNTY.               Las Animas: COUNTRY
SRVC.                         : SERVICE COMPANY
DATE.          Thu Feb 10 08:20:40 2005: LOG DATE
UWI.          005 071 08215   : UNIQUE WELL ID
~Curve Information Block
DEPT.FT            0 000 00 00: Depth
CCL.                          : Casing Collar Locator
TT3.usec                      : CBL 3' Travel Time
AMP3.mV                       : CBL 3' Amplitude
GR.GAPI                       : Gamma Ray
~Parameter Information Block
~A  Depth       CCL         TT3         AMP3         GR     
# ...
   226.2500      0.0000    730.8478     11.0319     88.6947
   226.5000      0.0000    726.4004     11.1869     83.1067
   226.7500      0.0000    720.0847     11.2703     79.0420
   227.0000      0.0000    713.3618     11.2594     77.7489
   227.2500      0.0000    704.3292     11.1901     79.2617
   227.5000      0.0000    689.7406     11.1099     82.5023
   227.7500      0.0000    669.4324     11.0408     86.0678
   228.0000      0.0000    649.9617     10.9781     89.1337
   228.2500      0.0000    641.7980     10.9122     91.6234
   228.5000      0.0000    650.1520     10.8472     93.5316
   228.7500      0.0000    669.5868     10.8012     94.4910
   229.0000      0.0000    689.3738     10.7828     94.1108
   229.2500      0.0000    702.5551     10.7650     92.3291
   229.5000      0.0000    708.7066     10.6954     89.4132
   229.7500      0.0000    710.6143     10.5408     86.0144
   230.0000      0.0000    710.8238     10.3173     83.0521
   230.2500      0.0000    710.6670     10.0790     81.2152
   230.5000      0.0000    710.6431      9.8866     80.7975
   230.7500      0.0000    710.8408      9.7839     82.0259
   231.0000      0.0000    711.1741      9.7805     84.9365
   231.2500      0.0000    711.4860      9.8467     88.7432
   231.5000      0.0000    711.6794      9.9322     91.7618
   231.7500      0.0000    711.7745     10.0024     92.4148
   232.0000      0.0000    711.8734     10.0599     90.4929
   232.2500      0.0000    712.1088     10.1308     87.4328
   232.5000      0.0000    712.6743     10.2251     85.1362
   232.7500      0.0000    713.9594     10.3055     84.2932
   233.0000      0.0000    716.6315     10.3006     84.0126
   233.2500      0.0000    721.3491     10.1532     83.2816
   233.5000      0.0000    728.0673      9.8648     82.4797
   233.7500      0.0000    735.6010      9.5000     83.2108
   234.0000      0.0000    742.1810      9.1488     86.8215
   234.2500      0.0000    746.6165      8.8725     93.0570
   234.5000      0.0000    748.8694      8.6782     99.8895
   234.7500      0.0000    749.6308      8.5410    104.9187
   235.0000      0.0000    749.6134      8.4385    107.3273
   235.2500      0.0000    749.2515      8.3574    108.3217
   235.5000      0.0000    748.7955      8.2807    109.6300
   235.7500      0.0000    748.4377      8.1915    111.8620
   236.0000      0.0000    748.2744      8.0904    114.2239
   236.2500      0.0000    748.2305      8.0013    115.3664
   236.5000      0.0000    748.1782      7.9558    114.3540
   236.7500      0.0000    748.2069      7.9812    111.3190
   237.0000      0.0000    748.7714      8.0956    107.8484
   237.2500      0.0000    750.4412      8.2975    106.6585
   237.5000      0.0000    753.2455      8.5566    109.8321
   237.7500      0.0000    755.8272      8.8266    116.6840
   238.0000      0.0000    755.2362      9.0678    123.8773
   238.2500      0.0000    747.7736      9.2624    128.1410
   238.5000      0.0000    731.0149      9.4188    128.5896
   238.7500      0.0000    707.1298      9.5675    126.5640
   239.0000      0.0000    685.4318      9.7424    124.0266
   239.2500      0.0000    678.8000      9.9545    122.2755
   239.5000      0.0000    693.5661     10.1860    121.5389
   239.7500      0.0000    723.2611     10.4048    121.1651
   240.0000      0.0000    754.3267     10.5740    120.2343
   240.2500      0.0000    776.7919     10.6528    118.4460
   240.5000      0.0000    788.4661     10.6131    116.3233
   240.7500      0.0000    791.8408     10.4642    114.1941
   241.0000      0.0000    789.8387     10.2588    111.4447
   241.2500      0.0000    783.3674     10.0702    107.4057
   241.5000      0.0000    769.3528      9.9648    102.5599
   241.7500      0.0000    739.6197      9.9858     98.3027
   242.0000      0.0000    685.2054     10.1381     95.7062
   242.2500      0.0000    607.1608     10.3783     94.7086
   242.5000      0.0000    524.6105     10.6231     94.2101
   242.7500      0.0000    468.2263     10.7814     92.7142
   243.0000      0.0000    461.2954     10.7870     89.0863
   243.2500      0.0000    504.2538     10.6179     82.9772
   243.5000      0.0000    575.3773     10.3028     74.8347
   243.7500      0.0000    645.9334      9.9134     65.8666
   244.0000      0.0000    696.3726      9.5413     57.9201
   244.2500      0.0000    721.0890      9.2692     52.8495
   244.5000      0.0000    721.5785      9.1469     51.5259
   244.7500      0.0000    698.6738      9.1784     53.3662
   245.0000      0.0000    652.7484      9.3260     56.7872
   245.2500      0.0000    591.1954      9.5238     60.1591
   245.5000      0.0000    532.6454      9.6979     62.6263
   245.7500      0.0000    498.7866      9.7979     64.3617
   246.0000      0.0000    499.4861      9.8244     66.0426
   246.2500      0.0000    526.8905      9.8249     67.9742
   246.5000      0.0000    562.2382      9.8609     69.8097
   246.7500      0.0000    584.5328      9.9809     71.0830
   247.0000      0.0000    576.6884     10.2069     71.9429
   247.2500      0.0000    533.7073     10.5267     73.3976
   247.5000      0.0000    468.2876     10.8986     76.6017
   247.7500      0.0000    403.4031     11.2805     81.5768
   248.0000      0.0000    356.3696     11.6487     86.8979
   248.2500      0.0000    330.4930     11.9789     91.0168
   248.5000      0.0000    319.4969     12.2197     93.6296
   248.7500      0.0000    315.8932     12.3121     95.5700
   249.0000      0.0000    315.0692     12.2414     97.7418
   249.2500      0.0000    315.1417     12.0624    100.4273
   249.5000      0.0000    315.5902     11.8642    103.2256
   249.7500      0.0000    316.7397     11.7104    105.2996
   250.0000      0.0000    320.1623     11.6047    105.9120
   250.2500      0.0000    329.6361     11.5053    105.1778
   250.5000      0.0000    351.0103     11.3656    104.3791
   250.7500      0.0000    389.3539     11.1640    105.0918
   251.0000      0.0000    444.7545     10.8986    107.6021
   251.2500      0.0000    511.2689     10.5691    110.2078
   251.5000      0.0000    579.9561     10.1828    110.3269
   251.7500      0.0000    641.5387      9.7805    106.5398
   252.0000      0.0000    687.6651      9.4371     99.7205
   252.2500      0.0000    714.2299      9.2184     92.2528
   252.5000      0.0000    724.6793      9.1349     86.1609
   252.7500      0.0000    727.6193      9.1372     82.1091
   253.0000      0.0000    730.3139      9.1527     80.0399
   253.2500      0.0000    734.9163      9.1314     80.1117
   253.5000      0.0000    739.8021      9.0702     82.3681
   253.7500      0.0000    742.8995      9.0075     85.8174
   254.0000      0.0000    743.7035      8.9917     88.6767
   254.2500      0.0000    743.3937      9.0328     89.7557
   254.5000      0.0000    743.6227      9.0765     89.1761
   254.7500      0.0000    745.1321      9.0394     87.7366
   255.0000      0.0000    747.3222      8.8844     86.2791
   255.2500      0.0000    749.1243      8.6524     85.7798
   255.5000      0.0000    750.0696      8.4178     87.2716
   255.7500      0.0000    750.4251      8.2317     91.1047
   256.0000      0.0000    750.6187      8.1105     96.4498
   256.2500      0.0000    750.8210      8.0535    101.7183
   256.5000      0.0000    750.9310      8.0494    105.5528
   256.7500      0.0000    750.6648      8.0768    107.6768
   257.0000      0.0000    749.5292      8.1082    108.8000
   257.2500      0.0000    746.8237      8.1116    109.5188
   257.5000      0.0000    741.9757      8.0544    109.5016
   257.7500      0.0000    735.2260      7.9237    107.9158
   258.0000      0.0000    728.0412      7.7478    104.1805
   258.2500      0.0000    722.4941      7.5895     98.0660
   258.5000      0.0000    719.7997      7.5093     89.6543
   258.7500      0.0000    719.3380      7.5360     79.6921
   259.0000      0.0000    719.2377      7.6679     69.7072
   259.2500      0.0000    718.0127      7.8966     61.5370
   259.5000      0.0000    715.2804      8.2223     56.7407
