~Version Information
VERS.                      2.0: CWLS Log ASCII Standard - VERSION 2.0
WRAP.                       NO: One line per depth step
~Well Information Block
STRT.FT               450.0000: 
STOP.FT              1642.0000: 
STEP.FT                 0.1000: 
NULL.                -999.2500: 
COMP.          Pioneer Natural Resources: COMPANY
WELL.           Buckhorn 12-21: WELL
FLD.           Purgatoire River: FIELD
LOC.           2450' FNL & 608' FWL: LOCATION
PROV.                 Colorado: PROVINCE
CNTY.               Las Animas: COUNTRY
SRVC.                Patterson: SERVICE COMPANY
DATE.          Wed Dec 01 15:08:21 2004: LOG DATE
UWI.           05 071 08129 00: UNIQUE WELL ID
~Curve Information Block
DEPT.FT            0 000 00 00: Depth
NPOR.pu                       : Neutron Porosity
CCL.                          : Casing Collar Locator
GR.GAPI                       : Gamma Ray
~Parameter Information Block
~A  Depth       NPOR        CCL          GR     
   450.0000     34.0942      0.0000     47.7050
   450.1000     34.0942      0.0000     47.7050
   450.2000     34.0942      0.0000     47.7050
   450.3000     34.0592      0.0000     48.5903
   450.4000     34.0592      0.0000     48.5903
   450.5000     33.9603      0.0000     47.8266
   450.6000     33.9603      0.0000     47.8266
   450.7000     33.9603      0.0000     47.8266
   450.8000     33.7441      0.0000     46.4516
   450.9000     33.7441      0.0000     46.4516
   451.0000     33.4190      0.0000     45.7085
   451.1000     33.4190      0.0000     45.7085
   451.2000     33.4190      0.0000     45.7085
   451.3000     33.1060      0.0000     45.8944
   451.4000     33.1060      0.0000     45.8944
   451.5000     32.9512      0.0000     46.2240
   451.6000     32.9512      0.0000     46.2240
   451.7000     32.9512      0.0000     46.2240
   451.8000     32.9926      0.0000     45.7868
   451.9000     32.9926      0.0000     45.7868
   452.0000     33.1297      0.0000     44.3889
   452.1000     33.1297      0.0000     44.3889
   452.2000     33.1297      0.0000     44.3889
   452.3000     33.2197      0.0000     42.4535
   452.4000     33.2197      0.0000     42.4535
   452.5000     33.1805      0.0000     40.5752
   452.6000     33.1805      0.0000     40.5752
   452.7000     33.1805      0.0000     40.5752
   452.8000     33.0061      0.0000     39.3787
   452.9000     33.0061      0.0000     39.3787
   453.0000     32.7370      0.0000     39.3469
   453.1000     32.7370      0.0000     39.3469
   453.2000     32.7370      0.0000     39.3469
   453.3000     32.4493      0.0000     40.3510
   453.4000     32.4493      0.0000     40.3510
   453.5000     32.2365      0.0000     41.5259
   453.6000     32.2365      0.0000     41.5259
   453.7000     32.2365      0.0000     41.5259
   453.8000     32.1561      0.0000     41.9840
   453.9000     32.1561      0.0000     41.9840
   454.0000     32.1830      0.0000     41.7126
   454.1000     32.1830      0.0000     41.7126
   454.2000     32.1830      0.0000     41.7126
   454.3000     32.2369      0.0000     41.6683
   454.4000     32.2369      0.0000     41.6683
   454.5000     32.2678      0.0000     42.9684
   454.6000     32.2678      0.0000     42.9684
   454.7000     32.2678      0.0000     42.9684
   454.8000     32.3044      0.0000     45.9144
   454.9000     32.3044      0.0000     45.9144
   455.0000     32.4022      0.0000     49.6894
   455.1000     32.4022      0.0000     49.6894
   455.2000     32.4022      0.0000     49.6894
   455.3000     32.5527      0.0000     52.9617
   455.4000     32.5527      0.0000     52.9617
   455.5000     32.6764      0.0000     54.7228
   455.6000     32.6764      0.0000     54.7228
   455.7000     32.6764      0.0000     54.7228
   455.8000     32.7198      0.0000     54.6836
   455.9000     32.7198      0.0000     54.6836
   456.0000     32.7277      0.0000     53.2303
   456.1000     32.7277      0.0000     53.2303
   456.2000     32.7277      0.0000     53.2303
   456.3000     32.7908      0.0000     51.2106
   456.4000     32.7908      0.0000     51.2106
   456.5000     32.9370      0.0000     49.5722
   456.6000     32.9370      0.0000     49.5722
   456.7000     32.9370      0.0000     49.5722
   456.8000     33.0917      0.0000     48.9199
   456.9000     33.0917      0.0000     48.9199
   457.0000     33.1283      0.0000     49.3220
   457.1000     33.1283      0.0000     49.3220
   457.2000     33.1283      0.0000     49.3220
   457.3000     32.9515      0.0000     50.5531
   457.4000     32.9515      0.0000     50.5531
   457.5000     32.5623      0.0000     52.4205
   457.6000     32.5623      0.0000     52.4205
   457.7000     32.5623      0.0000     52.4205
   457.8000     32.0652      0.0000     54.7727
   457.9000     32.0652      0.0000     54.7727
   458.0000     31.6053      0.0000     57.2944
   458.1000     31.6053      0.0000     57.2944
   458.2000     31.6053      0.0000     57.2944
   458.3000     31.2774      0.0000     59.3471
   458.4000     31.2774      0.0000     59.3471
   458.5000     31.0810      0.0000     59.9794
   458.6000     31.0810      0.0000     59.9794
   458.7000     31.0810      0.0000     59.9794
   458.8000     30.9584      0.0000     58.3220
   458.9000     30.9584      0.0000     58.3220
   459.0000     30.8848      0.0000     54.5130
   459.1000     30.8848      0.0000     54.5130
   459.2000     30.8848      0.0000     54.5130
   459.3000     30.9235      0.0000     50.4605
   459.4000     30.9235      0.0000     50.4605
   459.5000     31.1829      0.0000     49.2316
   459.6000     31.1829      0.0000     49.2316
   459.7000     31.1829      0.0000     49.2316
   459.8000     31.7200      0.0000     52.9700
   459.9000     31.7200      0.0000     52.9700
   460.0000     32.4902      0.0000     61.1011
   460.1000     32.4902      0.0000     61.1011
   460.2000     32.4902      0.0000     61.1011
   460.3000     33.3751      0.0000     70.6855
   460.4000     33.3751      0.0000     70.6855
   460.5000     34.2559      0.0000     78.6487
   460.6000     34.2559      0.0000     78.6487
   460.7000     34.2559      0.0000     78.6487
   460.8000     35.0748      0.0000     83.7518
   460.9000     35.0748      0.0000     83.7518
   461.0000     35.8280      0.0000     86.6577
   461.1000     35.8280      0.0000     86.6577
   461.2000     35.8280      0.0000     86.6577
   461.3000     36.5014      0.0000     88.7129
   461.4000     36.5014      0.0000     88.7129
   461.5000     37.0507      0.0000     90.9335
   461.6000     37.0507      0.0000     90.9335
   461.7000     37.0507      0.0000     90.9335
   461.8000     37.4658      0.0000     93.4961
   461.9000     37.4658      0.0000     93.4961
   462.0000     37.8173      0.0000     95.5020
   462.1000     37.8173      0.0000     95.5020
   462.2000     37.8173      0.0000     95.5020
   462.3000     38.2073      0.0000     95.3752
   462.4000     38.2073      0.0000     95.3752
   462.5000     38.6769      0.0000     92.0677
   462.6000     38.6769      0.0000     92.0677
   462.7000     38.6769      0.0000     92.0677
   462.8000     39.1613      0.0000     86.0869
   462.9000     39.1613      0.0000     86.0869
   463.0000     39.5294      0.0000     79.1886
   463.1000     39.5294      0.0000     79.1886
   463.2000     39.5294      0.0000     79.1886
   463.3000     39.6897      0.0000     73.0502
   463.4000     39.6897      0.0000     73.0502
   463.5000     39.6764      0.0000     68.4484
   463.6000     39.6764      0.0000     68.4484
   463.7000     39.6764      0.0000     68.4484
   463.8000     39.6137      0.0000     65.5769
   463.9000     39.6137      0.0000     65.5769
   464.0000     39.5792      0.0000     64.7287
   464.1000     39.5792      0.0000     64.7287
   464.2000     39.5792      0.0000     64.7287
   464.3000     39.5362      0.0000     66.4839
   464.4000     39.5362      0.0000     66.4839
   464.5000     39.4075      0.0000     71.2602
   464.6000     39.4075      0.0000     71.2602
   464.7000     39.4075      0.0000     71.2602
   464.8000     39.1594      0.0000     78.6388
   464.9000     39.1594      0.0000     78.6388
   465.0000     38.7959      0.0000     87.1821
   465.1000     38.7959      0.0000     87.1821
   465.2000     38.7959      0.0000     87.1821
   465.3000     38.3349      0.0000     95.1797
   465.4000     38.3349      0.0000     95.1797
   465.5000     37.8238      0.0000    101.6480
   465.6000     37.8238      0.0000    101.6480
   465.7000     37.8238      0.0000    101.6480
   465.8000     37.3260      0.0000    106.4743
   465.9000     37.3260      0.0000    106.4743
   466.0000     36.8601      0.0000    109.7794
   466.1000     36.8601      0.0000    109.7794
   466.2000     36.8601      0.0000    109.7794
   466.3000     36.3869      0.0000    111.5030
   466.4000     36.3869      0.0000    111.5030
   466.5000     35.8770      0.0000    111.7165
   466.6000     35.8770      0.0000    111.7165
