~Version Information
 VERS.                                  2.0 : CWLS LAS VERSION
 WRAP.                                   NO : WRAPING MODE
 SWARE .                 MController 2.5.0J : SOFTWARE VERSION
~Well Information
 WELL.                        HARRIER 44-33 : WELL
 COMP.    PIONEER NATURAL RESOURCES USA INC : COMPANY
 FLD.                      PURGATOIRE RIVER : FIELD
 LOC.                SE/SE SEC 33 T32S R66W : LOCATION
 DATE.                          06/19-20/05 : DATE(S) LOGGED
 SRVC.       BLANCO GEOLOGICAL SERVICES LLC : SERVICE COMPANY
 STAT.                             COLORADO : STATE
 CNTY.                           LAS ANIMAS : COUNTY
 CTRY.                                  USA : COUNTRY
 API.                       05-071-08398-00 : API NUMBER
 STRT.FT                             665.00 : START DEPTH
 STOP.FT                            2381.00 : STOP DEPTH
 STEP.FT                               1.00 : DEPTH INCREMENT
 NULL.                                -9999 : NULL VALUE
~Curve information
 DEPTH.FT                                   :
 ROP.MIN/FT                                 :
 GAS.UNITS                                  :
~ASCII Log data
# ...
      2065.0         0.30         65.0 
      2066.0         4.68        114.5 
      2067.0         0.40        165.9 
      2068.0         0.37        221.0 
      2069.0         0.30        231.1 
      2070.0         0.28        227.5 
      2071.0         0.23        206.3 
      2072.0         0.20        182.5 
      2073.0         0.23        165.5 
      2074.0         0.27        147.1 
      2075.0         0.27        130.5 
      2076.0         0.30        116.5 
      2077.0         0.33        103.1 
      2078.0         0.33         92.3 
      2079.0         0.27         87.0 
      2080.0         0.13         88.8 
      2081.0         0.13         90.6 
      2082.0         0.13         91.5 
      2083.0         0.13         91.9 
      2084.0         0.13         92.0 
      2085.0         0.25        103.0 
      2086.0         0.33        142.3 
      2087.0         0.30        169.5 
      2088.0         0.23        177.3 
      2089.0         0.33        177.7 
      2090.0         0.17        169.8 
      2091.0         0.27        163.4 
      2092.0         0.30        154.0 
      2093.0         0.27        141.0 
      2094.0         0.33        128.5 
      2095.0         0.33        128.0 
      2096.0         2.42        130.5 
      2097.0         0.43        191.0 
      2098.0         0.37        248.0 
      2099.0         0.30        299.8 
      2100.0         0.28        328.1 
      2101.0         0.60        330.7 
      2102.0         0.17        285.4 
      2103.0         0.10        263.7 
      2104.0         0.20        250.8 
      2105.0         0.27        225.7 
      2106.0         0.33        193.3 
      2107.0         0.30        171.7 
      2108.0         0.30        173.1 
      2109.0         0.33        172.2 
      2110.0         0.33        165.2 
      2111.0         0.35        164.8 
      2112.0         0.33        167.6 
      2113.0         0.30        167.3 
      2114.0         0.33        164.3 
      2115.0         0.30        156.5 
      2116.0         0.30        149.4 
      2117.0         0.30        143.7 
      2118.0         0.30        139.4 
      2119.0         0.30        136.4 
      2120.0         0.27        135.0 
      2121.0         0.30        134.6 
      2122.0         0.28        132.8 
      2123.0         0.30        130.1 
      2124.0         0.27        126.7 
      2125.0         0.37        125.1 
      2126.0         2.35        134.2 
      2127.0         0.40        205.7 
      2128.0         0.20        249.1 
      2129.0         0.67        411.0 
      2130.0         0.57        471.7 
      2131.0         0.43        471.0 
      2132.0         0.43        400.8 
      2133.0         0.40        298.7 
      2134.0         0.35        234.6 
      2135.0         0.50        200.1 
      2136.0         0.30        169.4 
      2137.0         0.13        156.3 
      2138.0         0.27        149.4 
      2139.0         0.13        133.5 
      2140.0         0.20        129.5 
      2141.0         0.30        135.2 
      2142.0         0.30        140.8 
      2143.0         0.23        146.2 
      2144.0         0.33        149.1 
      2145.0         0.30        148.8 
      2146.0         0.35        144.3 
      2147.0         0.33        136.6 
      2148.0         0.33        130.3 
      2149.0         0.30        126.0 
      2150.0         0.33        122.4 
      2151.0         0.27        118.2 
      2152.0         0.27        115.3 
      2153.0         0.23        113.2 
      2154.0         0.27        112.3 
      2155.0         0.30        111.0 
      2156.0         3.72        336.7 
      2157.0         0.52        391.8 
      2158.0         0.50        381.8 
      2159.0         0.40        289.5 
      2160.0         0.37        234.2 
      2161.0         0.40        198.3 
      2162.0         0.33        171.5 
      2163.0         0.40        156.7 
      2164.0         0.33        142.1 
      2165.0         0.32        133.5 
      2166.0         0.33        131.1 
      2167.0         0.37        130.7 
      2168.0         0.30        129.8 
      2169.0         0.27        128.0 
      2170.0         0.23        125.5 
      2171.0         0.20        122.8 
      2172.0         0.17        121.0 
      2173.0         0.20        119.7 
      2174.0         0.23        117.6 
      2175.0         0.23        115.9 
      2176.0         0.37        114.7 
      2177.0         0.42        112.9 
      2178.0         0.30        108.4 
      2179.0         0.23        104.1 
      2180.0         0.27        101.8 
      2181.0         0.20         99.6 
      2182.0         0.20         99.4 
      2183.0         0.17        100.1 
      2184.0         0.27        100.5 
      2185.0         0.10         99.2 
      2186.0         2.85        258.3 
      2187.0         0.20        315.1 
      2188.0         0.40        478.5 
      2189.0         0.40       1408.8 
      2190.0         0.30       1351.5 
      2191.0         0.17       1257.2 
      2192.0         0.27       1200.9 
      2193.0         0.38       1103.6 
      2194.0         0.57        970.5 
      2195.0         0.33        863.0 
      2196.0         0.37        814.8 
      2197.0         0.37        770.7 
      2198.0         0.33        736.7 
      2199.0         0.37        715.8 
      2200.0         0.30        705.7 
      2201.0         0.33        706.7 
      2202.0         0.32        705.0 
      2203.0         0.17        696.2 
      2204.0         0.17        688.1 
      2205.0         0.20        679.7 
      2206.0         0.13        669.3 
      2207.0         0.20        662.5 
      2208.0         0.17        658.5 
      2209.0         0.23        652.1 
      2210.0         0.20        654.8 
      2211.0         0.13        659.5 
      2212.0         0.17        667.6 
      2213.0         0.27        676.3 
      2214.0         0.37        678.4 
      2215.0         0.33        677.0 
      2216.0         3.28        860.6 
      2217.0         0.17        927.3 
      2218.0         0.75       1127.1 
      2219.0         0.67       1122.4 
      2220.0         0.27       1029.4 
      2221.0         0.20        942.2 
      2222.0         0.23        891.0 
      2223.0         0.30        838.1 
      2224.0         0.33        777.8 
      2225.0         0.30        753.8 
      2226.0         0.17        760.9 
      2227.0         0.23        765.3 
      2228.0         0.30        763.3 
      2229.0         0.18        750.5 
      2230.0         0.27        755.2 
      2231.0         0.40        782.8 
      2232.0         0.33        792.6 
      2233.0         0.33        790.9 
      2234.0         0.33        773.7 
      2235.0         0.33        745.1 
      2236.0         0.27        718.5 
      2237.0         0.20        701.6 
      2238.0         0.10        691.5 
      2239.0         0.13        688.5 
      2240.0         0.23        683.4 
      2241.0         0.17        687.5 
      2242.0         0.28        771.0 
      2243.0         0.30        860.6 
      2244.0         0.33        921.3 
      2245.0         0.47        934.4 
      2246.0         2.62       1034.8 
      2247.0         0.23       1165.5 
      2248.0         0.67       1567.5 
      2249.0         0.37       1709.7 
      2250.0         0.23       1739.3 
      2251.0         0.30       1728.2 
      2252.0         0.30       1575.6 
      2253.0         0.33       1369.4 
      2254.0         0.37       1197.9 
      2255.0         0.35       1071.5 
      2256.0         0.27        994.7 
      2257.0         0.27        948.6 
      2258.0         0.27        908.8 
      2259.0         0.37        869.7 
      2260.0         0.30        828.6 
      2261.0         0.27        809.4 
      2262.0         0.20        804.4 
      2263.0         0.17        802.7 
      2264.0         0.30        798.6 
