~Version Information
VERS.                      2.0: CWLS Log ASCII Standard - VERSION 2.0
WRAP.                       NO: One line per depth step
~Well Information Block
STRT.FT               425.0000: 
STOP.FT              2461.0000: 
STEP.FT                 0.1000: 
NULL.                -999.2500: 
COMP.          Evergreen Operating Corporation: COMPANY
WELL.              Nomad 32-10: WELL
FLD.           Purgatorie River: FIELD
LOC.           2281' FNL & 1585' FEL: LOCATION
PROV.                 Colorado: PROVINCE
CNTY.               Las Animas: COUNTRY
SRVC.                Patterson: SERVICE COMPANY
DATE.          Thu Aug 12 11:13:52 2004: LOG DATE
UWI.           05 071 08127 00: UNIQUE WELL ID
~Curve Information Block
DEPT.FT            0 000 00 00: Depth
DCAL.in                       : CDL Caliper
RHOB.g/cc                     : CDL Bulk Density
RHOC.g/cc                     : CDL Density Correction
DPOR.pu                       : CDL Density Porosity
NPOR.pu                       : Neutron Porosity
GR.GAPI                       : Gamma Ray
~Parameter Information Block
~A  Depth       DCAL        RHOB        RHOC        DPOR        NPOR         GR     
# ...
  1759.4000      8.1345      2.6229      0.0396      1.6412     19.2224     95.0499
  1759.5000      8.1277      2.6063      0.0636      2.6492     19.1330     89.9679
  1759.6000      8.1277      2.5842      0.0133      3.9888     19.5106     88.5214
  1759.7000      8.1277      2.5706      0.0192      4.8148     20.0808     90.9653
  1759.8000      8.1340      2.5655      0.0607      5.1217     20.2612     97.0991
  1759.9000      8.1340      2.5713      0.0491      4.7715     19.7630    103.9904
  1760.0000      8.1575      2.6001      0.0833      3.0249     19.0016    105.7071
  1760.1000      8.1575      2.6351      0.1486      0.9052     18.5980    102.1680
  1760.2000      8.1575      2.6422      0.1237      0.4741     18.8799    101.1231
  1760.3000      8.1332      2.6214      0.1337      1.7349     19.5167    104.8726
  1760.4000      8.1332      2.5996      0.0744      3.0566     19.9779    107.1397
  1760.5000      8.1072      2.5896      0.0809      3.6587     20.3733    107.7175
  1760.6000      8.1072      2.5828      0.0487      4.0707     21.1009    110.0759
  1760.7000      8.1072      2.5731      0.0448      4.6595     21.7514    109.3712
  1760.8000      8.1241      2.5656     -0.0012      5.1155     21.6588    102.1942
  1760.9000      8.1241      2.5669      0.0295      5.0369     21.0997     97.6902
  1761.0000      8.1348      2.5687      0.0855      4.9261     20.7948    103.0203
  1761.1000      8.1348      2.5570      0.0541      5.6391     20.9031    110.8157
  1761.2000      8.1348      2.5348      0.0469      6.9792     20.9510    114.8152
  1761.3000      8.1629      2.5201     -0.0014      7.8730     20.9021    119.0381
  1761.4000      8.1629      2.5226      0.0396      7.7241     21.4672    126.1830
  1761.5000      8.1812      2.5292      0.0688      7.3221     22.7654    132.7354
  1761.6000      8.1812      2.5329      0.0220      7.0944     24.0961    135.7720
  1761.7000      8.1812      2.5424      0.0567      6.5198     25.1048    137.2087
  1761.8000      8.1276      2.5502      0.1034      6.0506     25.9251    137.3360
  1761.9000      8.1276      2.5479      0.0813      6.1869     26.3215    134.4034
  1762.0000      8.1131      2.5429      0.1195      6.4891     26.2379    130.9269
  1762.1000      8.1131      2.5371      0.1147      6.8449     26.2799    128.2246
  1762.2000      8.1131      2.5248      0.1106      7.5907     26.6419    126.3252
  1762.3000      8.1297      2.5042      0.0681      8.8386     26.6505    127.2676
  1762.4000      8.1297      2.4795      0.0660     10.3348     25.8857    127.6207
  1762.5000      8.1320      2.4505      0.0797     12.0927     24.9879    124.9767
  1762.6000      8.1320      2.4210      0.0379     13.8765     24.7345    127.2378
  1762.7000      8.1320      2.4114      0.0224     14.4622     25.3056    137.9079
  1762.8000      8.1336      2.4322      0.0615     13.1976     26.2280    149.7479
  1762.9000      8.1336      2.4688      0.1031     10.9821     26.6065    159.7557
  1763.0000      8.1637      2.5017      0.0962      8.9902     26.2002    164.6241
  1763.1000      8.1637      2.5229      0.1502      7.7028     25.4545    159.2024
  1763.2000      8.1637      2.5326      0.1414      7.1125     24.7546    149.1322
  1763.3000      8.2497      2.5346      0.1525      6.9949     24.3176    141.0659
  1763.4000      8.2497      2.5336      0.1087      7.0562     24.0702    135.0497
  1763.5000      8.2433      2.5356      0.0588      6.9319     23.7841    128.8762
  1763.6000      8.2433      2.5405      0.0661      6.6351     23.5194    122.3218
  1763.7000      8.2433      2.5455      0.0390      6.3307     23.7286    119.1103
  1763.8000      8.1740      2.5513      0.0739      5.9821     24.4858    117.4057
  1763.9000      8.1740      2.5543      0.0433      5.8013     25.1172    111.8954
  1764.0000      8.1767      2.5530      0.0613      5.8775     25.1177    106.6567
  1764.1000      8.1767      2.5478      0.0589      6.1962     24.7278    109.4471
  1764.2000      8.1767      2.5363      0.0175      6.8889     24.4609    118.8334
  1764.3000      8.1868      2.5162      0.0409      8.1072     24.4880    126.3331
  1764.4000      8.1868      2.4895      0.0346      9.7295     24.7272    131.8077
  1764.5000      8.1507      2.4648      0.0372     11.2253     25.3948    140.8424
  1764.6000      8.1507      2.4541     -0.0009     11.8750     26.3488    148.7189
  1764.7000      8.1507      2.4605      0.0756     11.4840     26.8878    147.7314
  1764.8000      8.1124      2.4719      0.0956     10.7960     26.7652    141.1785
  1764.9000      8.1124      2.4801      0.1050     10.2953     26.6879    138.8954
  1765.0000      8.1305      2.4827      0.0932     10.1417     27.1129    145.2101
  1765.1000      8.1305      2.4707      0.1032     10.8674     27.6265    152.3138
  1765.2000      8.1305      2.4519      0.0483     12.0078     27.9185    153.1573
  1765.3000      8.1522      2.4511      0.0765     12.0550     28.1780    151.1934
  1765.4000      8.1522      2.4704      0.1132     10.8820     28.4464    152.2116
  1765.5000      8.1641      2.4893      0.1250      9.7403     28.1624    158.5718
  1765.6000      8.1641      2.4964      0.1151      9.3083     27.3021    165.3982
  1765.7000      8.1641      2.4951      0.1324      9.3907     26.5580    165.2754
  1765.8000      8.1859      2.4891      0.1226      9.7512     26.4926    160.1044
  1765.9000      8.1859      2.4832      0.0921     10.1108     27.2377    155.5558
  1766.0000      8.2375      2.4709      0.1369     10.8528     28.4404    151.2020
  1766.1000      8.2375      2.4344      0.0889     13.0663     29.5528    146.7328
  1766.2000      8.2375      2.3724      0.0414     16.8221     30.0121    144.2881
  1766.3000      8.2415      2.2921      0.0371     21.6885     29.7232    144.9378
  1766.4000      8.2415      2.1901      0.0048     27.8707     29.3525    148.4124
  1766.5000      8.2250      2.0721     -0.0444     35.0250     29.5672    150.5780
  1766.6000      8.2250      1.9644     -0.0836     41.5497     30.2230    144.5885
  1766.7000      8.2250      1.8966     -0.0776     45.6625     30.7111    132.6790
  1766.8000      8.1981      1.8834     -0.0778     46.4614     30.8531    124.4513
  1766.9000      8.1981      1.9210     -0.0186     44.1829     30.7822    121.4938
  1767.0000      8.1903      1.9899      0.0669     40.0090     30.2693    118.4813
  1767.1000      8.1903      2.0635      0.1633     35.5481     29.2921    115.1330
  1767.2000      8.1903      2.1257      0.1719     31.7740     27.8072    115.2159
  1767.3000      8.2034      2.1814      0.1903     28.3991     25.6497    120.4079
  1767.4000      8.2034      2.2412      0.2121     24.7762     23.6650    124.7241
  1767.5000      8.2824      2.3057      0.2141     20.8676     22.7583    121.5598
  1767.6000      8.2824      2.3672      0.1637     17.1381     22.4938    115.2780
  1767.7000      8.2824      2.4225      0.0744     13.7876     22.3159    111.8059
  1767.8000      8.1773      2.4693      0.0635     10.9503     22.3532    110.8862
  1767.9000      8.1773      2.5023      0.0332      8.9486     22.6843    110.9709
  1768.0000      8.1667      2.5231      0.0466      7.6932     23.2418    114.4124
  1768.1000      8.1667      2.5379      0.0348      6.7941     23.9215    122.4610
  1768.2000      8.1667      2.5460      0.0615      6.3037     24.6756    130.9032
  1768.3000      8.1774      2.5374      0.0413      6.8266     25.4854    138.1239
  1768.4000      8.1774      2.5180      0.0301      7.9992     26.2447    144.6206
  1768.5000      8.1637      2.5051      0.0186      8.7833     26.8654    148.6866
  1768.6000      8.1637      2.4995      0.0511      9.1203     27.1924    148.2368
  1768.7000      8.1637      2.5000      0.0369      9.0881     26.8764    146.1138
  1768.8000      8.1605      2.5141      0.0720      8.2335     26.1129    147.9930
  1768.9000      8.1605      2.5388      0.0632      6.7420     25.7899    151.5329
