~Version Information
 VERS.                      2.0: CWLS Log ASCII Standard - VERSION 2.0
 WRAP.                       NO: One line per depth step
 ~Well Information Block
 STRT.FT                -8.0000: 
 STOP.FT              2581.0000: 
 STEP.FT                 0.2500: 
 NULL.                -999.2500: 
 COMP.          Petrogulf Corporation: COMPANY
 WELL.               YWAM 7-23V: WELL
 FLD.           Purgatorie River: FIELD
 LOC.           230' FSL & 225' FWL: LOCATION
 CNTY.               Las Animas: COUNTY
 SRVC.                         : SERVICE COMPANY
 DATE.          Mon Nov 22 10:51:24 2004: LOG DATE
 UWI.           05-071-08227-00: UNIQUE WELL ID
 STAT.                 Colorado: STATE
 PROV.                         :Province
 ~Curve Information Block
 DEPT.FT            0 000 00 00: Depth
 TT3.usec                      : CBL 3' Travel Time
 AMP3.mV                       : CBL 3' Amplitude
 GR.GAPI                       : Gamma Ray
 CCL.                          : Casing Collar Locator
 ~Parameter Information Block
 ~A  Depth       TT3         AMP3         GR         CCL     
# ...
   662.0000    575.2795     10.9264     55.4029      0.0000
   662.2500    572.3214     10.7013     55.2059      0.0000
   662.5000    570.5093     10.5153     58.5648      0.0000
   662.7500    569.8880     10.3651     64.6637      0.0000
   663.0000    570.1905     10.2328     72.7123      0.0000
   663.2500    570.7346     10.0932     82.3553      0.0000
   663.5000    570.2370      9.9227     93.0519      0.0000
   663.7500    567.4923      9.7109    103.4781      0.0000
   664.0000    562.3026      9.4698    111.8857      0.0000
   664.2500    555.5089      9.2316    116.8782      0.0000
   664.5000    548.3961      9.0296    117.8405      0.0000
   664.7500    542.1587      8.8821    115.1479      0.0000
   665.0000    537.3559      8.7983    110.1976      0.0000
   665.2500    533.3629      8.7944    104.8638      0.0000
   665.5000    528.2202      8.8878    100.6483      0.0000
   665.7500    519.2808      9.0713     98.4412      0.0000
   666.0000    505.1005      9.3037     98.8426      0.0000
   666.2500    487.8835      9.5360    102.0557      0.0000
   666.5000    473.2730      9.7439    107.2456      0.0000
   666.7500    465.6501      9.9371    112.5055      0.0000
   667.0000    463.8094     10.1440    115.9927      0.0000
   667.2500    463.3748     10.3893    117.2025      0.0000
   667.5000    462.4909     10.6790    117.0823      0.0000
   667.7500    461.7466     11.0043    116.8946      0.0000
   668.0000    459.2908     11.3619    116.9596      0.0000
   668.2500    450.7032     11.7703    116.5403      0.0000
   668.5000    434.6751     12.2583    115.0174      0.0000
   668.7500    415.4002     12.8304    112.9858      0.0000
   669.0000    398.2903     13.4454    111.6743      0.0000
   669.2500    385.6058     14.0336    111.0236      0.0000
   669.5000    376.8511     14.5304    108.8173      0.0000
   669.7500    371.3647     14.8932    102.4716      0.0000
   670.0000    369.2174     15.0985     91.8844      0.0000
   670.2500    370.2348     15.1454     80.1799      0.0000
   670.5000    373.0510     15.0658     71.3254      0.0000
   670.7500    375.4941     14.9142     67.0372      0.0000
   671.0000    376.0737     14.7349     66.1116      0.0000
   671.2500    375.0455     14.5477     66.4327      0.0000
   671.5000    373.6348     14.3689     67.0582      0.0000
   671.7500    372.1629     14.2342     68.3930      0.0000
   672.0000    369.5206     14.1876     71.1099      0.0000
   672.2500    364.9778     14.2473     75.3008      0.0000
   672.5000    360.0949     14.3806     80.4049      0.0000
   672.7500    358.0327     14.5118     85.6571      0.0000
   673.0000    360.7970     14.5577     90.5627      0.0000
   673.2500    367.5576     14.4665     94.9327      0.0000
   673.5000    375.9231     14.2310     98.5051      0.0000
   673.7500    384.6359     13.8720    100.7548      0.0000
   674.0000    394.7290     13.4155    101.2017      0.0000
   674.2500    407.7110     12.8880     99.8877      0.0000
   674.5000    422.2199     12.3275     97.4793      0.0000
   674.7500    432.8863     11.7936     94.8547      0.0000
   675.0000    433.9644     11.3598     92.6878      0.0000
   675.2500    424.7675     11.0850     91.4932      0.0000
   675.5000    410.6152     10.9683     91.7052      0.0000
   675.7500    398.3018     10.9242     93.3004      0.0000
   676.0000    391.8036     10.8178     95.5801      0.0000
   676.2500    392.3830     10.5542     97.6806      0.0000
   676.5000    400.9386     10.1484     99.1794      0.0000
   676.7500    418.4861      9.7105    100.0772      0.0000
   677.0000    443.9906      9.3662    100.5653      0.0000
   677.2500    472.6914      9.1865    101.0826      0.0000
   677.5000    497.9876      9.1741    102.2571      0.0000
   677.7500    515.5244      9.2916    104.3143      0.0000
   678.0000    525.1907      9.4975    106.4869      0.0000
   678.2500    529.5473      9.7587    107.3873      0.0000
   678.5000    531.2706     10.0350    106.2177      0.0000
   678.7500    531.9957     10.2623    103.4450      0.0000
   679.0000    532.4664     10.3722    100.1965      0.0000
   679.2500    532.9416     10.3432     97.2848      0.0000
   679.5000    533.4168     10.2203     94.8743      0.0000
   679.7500    533.7476     10.0750     92.7035      0.0000
   680.0000    533.7561      9.9453     90.4868      0.0000
   680.2500    533.3148      9.8178     88.3751      0.0000
   680.5000    532.3510      9.6616     87.0853      0.0000
   680.7500    530.7648      9.4632     87.3055      0.0000
   681.0000    528.4352      9.2320     89.0476      0.0000
   681.2500    525.5375      8.9894     91.8748      0.0000
   681.5000    522.9182      8.7669     95.5290      0.0000
   681.7500    521.7915      8.6016     99.7409      0.0000
   682.0000    522.6873      8.5099    103.4035      0.0000
   682.2500    524.7271      8.4670    104.6244      0.0000
   682.5000    525.9711      8.4256    102.1080      0.0000
   682.7500    524.0289      8.3573     96.4310      0.0000
   683.0000    516.3649      8.2709     89.9276      0.0000
   683.2500    501.4002      8.1961     85.5498      0.0000
   683.5000    481.1128      8.1554     85.5379      0.0000
   683.7500    462.5793      8.1496     90.3070      0.0000
   684.0000    454.8133      8.1592     98.1056      0.0000
   684.2500    462.0988      8.1562    105.9253      0.0000
   684.5000    480.3519      8.1164    111.1170      0.0000
   684.7500    500.5762      8.0241    112.5582      0.0000
   685.0000    515.6337      7.8686    110.7461      0.0000
   685.2500    523.6942      7.6414    107.0848      0.0000
   685.5000    526.7168      7.3475    103.0170      0.0000
   685.7500    527.3356      7.0207     99.4688      0.0000
   686.0000    527.1688      6.7226     96.8806      0.0000
   686.2500    526.7738      6.5156     95.7179      0.0000
   686.5000    526.2210      6.4377     96.6982      0.0000
   686.7500    525.4989      6.4981    100.1027      0.0000
   687.0000    524.5566      6.6856    104.9015      0.0000
   687.2500    523.0031      6.9689    109.1526      0.0000
   687.5000    519.8015      7.2925    111.5037      0.0000
   687.7500    513.4765      7.5860    111.9413      0.0000
   688.0000    503.2977      7.7895    111.0527      0.0000
   688.2500    490.9944      7.8783    109.1874      0.0000
   688.5000    481.2244      7.8716    106.5760      0.0000
   688.7500    479.1634      7.8238    103.7844      0.0000
   689.0000    486.4802      7.8023    101.5967      0.0000
   689.2500    499.8640      7.8590    100.2855      0.0000
   689.5000    514.2146      8.0097     99.0173      0.0000
   689.7500    527.4056      8.2364     96.2369      0.0000
   690.0000    541.8797      8.5076     90.9192      0.0000
   690.2500    561.7237      8.7941     83.4050      0.0000
   690.5000    587.2349      9.0760     74.9338      0.0000
   690.7500    611.3817      9.3455     66.6727      0.0000
   691.0000    623.7109      9.6069     59.4799      0.0000
   691.2500    621.1365      9.8651     54.1248      0.0000
   691.5000    613.2023     10.1089     51.0191      0.0000
   691.7500    611.5490     10.3054     49.7438      0.0000
   692.0000    616.5469     10.4187     49.2281      0.0000
   692.2500    622.5950     10.4329     48.4822      0.0000
   692.5000    634.3256     10.3553     47.1703      0.0000
   692.7500    665.0721     10.1968     45.6945      0.0000
   693.0000    717.2146      9.9563     44.8724      0.0000
   693.2500    774.4135      9.6281     45.2912      0.0000
   693.5000    816.3981      9.2130     46.6193      0.0000
   693.7500    834.9286      8.7129     47.6409      0.0000
   694.0000    834.8129      8.1307     47.4106      0.0000
   694.2500    826.2569      7.5027     46.4507      0.0000
   694.5000    818.0999      6.9293     46.4601      0.0000
   694.7500    814.7439      6.5316     48.6929      0.0000
   695.0000    817.2222      6.3400     52.7698      0.0000
   695.2500    825.4975      6.2452     57.0219      0.0000
