~Version Information
VERS.                      2.0: CWLS Log ASCII Standard - VERSION 2.0
WRAP.                       NO: One line per depth step
~Well Information Block
STRT.FT                -7.5000: 
STOP.FT              2339.2500: 
STEP.FT                 0.2500: 
NULL.                -999.2500: 
COMP.          Pioneer Natural Resources: COMPANY
WELL.            Harrier 44-33: WELL
FLD.           Purgatorie River: FIELD
LOC.           456' FSL & 930' FEL--: LOCATION
PROV.                       CO: PROVINCE
CNTY.               Las Animas: COUNTRY
SRVC.          Patterson Wireline: SERVICE COMPANY
DATE.          Wed Jun 29 11:08:51 2005: LOG DATE
UWI.           05 071 08398 00: UNIQUE WELL ID
~Curve Information Block
DEPT.FT            0 000 00 00: Depth
CCL.                          : Casing Collar Locator
TT3.usec                      : CBL 3' Travel Time
AMP3.mV                       : CBL 3' Amplitude
GR.GAPI                       : Gamma Ray
~Parameter Information Block
~A  Depth       CCL         TT3         AMP3         GR     
# ...
  1701.0000      0.0000    704.3678      5.3358    117.7361
  1701.2500      0.0000    717.5098      5.3514    116.9305
  1701.5000      0.0000    726.6662      5.4585    113.6628
  1701.7500      0.0000    735.4810      5.6687    108.2114
  1702.0000      0.0000    748.0225      5.9314    102.5393
  1702.2500      0.0000    762.4282      6.1574     99.2077
  1702.5000      0.0000    773.0066      6.2648     99.9476
  1702.7500      0.0000    775.9872      6.2151    105.1430
  1703.0000      0.0000    771.9524      6.0333    114.1016
  1703.2500      0.0000    764.8151      5.8037    125.4236
  1703.5000      0.0000    759.1125      5.6240    137.1760
  1703.7500      0.0000    755.8176      5.5450    147.0983
  1704.0000      0.0000    750.2197      5.5554    153.3169
  1704.2500      0.0000    736.2944      5.6234    155.6229
  1704.5000      0.0000    714.1612      5.7388    156.0195
  1704.7500      0.0000    691.3112      5.8987    157.1227
  1705.0000      0.0000    675.8770      6.0669    159.6772
  1705.2500      0.0000    670.0081      6.1748    162.2278
  1705.5000      0.0000    670.1657      6.1681    163.2489
  1705.7500      0.0000    671.9626      6.0498    162.6648
  1706.0000      0.0000    672.9048      5.8874    161.2788
  1706.2500      0.0000    671.4624      5.7703    159.9059
  1706.5000      0.0000    667.0166      5.7354    159.2626
  1706.7500      0.0000    662.3547      5.7326    159.5006
  1707.0000      0.0000    663.3807      5.6887    159.1648
  1707.2500      0.0000    673.8032      5.6025    155.3211
  1707.5000      0.0000    691.1790      5.5544    145.6816
  1707.7500      0.0000    708.4421      5.6151    130.7966
  1708.0000      0.0000    717.0856      5.7611    114.0572
  1708.2500      0.0000    710.1851      5.8932     99.8239
  1708.5000      0.0000    687.1873      5.9291     91.3418
  1708.7500      0.0000    656.8212      5.8564     89.2509
  1709.0000      0.0000    631.9686      5.7004     91.3522
  1709.2500      0.0000    620.5180      5.4828     94.3960
  1709.5000      0.0000    622.3089      5.2377     96.6916
  1709.7500      0.0000    632.8570      5.0333     98.7124
  1710.0000      0.0000    646.9751      4.9258    101.0564
  1710.2500      0.0000    659.8858      4.9062    102.5975
  1710.5000      0.0000    668.2074      4.9286    101.3792
  1710.7500      0.0000    671.4977      4.9740     97.0240
  1711.0000      0.0000    672.5652      5.0575     91.4984
  1711.2500      0.0000    675.5030      5.1837     87.4194
  1711.5000      0.0000    682.5353      5.3219     85.8709
  1711.7500      0.0000    692.1134      5.4377     85.6993
  1712.0000      0.0000    700.1387      5.5383     84.7439
  1712.2500      0.0000    703.3082      5.6625     81.8811
  1712.5000      0.0000    701.2447      5.8205     78.0384
  1712.7500      0.0000    695.5895      5.9615     75.2944
  1713.0000      0.0000    687.7761      6.0150     75.1418
  1713.2500      0.0000    678.6048      5.9485     77.5353
  1713.5000      0.0000    670.0390      5.7773     81.1898
  1713.7500      0.0000    665.7565      5.5482     84.4559
  1714.0000      0.0000    668.3804      5.3345     86.0712
  1714.2500      0.0000    677.2274      5.2202     85.6227
  1714.5000      0.0000    690.2869      5.2476     83.7539
  1714.7500      0.0000    706.9836      5.3768     81.9198
  1715.0000      0.0000    726.8564      5.5212     81.7107
  1715.2500      0.0000    746.3578      5.6214     84.2340
  1715.5000      0.0000    759.6419      5.6731     89.8610
  1715.7500      0.0000    763.3231      5.6900     98.1708
  1716.0000      0.0000    758.9427      5.6677    108.1682
  1716.2500      0.0000    749.3138      5.5898    118.8926
  1716.5000      0.0000    733.0831      5.4555    129.8511
  1716.7500      0.0000    705.4498      5.2951    140.6577
  1717.0000      0.0000    665.9683      5.1663    150.3397
  1717.2500      0.0000    624.0961      5.1231    157.4349
  1717.5000      0.0000    594.8132      5.1666    160.9720
  1717.7500      0.0000    588.3871      5.2245    161.1030
  1718.0000      0.0000    604.1977      5.2076    158.7049
  1718.2500      0.0000    632.1969      5.0960    154.7991
  1718.5000      0.0000    658.7269      4.9593    150.5359
  1718.7500      0.0000    672.4924      4.8857    147.1411
  1719.0000      0.0000    668.3770      4.8973    145.3508
  1719.2500      0.0000    648.0447      4.9371    145.0038
  1719.5000      0.0000    618.5410      4.9349    145.3261
  1719.7500      0.0000    590.7949      4.8802    145.3505
  1720.0000      0.0000    576.5724      4.8285    144.1279
  1720.2500      0.0000    581.8932      4.8471    141.0652
  1720.5000      0.0000    601.9359      4.9658    136.3545
  1720.7500      0.0000    624.3204      5.1646    130.9009
  1721.0000      0.0000    638.3213      5.3868    125.7241
  1721.2500      0.0000    641.3102      5.5660    121.5581
  1721.5000      0.0000    638.4060      5.6556    118.9349
  1721.7500      0.0000    637.3430      5.6400    118.2319
  1722.0000      0.0000    642.3925      5.5285    119.4723
  1722.2500      0.0000    651.2691      5.3541    122.2945
  1722.5000      0.0000    657.3674      5.1640    126.0479
  1722.7500      0.0000    655.6030      4.9954    129.6418
  1723.0000      0.0000    647.4934      4.8683    131.6682
  1723.2500      0.0000    640.6207      4.7961    131.1797
  1723.5000      0.0000    641.4832      4.7793    128.3506
  1723.7500      0.0000    648.9149      4.7923    124.4900
  1724.0000      0.0000    655.9785      4.8059    121.6037
  1724.2500      0.0000    657.2416      4.8181    121.2905
  1724.5000      0.0000    652.3759      4.8474    123.3744
  1724.7500      0.0000    644.0446      4.9113    126.0399
  1725.0000      0.0000    634.7305      5.0151    127.8243
  1725.2500      0.0000    626.1828      5.1414    128.8516
  1725.5000      0.0000    620.7849      5.2496    129.7682
  1725.7500      0.0000    621.1587      5.3018    130.5231
  1726.0000      0.0000    627.4771      5.2912    130.9040
  1726.2500      0.0000    637.4924      5.2421    131.4288
  1726.5000      0.0000    649.9484      5.1863    132.8006
  1726.7500      0.0000    665.8665      5.1354    134.6002
  1727.0000      0.0000    686.0455      5.0763    135.2129
  1727.2500      0.0000    708.8209      4.9908    133.4770
  1727.5000      0.0000    730.7927      4.8806    130.1524
  1727.7500      0.0000    749.3873      4.7801    127.2372
  1728.0000      0.0000    763.9900      4.7434    126.0614
  1728.2500      0.0000    774.1780      4.8027    126.5613
  1728.5000      0.0000    777.7060      4.9448    128.0423
  1728.7500      0.0000    771.6639      5.1348    129.9118
  1729.0000      0.0000    756.0191      5.3383    131.7687
  1729.2500      0.0000    735.3389      5.5069    133.3576
  1729.5000      0.0000    716.2672      5.5774    134.5706
  1729.7500      0.0000    703.3533      5.5162    135.2327
  1730.0000      0.0000    697.4792      5.3545    134.7201
  1730.2500      0.0000    697.6492      5.1603    131.9070
  1730.5000      0.0000    702.6579      4.9833    125.7049
  1730.7500      0.0000    710.7804      4.8408    115.9100
  1731.0000      0.0000    718.9755      4.7494    103.7433
  1731.2500      0.0000    723.4039      4.7397     91.5525
  1731.5000      0.0000    721.0108      4.8282     81.6589
  1731.7500      0.0000    710.9025      4.9825     75.1734
  1732.0000      0.0000    694.8344      5.1277     71.7125
  1732.2500      0.0000    676.6613      5.1995     70.0405
  1732.5000      0.0000    661.0396      5.1950     69.1020
  1732.7500      0.0000    652.1235      5.1662     68.9051
  1733.0000      0.0000    652.4260      5.1661     70.6175
  1733.2500      0.0000    661.4891      5.2073     75.6265
  1733.5000      0.0000    675.3731      5.2614     84.2895
  1733.7500      0.0000    688.4290      5.2906     95.5649
  1734.0000      0.0000    696.4465      5.2783    107.7795
  1734.2500      0.0000    698.7275      5.2364    119.5213
