~Version Information
VERS.                      2.0: CWLS Log ASCII Standard - VERSION 2.0
WRAP.                       NO: One line per depth step
~Well Information Block
STRT.FT               521.6000: 
STOP.FT              1490.2000: 
STEP.FT                 0.1000: 
NULL.                -999.2500: 
COMP.          Petrogulf Corporation: COMPANY
WELL.          Robinson 15-11R: WELL
FLD.           Purgatorie River: FIELD
LOC.           324' FNL & 570' FWL: LOCATION
CNTY.               Las Animas: COUNTY
SRVC.                         : SERVICE COMPANY
DATE.          Sat Nov 06 22:43:15 2004: LOG DATE
UWI.           05 071 08029 00: UNIQUE WELL ID
STAT.                 Colorado: STATE
~Curve Information Block
DEPT.FT            0 000 00 00: Depth
DCAL.in                       : CDL Caliper
RHOB.g/cc                     : CDL Bulk Density
RHOC.g/cc                     : CDL Density Correction
DPOR.pu                       : CDL Density Porosity
GR.GAPI                       : Gamma Ray
NPOR.pu                       : Neutron Porosity
~Parameter Information Block
~A  Depth       DCAL        RHOB        RHOC        DPOR         GR         NPOR    
# ...
  1347.2000      7.9375      2.5414      0.0841      6.5845    148.7662     24.5446
  1347.3000      7.9450      2.5247      0.0655      7.5931    152.8565     23.8544
  1347.4000      7.9450      2.5156      0.0864      8.1429    151.8470     23.6645
  1347.5000      7.9726      2.5224      0.0685      7.7327    151.7489     23.5614
  1347.6000      7.9726      2.5410      0.0925      6.6060    153.7699     23.6264
  1347.7000      7.9726      2.5651      0.0908      5.1447    149.8798     24.2268
  1347.8000      7.9926      2.5841      0.1273      3.9961    141.1186     25.0229
  1347.9000      7.9926      2.5865      0.1145      3.8473    136.3427     25.7975
  1348.0000      7.9686      2.5733      0.0802      4.6502    137.4392     26.5158
  1348.1000      7.9686      2.5545      0.0871      5.7886    140.9548     26.8771
  1348.2000      7.9686      2.5347      0.1001      6.9908    146.3505     26.7207
  1348.3000      7.9563      2.5119      0.0732      8.3680    151.9357     26.1992
  1348.4000      7.9563      2.4859      0.0400      9.9446    152.1580     25.6827
  1348.5000      7.9599      2.4608      0.0074     11.4693    146.3625     25.7903
  1348.6000      7.9599      2.4495     -0.0236     12.1532    139.9996     26.6363
  1348.7000      7.9599      2.4681     -0.0604     11.0245    137.4668     27.4034
  1348.8000      7.9316      2.5120      0.0159      8.3625    139.3020     27.5301
  1348.9000      7.9316      2.5560      0.0884      5.6997    143.8121     27.2979
  1349.0000      7.9341      2.5730      0.1360      4.6673    147.9170     27.1005
  1349.1000      7.9341      2.5596      0.1208      5.4810    148.1956     26.9676
  1349.2000      7.9341      2.5453      0.1149      6.3431    143.2694     26.6481
  1349.3000      7.9153      2.5512      0.1809      5.9849    137.0706     26.0948
  1349.4000      7.9153      2.5699      0.1375      4.8544    137.7790     25.2427
  1349.5000      7.9022      2.5797      0.1879      4.2581    144.2906     24.2576
  1349.6000      7.9022      2.5599      0.0726      5.4586    147.7284     23.9415
  1349.7000      7.9022      2.5178      0.0171      8.0097    146.9569     24.3687
  1349.8000      7.8918      2.4787     -0.0038     10.3834    147.1104     24.7036
  1349.9000      7.8918      2.4619     -0.0063     11.3975    149.4254     24.5070
  1350.0000      7.9018      2.4714      0.0147     10.8220    150.9620     24.3812
  1350.1000      7.9018      2.4878      0.0567      9.8304    152.4009     24.9060
  1350.2000      7.9018      2.4874      0.0502      9.8548    155.3522     25.3347
  1350.3000      7.8918      2.4723      0.0118     10.7678    156.7998     25.2214
  1350.4000      7.8918      2.4626      0.0456     11.3566    155.1704     25.4250
  1350.5000      7.9295      2.4669      0.1180     11.0996    153.2171     26.2099
  1350.6000      7.9295      2.4764      0.0810     10.5195    155.1309     26.6876
  1350.7000      7.9295      2.4814      0.1410     10.2210    161.6673     26.2620
  1350.8000      7.9150      2.4736      0.1336     10.6928    166.6536     25.6347
  1350.9000      7.9150      2.4489      0.0905     12.1891    167.0540     25.7829
  1351.0000      7.9436      2.4094      0.1103     14.5833    167.0569     26.7663
  1351.1000      7.9436      2.3515      0.1008     18.0920    166.3893     27.8165
  1351.2000      7.9436      2.2723      0.0729     22.8881    160.8064     28.1346
  1351.3000      8.0416      2.1871      0.0316     28.0569    149.0532     27.8372
  1351.4000      8.0416      2.1046      0.1020     33.0548    135.8804     27.6191
  1351.5000      8.0887      2.0025      0.0470     39.2397    130.8593     27.9858
  1351.6000      8.0887      1.8652     -0.0245     47.5641    136.8365     29.0033
  1351.7000      8.0887      1.7129     -0.0776     56.7923    143.3847     29.9645
  1351.8000      8.0095      1.5906     -0.1681     64.2088    142.6622     30.2167
  1351.9000      8.0095      1.5392     -0.1023     67.3227    137.7709     30.1076
  1352.0000      7.9156      1.5672     -0.0217     65.6254    126.6833     30.2284
  1352.1000      7.9156      1.6515      0.0753     60.5164    110.8296     30.5467
  1352.2000      7.9156      1.7556      0.1150     54.2057    103.1892     30.4807
  1352.3000      7.8881      1.8615      0.1389     47.7879    106.0546     29.8281
  1352.4000      7.8881      1.9805      0.2046     40.5742    108.8616     29.2380
  1352.5000      7.9241      2.1188      0.2663     32.1924    107.5801     29.2267
  1352.6000      7.9241      2.2554      0.2971     23.9176    106.9692     29.5074
  1352.7000      7.9241      2.3604      0.2866     17.5527    109.5849     29.4342
  1352.8000      7.9845      2.4216      0.2513     13.8449    116.4624     28.8731
  1352.9000      7.9845      2.4454      0.1342     12.4004    128.2040     28.3630
  1353.0000      7.9560      2.4492      0.0432     12.1714    138.0775     28.2022
  1353.1000      7.9560      2.4556      0.0027     11.7835    140.1781     28.4589
  1353.2000      7.9560      2.4780      0.0597     10.4259    140.2109     28.8254
  1353.3000      7.8823      2.5046      0.0661      8.8115    145.0046     28.6565
  1353.4000      7.8823      2.5117      0.0947      8.3838    151.3909     28.0365
  1353.5000      7.8677      2.4945      0.0885      9.4220    152.1282     27.3478
  1353.6000      7.8677      2.4711      0.0802     10.8420    147.7778     26.6821
  1353.7000      7.8677      2.4571      0.0956     11.6937    145.0089     26.2124
  1353.8000      7.8972      2.4526      0.0819     11.9652    148.2849     26.1849
  1353.9000      7.8972      2.4541      0.0914     11.8735    154.2232     26.5251
  1354.0000      7.8869      2.4639      0.0970     11.2775    154.8220     26.5859
  1354.1000      7.8869      2.4769      0.1008     10.4885    149.8010     26.1864
  1354.2000      7.8869      2.4805      0.0771     10.2717    144.0347     25.6130
  1354.3000      7.9987      2.4770      0.0815     10.4873    142.4678     25.1220
  1354.4000      7.9987      2.4800      0.0812     10.3056    146.4337     24.9063
  1354.5000      7.9801      2.4895      0.1479      9.7286    151.1805     24.8274
  1354.6000      7.9801      2.4931      0.0689      9.5098    152.0756     24.8861
  1354.7000      7.9801      2.4927      0.0380      9.5338    148.3862     24.8666
  1354.8000      7.9324      2.4949      0.0921      9.3991    143.0902     24.3871
  1354.9000      7.9324      2.4962      0.0337      9.3226    137.7081     23.9947
  1355.0000      7.9001      2.4957      0.0497      9.3539    130.1848     24.2454
  1355.1000      7.9001      2.4955      0.0564      9.3610    122.5694     24.8909
  1355.2000      7.9001      2.5013      0.0143      9.0096    122.3086     25.4310
  1355.3000      7.8669      2.5116      0.0606      8.3904    130.2135     25.4586
  1355.4000      7.8669      2.5155      0.0197      8.1519    139.5733     25.0578
  1355.5000      7.8694      2.5188      0.0608      7.9503    147.6539     24.7933
  1355.6000      7.8694      2.5289      0.0653      7.3413    155.0019     24.6891
  1355.7000      7.8694      2.5346      0.1019      6.9915    159.7042     24.3030
  1355.8000      7.8695      2.5266      0.0818      7.4793    159.6937     23.7533
  1355.9000      7.8695      2.5177      0.0559      8.0182    157.8559     23.6733
  1356.0000      7.9414      2.5276      0.0973      7.4206    157.2738     24.3860
  1356.1000      7.9414      2.5452      0.1459      6.3535    154.7977     25.6836
  1356.2000      7.9414      2.5379      0.1363      6.7923    150.9526     27.0106
  1356.3000      7.9702      2.5001      0.0660      9.0879    153.0232     27.4748
  1356.4000      7.9702      2.4647      0.0697     11.2303    163.5247     26.8976
  1356.5000      7.9626      2.4612      0.0435     11.4403    174.4091     25.9116
  1356.6000      7.9626      2.4824      0.0832     10.1571    178.3965     25.2885
  1356.7000      7.9626      2.5030      0.1110      8.9072    174.1825     25.6176
