~Version Information
 VERS.                                  2.0 : CWLS LAS VERSION
 WRAP.                                   NO : WRAPING MODE
 SWARE .                 MController 2.5.0E : SOFTWARE VERSION
~Well Information
 WELL.                                  N/A : WELL
 COMP.                                  N/A : COMPANY
 FLD.                                   N/A : FIELD
 LOC.                                   N/A : LOCATION
 DATE.                                  N/A : DATE(S) LOGGED
 SRVC.                                  N/A : SERVICE COMPANY
 STAT.                                  N/A : STATE
 CNTY.                                  N/A : COUNTY
 CTRY.                                  N/A : COUNTRY
 API.                                   N/A : API NUMBER
 STRT.FT                            1016.00 : START DEPTH
 STOP.FT                            2595.00 : STOP DEPTH
 STEP.FT                               1.00 : DEPTH INCREMENT
 NULL.                                -9999 : NULL VALUE
~Curve information
 DEPTH.FT                                   :
 ROP.MIN/FT                                 :
 GAS.UNITS                                  :
~ASCII Log data
# ...
     2416.00        8.217         13.9 
     2417.00        0.467          6.8 
     2418.00        0.333          5.2 
     2419.00        0.333          6.3 
     2420.00        0.333          4.8 
     2421.00        0.367          6.0 
     2422.00        0.400          5.7 
     2423.00        0.417          7.5 
     2424.00        0.433          8.7 
     2425.00        0.400          8.7 
     2426.00        0.400          7.6 
     2427.00        0.400          5.8 
     2428.00        0.400          3.1 
     2429.00        0.433          0.2 
     2430.00        0.433         -1.0 
     2431.00        0.450         -1.7 
     2432.00        0.433         -0.9 
     2433.00        0.433          0.5 
     2434.00        0.433          2.4 
     2435.00        0.433          4.6 
     2436.00        0.467         17.1 
     2437.00        0.433         40.4 
     2438.00        0.517         55.5 
     2439.00        0.467         51.2 
     2440.00        0.467         39.4 
     2441.00        0.433         29.3 
     2442.00        0.533         17.0 
     2443.00        0.600         13.5 
     2444.00        0.650          8.6 
     2445.00        0.567         10.3 
     2446.00        7.833         11.0 
     2447.00        0.300          6.1 
     2448.00        0.433          7.2 
     2449.00        0.400          6.9 
     2450.00        0.450          6.9 
     2451.00        0.533          4.8 
     2452.00        0.500          4.7 
     2453.00        0.467          5.6 
     2454.00        0.400          6.6 
     2455.00        0.533          7.6 
     2456.00        0.467          8.4 
     2457.00        0.483          8.5 
     2458.00        0.467          7.8 
     2459.00        0.467          7.8 
     2460.00        0.533          9.9 
     2461.00        0.467         10.8 
     2462.00        0.467         10.1 
     2463.00        0.533          7.9 
     2464.00        0.517          5.9 
     2465.00        0.633          2.9 
     2466.00        0.767         -0.7 
     2467.00        0.733          0.6 
     2468.00        0.633          2.4 
     2469.00        0.583          8.2 
     2470.00        0.700         34.6 
     2471.00        0.833         52.2 
     2472.00        0.633         46.4 
     2473.00        0.667         26.8 
     2474.00        0.550         16.0 
     2475.00        0.633         10.2 
     2476.00        8.817         15.0 
     2477.00        0.267          8.8 
     2478.00        0.467          8.3 
     2479.00        0.483          8.8 
     2480.00        0.467          8.9 
     2481.00        0.500          6.6 
     2482.00        0.500          5.9 
     2483.00        0.500          6.0 
     2484.00        0.500          7.1 
     2485.00        0.500          8.6 
     2486.00        0.517         10.5 
     2487.00        0.467         11.3 
     2488.00        0.500         11.8 
     2489.00        0.467          9.7 
     2490.00        0.500          8.4 
     2491.00        0.500          5.4 
     2492.00        0.483          0.6 
     2493.00        0.467          0.6 
     2494.00        0.467          0.6 
     2495.00        0.533          2.7 
     2496.00        0.467          4.4 
     2497.00        0.467         13.1 
     2498.00        0.433         26.3 
     2499.00        0.467         52.3 
     2500.00        0.517         55.8 
     2501.00        0.467         50.2 
     2502.00        0.533         38.7 
     2503.00        0.533         29.7 
     2504.00        0.567         20.4 
     2505.00        0.717         12.7 
     2506.00        8.033         21.5 
     2507.00        0.467         19.0 
     2508.00        0.533         20.1 
     2509.00        0.467         15.9 
     2510.00        0.517         16.2 
     2511.00        0.533         16.1 
     2512.00        0.400         15.2 
     2513.00        0.433         17.1 
     2514.00        0.567         23.5 
     2515.00        0.533         18.8 
     2516.00        0.500         19.3 
     2517.00        0.417         20.4 
     2518.00        0.700         21.7 
     2519.00        0.600         13.7 
     2520.00        0.467          2.8 
     2521.00        0.483          1.5 
     2522.00        0.433          0.9 
     2523.00        0.467          2.1 
     2524.00        0.467          2.7 
     2525.00        0.467          5.1 
     2526.00        0.467          6.9 
     2527.00        0.467         20.5 
     2528.00        0.450         60.9 
     2529.00        0.467         76.5 
     2530.00        0.467         78.0 
     2531.00        0.467         68.0 
     2532.00        0.467         45.4 
     2533.00        0.500         29.0 
     2534.00        0.333         19.7 
     2535.00        0.650         17.7 
     2536.00        8.167         12.8 
     2537.00        0.267          2.9 
     2538.00        0.400          4.5 
     2539.00        0.500          4.4 
     2540.00        0.400          2.2 
     2541.00        0.550         -2.3 
     2542.00        0.533         -7.6 
     2543.00        0.533         -1.6 
     2544.00        0.500          2.6 
     2545.00        0.467          2.8 
     2546.00        0.500          2.9 
     2547.00        0.617          4.4 
     2548.00        0.400          6.2 
     2549.00        0.533          8.0 
     2550.00        0.600          8.2 
     2551.00        0.467         12.8 
     2552.00        0.500         16.1 
     2553.00        0.533         14.5 
     2554.00        0.550         12.1 
     2555.00        0.567         11.7 
     2556.00        0.467         11.3 
     2557.00        0.500         12.2 
     2558.00        0.433         14.2 
     2559.00        0.633         19.5 
     2560.00        0.683         72.5 
     2561.00        0.500         79.4 
     2562.00        0.400         66.4 
     2563.00        0.900         65.0 
     2564.00        0.467         30.5 
     2565.00        1.550         22.3 
     2566.00        8.883         33.3 
     2567.00        0.567         20.3 
     2568.00        0.533         25.0 
     2569.00        1.067         25.3 
     2570.00        1.083         20.6 
     2571.00        0.533         21.4 
     2572.00        0.533         16.4 
     2573.00        0.533         12.2 
     2574.00        0.817         27.4 
     2575.00        0.733         24.6 
     2576.00        0.800         16.4 
     2577.00        0.800         20.4 
     2578.00        0.467         26.4 
     2579.00        0.817         33.6 
     2580.00        0.667         34.1 
     2581.00        1.367         31.5 
     2582.00        0.700         24.7 
     2583.00        0.683         24.0 
     2584.00        0.567         23.7 
     2585.00        0.933         22.5 
     2586.00        0.550         21.0 
     2587.00        0.933         21.4 
     2588.00        0.600         21.6 
     2589.00        1.233         23.3 
     2590.00        1.350         29.0 
     2591.00        0.800         28.2 
     2592.00        0.667         25.2 
     2593.00        0.817         23.8 
     2594.00        0.633         23.8 
     2595.00        0.733         26.1 
