~Version Information
VERS.                      2.0: CWLS Log ASCII Standard - VERSION 2.0
WRAP.                       NO: One line per depth step
~Well Information Block
STRT.FT               546.0000: 
STOP.FT              1771.5000: 
STEP.FT                 0.1000: 
NULL.                -999.2500: 
COMP.          Petrogulf Corporation: COMPANY
WELL.             McLeod 9-42R: WELL
FLD.           Purgatorie River: FIELD
LOC.           1748' FNL & 372' FEL: LOCATION
PROV.                 Colorado: PROVINCE
CNTY.               Las Animas: COUNTRY
SRVC.                Patterson: SERVICE COMPANY
DATE.          Tue Aug 16 11:11:38 2005: LOG DATE
UWI.                071 08092 : UNIQUE WELL ID
~Curve Information Block
DEPT.FT            0 000 00 00: Depth
DCAL.in                       : CDL Caliper
RHOB.g/cc                     : CDL Bulk Density
RHOC.g/cc                     : CDL Density Correction
DPOR.pu                       : CDL Density Porosity
GR.GAPI                       : Gamma Ray
NPOR.pu                       : Neutron Porosity
~Parameter Information Block
~A  Depth       DCAL        RHOB        RHOC        DPOR         GR         NPOR    
# ...
  1573.2000      7.8908      2.5081      0.0578      8.5985    108.8321     27.7007
  1573.3000      7.9049      2.4938      0.0165      9.4646    109.3942     27.5921
  1573.4000      7.9049      2.4997      0.0368      9.1105    110.8410     27.0540
  1573.5000      7.9172      2.5218      0.1012      7.7699    111.7635     26.6792
  1573.6000      7.9172      2.5441      0.0918      6.4209    110.4419     26.9667
  1573.7000      7.9172      2.5588      0.0973      5.5270    109.7542     27.7334
  1573.8000      7.9434      2.5594      0.1301      5.4927    112.2894     28.5201
  1573.9000      7.9434      2.5327      0.1597      7.1088    115.5617     29.0799
  1574.0000      7.9786      2.4835      0.1194     10.0924    115.8180     29.4421
  1574.1000      7.9786      2.4443      0.0437     12.4686    113.3877     29.6041
  1574.2000      7.9786      2.4362      0.0909     12.9595    113.7107     29.3104
  1574.3000      8.0557      2.4448      0.1022     12.4350    118.6333     28.9098
  1574.4000      8.0557      2.4564      0.0608     11.7318    122.0348     29.2716
  1574.5000      8.0055      2.4723      0.1089     10.7695    119.8906     30.3329
  1574.6000      8.0055      2.4885      0.1261      9.7866    116.1473     31.2367
  1574.7000      8.0055      2.4991      0.1413      9.1426    114.7054     31.3291
  1574.8000      8.0148      2.4971      0.1698      9.2697    116.2565     30.5808
  1574.9000      8.0148      2.4751      0.1323     10.5990    120.3024     29.8415
  1575.0000      8.1455      2.4454      0.0975     12.3980    123.6330     29.7769
  1575.1000      8.1455      2.4289      0.0540     13.3979    124.6601     30.0589
  1575.2000      8.1455      2.4264      0.1301     13.5528    124.0418     30.3453
  1575.3000      8.2310      2.4264      0.1109     13.5500    122.5728     30.5794
  1575.4000      8.2310      2.4310      0.0897     13.2733    121.4507     30.6968
  1575.5000      8.2076      2.4405      0.1505     12.6976    119.7005     30.8604
  1575.6000      8.2076      2.4432      0.1594     12.5339    116.8782     31.3540
  1575.7000      8.2076      2.4384      0.1328     12.8213    114.9946     31.9138
  1575.8000      8.1965      2.4360      0.1099     12.9688    114.0431     32.0274
  1575.9000      8.1965      2.4432      0.1311     12.5339    112.5321     31.8294
  1576.0000      8.2373      2.4615      0.1699     11.4259    110.6411     31.8823
  1576.1000      8.2373      2.4840      0.1527     10.0583    110.0984     32.2171
  1576.2000      8.2373      2.5039      0.1786      8.8574    112.2770     32.1804
  1576.3000      8.1395      2.5215      0.2031      7.7869    115.3871     31.5666
  1576.4000      8.1395      2.5341      0.2387      7.0237    117.3850     30.9053
  1576.5000      8.1014      2.5327      0.2214      7.1078    119.3989     30.6239
  1576.6000      8.1014      2.5226      0.1434      7.7194    121.3887     30.7172
  1576.7000      8.1014      2.5203      0.1061      7.8630    121.8521     30.7936
  1576.8000      8.1524      2.5263      0.1212      7.4999    120.1300     30.6286
  1576.9000      8.1524      2.5257      0.1464      7.5351    117.6118     30.4538
  1577.0000      8.1093      2.5171      0.1217      8.0531    115.7644     30.1932
  1577.1000      8.1093      2.5186      0.0755      7.9632    114.0039     29.4312
  1577.2000      8.1093      2.5355      0.1245      6.9389    112.1320     28.4377
  1577.3000      8.0495      2.5486      0.0965      6.1427    113.1335     28.0632
  1577.4000      8.0495      2.5518      0.0758      5.9537    118.1497     28.4081
  1577.5000      7.9468      2.5558      0.1013      5.7116    122.3411     28.8187
  1577.6000      7.9468      2.5631      0.0747      5.2662    123.2572     28.8609
  1577.7000      7.9468      2.5707      0.0884      4.8031    124.1043     28.6834
  1577.8000      7.9177      2.5736      0.1209      4.6282    125.5093     28.5252
  1577.9000      7.9177      2.5681      0.1113      4.9646    123.9134     28.3856
  1578.0000      7.8757      2.5621      0.0896      5.3272    119.7148     28.1984
  1578.1000      7.8757      2.5619      0.1092      5.3393    118.2020     28.0712
  1578.2000      7.8757      2.5622      0.1025      5.3220    118.3958     28.3665
  1578.3000      7.8801      2.5618      0.0990      5.3448    114.5325     29.2477
  1578.4000      7.8801      2.5656      0.0893      5.1176    109.1133     30.1607
  1578.5000      7.8782      2.5689      0.1278      4.9171    108.4338     30.5501
  1578.6000      7.8782      2.5599      0.1244      5.4577    112.5985     30.7033
  1578.7000      7.8782      2.5387      0.0910      6.7441    117.3404     30.8931
  1578.8000      7.8780      2.5163      0.0787      8.1023    119.1775     30.8718
  1578.9000      7.8780      2.5029      0.0252      8.9124    118.5239     30.5453
  1579.0000      7.9274      2.5000      0.0726      9.0903    116.9354     30.0706
  1579.1000      7.9274      2.5018      0.0558      8.9845    113.5442     29.4925
  1579.2000      7.9274      2.5099      0.0670      8.4931    109.0237     28.7607
  1579.3000      8.0125      2.5236      0.0667      7.6584    108.1113     28.0090
  1579.4000      8.0125      2.5329      0.0648      7.0996    112.8650     27.5876
  1579.5000      8.0183      2.5325      0.0685      7.1233    118.7567     27.8458
  1579.6000      8.0183      2.5276      0.0465      7.4155    119.9836     28.4788
  1579.7000      8.0183      2.5265      0.0581      7.4868    118.3241     28.8130
  1579.8000      7.9922      2.5297      0.0533      7.2918    119.8814     29.0258
  1579.9000      7.9922      2.5326      0.0600      7.1154    123.0750     29.6615
  1580.0000      7.9998      2.5305      0.0906      7.2447    124.6042     30.3411
  1580.1000      7.9998      2.5201      0.0613      7.8702    126.8875     30.2683
  1580.2000      7.9998      2.5066      0.0527      8.6930    129.0049     29.8104
  1580.3000      7.9974      2.4961      0.0487      9.3301    126.8925     29.7045
  1580.4000      7.9974      2.4891      0.0703      9.7487    122.3149     29.6338
  1580.5000      7.9974      2.4869      0.0475      9.8871    118.0661     28.9787
  1580.6000      7.9974      2.4928      0.0540      9.5259    115.5020     27.9870
  1580.7000      7.9974      2.5074      0.0759      8.6403    116.9774     27.5467
  1580.8000      7.9985      2.5235      0.1061      7.6674    121.8741     27.7227
  1580.9000      7.9985      2.5286      0.1350      7.3593    125.9434     27.9272
  1581.0000      7.9742      2.5170      0.0836      8.0626    127.8457     28.0829
  1581.1000      7.9742      2.4979      0.0745      9.2159    128.2626     28.4681
  1581.2000      7.9742      2.4838      0.0668     10.0735    126.3395     29.2542
  1581.3000      7.9455      2.4756      0.0676     10.5668    122.7446     30.1944
  1581.4000      7.9455      2.4685      0.0452     10.9977    119.7285     30.8414
  1581.5000      7.9644      2.4622      0.0648     11.3815    117.3665     30.8869
  1581.6000      7.9644      2.4592      0.0255     11.5613    114.6665     30.3465
  1581.7000      7.9644      2.4601      0.0590     11.5089    112.2957     29.6704
  1581.8000      7.9738      2.4642      0.0485     11.2597    112.4539     29.1878
  1581.9000      7.9738      2.4733      0.0769     10.7118    115.9319     28.8002
  1582.0000      7.9899      2.4861      0.0874      9.9312    120.3485     28.9057
  1582.1000      7.9899      2.4960      0.1127      9.3307    123.5424     29.9444
  1582.2000      7.9899      2.4944      0.1337      9.4298    124.9446     31.0329
  1582.3000      7.9709      2.4858      0.0773      9.9535    123.5762     31.3496
  1582.4000      7.9709      2.4844      0.0992     10.0387    120.6915     31.3318
  1582.5000      7.9659      2.4886      0.1029      9.7814    118.8666     31.4351
  1582.6000      7.9659      2.4891      0.1038      9.7523    118.2106     31.4628
  1582.7000      7.9659      2.4886      0.0824      9.7845    119.2871     31.0444
