~Version Information
VERS.                      2.0: CWLS Log ASCII Standard - VERSION 2.0
WRAP.                       NO: One line per depth step
~Well Information Block
STRT.FT                -7.7500: 
STOP.FT               973.7500: 
STEP.FT                 0.2500: 
NULL.                -999.2500: 
COMP.          Pioneer Natural Resources: COMPANY
WELL.              Dylan 42-25: WELL
FLD.           Purgatorie River: FIELD
LOC.           2160' FNL & 855' FEL: LOCATION
PROV.                 Colorado: PROVINCE
CNTY.               Las Animas: COUNTRY
SRVC.          Patterson Wireline: SERVICE COMPANY
DATE.          Fri Apr 29 16:36:17 2005: LOG DATE
UWI.           05-071-08229-00: UNIQUE WELL ID
~Curve Information Block
DEPT.FT            0 000 00 00: Depth
CCL.                          : Casing Collar Locator
TT3.usec                      : CBL 3' Travel Time
AMP3.mV                       : CBL 3' Amplitude
GR.GAPI                       : Gamma Ray
~Parameter Information Block
~A  Depth       CCL         TT3         AMP3         GR     
# ...
   494.7500      0.0000    814.7873      6.6428    105.9252
   495.0000      0.0000    812.4185      6.5897     99.7109
   495.2500      0.0000    806.4703      6.5327     95.2828
   495.5000      0.0000    797.4615      6.4779     92.6320
   495.7500      0.0000    789.4755      6.4158     91.7071
   496.0000      0.0000    787.4191      6.3258     92.1428
   496.2500      0.0000    792.8386      6.1978     93.0977
   496.5000      0.0000    802.6651      6.0466     93.9080
   496.7500      0.0000    812.0287      5.9018     94.9244
   497.0000      0.0000    817.8465      5.7837     97.2076
   497.2500      0.0000    819.9424      5.6948    100.9648
   497.5000      0.0000    819.8585      5.6310    104.6574
   497.7500      0.0000    819.3928      5.5928    106.3995
   498.0000      0.0000    819.9831      5.5803    106.1401
   498.2500      0.0000    822.5966      5.5837    105.7070
   498.5000      0.0000    827.3936      5.5892    106.6739
   498.7500      0.0000    833.1783      5.5918    108.9023
   499.0000      0.0000    837.6140      5.5986    111.2622
   499.2500      0.0000    838.7413      5.6184    113.0162
   499.5000      0.0000    836.5519      5.6526    114.2121
   499.7500      0.0000    832.8232      5.6979    115.1587
   500.0000      0.0000    829.4664      5.7525    115.8463
   500.2500      0.0000    827.3309      5.8141    115.8712
   500.5000      0.0000    826.3447      5.8753    115.0065
   500.7500      0.0000    826.1079      5.9238    113.9190
   501.0000      0.0000    826.0963      5.9475    113.9871
   501.2500      0.0000    825.5994      5.9400    116.0617
   501.5000      0.0000    823.8679      5.9032    119.5812
   501.7500      0.0000    820.5371      5.8482    123.3050
   502.0000      0.0000    815.9689      5.7914    126.9298
   502.2500      0.0000    811.1940      5.7472    131.5846
   502.5000      0.0000    807.5668      5.7225    138.4836
   502.7500      0.0000    806.3654      5.7160    147.2178
   503.0000      0.0000    808.2106      5.7241    155.3452
   503.2500      0.0000    812.4698      5.7466    159.4144
   503.5000      0.0000    817.4736      5.7858    156.7830
   503.7500      0.0000    821.6445      5.8407    147.4763
   504.0000      0.0000    824.3589      5.9042    134.6012
   504.2500      0.0000    825.7989      5.9697    122.3787
   504.5000      0.0000    826.3560      6.0390    113.3855
   504.7500      0.0000    826.2863      6.1218    107.4888
   505.0000      0.0000    825.6947      6.2276    102.8767
   505.2500      0.0000    824.5923      6.3591     97.8835
   505.5000      0.0000    822.9898      6.5122     92.3041
   505.7500      0.0000    821.1105      6.6809     87.2579
   506.0000      0.0000    819.5760      6.8589     83.6999
   506.2500      0.0000    819.0726      7.0377     81.2951
   506.5000      0.0000    819.5327      7.2068     79.0543
   506.7500      0.0000    819.9571      7.3576     76.6406
   507.0000      0.0000    819.3073      7.4864     74.4693
   507.2500      0.0000    817.3614      7.5942     72.7160
   507.5000      0.0000    814.6447      7.6895     70.8506
   507.7500      0.0000    812.1174      7.7880     68.3761
   508.0000      0.0000    811.0107      7.9044     65.6730
   508.2500      0.0000    812.1785      8.0424     63.8205
   508.5000      0.0000    815.1603      8.1968     63.7525
   508.7500      0.0000    818.1804      8.3615     65.6594
   509.0000      0.0000    819.3725      8.5307     68.9033
   509.2500      0.0000    817.8883      8.6883     72.4146
   509.5000      0.0000    813.7487      8.8045     75.4236
   509.7500      0.0000    807.2211      8.8504     77.9120
   510.0000      0.0000    798.8355      8.8209     80.3738
   510.2500      0.0000    789.4158      8.7375     83.3219
   510.5000      0.0000    779.5703      8.6308     87.0863
   510.7500      0.0000    769.6398      8.5192     91.7882
   511.0000      0.0000    760.4366      8.4058     97.1589
   511.2500      0.0000    753.5568      8.2907    102.3397
   511.5000      0.0000    750.5243      8.1803    106.0649
   511.7500      0.0000    751.6411      8.0852    107.2327
   512.0000      0.0000    755.5203      8.0133    105.6113
   512.2500      0.0000    759.7956      7.9686    102.4111
   512.5000      0.0000    762.8658      7.9512    100.2874
   512.7500      0.0000    765.1802      7.9538    102.2433
   513.0000      0.0000    768.4188      7.9598    109.8367
   513.2500      0.0000    773.3536      7.9482    122.1446
   513.5000      0.0000    779.0786      7.8964    136.4812
   513.7500      0.0000    784.3389      7.7795    150.1159
   514.0000      0.0000    789.2744      7.5701    161.3036
   514.2500      0.0000    796.1326      7.2477    168.9450
   514.5000      0.0000    808.0938      6.8206    172.1634
   514.7500      0.0000    825.6114      6.3504    170.8251
   515.0000      0.0000    843.0499      5.9436    165.9208
   515.2500      0.0000    851.3895      5.6896    159.0687
   515.5000      0.0000    846.4549      5.5961    152.4091
   515.7500      0.0000    833.2796      5.5939    148.9108
   516.0000      5.0000    821.2026      5.6043    151.0713
   516.2500      5.0000    816.2753      5.5948    158.1174
   516.5000      0.0000    819.0099      5.5904    165.0820
   516.7500      0.0000    826.6974      5.6549    165.7918
   517.0000      0.0000    835.2175      5.8574    157.4817
   517.2500      0.0000    839.7196      6.2144    142.7656
   517.5000      0.0000    836.8738      6.6488    127.2164
   517.7500      0.0000    827.3395      7.0272    115.0369
   518.0000      0.0000    814.6829      7.2563    106.8368
   518.2500      0.0000    801.8492      7.3350    101.0249
   518.5000      0.0000    789.6579      7.3177     96.5958
   518.7500      0.0000    778.2112      7.2567     94.0074
   519.0000      0.0000    768.5790      7.1836     93.7645
   519.2500      0.0000    762.8299      7.1199     95.1883
   519.5000      0.0000    762.6423      7.0782     96.9723
   519.7500      0.0000    767.9488      7.0514     98.5220
   520.0000      0.0000    776.8143      7.0163    100.5742
   520.2500      0.0000    786.6516      6.9553    104.7202
   520.5000      0.0000    795.4415      6.8750    112.3487
   520.7500      0.0000    801.9901      6.8002    123.6849
   521.0000      0.0000    805.9133      6.7515    137.3550
   521.2500      0.0000    808.1396      6.7310    150.6941
   521.5000      0.0000    810.7791      6.7298    160.8443
   521.7500      0.0000    815.3351      6.7428    166.1324
   522.0000      0.0000    821.1694      6.7735    166.7407
   522.2500      0.0000    826.3611      6.8238    164.3987
   522.5000      0.0000    829.6801      6.8843    161.5785
   522.7500      0.0000    831.1644      6.9326    160.3384
   523.0000      0.0000    831.2422      6.9420    161.2681
   523.2500      0.0000    829.8793      6.8979    163.4737
   523.5000      0.0000    826.6656      6.8109    165.5092
   523.7500      0.0000    821.7943      6.7144    166.1107
   524.0000      0.0000    816.9897      6.6448    164.3345
   524.2500      0.0000    814.8897      6.6226    159.5377
   524.5000      0.0000    816.8306      6.6465    151.4206
   524.7500      0.0000    821.5269      6.7014    140.2518
   525.0000      0.0000    826.3822      6.7699    127.3898
   525.2500      0.0000    829.7274      6.8396    115.5471
   525.5000      0.0000    831.5031      6.9033    107.8581
   525.7500      0.0000    832.4083      6.9561    106.0101
   526.0000      0.0000    833.0104      6.9943    109.1363
   526.2500      0.0000    833.5025      7.0182    114.7441
   526.5000      0.0000    833.8382      7.0345    120.7570
   526.7500      0.0000    833.8895      7.0494    126.4306
   527.0000      0.0000    833.5889      7.0569    131.4806
   527.2500      0.0000    833.0062      7.0340    134.9983
   527.5000      0.0000    832.2488      6.9522    135.7300
   527.7500      0.0000    831.0219      6.8002    133.2180
   528.0000      0.0000    828.1396      6.5991    128.2052
