~Version Information
VERS.                      2.0: CWLS Log ASCII Standard - VERSION 2.0
WRAP.                       NO: One line per depth step
~Well Information Block
STRT.FT               450.0000: 
STOP.FT              1739.2500: 
STEP.FT                 0.2500: 
NULL.                -999.2500: 
COMP.          Pioneer Natural Resources: COMPANY
WELL.            Harlee L 34-9: WELL
FLD.           Purgatoire River: FIELD
LOC.           600' FSL & 2125' FEL: LOCATION
PROV.                 Colorado: PROVINCE
CNTY.               Las Animas: COUNTRY
SRVC.                Patterson: SERVICE COMPANY
DATE.          Wed Jan 26 02:00:08 2005: LOG DATE
UWI.           05 071 08009 00: UNIQUE WELL ID
~Curve Information Block
DEPT.FT            0 000 00 00: Depth
SN.Ohm-m                      : IEL Short Normal
SP.mV                         : IEL Spontaneous Potential
DIR.Ohm-m                     : IEL Induction Resistivity
GR.GAPI                       : Gamma Ray
~Parameter Information Block
~A  Depth        SN          SP         DIR          GR     
# ...
  1622.5000     25.3293    -85.3522     23.8281    116.1322
  1622.7500     25.2446    -85.1592     23.8878    117.5016
  1623.0000     25.2328    -85.0157     23.9595    120.4198
  1623.2500     25.2867    -84.9333     24.0353    122.6725
  1623.5000     25.3813    -84.9224     24.1119    126.1223
  1623.7500     25.4843    -84.9886     24.1949    127.8291
  1624.0000     25.5768    -85.1282     24.3011    127.8020
  1624.2500     25.6600    -85.3252     24.4495    125.5015
  1624.5000     25.7376    -85.5530     24.6445    119.4233
  1624.7500     25.7984    -85.7792     24.8643    114.7528
  1625.0000     25.8219    -85.9726     25.0680    108.5858
  1625.2500     25.8000    -86.1063     25.2175    105.6386
  1625.5000     25.7460    -86.1601     25.2960    103.4116
  1625.7500     25.6867    -86.1219     25.3071    103.3721
  1626.0000     25.6454    -85.9899     25.2599    104.7168
  1626.2500     25.6263    -85.7761     25.1576    105.7152
  1626.5000     25.6119    -85.5074     25.0024    106.3179
  1626.7500     25.5764    -85.2224     24.8049    106.3181
  1627.0000     25.5040    -84.9640     24.5823    106.9570
  1627.2500     25.3959    -84.7697     24.3449    108.1717
  1627.5000     25.2582    -84.6633     24.0888    110.3639
  1627.7500     25.0835    -84.6497     23.8067    111.2196
  1628.0000     24.8546    -84.7168     23.5038    110.8164
  1628.2500     24.5698    -84.8409     23.2010    109.6157
  1628.5000     24.2592    -84.9948     22.9227    107.2598
  1628.7500     23.9674    -85.1542     22.6849    105.6542
  1629.0000     23.7255    -85.3017     22.4949    103.1951
  1629.2500     23.5401    -85.4264     22.3529    101.3433
  1629.5000     23.4027    -85.5235     22.2490     98.1077
  1629.7500     23.2999    -85.5922     22.1610     95.8354
  1630.0000     23.2155    -85.6355     22.0603     93.0585
  1630.2500     23.1295    -85.6583     21.9259     92.1926
  1630.5000     23.0209    -85.6670     21.7552     92.9457
  1630.7500     22.8780    -85.6673     21.5619     94.6847
  1631.0000     22.7090    -85.6620     21.3686     98.1507
  1631.2500     22.5430    -85.6511     21.1988    100.2901
  1631.5000     22.4148    -85.6317     21.0716    102.2616
  1631.7500     22.3385    -85.6002     20.9975    102.5120
  1632.0000     22.2899    -85.5544     20.9781    101.5501
  1632.2500     22.2213    -85.4940     21.0082    100.5440
  1632.5000     22.1042    -85.4206     21.0780     99.6099
  1632.7500     21.9547    -85.3362     21.1731     99.6668
  1633.0000     21.8123    -85.2416     21.2719    100.1135
  1633.2500     21.7027    -85.1355     21.3462     99.9182
  1633.5000     21.6219    -85.0138     21.3657     98.3796
  1633.7500     21.5440    -84.8706     21.3083     97.0410
  1634.0000     21.4403    -84.7005     21.1724     96.0476
  1634.2500     21.2993    -84.5009     20.9822     96.4116
  1634.5000     21.1340    -84.2749     20.7770     97.4574
  1634.7500     20.9680    -84.0318     20.5911     97.4446
  1635.0000     20.8155    -83.7869     20.4375     95.5374
  1635.2500     20.6756    -83.5596     20.3105     93.4276
  1635.5000     20.5444    -83.3700     20.1982     90.3383
  1635.7500     20.4248    -83.2344     20.0954     88.7757
  1636.0000     20.3258    -83.1598     20.0058     87.1679
  1636.2500     20.2523    -83.1394     19.9371     86.5616
  1636.5000     20.1971    -83.1511     19.8947     86.9605
  1636.7500     20.1426    -83.1629     19.8764     88.6345
  1637.0000     20.0699    -83.1410     19.8708     93.3440
  1637.2500     19.9701    -83.0607     19.8618     97.0853
  1637.5000     19.8508    -82.9117     19.8367    101.1727
  1637.7500     19.7344    -82.7002     19.7929    101.8841
  1638.0000     19.6512    -82.4444     19.7388    100.3162
  1638.2500     19.6302    -82.1694     19.6894     98.6524
  1638.5000     19.6890    -81.9010     19.6589     96.7338
  1638.7500     19.8231    -81.6606     19.6560     95.8314
  1639.0000     20.0027    -81.4616     19.6825     94.4016
  1639.2500     20.1842    -81.3079     19.7369     93.4246
  1639.5000     20.3314    -81.1945     19.8179     92.5773
  1639.7500     20.4310    -81.1106     19.9223     92.5789
  1640.0000     20.4926    -81.0428     20.0392     92.9839
  1640.2500     20.5380    -80.9774     20.1447     93.1828
  1640.5000     20.5915    -80.9022     20.2077     93.1626
  1640.7500     20.6732    -80.8080     20.2080     93.0455
  1641.0000     20.7955    -80.6909     20.1554     93.1018
  1641.2500     20.9620    -80.5539     20.0912     93.4580
  1641.5000     21.1676    -80.4082     20.0669     94.5426
  1641.7500     21.3990    -80.2711     20.1143     95.7841
  1642.0000     21.6387    -80.1633     20.2315     99.0977
  1642.2500     21.8710    -80.1062     20.3903    102.5105
  1642.5000     22.0890    -80.1181     20.5591    108.9627
  1642.7500     22.2952    -80.2126     20.7233    113.7341
  1643.0000     22.4996    -80.3954     20.8907    121.5726
  1643.2500     22.7175    -80.6619     21.0821    127.4520
  1643.5000     22.9659    -80.9944     21.3162    136.7605
  1643.7500     23.2563    -81.3623     21.5969    142.2122
  1644.0000     23.5843    -81.7258     21.9104    146.5573
  1644.2500     23.9240    -82.0423     22.2330    145.4479
  1644.5000     24.2356    -82.2754     22.5422    136.8260
  1644.7500     24.4823    -82.4028     22.8232    127.2853
  1645.0000     24.6474    -82.4193     23.0673    110.8656
  1645.2500     24.7390    -82.3348     23.2688    100.9611
  1645.5000     24.7804    -82.1682     23.4241     90.4933
  1645.7500     24.7935    -81.9399     23.5311     86.7738
  1646.0000     24.7855    -81.6671     23.5852     84.8037
  1646.2500     24.7458    -81.3618     23.5795     84.6219
  1646.5000     24.6545    -81.0321     23.5111     83.9467
  1646.7500     24.4952    -80.6818     23.3900     82.5279
  1647.0000     24.2651    -80.3111     23.2377     79.1940
  1647.2500     23.9778    -79.9154     23.0798     76.9945
  1647.5000     23.6574    -79.4866     22.9368     75.2633
  1647.7500     23.3298    -79.0154     22.8235     75.5387
  1648.0000     23.0147    -78.4952     22.7551     77.4648
  1648.2500     22.7215    -77.9253     22.7476     78.8035
  1648.5000     22.4497    -77.3141     22.8013     79.1667
  1648.7500     22.1941    -76.6797     22.8745     77.9028
  1649.0000     21.9508    -76.0488     22.8757     74.6812
  1649.2500     21.7233    -75.4534     22.7046     72.7790
  1649.5000     21.5219    -74.9266     22.3263     71.7739
  1649.7500     21.3559    -74.4963     21.8063     72.4751
  1650.0000     21.2274    -74.1809     21.2676     74.9334
  1650.2500     21.1314    -73.9859     20.8158     77.0226
  1650.5000     21.0573    -73.9025     20.4998     80.1304
  1650.7500     20.9907    -73.9090     20.3169     81.8302
  1651.0000     20.9183    -73.9734     20.2393     83.2642
  1651.2500     20.8374    -74.0569     20.2350     83.2588
  1651.5000     20.7595    -74.1202     20.2782     81.9449
  1651.7500     20.7043    -74.1284     20.3506     80.7118
  1652.0000     20.6858    -74.0564     20.4402     79.5002
  1652.2500     20.7012    -73.8908     20.5430     79.4072
  1652.5000     20.7280    -73.6284     20.6600     79.7205
  1652.7500     20.7302    -73.2732     20.7873     79.6694
  1653.0000     20.6759    -72.8320     20.8986     78.9581
  1653.2500     20.5550    -72.3131     20.9370     78.3951
  1653.5000     20.3821    -71.7265     20.8349     78.0532
  1653.7500     20.1821    -71.0851     20.5576     78.1969
  1654.0000     19.9717    -70.4060     20.1348     78.4361
  1654.2500     19.7551    -69.7083     19.6435     78.2562
  1654.5000     19.5321    -69.0100     19.1629     77.3616
  1654.7500     19.3048    -68.3239     18.7394     76.6285
  1655.0000     19.0774    -67.6551     18.3817     76.0480
  1655.2500     18.8539    -67.0009     18.0755     76.2960
  1655.5000     18.6363    -66.3541     17.8030     77.5193
  1655.7500     18.4269    -65.7072     17.5588     78.5298
