~Version Information
VERS.                      2.0: CWLS Log ASCII Standard - VERSION 2.0
WRAP.                       NO: One line per depth step
~Well Information Block
STRT.FT               665.0000: 
STOP.FT              1972.0000: 
STEP.FT                 0.2500: 
NULL.                -999.2500: 
COMP.          Petrogulf Corporation: COMPANY
WELL.          Great Plains 22-21V: WELL
FLD.           Purgatorie River: FIELD
LOC.           63' FNL & 1895' FWL: LOCATION
PROV.                 Colorado: PROVINCE
CNTY.               Las Animas: COUNTRY
SRVC.                Patterson: SERVICE COMPANY
DATE.          Thu Sep 01 07:36:33 2005: LOG DATE
UWI.                          : UNIQUE WELL ID
~Curve Information Block
DEPT.FT            0 000 00 00: Depth
SP.mV                         : DIL Spontaneous Potential
RILD.Ohm-m                    : DIL Deep Resistivity
RILM.Ohm-m                    : DIL Medium Resistivity
RLL3.Ohm-m                    : DIL Shallow Resistivity
GR.GAPI                       : Gamma Ray
~Parameter Information Block
~A  Depth        SP         RILD        RILM        RLL3         GR     
# ...
  1253.0000    159.7513     16.4288     14.7230     15.0855     53.8843
  1253.2500    159.4125     16.5329     14.4899     14.9650     48.4356
  1253.5000    158.9885     16.8568     15.0169     13.7007     48.7640
  1253.7500    158.3223     16.9949     15.7948     12.6655     50.0098
  1254.0000    157.6081     16.8863     16.7218     13.1686     40.8995
  1254.2500    156.6497     17.0646     17.8670     15.3178     43.0302
  1254.5000    155.9944     16.8689     19.0473     17.1285     60.0106
  1254.7500    155.4747     16.4828     19.1006     17.8344     81.2434
  1255.0000    155.2841     17.3088     19.7260     18.0944     59.5610
  1255.2500    155.2138     17.4864     18.9845     18.3739     68.3601
  1255.5000    155.1375     17.5849     18.9375     17.8261     81.6825
  1255.7500    154.8538     17.2488     19.3716     17.5411     70.5636
  1256.0000    154.4576     17.7302     19.7234     18.0891     78.0609
  1256.2500    154.3353     18.2357     19.2610     19.6817     71.5854
  1256.5000    154.2754     18.2351     19.2344     19.6689     71.4666
  1256.7500    154.0211     18.0731     19.5157     19.0663     64.8551
  1257.0000    154.1070     17.8380     19.3437     18.9207     63.7791
  1257.2500    154.4161     17.7849     18.8118     19.8366     64.2059
  1257.5000    154.7136     17.2274     18.4025     20.5239     67.2097
  1257.7500    154.5490     17.5675     17.7378     19.9715     61.7849
  1258.0000    154.1713     17.9211     17.4053     18.2956     66.5954
  1258.2500    154.2023     17.2804     16.8316     16.4546     60.2500
  1258.5000    154.3904     17.3996     16.7317     15.0018     68.4337
  1258.7500    154.5435     16.8643     16.5102     14.4493     73.2630
  1259.0000    154.9039     16.7604     16.5620     14.8634     54.8704
  1259.2500    155.4725     16.8534     16.7373     15.4830     63.2215
  1259.5000    156.2188     16.6397     17.1019     16.2092     68.5008
  1259.7500    156.5800     16.5254     16.8299     16.6828     67.8526
  1260.0000    156.5188     16.5278     16.7904     16.0335     82.1586
  1260.2500    156.3661     16.2567     16.6909     15.6285     77.9775
  1260.5000    156.9359     15.9837     16.3913     15.8023     65.9891
  1260.7500    158.0488     16.2551     16.0989     16.3633     57.3053
  1261.0000    158.7539     16.1062     15.9632     16.5371     70.7637
  1261.2500    158.9263     16.5211     16.5197     16.1370     86.1024
  1261.5000    158.7679     16.2005     16.2003     15.4997     61.4024
  1261.7500    158.7288     15.9667     15.7344     15.7670     59.8183
  1262.0000    158.6853     16.1229     15.6436     16.2062     76.9629
  1262.2500    158.4409     16.2177     15.4260     16.1620     82.5504
  1262.5000    158.3412     16.3757     15.4786     15.9307     83.2693
  1262.7500    158.2943     16.6677     15.4856     15.6250     85.8558
  1263.0000    158.6083     16.6868     15.5874     15.4510     70.9264
  1263.2500    158.9106     16.4358     16.0352     15.5456     70.5336
  1263.5000    158.3099     16.5796     16.0141     15.8937     81.4322
  1263.7500    157.5738     16.8356     16.1025     16.2873     85.4743
  1264.0000    157.2321     16.5817     16.2054     16.8277     66.0745
  1264.2500    156.9898     16.4361     16.1528     17.6033     73.1465
  1264.5000    156.8304     16.2513     16.0279     18.0863     67.5165
  1264.7500    156.8761     16.6567     16.0819     18.3159     63.6592
  1265.0000    157.0040     16.8112     15.9954     18.5443     68.9082
  1265.2500    156.7827     16.4886     15.9449     18.4527     68.3309
  1265.5000    156.9820     16.9197     16.0104     18.3076     59.5943
  1265.7500    157.3840     17.0816     15.9179     17.7719     68.4503
  1266.0000    157.7852     17.1750     15.8075     16.6392     79.4794
  1266.2500    157.3931     16.9872     15.8361     14.9116     71.1745
  1266.5000    156.4387     16.9446     16.1060     14.9717     66.1337
  1266.7500    155.6319     16.8796     16.4864     15.7990     73.6564
  1267.0000    155.5051     17.0110     16.9508     16.6520     81.1576
  1267.2500    155.7661     16.9555     16.7319     17.0898     81.5335
  1267.5000    155.7633     17.0844     16.9926     16.9423     70.6739
  1267.7500    156.1426     16.9748     16.8735     17.0932     65.4634
  1268.0000    156.2952     16.7971     16.9347     17.0914     72.0585
  1268.2500    155.7595     16.5863     17.4822     17.2517     68.3753
  1268.5000    154.7630     16.6658     17.1131     18.0170     56.4331
  1268.7500    153.7103     16.2435     16.9412     18.7201     55.3163
  1269.0000    152.9150     16.3172     16.9199     18.6519     77.4099
  1269.2500    152.8512     16.3631     16.7738     18.5494     70.1987
  1269.5000    153.2762     16.3822     16.4609     18.1993     67.7025
  1269.7500    153.7432     16.2237     16.1666     18.0292     67.8374
  1270.0000    154.5111     16.0159     16.3571     17.6468     66.6192
  1270.2500    155.0603     16.4538     15.9086     17.5360     70.8503
  1270.5000    154.6074     16.7230     15.7573     17.1096     74.2275
  1270.7500    154.0504     16.7616     15.4882     17.2181     75.6138
  1271.0000    153.8409     16.8613     15.8514     17.3717     79.1914
  1271.2500    154.3843     17.0076     15.6245     17.2299     85.9945
  1271.5000    154.8823     17.1136     16.1252     16.8177     75.8258
  1271.7500    154.9326     17.6917     16.1666     16.6167     84.9220
  1272.0000    155.3739     17.5806     16.5741     16.9426     65.4733
  1272.2500    155.8893     17.7552     16.8404     17.6829     75.2614
  1272.5000    156.2419     18.1701     17.7977     18.0846     70.3448
  1272.7500    155.7651     18.1106     18.3064     18.5780     75.4744
  1273.0000    155.4731     18.3316     18.4801     19.3820     78.7976
  1273.2500    154.9075     18.5229     18.6167     20.4063     69.2427
  1273.5000    154.1125     19.3099     19.4830     20.9932     66.5635
  1273.7500    153.9836     19.4138     20.0935     22.0414     65.9070
  1274.0000    154.9217     19.2388     20.1544     22.4230     79.5055
  1274.2500    156.1147     19.3464     20.6667     22.4348     70.3282
  1274.5000    157.0679     19.4774     21.2750     22.9330     63.0819
  1274.7500    157.4225     19.9640     21.8608     24.0687     73.3916
  1275.0000    157.4380     20.1440     22.7026     24.8709     68.6840
  1275.2500    157.5489     20.2363     23.0778     25.6191     71.7415
  1275.5000    158.6980     20.2182     23.1180     26.9050     68.5715
  1275.7500    159.4212     19.0166     23.8472     28.1466     59.9631
  1276.0000    159.7840     19.0553     24.1859     29.0331     59.3997
  1276.2500    160.1196     18.4552     23.5159     29.6785     61.4643
  1276.5000    160.6735     18.0520     22.9097     29.2190     74.6914
  1276.7500    162.2116     17.3300     21.7951     27.0101     84.0290
  1277.0000    163.8767     16.0337     20.6290     23.8606     85.4479
  1277.2500    165.4393     14.9515     18.8008     23.1038     88.3773
  1277.5000    165.7437     13.8476     17.0886     24.7896     85.2671
  1277.7500    165.9297     13.3231     15.5893     25.6746     92.3681
  1278.0000    166.1455     12.6296     13.8984     22.9179    106.2617
  1278.2500    167.2206     12.0285     12.2107     17.3001    118.4377
  1278.5000    168.3692     11.8003     10.8713     12.8179    146.1718
  1278.7500    168.7992     11.2424     10.0021     10.0941    157.2897
  1279.0000    169.5282     11.0761      9.4808      9.0931    148.5270
  1279.2500    170.2544     11.0697      9.2304      8.5446    140.3929
  1279.5000    170.7831     11.2152      9.2852      9.2612    130.8135
  1279.7500    171.7121     11.3053      9.3191      9.9288    138.0812
  1280.0000    172.8771     11.2155      9.5285      9.5939    136.9549
  1280.2500    173.9020     11.1781     10.0109      9.9518    138.6149
  1280.5000    174.2740     11.1713     10.3758     11.8750    144.4355
  1280.7500    174.3306     11.3319     11.0297     13.6302    129.0571
