~Version Information
 VERS.                                  2.0 : CWLS LAS VERSION
 WRAP.                                   NO : WRAPING MODE
 SWARE .                 MController 2.5.0E : SOFTWARE VERSION
~Well Information
 WELL.                          Enzo 43-8TR : WELL
 COMP.        Pioneer Natural Resources Inc : COMPANY
 FLD.                      Purgatorie River : FIELD
 LOC.                 NE/SE Sec 8 T32S R66W : LOCATION
 DATE.                             10/29/04 : DATE(S) LOGGED
 SRVC.       Blanco Geological Services LLC : SERVICE COMPANY
 STAT.                                   CO : STATE
 CNTY.                           Las Animas : COUNTY
 CTRY.                                  USA : COUNTRY
 API.                       05-071-08213-00 : API NUMBER
 STRT.FT                             562.00 : START DEPTH
 STOP.FT                            2170.00 : STOP DEPTH
 STEP.FT                               1.00 : DEPTH INCREMENT
 NULL.                                -9999 : NULL VALUE
~Curve information
 DEPTH.FT                                   :
 ROP.MIN/FT                                 :
 GAS.UNITS                                  :
~ASCII Log data
# ...
     1162.00        0.233         23.8 
     1163.00        0.200         23.3 
     1164.00        0.133         23.0 
     1165.00        0.200         22.9 
     1166.00        3.667        114.7 
     1167.00        0.267         63.6 
     1168.00        0.267         56.6 
     1169.00        0.233         51.0 
     1170.00        0.233         45.8 
     1171.00        0.300         42.5 
     1172.00        0.267         40.6 
     1173.00        0.233         36.8 
     1174.00        0.233         33.3 
     1175.00        0.200         31.4 
     1176.00        0.233         29.6 
     1177.00        0.233         29.3 
     1178.00        0.233         28.7 
     1179.00        0.200         26.6 
     1180.00        0.250         26.4 
     1181.00        0.200         28.6 
     1182.00        0.267         28.9 
     1183.00        0.200         27.8 
     1184.00        0.167         26.5 
     1185.00        0.200         26.0 
     1186.00        0.167         25.4 
     1187.00        0.200         24.6 
     1188.00        0.200         23.7 
     1189.00        0.167         22.7 
     1190.00        0.200         22.2 
     1191.00        0.167         21.2 
     1192.00        0.200         20.4 
     1193.00        0.200         19.9 
     1194.00        0.200         19.3 
     1195.00        0.233         19.2 
     1196.00        2.950         86.7 
     1197.00        0.333         70.8 
     1198.00        0.317         60.0 
     1199.00        0.300         51.7 
     1200.00        0.267         46.1 
     1201.00        0.267         42.8 
     1202.00        0.233         40.3 
     1203.00        0.300         38.0 
     1204.00        0.267         33.9 
     1205.00        0.300         31.3 
     1206.00        0.233         29.1 
     1207.00        0.267         27.4 
     1208.00        0.200         24.8 
     1209.00        0.200         24.2 
     1210.00        0.233         24.0 
     1211.00        0.283         26.0 
     1212.00        0.167         25.4 
     1213.00        0.200         26.3 
     1214.00        0.133         26.5 
     1215.00        0.133         26.9 
     1216.00        0.200         27.3 
     1217.00        0.133         27.1 
     1218.00        0.167         26.3 
     1219.00        0.167         25.0 
     1220.00        0.133         23.9 
     1221.00        0.167         22.9 
     1222.00        0.233         21.3 
     1223.00        0.167         20.3 
     1224.00        0.200         19.1 
     1225.00        0.233         17.7 
     1226.00        4.233        129.5 
     1227.00        0.333         54.5 
     1228.00        0.367         43.3 
     1229.00        0.333         36.8 
     1230.00        0.367         32.4 
     1231.00        0.333         29.3 
     1232.00        0.267         27.4 
     1233.00        0.267         26.2 
     1234.00        0.267         24.7 
     1235.00        0.367         22.5 
     1236.00        0.233         21.7 
     1237.00        0.250         21.1 
     1238.00        0.300         20.5 
     1239.00        0.233         21.7 
     1240.00        0.367         23.8 
     1241.00        0.300         26.0 
     1242.00        0.200         26.2 
     1243.00        0.267         26.9 
     1244.00        0.233         29.1 
     1245.00        0.200         29.4 
     1246.00        0.233         28.3 
     1247.00        0.133         26.6 
     1248.00        0.200         25.2 
     1249.00        0.167         23.6 
     1250.00        0.167         23.4 
     1251.00        0.167         22.8 
     1252.00        0.217         22.7 
     1253.00        0.167         22.1 
     1254.00        0.200         21.4 
     1255.00        0.200         20.3 
     1256.00        3.783         58.2 
     1257.00        0.267         41.3 
     1258.00        0.400         37.6 
     1259.00        0.233         32.8 
     1260.00        0.233         31.1 
     1261.00        0.267         28.5 
     1262.00        0.267         25.4 
     1263.00        0.200         22.7 
     1264.00        0.200         22.0 
     1265.00        0.283         20.6 
     1266.00        0.233         19.8 
     1267.00        0.300         19.1 
     1268.00        0.233         18.8 
     1269.00        0.300         19.2 
     1270.00        0.200         19.9 
     1271.00        0.267         21.5 
     1272.00        0.200         21.2 
     1273.00        0.233         22.5 
     1274.00        0.167         22.5 
     1275.00        0.267         22.6 
     1276.00        0.167         21.7 
     1277.00        0.300         24.2 
     1278.00        0.267         23.9 
     1279.00        0.283         20.8 
     1280.00        0.267         19.5 
     1281.00        0.233         18.2 
     1282.00        0.400         17.2 
     1283.00        0.433         16.6 
     1284.00        0.433         15.0 
     1285.00        0.233         14.2 
     1286.00        2.517         54.4 
     1287.00        0.233         53.2 
     1288.00        0.200         50.1 
     1289.00        0.200         47.0 
     1290.00        0.267         44.4 
     1291.00        0.200         40.1 
     1292.00        0.300         37.3 
     1293.00        0.233         35.2 
     1294.00        0.250         32.0 
     1295.00        0.167         29.9 
     1296.00        0.300         29.2 
     1297.00        0.233         25.8 
     1298.00        0.233         24.5 
     1299.00        0.267         23.5 
     1300.00        0.233         21.9 
     1301.00        0.200         20.3 
     1302.00        0.233         19.8 
     1303.00        0.167         20.6 
     1304.00        0.200         21.1 
     1305.00        0.367         20.2 
     1306.00        0.267         19.3 
     1307.00        0.267         19.4 
     1308.00        0.217         18.4 
     1309.00        0.167         17.0 
     1310.00        0.133         15.8 
     1311.00        0.200         14.2 
     1312.00        0.200         13.4 
     1313.00        0.167         12.3 
     1314.00        0.167         10.9 
     1315.00        0.300         10.8 
     1316.00        2.817         69.0 
     1317.00        0.200         65.3 
     1318.00        0.333         60.8 
     1319.00        0.267         49.6 
     1320.00        0.600         41.8 
     1321.00        0.567         30.6 
     1322.00        0.317         26.7 
     1323.00        0.367         25.0 
     1324.00        0.333         22.7 
     1325.00        0.300         21.0 
     1326.00        0.267         19.8 
     1327.00        0.400         18.7 
     1328.00        0.567         18.4 
     1329.00        0.600         17.9 
     1330.00        0.467         17.1 
     1331.00        0.250         17.1 
     1332.00        0.200         18.3 
     1333.00        0.200         19.8 
     1334.00        0.233         19.4 
     1335.00        0.200         18.6 
     1336.00        0.233         18.8 
     1337.00        0.200         19.6 
     1338.00        0.267         19.9 
     1339.00        0.200         19.0 
     1340.00        0.200         16.8 
     1341.00        0.200         14.7 
     1342.00        0.167         13.4 
     1343.00        0.200         12.4 
     1344.00        0.233         10.5 
     1345.00        0.167         10.7 
     1346.00        2.883         91.2 
     1347.00        0.567         91.6 
     1348.00        0.717         77.5 
     1349.00        0.700         44.8 
     1350.00        0.567         30.1 
     1351.00        0.433         25.2 
     1352.00        0.367         20.6 
     1353.00        0.300         18.6 
     1354.00        0.550         17.1 
     1355.00        0.433         15.4 
     1356.00        0.267         15.2 
     1357.00        0.267         15.9 
     1358.00        0.267         15.7 
     1359.00        0.267         16.6 
     1360.00        0.267         16.5 
     1361.00        0.267         18.3 
