~Version Information
VERS.                      2.0: CWLS Log ASCII Standard - VERSION 2.0
WRAP.                       NO: One line per depth step
~Well Information Block
STRT.FT                -6.7500: 
STOP.FT               983.2500: 
STEP.FT                 0.2500: 
NULL.                -999.2500: 
COMP.          Pioneer Natural Resources: COMPANY
WELL.          Run-Away-Train 43-26: WELL
FLD.           Purgatorie River: FIELD
LOC.           1693' FSL & 1195' FWL------------: LOCATION
PROV.                       CO: PROVINCE
CNTY.               Las Animas: COUNTRY
SRVC.          Patterson Wireline: SERVICE COMPANY
DATE.          Thu Apr 14 12:30:00 2005: LOG DATE
UWI.           05 071 08188 00: UNIQUE WELL ID
~Curve Information Block
DEPT.FT            0 000 00 00: Depth
CCL.                          : Casing Collar Locator
TT3.usec                      : CBL 3' Travel Time
AMP3.mV                       : CBL 3' Amplitude
GR.GAPI                       : Gamma Ray
~Parameter Information Block
~A  Depth       CCL         TT3         AMP3         GR     
# ...
   830.7500      0.0000    806.5369      5.2214     86.9360
   831.0000      0.0000    804.3230      5.5692     86.5211
   831.2500      0.0000    793.7483      5.8568     83.9711
   831.5000      0.0000    780.9055      6.0181     81.6504
   831.7500      0.0000    767.4485      6.0824     81.4409
   832.0000      0.0000    751.8104      6.0928     83.4670
   832.2500      0.0000    733.2443      6.0596     86.3729
   832.5000      0.0000    713.7888      5.9887     88.4062
   832.7500      0.0000    696.2271      5.9052     88.1626
   833.0000      0.0000    680.8384      5.8403     84.9364
   833.2500      0.0000    665.5276      5.8142     79.1351
   833.5000      0.0000    650.2128      5.8242     72.2570
   833.7500      0.0000    640.7948      5.8497     65.9562
   834.0000      0.0000    646.6891      5.8796     61.0641
   834.2500      0.0000    672.3685      5.9233     57.5080
   834.5000      0.0000    711.6689      5.9883     54.8677
   834.7500      0.0000    751.7270      6.0640     52.9013
   835.0000      0.0000    782.2356      6.1282     51.5725
   835.2500      0.0000    800.0811      6.1636     50.6819
   835.5000      0.0000    806.9870      6.1686     49.8095
   835.7500      0.0000    805.9269      6.1583     48.7702
   836.0000      0.0000    800.3228      6.1614     47.7901
   836.2500      0.0000    794.3109      6.2075     47.0811
   836.5000      0.0000    791.6992      6.3009     46.5641
   836.7500      0.0000    794.1771      6.4058     46.1300
   837.0000      0.0000    800.6321      6.4669     45.9076
   837.2500      0.0000    808.2101      6.4432     46.1250
   837.5000      0.0000    814.3269      6.3327     46.7574
   837.7500      0.0000    818.0331      6.1677     47.3702
   838.0000      0.0000    819.8297      5.9798     47.3577
   838.2500      0.0000    820.6600      5.7816     46.4149
   838.5000      0.0000    821.2268      5.5954     44.8119
   838.7500      0.0000    821.8582      5.4681     43.1715
   839.0000      0.0000    822.4698      5.4234     41.9378
   839.2500      0.0000    822.3965      5.4187     41.1607
   839.5000      0.0000    820.5212      5.3676     40.8238
   839.7500      0.0000    816.1172      5.1980     41.1940
   840.0000      0.0000    809.8697      4.8906     42.6808
   840.2500      0.0000    803.8132      4.4849     45.4421
   840.5000      0.0000    799.7957      4.0658     49.2256
   840.7500      0.0000    797.7706      3.7315     53.5124
   841.0000      0.0000    795.7052      3.5465     57.6676
   841.2500      0.0000    791.4001      3.5190     61.0090
   841.5000      0.0000    784.4488      3.6139     62.9806
   841.7500      0.0000    776.4556      3.7754     63.5765
   842.0000      0.0000    769.9391      3.9503     63.7628
   842.2500      0.0000    767.4324      4.1113     65.2035
   842.5000      0.0000    770.6517      4.2595     69.0602
   842.7500      0.0000    779.4000      4.4187     74.8495
   843.0000      0.0000    791.2731      4.6409     80.6614
   843.2500      0.0000    803.0061      4.9826     84.5607
   843.5000      0.0000    812.3128      5.4433     85.6447
   843.7500      0.0000    818.1313      5.9424     84.1519
   844.0000      0.0000    819.1872      6.3641     81.3503
   844.2500      0.0000    813.3245      6.6156     79.2522
   844.5000      0.0000    798.9857      6.6575     79.5625
   844.7500      0.0000    777.5159      6.5179     82.4793
   845.0000      0.0000    753.9863      6.2839     86.6485
   845.2500      0.0000    735.1008      6.0552     90.2982
   845.5000      0.0000    725.5157      5.8900     92.3271
   845.7500      0.0000    725.9227      5.7950     92.5941
   846.0000      0.0000    734.0151      5.7565     91.6181
   846.2500      0.0000    746.0764      5.7606     90.1144
   846.5000      0.0000    757.6708      5.7864     88.6718
   846.7500      0.0000    764.0402      5.8052     87.6930
   847.0000      0.0000    760.4922      5.7927     87.4103
   847.2500      0.0000    743.2073      5.7331     87.8193
   847.5000      0.0000    711.6900      5.6187     88.8612
   847.7500      0.0000    671.4049      5.4628     90.8665
   848.0000      0.0000    632.5889      5.3063     94.3847
   848.2500      0.0000    605.3121      5.1846     99.1909
   848.5000      0.0000    595.4861      5.0910    103.6571
   848.7500      0.0000    603.9103      4.9979    105.5496
   849.0000      0.0000    626.3722      4.9000    103.7882
   849.2500      0.0000    654.3311      4.7999     99.4793
   849.5000      0.0000    678.1473      4.6695     95.0350
   849.7500      0.0000    692.1121      4.4603     92.2651
   850.0000      0.0000    697.2321      4.1562     91.3905
   850.2500      0.0000    699.4017      3.7990     91.5542
   850.5000      0.0000    704.8063      3.4533     91.6944
   850.7500      0.0000    716.0042      3.1570     90.7923
   851.0000      0.0000    730.8314      2.9126     87.8140
   851.2500      0.0000    744.0257      2.7092     82.0629
   851.5000      0.0000    750.3751      2.5409     73.7890
   851.7500      0.0000    747.8939      2.4054     64.2347
   852.0000      0.0000    738.8183      2.3007     55.0002
   852.2500      0.0000    727.3903      2.2264     47.4493
   852.5000      0.0000    716.7751      2.1800     42.4155
   852.7500      0.0000    708.3951      2.1531     39.9716
   853.0000      0.0000    703.6183      2.1413     39.4616
   853.2500      0.0000    705.4170      2.1609     40.2032
   853.5000      0.0000    718.0705      2.2512     42.3220
   853.7500      0.0000    743.5541      2.4546     46.5368
   854.0000      0.0000    775.9186      2.7934     52.8886
   854.2500      0.0000    800.5599      3.2627     60.0007
   854.5000      0.0000    803.9046      3.8452     66.0497
   854.7500      0.0000    786.0687      4.5483     70.4176
   855.0000      0.0000    762.0044      5.4404     74.0215
   855.2500      0.0000    749.0482      6.6272     78.0602
   855.5000      0.0000    753.8929      8.1484     82.7424
   855.7500      0.0000    770.3804      9.8876     87.1874
   856.0000      0.0000    787.4719     11.6068     90.2036
   856.2500      0.0000    798.7468     13.0693     91.0994
   856.5000      0.0000    805.0887     14.1216     90.0415
   856.7500      0.0000    809.8774     14.7040     87.8618
   857.0000      0.0000    813.9649     14.8427     85.5891
   857.2500      0.0000    816.1605     14.6225     83.9717
   857.5000      0.0000    816.5172     14.1276     83.0829
   857.7500      0.0000    817.0422     13.4030     82.3828
   858.0000      0.0000    819.4536     12.4847     81.3320
   858.2500      0.0000    822.9857     11.4517     79.8508
   858.5000      0.0000    824.4461     10.4122     78.2495
   858.7500      0.0000    820.5056      9.4444     76.9601
   859.0000      0.0000    810.4241      8.5795     76.2462
   859.2500      0.0000    796.5464      7.8355     75.8514
   859.5000      0.0000    781.9677      7.2313     74.9394
   859.7500      0.0000    768.1036      6.7624     72.7113
   860.0000      0.0000    754.8456      6.3972     69.2342
   860.2500      0.0000    742.4833      6.1152     65.5116
   860.5000      0.0000    732.4542      5.9223     62.8307
   860.7500      0.0000    725.9896      5.8157     62.2317
   861.0000      0.0000    722.8032      5.7548     64.1777
   861.2500      0.0000    721.5359      5.6843     68.0005
   861.5000      0.0000    721.0348      5.5746     71.9606
   861.7500      0.0000    720.9351      5.4392     74.5872
   862.0000      0.0000    721.4706      5.3394     75.6925
   862.2500      0.0000    723.0413      5.3642     75.5798
   862.5000      0.0000    725.7924      5.5541     73.8792
   862.7500      0.0000    729.3391      5.8369     69.9817
   863.0000      0.0000    733.1625      6.0784     64.3814
   863.2500      0.0000    737.4182      6.1974     58.9543
   863.5000      0.0000    742.9629      6.2020     55.8226
   863.7500      0.0000    750.3818      6.1366     55.8768
   864.0000      0.0000    759.3923      6.0355     58.1082
