~Version Information
 VERS.                                  2.0 : CWLS LAS VERSION
 WRAP.                                   NO : WRAPING MODE
 SWARE .                 MController 2.5.0J : SOFTWARE VERSION
~Well Information
 WELL.                        Rancher 12-35 : WELL
 COMP.        Pioneer Natural Resources Inc : COMPANY
 FLD.                      PURGATOIRE RIVER : FIELD
 LOC.                    SW/NW 35 T32S R67W : LOCATION
 DATE.                             10/11/04 : DATE(S) LOGGED
 SRVC.       BLANCO GEOLOGICAL SERVICES LLC : SERVICE COMPANY
 STAT.                             COLORADO : STATE
 CNTY.                           LAS ANIMAS : COUNTY
 CTRY.                                  USA : COUNTRY
 API.                       05-071-08179-00 : API NUMBER
 STRT.FT                             449.00 : START DEPTH
 STOP.FT                            2520.00 : STOP DEPTH
 STEP.FT                               1.00 : DEPTH INCREMENT
 NULL.                                -9999 : NULL VALUE
~Curve information
 DEPTH.FT                                   :
 ROP.MIN/FT                                 :
 GAS.UNITS                                  :
~ASCII Log data
# ...
      2249.0         0.20       1397.7 
      2250.0         0.30       2730.9 
      2251.0         0.33       3060.4 
      2252.0         0.27       3129.1 
      2253.0         0.33       2757.1 
      2254.0         0.30       2406.4 
      2255.0         0.27       2359.6 
      2256.0         0.23       2376.1 
      2257.0         0.27       2352.8 
      2258.0         0.30       2227.5 
      2259.0         0.38       2030.1 
      2260.0         0.30       1877.4 
      2261.0         0.30       1743.4 
      2262.0         0.40       1607.6 
      2263.0         0.37       1523.7 
      2264.0         0.47       1535.5 
      2265.0         0.48       1577.6 
      2266.0         0.33       1525.7 
      2267.0         0.27       1405.8 
      2268.0         0.30       1315.8 
      2269.0         0.33       1290.9 
      2270.0         0.37       1278.1 
      2271.0         0.30       1239.3 
      2272.0         0.30       1241.4 
      2273.0         0.23       1272.7 
      2274.0         0.20       1320.9 
      2275.0         0.20       1369.0 
      2276.0         0.25       1432.7 
      2277.0         0.30       1507.5 
      2278.0         0.27       1492.4 
      2279.0         0.37       1320.5 
      2280.0         0.30       1814.4 
      2281.0         0.23       1959.7 
      2282.0         0.27       2067.8 
      2283.0         0.22       2091.4 
      2284.0         0.27       2042.9 
      2285.0         0.13       1999.4 
      2286.0         0.30       1880.8 
      2287.0         0.33       1762.9 
      2288.0         0.30       1664.2 
      2289.0         0.30       1600.8 
      2290.0         0.30       1591.1 
      2291.0         0.27       1587.0 
      2292.0         0.30       1568.2 
      2293.0         0.30       1527.4 
      2294.0         0.23       1498.8 
      2295.0         0.35       1470.1 
      2296.0         0.33       1448.2 
      2297.0         0.27       1428.3 
      2298.0         0.27       1414.2 
      2299.0         0.33       1398.4 
      2300.0         0.27       1381.5 
      2301.0         0.30       1365.0 
      2302.0         0.27       1357.6 
      2303.0         0.27       1351.9 
      2304.0         0.30       1342.1 
      2305.0         0.27       1337.4 
      2306.0         0.23       1334.0 
      2307.0         0.25       1330.3 
      2308.0         0.27       1324.2 
      2309.0         0.27       2580.9 
      2310.0         0.55       1982.2 
      2311.0         0.40       1628.1 
      2312.0         0.43       1658.5 
      2313.0         0.37       1934.7 
      2314.0         0.37       2083.0 
      2315.0         0.37       2034.8 
      2316.0         0.33       1891.6 
      2317.0         0.33       1745.4 
      2318.0         0.28       1648.3 
      2319.0         0.30       1567.8 
      2320.0         0.37       1517.6 
      2321.0         0.33       1527.1 
      2322.0         0.30       1532.8 
      2323.0         0.37       1522.7 
      2324.0         0.30       1498.8 
      2325.0         0.30       1451.6 
      2326.0         0.30       1407.8 
      2327.0         0.30       1387.2 
      2328.0         0.33       1371.1 
      2329.0         0.32       1357.6 
      2330.0         0.33       1345.5 
      2331.0         0.43       1330.0 
      2332.0         0.23       1320.5 
      2333.0         0.23       1311.8 
      2334.0         0.23       1308.1 
      2335.0         0.23       1312.8 
      2336.0         0.27       1314.1 
      2337.0         0.30       1284.1 
      2338.0         0.30       1194.2 
      2339.0         0.27       1153.1 
      2340.0         0.43       2475.1 
      2341.0         0.47       2226.8 
      2342.0         0.42       1864.6 
      2343.0         0.30       1788.8 
      2344.0         0.40       1988.0 
      2345.0         0.50       1931.0 
      2346.0         0.53       1554.3 
      2347.0         0.43       1492.4 
      2348.0         0.33       1543.9 
      2349.0         0.27       1540.2 
      2350.0         0.32       1492.7 
      2351.0         0.33       1422.3 
      2352.0         0.33       1350.9 
      2353.0         0.27       1266.6 
      2354.0         0.23       1209.0 
      2355.0         0.27       1225.9 
      2356.0         0.20       1295.3 
      2357.0         0.30       1394.6 
      2358.0         0.27       1467.4 
      2359.0         0.27       1487.0 
      2360.0         0.30       1434.1 
      2361.0         0.27       1351.2 
      2362.0         0.28       1333.3 
      2363.0         0.23       1347.1 
      2364.0         0.27       1345.1 
      2365.0         0.27       1314.5 
      2366.0         0.23       1269.3 
      2367.0         0.17       1248.1 
      2368.0         0.20       1219.1 
      2369.0         0.27       1161.5 
      2370.0         0.60       1603.2 
      2371.0         0.37       1428.3 
      2372.0         0.40       1354.2 
      2373.0         0.45       1631.2 
      2374.0         0.33       1841.1 
      2375.0         0.30       1926.0 
      2376.0         0.27       1879.8 
      2377.0         0.27       1749.4 
      2378.0         0.23       1634.5 
      2379.0         0.23       1572.9 
      2380.0         0.23       1565.8 
      2381.0         0.30       1572.9 
      2382.0         0.23       1567.5 
      2383.0         0.23       1553.7 
      2384.0         0.23       1533.5 
      2385.0         0.23       1515.9 
      2386.0         0.25       1492.7 
      2387.0         0.27       1458.7 
      2388.0         0.23       1424.6 
      2389.0         0.27       1386.9 
      2390.0         0.27       1359.3 
      2391.0         0.27       1340.4 
      2392.0         0.23       1326.6 
      2393.0         0.20       1319.2 
      2394.0         0.23       1310.4 
      2395.0         0.20       1300.0 
      2396.0         0.20       1291.2 
      2397.0         0.23       1280.8 
      2398.0         0.23       1276.1 
      2399.0         0.27       1277.1 
      2400.0         0.38       1322.5 
      2401.0         0.33       1269.7 
      2402.0         0.30       1300.7 
      2403.0         0.33       1557.4 
      2404.0         0.27       1732.6 
      2405.0         0.30       1860.3 
      2406.0         0.30       1871.4 
      2407.0         0.30       1793.6 
      2408.0         0.32       1698.2 
      2409.0         0.30       1644.0 
      2410.0         0.30       1602.2 
      2411.0         0.27       1567.5 
      2412.0         0.30       1525.7 
      2413.0         0.27       1489.7 
      2414.0         0.30       1446.5 
      2415.0         0.27       1399.7 
      2416.0         0.30       1344.1 
      2417.0         0.30       1304.0 
      2418.0         0.30       1292.9 
      2419.0         0.32       1287.2 
      2420.0         0.30       1274.7 
      2421.0         0.33       1255.2 
      2422.0         0.30       1241.0 
      2423.0         0.30       1234.3 
      2424.0         0.33       1212.4 
      2425.0         0.30       1209.0 
      2426.0         0.30       1213.4 
      2427.0         0.33       1219.8 
      2428.0         0.27       1221.1 
      2429.0         0.27       1216.4 
      2430.0         0.28       1712.4 
      2431.0         0.28       1830.3 
      2432.0         0.20       1904.1 
      2433.0         0.27       1939.4 
      2434.0         0.30       1877.4 
      2435.0         0.27       1769.0 
      2436.0         0.23       1665.5 
      2437.0         0.40       1489.3 
      2438.0         0.37       1317.5 
      2439.0         0.40       1225.9 
      2440.0         0.37       1283.1 
      2441.0         0.37       1374.8 
      2442.0         0.42       1372.4 
      2443.0         0.40       1297.6 
      2444.0         0.40       1246.7 
      2445.0         0.40       1225.2 
      2446.0         0.43       1215.7 
      2447.0         0.43       1207.7 
      2448.0         0.47       1188.8 
