~Version Information
VERS.                      2.0: CWLS Log ASCII Standard - VERSION 2.0
WRAP.                       NO: One line per depth step
~Well Information Block
STRT.FT               830.0000: 
STOP.FT              3122.7000: 
STEP.FT                 0.1000: 
NULL.                -999.2500: 
COMP.          Pioneer Natural Resources: COMPANY
WELL.              Stones 24-8: WELL
FLD.           Purgatoire River: FIELD
LOC.           648' FSL & 2264' FWL: LOCATION
PROV.                 Colorado: PROVINCE
CNTY.               Las Animas: COUNTRY
SRVC.                Patterson: SERVICE COMPANY
DATE.          Wed Jan 19 15:33:00 2005: LOG DATE
UWI.           05 071 07945 00: UNIQUE WELL ID
~Curve Information Block
DEPT.FT            0 000 00 00: Depth
DCAL.in                       : CDL Caliper
RHOB.g/cc                     : CDL Bulk Density
RHOC.g/cc                     : CDL Density Correction
DPOR.pu                       : CDL Density Porosity
NPOR.pu                       : Neutron Porosity
GR.GAPI                       : Gamma Ray
~Parameter Information Block
~A  Depth       DCAL        RHOB        RHOC        DPOR        NPOR         GR     
# ...
  1281.2000      8.1194      2.5769     -0.0122      4.4314     30.3802     88.7775
  1281.3000      8.1165      2.5721      0.0042      4.7194     30.4956     93.1927
  1281.4000      8.1165      2.5673      0.0527      5.0147     30.1584     98.6949
  1281.5000      8.1172      2.5601      0.0322      5.4485     29.9613    102.6898
  1281.6000      8.1172      2.5558      0.0502      5.7089     29.9032    105.5054
  1281.7000      8.1172      2.5557      0.0305      5.7136     29.2801    109.2457
  1281.8000      8.1202      2.5563      0.0440      5.6780     28.2978    115.8733
  1281.9000      8.1202      2.5535      0.0556      5.8489     27.5913    122.8129
  1282.0000      8.1182      2.5458      0.0422      6.3168     27.1829    123.2234
  1282.1000      8.1182      2.5363      0.0165      6.8932     26.8773    118.0120
  1282.2000      8.1182      2.5326      0.0294      7.1152     26.7080    115.5049
  1282.3000      8.1029      2.5412      0.0883      6.5936     26.7765    117.3263
  1282.4000      8.1029      2.5586      0.0622      5.5387     26.7691    118.7055
  1282.5000      8.0893      2.5783      0.0501      4.3450     26.4937    117.0829
  1282.6000      8.0893      2.5961      0.0648      3.2693     26.2429    114.3249
  1282.7000      8.0893      2.6070      0.0831      2.6068     26.1863    112.0575
  1282.8000      8.1011      2.6124      0.0623      2.2769     26.4942    108.9940
  1282.9000      8.1011      2.6213      0.0348      1.7390     27.2134    104.7943
  1283.0000      8.1147      2.6312      0.0858      1.1383     27.9296    101.7696
  1283.1000      8.1147      2.6269      0.0758      1.3993     28.3505    101.9934
  1283.2000      8.1147      2.6050      0.0620      2.7251     28.7484    103.1334
  1283.3000      8.1163      2.5788     -0.0074      4.3173     29.2950    103.0577
  1283.4000      8.1163      2.5589      0.0155      5.5195     29.4992    104.5017
  1283.5000      8.1163      2.5461      0.0076      6.2996     29.2896    108.9318
  1283.6000      8.1163      2.5419      0.0116      6.5503     29.4097    114.4287
  1283.7000      8.1163      2.5453      0.0207      6.3469     29.8226    118.8407
  1283.8000      8.1167      2.5440      0.0513      6.4259     29.6991    120.5709
  1283.9000      8.1167      2.5363      0.0012      6.8900     28.8625    118.3655
  1284.0000      8.1175      2.5396      0.0102      6.6919     27.8748    112.1140
  1284.1000      8.1175      2.5569      0.0562      5.6427     27.0420    103.6514
  1284.2000      8.1175      2.5695      0.0559      4.8776     26.5146     96.3333
  1284.3000      8.1193      2.5697      0.0363      4.8658     26.3276     94.1594
  1284.4000      8.1193      2.5684      0.0497      4.9432     26.3743     93.9396
  1284.5000      8.1212      2.5700      0.0623      4.8490     26.8400     90.6242
  1284.6000      8.1212      2.5678      0.0630      4.9814     27.9023     87.0840
  1284.7000      8.1212      2.5624      0.0078      5.3101     29.1096     88.5461
  1284.8000      8.1241      2.5565      0.0450      5.6684     29.7993     95.0547
  1284.9000      8.1241      2.5483     -0.0003      6.1639     29.9764    100.0881
  1285.0000      8.1260      2.5432      0.0128      6.4747     30.0177     99.9142
  1285.1000      8.1260      2.5431     -0.0012      6.4786     30.0804    101.1570
  1285.2000      8.1260      2.5398      0.0277      6.6808     30.0336    111.0783
  1285.3000      8.1265      2.5227      0.0294      7.7164     29.8554    123.2127
  1285.4000      8.1265      2.4966      0.0115      9.2963     29.8323    126.0744
  1285.5000      8.1298      2.4845     -0.0073     10.0302     29.7893    121.3602
  1285.6000      8.1298      2.5027      0.0292      8.9298     29.3640    116.8228
  1285.7000      8.1298      2.5450      0.0435      6.3643     28.7152    112.4383
  1285.8000      8.1323      2.5869      0.0907      3.8272     28.5248    107.4918
  1285.9000      8.1323      2.6034      0.0799      2.8252     29.0982    105.9446
  1286.0000      8.1315      2.5908      0.0835      3.5877     29.7632    110.6849
  1286.1000      8.1315      2.5640      0.0661      5.2129     29.8704    118.4816
  1286.2000      8.1315      2.5404      0.0386      6.6410     29.7428    121.9407
  1286.3000      8.1296      2.5283      0.0268      7.3775     30.0250    121.2257
  1286.4000      8.1296      2.5257      0.0300      7.5322     30.6370    123.7438
  1286.5000      8.1301      2.5275      0.0258      7.4264     31.0223    128.3600
  1286.6000      8.1301      2.5336      0.0224      7.0554     31.2963    126.6155
  1286.7000      8.1301      2.5445      0.0511      6.3915     31.7973    119.7526
  1286.8000      8.1306      2.5503      0.0462      6.0399     31.8683    117.0205
  1286.9000      8.1306      2.5439      0.0306      6.4328     31.0210    119.5557
  1287.0000      8.1232      2.5296      0.0450      7.2962     30.0516    122.4475
  1287.1000      8.1232      2.5185     -0.0160      7.9706     29.6491    124.1177
  1287.2000      8.1232      2.5224     -0.0117      7.7326     29.5795    122.9651
  1287.3000      8.1051      2.5363      0.0614      6.8918     29.4038    119.0469
  1287.4000      8.1051      2.5470      0.0482      6.2454     29.0192    115.6765
  1287.5000      8.0937      2.5521      0.0674      5.9340     28.5009    116.8175
  1287.6000      8.0937      2.5551      0.0407      5.7518     27.8268    122.5134
  1287.7000      8.0937      2.5654      0.0230      5.1262     27.1886    126.3741
  1287.8000      8.1078      2.5841      0.0953      3.9921     26.7658    122.8244
  1287.9000      8.1078      2.5914      0.0785      3.5497     26.6503    113.1635
  1288.0000      8.1253      2.5732      0.0889      4.6562     26.9158    104.1418
  1288.1000      8.1253      2.5426      0.0196      6.5094     27.2275    102.4436
  1288.2000      8.1253      2.5273     -0.0054      7.4364     27.2164    108.0420
  1288.3000      8.1318      2.5364      0.0690      6.8835     26.8963    116.2462
  1288.4000      8.1318      2.5516      0.0611      5.9635     26.3159    123.5147
  1288.5000      8.1342      2.5508      0.0743      6.0096     25.6171    126.6344
  1288.6000      8.1342      2.5302      0.0363      7.2625     25.1503    122.5327
  1288.7000      8.1342      2.5082      0.0302      8.5962     25.0569    113.9638
  1288.8000      8.1361      2.4975      0.0361      9.2412     25.0995    108.4131
  1288.9000      8.1361      2.4941      0.0323      9.4476     25.0836    108.2650
  1289.0000      8.1349      2.4954      0.0175      9.3724     25.1314    108.3656
  1289.1000      8.1349      2.4982      0.0161      9.1987     25.3252    104.6112
  1289.2000      8.1349      2.5015     -0.0006      8.9985     25.2338     98.1645
  1289.3000      8.1319      2.5160     -0.0162      8.1239     24.8278     93.1083
  1289.4000      8.1319      2.5433      0.0488      6.4678     24.9593     93.3357
  1289.5000      8.1308      2.5656      0.0610      5.1151     26.0178     97.8212
  1289.6000      8.1308      2.5728      0.0226      4.6792     27.3899    102.0367
  1289.7000      8.1308      2.5724      0.0460      4.7034     28.2327    103.3931
  1289.8000      8.1316      2.5672      0.0366      5.0169     28.4159    103.3665
  1289.9000      8.1316      2.5598      0.0134      5.4696     28.6117    104.9644
  1290.0000      8.1312      2.5643     -0.0294      5.1924     29.0482    109.0386
  1290.1000      8.1312      2.5760      0.0590      4.4850     29.3055    113.8355
  1290.2000      8.1312      2.5696      0.0225      4.8731     29.0486    117.4983
  1290.3000      8.1331      2.5439      0.0716      6.4330     28.3658    118.3910
  1290.4000      8.1331      2.5205      0.0186      7.8460     27.7727    118.1719
  1290.5000      8.1384      2.5146      0.0292      8.2079     27.7385    119.8650
  1290.6000      8.1384      2.5205      0.0384      7.8457     28.0888    123.2011
  1290.7000      8.1384      2.5301      0.0540      7.2660     28.4735    125.3299
