~Version Information
 VERS.                      2.0: CWLS Log ASCII Standard - VERSION 2.0
 WRAP.                       NO: One line per depth step
 ~Well Information Block
 STRT.FT               465.6000: 
 STOP.FT              1777.2000: 
 STEP.FT                 0.1000: 
 NULL.                -999.2500: 
 COMP.          Petrogulf Corporation: COMPANY
 WELL.          Alexander 9-43R: WELL
 FLD.           Purgatorie River: FIELD
 LOC.           1652' FSL & 1049' FEL: LOCATION
 CNTY.               Las Animas: COUNTY
 SRVC.                         : SERVICE COMPANY
 DATE.          Fri Sep 03 15:08:45 2004: LOG DATE
 UWI.           05 071 08036 00: UNIQUE WELL ID
 STAT.                 Colorado: STATE
 PROV.                         :Province
 ~Curve Information Block
 DEPT.FT            0 000 00 00: Depth
 DCAL.in                       : CDL Caliper
 RHOB.g/cc                     : CDL Bulk Density
 RHOC.g/cc                     : CDL Density Correction
 DPOR.pu                       : CDL Density Porosity
 GR.GAPI                       : Gamma Ray
 NPOR.pu                       : Neutron Porosity
 ~Parameter Information Block
 ~A  Depth       DCAL        RHOB        RHOC        DPOR         GR         NPOR    
# ...
   580.8000      8.1887      2.4479     -0.0648     12.2468    134.6936     29.5897
   580.9000      8.1887      2.4371     -0.0328     12.9017    138.5266     29.4945
   581.0000      8.1887      2.4416     -0.0204     12.6277    145.9000     29.4730
   581.1000      8.1887      2.4526     -0.0475     11.9637    148.2993     29.4775
   581.2000      8.1887      2.4704      0.0169     10.8854    143.6140     29.5529
   581.3000      8.1894      2.4916      0.0200      9.6008    139.5588     29.8000
   581.4000      8.1894      2.5105      0.0741      8.4526    136.5023     30.0454
   581.5000      8.1535      2.5264      0.0963      7.4934    131.1600     30.0478
   581.6000      8.1535      2.5444      0.0629      6.4017    124.0648     30.2232
   581.7000      8.1535      2.5660      0.0521      5.0920    117.4101     30.7310
   581.8000      8.1394      2.5821      0.0713      4.1136    114.9681     30.9150
   581.9000      8.1394      2.5893      0.0595      3.6801    116.6633     30.5949
   582.0000      8.1256      2.5940      0.0948      3.3928    118.4263     30.3304
   582.1000      8.1256      2.5955      0.0682      3.3046    118.7058     30.4453
   582.2000      8.1256      2.5849      0.0826      3.9470    119.7597     30.6120
   582.3000      8.1205      2.5629     -0.0142      5.2817    121.9242     30.2056
   582.4000      8.1205      2.5513     -0.0967      5.9797    123.9467     29.1631
   582.5000      8.1405      2.5566      0.0429      5.6590    128.7941     28.2848
   582.6000      8.1405      2.5528      0.0082      5.8920    135.2180     28.2549
   582.7000      8.1405      2.5347      0.0101      6.9901    136.6923     28.7378
   582.8000      8.1676      2.5208      0.0088      7.8278    134.0208     28.9406
   582.9000      8.1676      2.5180     -0.0069      7.9997    131.9785     28.8492
   583.0000      8.1327      2.5239      0.0187      7.6454    132.6119     29.0416
   583.1000      8.1327      2.5378      0.0259      6.7990    134.7660     29.6133
   583.2000      8.1327      2.5572      0.0526      5.6254    134.3413     30.1340
   583.3000      8.1054      2.5672      0.1178      5.0175    130.2539     30.3773
   583.4000      8.1054      2.5591      0.0483      5.5061    126.0283     30.5811
   583.5000      8.1034      2.5500      0.0331      6.0627    122.6974     30.7554
   583.6000      8.1034      2.5578      0.0260      5.5866    120.3424     30.7852
   583.7000      8.1034      2.5773      0.0529      4.4078    122.1725     30.8075
   583.8000      8.1045      2.5958      0.0781      3.2878    127.7725     30.9246
   583.9000      8.1045      2.6154      0.0834      2.0961    131.5988     31.2298
   584.0000      8.1096      2.6364      0.0459      0.8228    133.2661     31.7634
   584.1000      8.1096      2.6509      0.0710     -0.0518    135.4140     32.3042
   584.2000      8.1096      2.6525      0.0701     -0.1496    136.8488     32.4783
   584.3000      8.1184      2.6389      0.0598      0.6754    135.0343     32.2166
   584.4000      8.1184      2.6189      0.0135      1.8846    131.1305     31.9650
   584.5000      8.1168      2.6063      0.0370      2.6494    129.1395     31.7976
   584.6000      8.1168      2.5995      0.0270      3.0614    128.1102     31.3022
   584.7000      8.1168      2.5976     -0.0103      3.1759    125.5814     30.7531
   584.8000      8.1103      2.6053      0.0249      2.7112    122.0396     30.7502
   584.9000      8.1103      2.6093      0.0386      2.4679    118.8215     31.0167
   585.0000      8.1121      2.5965      0.0086      3.2452    115.8090     30.8821
   585.1000      8.1121      2.5774      0.0389      4.3977    109.5692     30.2688
   585.2000      8.1121      2.5644      0.0703      5.1864    101.6154     29.6380
   585.3000      8.1090      2.5519      0.0812      5.9428     98.7248     29.4307
   585.4000      8.1090      2.5349      0.0432      6.9737    102.1196     29.5239
   585.5000      8.1144      2.5269     -0.0153      7.4634    105.8763     29.5965
   585.6000      8.1144      2.5374     -0.0079      6.8266    105.9588     29.5297
   585.7000      8.1144      2.5575      0.0068      5.6071    104.3751     29.3351
   585.8000      8.1193      2.5798      0.0149      4.2550    101.7829     28.9866
   585.9000      8.1193      2.5976      0.0454      3.1747     96.3626     28.5227
   586.0000      8.1112      2.5983      0.0541      3.1342     92.2541     28.2129
   586.1000      8.1112      2.5899      0.0297      3.6425     95.8489     28.1855
   586.2000      8.1112      2.5979      0.0156      3.1552    105.7748     28.1999
   586.3000      8.1021      2.6213      0.0609      1.7373    113.3243     27.9908
   586.4000      8.1021      2.6293      0.1238      1.2564    113.6527     27.6920
   586.5000      8.1047      2.6065      0.0572      2.6391    111.8527     27.5656
   586.6000      8.1047      2.5759      0.0035      4.4898    114.8114     27.4888
   586.7000      8.1047      2.5566      0.0255      5.6597    121.8267     27.2733
   586.8000      8.1051      2.5395     -0.0010      6.6972    126.7858     27.0985
   586.9000      8.1051      2.5265     -0.0170      7.4832    130.9763     27.3405
   587.0000      8.1010      2.5325      0.0058      7.1230    139.8500     27.8971
   587.1000      8.1010      2.5512      0.0809      5.9867    147.0770     28.4106
   587.2000      8.1010      2.5646      0.0305      5.1748    146.4606     28.8541
   587.3000      8.0783      2.5708      0.0583      4.7979    142.5785     29.2538
   587.4000      8.0783      2.5726      0.0767      4.6884    139.2374     29.2971
   587.5000      8.0775      2.5602      0.0826      5.4427    137.0691     28.9311
   587.6000      8.0775      2.5310      0.0334      7.2114    137.6150     28.6491
   587.7000      8.0775      2.5085     -0.0153      8.5777    141.3470     28.7777
   587.8000      8.0747      2.5091     -0.0228      8.5402    146.3727     29.3734
   587.9000      8.0747      2.5129      0.0820      8.3064    146.8513     30.1801
   588.0000      8.0777      2.5064      0.0016      8.7016    140.8819     30.7216
   588.1000      8.0777      2.5141      0.0080      8.2380    134.8329     30.9179
   588.2000      8.0777      2.5472      0.0572      6.2290    131.5566     31.0819
   588.3000      8.0730      2.5870      0.1064      3.8171    129.5899     31.3341
   588.4000      8.0730      2.6161      0.1009      2.0568    128.4511     31.6106
   588.5000      8.0719      2.6279      0.1366      1.3407    124.3202     31.7591
   588.6000      8.0719      2.6307      0.1132      1.1673    115.2085     31.7009
   588.7000      8.0719      2.6441      0.1093      0.3573    109.9155     31.5913
   588.8000      8.0730      2.6738      0.1327     -1.4397    112.6802     31.5485
   588.9000      8.0730      2.7052      0.1245     -3.3427    115.7080     31.5568
   589.0000      8.0744      2.7266      0.0902     -4.6421    113.4097     31.5163
   589.1000      8.0744      2.7423      0.0750     -5.5951    106.5286     31.3747
   589.2000      8.0744      2.7506      0.1184     -6.0957    100.6719     31.2282
   589.3000      8.0736      2.7487      0.0538     -5.9846     99.9696     31.2404
   589.4000      8.0736      2.7531      0.0651     -6.2459    101.4487     31.4930
   589.5000      8.0742      2.7703      0.0413     -7.2923    101.2466     31.7821
   589.6000      8.0742      2.7810      0.1209     -7.9419     99.5480     31.8043
   589.7000      8.0742      2.7600      0.0920     -6.6658     98.6241     31.7652
   589.8000      8.0878      2.7127     -0.0023     -3.8027     98.8519     31.9514
   589.9000      8.0878      2.6749     -0.1098     -1.5076     99.0231     32.0814
   590.0000      8.0996      2.6658     -0.0565     -0.9602     98.9756     31.8892
   590.1000      8.0996      2.6714     -0.0908     -1.2966     98.7510     31.5654
   590.2000      8.0996      2.6766     -0.0758     -1.6131     97.9731     31.2385
   590.3000      8.1104      2.6774      0.0356     -1.6633     96.0472     30.9953
