~Version Information
VERS.                      2.0: CWLS Log ASCII Standard - VERSION 2.0
WRAP.                       NO: One line per depth step
~Well Information Block
STRT.FT               265.0000: 
STOP.FT              1214.0000: 
STEP.FT                 0.2500: 
NULL.                -999.2500: 
COMP.          Pioneer Natural Resources: COMPANY
WELL.          Pacheco 33-27 Tr: WELL
FLD.           Purgatoire River: FIELD
LOC.           2251' FSL & 2342' FEL: LOCATION
PROV.                 Colorado: PROVINCE
CNTY.               Las Animas: COUNTRY
SRVC.                Patterson: SERVICE COMPANY
DATE.          Fri Jun 10 13:29:04 2005: LOG DATE
UWI.           05 071 08384 00: UNIQUE WELL ID
~Curve Information Block
DEPT.FT            0 000 00 00: Depth
SN.Ohm-m                      : IEL Short Normal
SP.mV                         : IEL Spontaneous Potential
DIR.Ohm-m                     : IEL Induction Resistivity
GR.GAPI                       : Gamma Ray
~Parameter Information Block
~A  Depth        SN          SP         DIR          GR     
# ...
   566.5000   2000.0000   2000.0000      7.7792    154.5847
   566.7500   2000.0000   2000.0000      7.7267    154.3195
   567.0000   2000.0000   2000.0000      7.6676    151.4923
   567.2500   2000.0000   2000.0000      7.6039    148.4542
   567.5000   2000.0000   2000.0000      7.5371    142.9124
   567.7500   2000.0000   2000.0000      7.4691    139.1058
   568.0000   2000.0000   2000.0000      7.4016    134.3077
   568.2500   2000.0000   2000.0000      7.3358    132.1677
   568.5000   2000.0000   2000.0000      7.2729    130.7523
   568.7500   2000.0000   2000.0000      7.2146    130.9030
   569.0000   2000.0000   2000.0000      7.1640    132.4870
   569.2500   2000.0000   2000.0000      7.1248    134.2320
   569.5000   2000.0000   2000.0000      7.0997    137.1925
   569.7500   2000.0000   2000.0000      7.0888    138.7853
   570.0000   2000.0000   2000.0000      7.0885    139.6873
   570.2500   2000.0000   2000.0000      7.0931    139.2134
   570.5000   2000.0000   2000.0000      7.0976    137.7362
   570.7500   2000.0000   2000.0000      7.0999    137.0462
   571.0000   2000.0000   2000.0000      7.1006    137.4413
   571.2500   2000.0000   2000.0000      7.1015    138.6345
   571.5000   2000.0000   2000.0000      7.1050    140.9681
   571.7500   2000.0000   2000.0000      7.1152    142.4662
   572.0000   2000.0000   2000.0000      7.1383    144.8964
   572.2500   2000.0000   2000.0000      7.1820    147.3546
   572.5000   2000.0000   2000.0000      7.2524    153.5619
   572.7500   2000.0000   2000.0000      7.3510    159.4219
   573.0000   2000.0000   2000.0000      7.4751    168.8108
   573.2500   2000.0000   2000.0000      7.6194    173.3415
   573.5000   2000.0000   2000.0000      7.7792    173.9740
   573.7500   2000.0000   2000.0000      7.9509    169.3167
   574.0000   2000.0000   2000.0000      8.1320    155.8522
   574.2500   2000.0000   2000.0000      8.3201    144.5244
   574.5000   2000.0000   2000.0000      8.5131    128.0293
   574.7500   2000.0000   2000.0000      8.7117    119.2139
   575.0000   2000.0000   2000.0000      8.9202    110.5975
   575.2500   2000.0000   2000.0000      9.1462    107.5987
   575.5000   2000.0000   2000.0000      9.3967    105.5517
   575.7500   2000.0000   2000.0000      9.6733    104.8479
   576.0000   2000.0000   2000.0000      9.9696    103.9637
   576.2500   2000.0000   2000.0000     10.2729    103.5112
   576.5000   2000.0000   2000.0000     10.5684    103.2598
   576.7500   2000.0000   2000.0000     10.8421    103.2417
   577.0000   2000.0000   2000.0000     11.0808    102.6588
   577.2500   2000.0000   2000.0000     11.2726    101.4855
   577.5000   2000.0000   2000.0000     11.4099     98.8280
   577.7500   2000.0000   2000.0000     11.4933     97.2593
   578.0000   2000.0000   2000.0000     11.5324     96.5080
   578.2500   2000.0000   2000.0000     11.5408     97.0757
   578.5000   2000.0000   2000.0000     11.5308     98.3493
   578.7500   2000.0000   2000.0000     11.5097     98.8990
   579.0000   2000.0000   2000.0000     11.4801     99.6636
   579.2500   2000.0000   2000.0000     11.4412    100.9818
   579.5000   2000.0000   2000.0000     11.3915    105.1412
   579.7500   2000.0000   2000.0000     11.3295    108.9563
   580.0000   2000.0000   2000.0000     11.2564    114.0704
   580.2500   2000.0000   2000.0000     11.1765    115.7806
   580.5000   2000.0000   2000.0000     11.0955    115.0323
   580.7500   2000.0000   2000.0000     11.0165    112.9044
   581.0000   2000.0000   2000.0000     10.9395    109.1461
   581.2500   2000.0000   2000.0000     10.8648    107.2095
   581.5000   2000.0000   2000.0000     10.7975    105.8635
   581.7500   2000.0000   2000.0000     10.7469    106.0007
   582.0000   2000.0000   2000.0000     10.7212    107.5922
   582.2500   2000.0000   2000.0000     10.7228    109.4589
   582.5000   2000.0000   2000.0000     10.7463    112.8993
   582.7500   2000.0000   2000.0000     10.7808    115.0391
   583.0000   2000.0000   2000.0000     10.8153    117.1130
   583.2500   2000.0000   2000.0000     10.8432    117.5206
   583.5000   2000.0000   2000.0000     10.8659    116.7570
   583.7500   2000.0000   2000.0000     10.8909    115.5678
   584.0000   2000.0000   2000.0000     10.9285    113.5939
   584.2500   2000.0000   2000.0000     10.9858    112.7842
   584.5000   2000.0000   2000.0000     11.0635    112.9087
   584.7500   2000.0000   2000.0000     11.1539    113.5863
   585.0000   2000.0000   2000.0000     11.2438    114.2074
   585.2500   2000.0000   2000.0000     11.3207    113.7229
   585.5000   2000.0000   2000.0000     11.3809    111.6792
   585.7500   2000.0000   2000.0000     11.4319    110.0965
   586.0000   2000.0000   2000.0000     11.4867    108.7085
   586.2500   2000.0000   2000.0000     11.5569    108.7687
   586.5000   2000.0000   2000.0000     11.6482    109.8903
   586.7500   2000.0000   2000.0000     11.7617    110.7407
   587.0000   2000.0000   2000.0000     11.8955    111.2274
   587.2500   2000.0000   2000.0000     12.0429    110.7082
   587.5000   2000.0000   2000.0000     12.1880    108.6740
   587.7500   2000.0000   2000.0000     12.3066    106.8191
   588.0000   2000.0000   2000.0000     12.3765    104.2470
   588.2500   2000.0000   2000.0000     12.3921    103.2192
   588.5000   2000.0000   2000.0000     12.3697    103.1573
   588.7500   2000.0000   2000.0000     12.3373    103.9530
   589.0000   2000.0000   2000.0000     12.3198    105.5769
   589.2500   2000.0000   2000.0000     12.3338    106.3325
   589.5000   2000.0000   2000.0000     12.3900    106.1422
   589.7500   2000.0000   2000.0000     12.4972    105.0023
   590.0000   2000.0000   2000.0000     12.6606    102.3101
   590.2500   2000.0000   2000.0000     12.8753    100.4408
   590.5000   2000.0000   2000.0000     13.1228     98.4328
   590.7500   2000.0000   2000.0000     13.3739     97.9222
   591.0000   2000.0000   2000.0000     13.6008     98.4386
   591.2500   2000.0000   2000.0000     13.7897     99.4069
   591.5000   2000.0000   2000.0000     13.9461    101.1538
   591.7500   2000.0000   2000.0000     14.0879    102.1911
   592.0000   2000.0000   2000.0000     14.2348    103.2868
   592.2500   2000.0000   2000.0000     14.4023    103.6407
   592.5000   2000.0000   2000.0000     14.6023    103.4495
   592.7500   2000.0000   2000.0000     14.8459    102.7801
   593.0000   2000.0000   2000.0000     15.1427    101.2136
   593.2500   2000.0000   2000.0000     15.4978    100.2256
   593.5000   2000.0000   2000.0000     15.9110     99.7004
   593.7500   2000.0000   2000.0000     16.3787    100.1683
   594.0000   2000.0000   2000.0000     16.8919    101.4996
   594.2500   2000.0000   2000.0000     17.4331    102.2565
   594.5000   2000.0000   2000.0000     17.9748    102.7153
   594.7500   2000.0000   2000.0000     18.4900    102.5616
   595.0000   2000.0000   2000.0000     18.9694    101.5632
   595.2500   2000.0000   2000.0000     19.4328    100.2874
   595.5000   2000.0000   2000.0000     19.9240     97.7789
   595.7500   2000.0000   2000.0000     20.4881     96.2653
   596.0000   2000.0000   2000.0000     21.1444     94.9750
   596.2500   2000.0000   2000.0000     21.8717     94.6531
   596.5000   2000.0000   2000.0000     22.6179     94.1938
   596.7500   2000.0000   2000.0000     23.3267     93.5994
   597.0000   2000.0000   2000.0000     23.9605     92.3067
   597.2500   2000.0000   2000.0000     24.5034     91.3529
   597.5000   2000.0000   2000.0000     24.9471     90.1412
   597.7500   2000.0000   2000.0000     25.2833     89.7153
   598.0000   2000.0000   2000.0000     25.5036     89.8741
   598.2500   2000.0000   2000.0000     25.6019     90.4149
   598.5000   2000.0000   2000.0000     25.5770     91.7176
   598.7500   2000.0000   2000.0000     25.4337     93.2655
   599.0000   2000.0000   2000.0000     25.1837     98.0217
   599.2500   2000.0000   2000.0000     24.8414    103.5120
   599.5000   2000.0000   2000.0000     24.4147    114.9529
   599.7500   2000.0000   2000.0000     23.8930    123.5145
