~Version Information
VERS.                      2.0: CWLS Log ASCII Standard - VERSION 2.0
WRAP.                       NO: One line per depth step
~Well Information Block
STRT.FT                 0.6000: 
STOP.FT              2735.2000: 
STEP.FT                 0.1000: 
NULL.                -999.2500: 
COMP.          Pioneer Natural Resources: COMPANY
WELL.              Cluck 21-25: WELL
FLD.           Purgatoire River: FIELD
LOC.           91' FNL & 1834' FWL--: LOCATION
PROV.                 Colorado: PROVINCE
CNTY.               Las Animas: COUNTRY
SRVC.                Patterson: SERVICE COMPANY
DATE.          Mon Jun 06 19:08:34 2005: LOG DATE
UWI.           05 071 08397 00: UNIQUE WELL ID
~Curve Information Block
DEPT.FT            0 000 00 00: Depth
SN.Ohm-m                      : IEL Short Normal
SP.mV                         : IEL Spontaneous Potential
DIR.Ohm-m                     : IEL Induction Resistivity
GR.GAPI                       : Gamma Ray
~Parameter Information Block
~A  Depth        SN          SP         DIR          GR     
# ...
  1648.8000     23.7311   -175.2779     20.6362     74.2505
  1648.9000     23.7311   -175.2779     20.6362     71.8567
  1649.0000     25.7963   -176.9045     22.1208     69.7335
  1649.1000     25.7963   -176.9045     22.1208     67.9660
  1649.2000     25.7963   -176.9045     22.1208     66.6254
  1649.3000     27.9856   -178.4362     23.7003     65.7505
  1649.4000     27.9856   -178.4362     23.7003     65.3492
  1649.5000     30.3412   -179.8343     25.3419     65.3875
  1649.6000     30.3412   -179.8343     25.3419     65.7974
  1649.7000     30.3412   -179.8343     25.3419     66.4794
  1649.8000     32.8690   -181.0615     27.0013     67.3176
  1649.9000     32.8690   -181.0615     27.0013     68.1871
  1650.0000     35.4844   -182.0885     28.6134     68.9706
  1650.1000     35.4844   -182.0885     28.6134     69.5684
  1650.2000     35.4844   -182.0885     28.6134     69.9130
  1650.3000     38.0076   -182.8984     30.0931     69.9740
  1650.4000     38.0076   -182.8984     30.0931     69.7601
  1650.5000     40.2384   -183.4901     31.3533     69.3158
  1650.6000     40.2384   -183.4901     31.3533     68.7160
  1650.7000     40.2384   -183.4901     31.3533     68.0524
  1650.8000     42.0730   -183.8803     32.3371     67.4173
  1650.9000     42.0730   -183.8803     32.3371     66.8941
  1651.0000     43.5715   -184.1025     33.0506     66.5437
  1651.1000     43.5715   -184.1025     33.0506     66.4011
  1651.2000     43.5715   -184.1025     33.0506     66.4728
  1651.3000     44.9223   -184.2059     33.5730     66.7386
  1651.4000     44.9223   -184.2059     33.5730     67.1573
  1651.5000     46.3229   -184.2512     34.0326     67.6723
  1651.6000     46.3229   -184.2512     34.0326     68.2137
  1651.7000     46.3229   -184.2512     34.0326     68.7083
  1651.8000     47.8612   -184.3037     34.5614     69.0839
  1651.9000     47.8612   -184.3037     34.5614     69.2735
  1652.0000     49.4799   -184.4244     35.2519     69.2256
  1652.1000     49.4799   -184.4244     35.2519     68.9082
  1652.2000     49.4799   -184.4244     35.2519     68.3108
  1652.3000     51.0419   -184.6600     36.1325     67.4498
  1652.4000     51.0419   -184.6600     36.1325     66.3585
  1652.5000     52.4371   -185.0347     37.1660     65.0875
  1652.6000     52.4371   -185.0347     37.1660     63.6929
  1652.7000     52.4371   -185.0347     37.1660     62.2293
  1652.8000     53.6471   -185.5441     38.2719     60.7445
  1652.9000     53.6471   -185.5441     38.2719     59.2796
  1653.0000     54.7338   -186.1557     39.3604     57.8704
  1653.1000     54.7338   -186.1557     39.3604     56.5491
  1653.2000     54.7338   -186.1557     39.3604     55.3513
  1653.3000     55.7819   -186.8138     40.3626     54.3178
  1653.4000     55.7819   -186.8138     40.3626     53.4924
  1653.5000     56.8506   -187.4492     41.2413     52.9141
  1653.6000     56.8506   -187.4492     41.2413     52.6117
  1653.7000     56.8506   -187.4492     41.2413     52.5954
  1653.8000     57.9584   -187.9917     41.9833     52.8481
  1653.9000     57.9584   -187.9917     41.9833     53.3236
  1654.0000     59.0873   -188.3828     42.5820     53.9511
  1654.1000     59.0873   -188.3828     42.5820     54.6418
  1654.2000     59.0873   -188.3828     42.5820     55.3015
  1654.3000     60.1901   -188.5859     43.0250     55.8442
  1654.4000     60.1901   -188.5859     43.0250     56.2056
  1654.5000     61.2011   -188.5930     43.2937     56.3529
  1654.6000     61.2011   -188.5930     43.2937     56.2879
  1654.7000     61.2011   -188.5930     43.2937     56.0433
  1654.8000     62.0547   -188.4261     43.3772     55.6760
  1654.9000     62.0547   -188.4261     43.3772     55.2596
  1655.0000     62.7030   -188.1320     43.2884     54.8676
  1655.1000     62.7030   -188.1320     43.2884     54.5647
  1655.2000     62.7030   -188.1320     43.2884     54.4002
  1655.3000     63.1257   -187.7740     43.0723     54.4015
  1655.4000     63.1257   -187.7740     43.0723     54.5734
  1655.5000     63.3345   -187.4188     42.8016     54.9012
  1655.6000     63.3345   -187.4188     42.8016     55.3507
  1655.7000     63.3345   -187.4188     42.8016     55.8721
  1655.8000     63.3676   -187.1238     42.5625     56.4022
  1655.9000     63.3676   -187.1238     42.5625     56.8712
  1656.0000     63.2704   -186.9253     42.4309     57.2082
  1656.1000     63.2704   -186.9253     42.4309     57.3494
  1656.2000     63.2704   -186.9253     42.4309     57.2462
  1656.3000     63.0698   -186.8319     42.4431     56.8763
  1656.4000     63.0698   -186.8319     42.4431     56.2452
  1656.5000     62.7621   -186.8234     42.5794     55.3937
  1656.6000     62.7621   -186.8234     42.5794     54.3867
  1656.7000     62.7621   -186.8234     42.5794     53.3088
  1656.8000     62.3291   -186.8548     42.7703     52.2522
  1656.9000     62.3291   -186.8548     42.7703     51.3058
  1657.0000     61.7633   -186.8657     42.9236     50.5413
  1657.1000     61.7633   -186.8657     42.9236     50.0114
  1657.2000     61.7633   -186.8657     42.9236     49.7455
  1657.3000     61.0783   -186.7919     42.9541     49.7501
  1657.4000     61.0783   -186.7919     42.9541     50.0130
  1657.5000     60.2950   -186.5755     42.8090     50.5088
  1657.6000     60.2950   -186.5755     42.8090     51.2026
  1657.7000     60.2950   -186.5755     42.8090     52.0509
  1657.8000     59.4263   -186.1743     42.4835     53.0053
  1657.9000     59.4263   -186.1743     42.4835     54.0132
  1658.0000     58.4717   -185.5663     42.0154     55.0221
  1658.1000     58.4717   -185.5663     42.0154     55.9796
  1658.2000     58.4717   -185.5663     42.0154     56.8400
  1658.3000     57.4173   -184.7507     41.4523     57.5699
  1658.4000     57.4173   -184.7507     41.4523     58.1504
  1658.5000     56.2395   -183.7452     40.8108     58.5824
  1658.6000     56.2395   -183.7452     40.8108     58.8871
  1658.7000     56.2395   -183.7452     40.8108     59.1040
  1658.8000     54.9145   -182.5811     40.0665     59.2865
  1658.9000     54.9145   -182.5811     40.0665     59.4923
  1659.0000     53.4276   -181.2961     39.1859     59.7763
  1659.1000     53.4276   -181.2961     39.1859     60.1828
  1659.2000     53.4276   -181.2961     39.1859     60.7363
  1659.3000     51.7734   -179.9279     38.1700     61.4400
  1659.4000     51.7734   -179.9279     38.1700     62.2767
  1659.5000     49.9509   -178.5070     37.0651     63.2096
  1659.6000     49.9509   -178.5070     37.0651     64.1935
  1659.7000     49.9509   -178.5070     37.0651     65.1811
  1659.8000     47.9619   -177.0534     35.9341     66.1314
  1659.9000     47.9619   -177.0534     35.9341     67.0136
  1660.0000     45.8173   -175.5732     34.8208     67.8102
  1660.1000     45.8173   -175.5732     34.8208     68.5173
  1660.2000     45.8173   -175.5732     34.8208     69.1393
  1660.3000     43.5453   -174.0604     33.7330     69.6887
  1660.4000     43.5453   -174.0604     33.7330     70.1802
  1660.5000     41.1944   -172.4999     32.6456     70.6310
  1660.6000     41.1944   -172.4999     32.6456     71.0587
  1660.7000     41.1944   -172.4999     32.6456     71.4830
  1660.8000     38.8255   -170.8735     31.5131     71.9230
  1660.9000     38.8255   -170.8735     31.5131     72.3982
  1661.0000     36.4988   -169.1662     30.2858     72.9260
  1661.1000     36.4988   -169.1662     30.2858     73.5223
  1661.2000     36.4988   -169.1662     30.2858     74.1993
  1661.3000     34.2618   -167.3728     28.9308     74.9660
  1661.4000     34.2618   -167.3728     28.9308     75.8317
  1661.5000     32.1444   -165.5019     27.4506     76.8062
  1661.6000     32.1444   -165.5019     27.4506     77.9032
  1661.7000     32.1444   -165.5019     27.4506     79.1387
  1661.8000     30.1624   -163.5788     25.8888     80.5328
  1661.9000     30.1624   -163.5788     25.8888     82.1015
  1662.0000     28.3273   -161.6440     24.3139     83.8580
  1662.1000     28.3273   -161.6440     24.3139     85.8017
