~Version Information
VERS.                      2.0: CWLS Log ASCII Standard - VERSION 2.0
WRAP.                       NO: One line per depth step
~Well Information Block
STRT.FT               770.0000: 
STOP.FT              1718.7000: 
STEP.FT                 0.1000: 
NULL.                -999.2500: 
COMP.          Pioneer Natural Resources: COMPANY
WELL.            Salty 42-6 Tr: WELL
FLD.           Purgatoire River: FIELD
LOC.           2409' FNL & 599' FEL: LOCATION
PROV.                 Colorado: PROVINCE
CNTY.               Las Animas: COUNTRY
SRVC.                Patterson: SERVICE COMPANY
DATE.          Thu Dec 16 09:30:36 2004: LOG DATE
UWI.           05 071 08238 00: UNIQUE WELL ID
~Curve Information Block
DEPT.FT            0 000 00 00: Depth
DCAL.in                       : CDL Caliper
RHOB.g/cc                     : CDL Bulk Density
RHOC.g/cc                     : CDL Density Correction
DPOR.pu                       : CDL Density Porosity
NPOR.pu                       : Neutron Porosity
GR.GAPI                       : Gamma Ray
~Parameter Information Block
~A  Depth       DCAL        RHOB        RHOC        DPOR        NPOR         GR     
# ...
  1384.4000      7.8832      2.5248      0.0784      7.5903     24.6365    106.0141
  1384.5000      7.8753      2.5198      0.0512      7.8892     24.5594    102.3821
  1384.6000      7.8753      2.5058      0.0389      8.7370     24.2369     99.3662
  1384.7000      7.8753      2.5031      0.0367      8.9023     24.0656     97.3705
  1384.8000      7.8669      2.5195      0.0583      7.9079     24.1964     98.1058
  1384.9000      7.8669      2.5487      0.0560      6.1390     24.1034    103.5335
  1385.0000      7.8693      2.5739      0.0905      4.6145     23.5807    112.0875
  1385.1000      7.8693      2.5811      0.0663      4.1748     23.1136    118.3505
  1385.2000      7.8693      2.5727      0.0516      4.6828     22.9347    120.0237
  1385.3000      7.8787      2.5492      0.0748      6.1076     22.7988    120.3435
  1385.4000      7.8787      2.5148     -0.0003      8.1949     22.5801    119.7117
  1385.5000      7.8858      2.4948     -0.0024      9.4087     22.5759    116.4241
  1385.6000      7.8858      2.5032      0.0443      8.8958     22.9276    112.7127
  1385.7000      7.8858      2.5244      0.0594      7.6134     23.2749    108.6445
  1385.8000      7.8871      2.5418      0.0683      6.5591     23.3010    104.1743
  1385.9000      7.8871      2.5529      0.0736      5.8830     23.1840    102.5787
  1386.0000      7.8847      2.5571      0.0783      5.6314     23.2660    104.3536
  1386.1000      7.8847      2.5561      0.0386      5.6897     23.5719    105.0677
  1386.2000      7.8847      2.5544      0.0828      5.7961     23.8473    101.7415
  1386.3000      7.8843      2.5431      0.1071      6.4812     23.9069     97.2016
  1386.4000      7.8843      2.5182      0.0560      7.9862     23.8574     93.1348
  1386.5000      7.8858      2.4974      0.0387      9.2476     23.9789     91.0451
  1386.6000      7.8858      2.4860      0.0701      9.9388     24.3002     91.6894
  1386.7000      7.8858      2.4774      0.0066     10.4587     24.5111     92.3273
  1386.8000      7.8847      2.4832      0.0540     10.1092     24.3644     91.0562
  1386.9000      7.8847      2.5099      0.0586      8.4933     23.9087     89.8247
  1387.0000      7.8801      2.5411      0.0676      6.6010     23.6212     93.0524
  1387.1000      7.8801      2.5594      0.1141      5.4914     23.7431    100.7080
  1387.2000      7.8801      2.5635      0.0951      5.2395     23.9562    106.7347
  1387.3000      7.8775      2.5619      0.1225      5.3380     24.0024    106.3662
  1387.4000      7.8775      2.5608      0.0826      5.4082     23.9673    102.6765
  1387.5000      7.8798      2.5626      0.0988      5.2945     24.0733    102.9078
  1387.6000      7.8798      2.5701      0.0659      4.8445     24.4140    106.8341
  1387.7000      7.8798      2.5790      0.1308      4.3015     24.8295    109.1236
  1387.8000      7.8821      2.5738      0.1058      4.6155     25.2158    108.9174
  1387.9000      7.8821      2.5546      0.0555      5.7825     25.3672    106.8218
  1388.0000      7.8848      2.5386      0.0451      6.7509     25.2535    104.5834
  1388.1000      7.8848      2.5332      0.0345      7.0809     25.3347    105.3033
  1388.2000      7.8848      2.5346      0.0210      6.9939     25.6248    108.3190
  1388.3000      7.8876      2.5402      0.0461      6.6539     25.5956    111.8138
  1388.4000      7.8876      2.5508      0.0499      6.0092     25.2519    114.8488
  1388.5000      7.8882      2.5643      0.0426      5.1927     24.9710    116.5073
  1388.6000      7.8882      2.5704      0.0463      4.8223     25.0110    117.2585
  1388.7000      7.8882      2.5593      0.0607      5.4956     25.4151    116.8993
  1388.8000      7.8871      2.5473     -0.0290      6.2217     25.9014    116.0064
  1388.9000      7.8871      2.5646      0.0152      5.1764     26.2637    116.3690
  1389.0000      7.8861      2.6033      0.0901      2.8322     26.4966    117.3732
  1389.1000      7.8861      2.6261      0.1166      1.4464     26.7998    118.5865
  1389.2000      7.8861      2.6213      0.0634      1.7385     27.3193    122.5294
  1389.3000      7.8854      2.6052      0.0833      2.7157     27.6596    129.6609
  1389.4000      7.8854      2.5809      0.0636      4.1849     27.5796    136.7184
  1389.5000      7.8849      2.5451      0.0381      6.3599     27.3325    141.9633
  1389.6000      7.8849      2.5105      0.0340      8.4527     27.1413    146.6037
  1389.7000      7.8849      2.4925      0.0139      9.5431     27.0377    151.5423
  1389.8000      7.8849      2.4898      0.0381      9.7091     26.9733    154.1836
  1389.9000      7.8849      2.4867      0.0234      9.8992     26.9018    152.9060
  1390.0000      7.8862      2.4758      0.0188     10.5584     26.7723    150.5290
  1390.1000      7.8862      2.4714      0.0288     10.8232     26.4947    149.1684
  1390.2000      7.8862      2.4909      0.0082      9.6410     26.0092    148.7782
  1390.3000      7.8887      2.5287      0.0866      7.3529     25.2767    147.2303
  1390.4000      7.8887      2.5597      0.1129      5.4719     24.4818    141.7287
  1390.5000      7.8893      2.5735      0.1282      4.6366     24.0088    133.1506
  1390.6000      7.8893      2.5768      0.0993      4.4362     23.8794    125.7814
  1390.7000      7.8893      2.5718      0.1018      4.7396     23.7455    122.2038
  1390.8000      7.8877      2.5586      0.0606      5.5407     23.3076    122.8278
  1390.9000      7.8877      2.5469      0.0505      6.2503     22.5951    124.4590
  1391.0000      7.8865      2.5502      0.0239      6.0497     22.0915    120.4500
  1391.1000      7.8865      2.5624      0.1162      5.3090     22.3755    110.8552
  1391.2000      7.8865      2.5603      0.0760      5.4390     23.2694    101.7780
  1391.3000      7.8858      2.5467      0.0254      6.2625     24.0521     93.9869
  1391.4000      7.8858      2.5399      0.0384      6.6750     24.2557     86.4789
  1391.5000      7.8855      2.5420      0.0384      6.5464     23.8874     81.8952
  1391.6000      7.8855      2.5476      0.0800      6.2079     23.3671     81.8724
  1391.7000      7.8855      2.5517      0.0989      5.9588     23.1874     86.0362
  1391.8000      7.8848      2.5556      0.0718      5.7241     23.5424     92.2613
  1391.9000      7.8848      2.5649      0.0651      5.1583     24.2444     96.1397
  1392.0000      7.8844      2.5810      0.0925      4.1814     25.0437     95.9738
  1392.1000      7.8844      2.5967      0.0652      3.2326     25.6504     94.2064
  1392.2000      7.8844      2.5996      0.0864      3.0550     25.9268     93.9146
  1392.3000      7.8854      2.5850      0.0505      3.9371     26.2170     97.3902
  1392.4000      7.8854      2.5637      0.0368      5.2276     26.7118    104.1404
  1392.5000      7.8866      2.5486      0.0008      6.1442     26.9873    108.9301
  1392.6000      7.8866      2.5391      0.0241      6.7225     26.6389    110.9488
  1392.7000      7.8866      2.5257      0.0192      7.5344     26.1190    115.5764
  1392.8000      7.8869      2.4991      0.0672      9.1458     26.0590    121.2164
  1392.9000      7.8869      2.4594      0.0142     11.5495     26.2445    122.6375
  1393.0000      7.8867      2.4247      0.0215     13.6542     26.2090    122.5474
  1393.1000      7.8867      2.4113     -0.0217     14.4678     26.0556    125.5750
  1393.2000      7.8867      2.4167      0.0271     14.1386     25.9847    130.5074
  1393.3000      7.8867      2.4248      0.0583     13.6474     25.8248    135.0480
  1393.4000      7.8867      2.4308      0.0082     13.2835     25.5812    140.6755
  1393.5000      7.8854      2.4481      0.0472     12.2387     25.7410    146.2250
  1393.6000      7.8854      2.4763      0.1136     10.5283     26.2891    146.0666
  1393.7000      7.8854      2.5009      0.1364      9.0390     26.5151    141.7440
  1393.8000      7.8840      2.5201      0.1322      7.8736     26.3113    139.9833
  1393.9000      7.8840      2.5399      0.1540      6.6750     26.0780    140.3342
