~Version Information
VERS.                      2.0: CWLS Log ASCII Standard - VERSION 2.0
WRAP.                       NO: One line per depth step
~Well Information Block
STRT.FT                 0.0000: 
STOP.FT              2159.0000: 
STEP.FT                 0.2500: 
NULL.                -999.2500: 
COMP.          Petrogulf Corporation: COMPANY
WELL.               Furu 6-23R: WELL
FLD.           Purgatoire River: FIELD
LOC.           2211' FSL & 1780' FWL: LOCATION
CNTY.               Las Animas: COUNTY
SRVC.                         : SERVICE COMPANY
DATE.          Fri Jul 14 16:00:32 2006: LOG DATE
UWI.           05 071 08266 00: UNIQUE WELL ID
STAT.                       CO: STATE
~Curve Information Block
DEPT.FT            0 000 00 00: Depth
GR.GAPI                       : Gamma Ray
CCL.                          : Casing Collar Locator
TT3.usec                      : CBL 3' Travel Time
AMP3.mV                       : CBL 3' Amplitude
~Parameter Information Block
~A  Depth        GR         CCL         TT3         AMP3    
     0.0000   -999.2500   -999.2500   1203.0000      0.8761
     0.2500   -999.2500   -999.2500   1202.7688      1.2259
     0.5000   -999.2500   -999.2500   1201.6744      1.7819
     0.7500   -999.2500   -999.2500   1197.0853      2.9187
     1.0000   -999.2500   -999.2500   1181.9098      5.0193
     1.2500   -999.2500   -999.2500   1142.2751      8.5156
     1.5000   -999.2500   -999.2500   1060.3950     13.7485
     1.7500   -999.2500   -999.2500    926.4245     20.7877
     2.0000   -999.2500   -999.2500    752.6529     29.3003
     2.2500   -999.2500   -999.2500    573.8586     38.5590
     2.5000   -999.2500      0.0000    427.8883     47.6249
     2.7500   -999.2500      0.0000    333.3145     55.6262
     3.0000   -999.2500      0.0000    284.6766     62.0017
     3.2500   -999.2500      0.0000    264.8028     66.5973
     3.5000   -999.2500      0.0000    258.3324     69.6009
     3.7500   -999.2500      0.0000    256.6434     71.3859
     4.0000   -999.2500      0.0000    256.2911     72.3550
     4.2500   -999.2500      0.0000    256.2466     72.8424
     4.5000   -999.2500      0.0000    256.2646     73.0786
     4.7500   -999.2500      0.0000    256.2917     73.1992
     5.0000   -999.2500      0.0000    256.3195     73.2687
     5.2500   -999.2500      0.0000    256.3386     73.3079
     5.5000   -999.2500      0.0000    256.3390     73.3173
     5.7500   -999.2500      0.0000    256.3199     73.2976
     6.0000   -999.2500      0.0000    256.2895     73.2569
     6.2500   -999.2500      0.0000    256.2544     73.2128
     6.5000   -999.2500      0.0000    256.2154     73.1860
     6.7500   -999.2500      0.0000    256.1743     73.1921
     7.0000   -999.2500      0.0000    256.1379     73.2381
     7.2500     45.6028      0.0000    256.1138     73.3233
     7.5000     44.2686      0.0000    256.1049     73.4424
     7.7500     44.8750      0.0000    256.1071     73.5894
     8.0000     46.3071      0.0000    256.1118     73.7589
     8.2500     46.8928      0.0000    256.1132     73.9467
     8.5000     46.4807      0.0000    256.1081     74.1492
     8.7500     46.8099      0.0000    256.0907     74.3616
     9.0000     49.9060      0.0000    256.0532     74.5763
     9.2500     56.4413      0.0000    255.9978     74.7819
     9.5000     65.5996      0.0000    255.9449     74.9651
     9.7500     75.9656      0.0000    255.9208     75.1166
    10.0000     86.0852      0.0000    255.9348     75.2359
    10.2500     94.5234      0.0000    255.9708     75.3343
    10.5000    100.1617      0.0000    256.0048     75.4321
    10.7500    102.7081      0.0000    256.0260     75.5537
    11.0000    102.5197      0.0000    256.0370     75.7195
    11.2500     99.8203      0.0000    256.0421     75.9381
    11.5000     94.7699      0.0000    256.0412     76.2008
    11.7500     88.5578      0.0000    256.0342     76.4802
    12.0000     83.5245      0.0000    256.0253     76.7350
    12.2500     81.6660      0.0000    256.0188     76.9233
    12.5000     83.3654      0.0000    256.0153     77.0186
    12.7500     87.3701      0.0000    256.0130     77.0222
    13.0000     91.2973      0.0000    256.0118     76.9633
    13.2500     92.5370      0.0000    256.0137     76.8872
    13.5000     89.7318      0.0000    256.0198     76.8383
    13.7500     83.7077      0.0000    256.0284     76.8463
    14.0000     76.9241      0.0000    256.0369     76.9195
    14.2500     72.0067      0.0000    256.0444     77.0478
    14.5000     70.2948      0.0000    256.0529     77.2099
    14.7500     71.1967      0.0000    256.0635     77.3823
    15.0000     73.0027      0.0000    256.0727     77.5481
    15.2500     74.4964      0.0000    256.0748     77.7000
    15.5000     75.5716      0.0000    256.0659     77.8398
    15.7500     76.4305      0.0000    256.0445     77.9741
    16.0000     76.8731      0.0000    256.0138     78.1089
    16.2500     76.6100      0.0000    255.9871     78.2460
    16.5000     75.7372      0.0000    255.9843     78.3818
    16.7500     74.5771      0.0000    256.0161     78.5089
    17.0000     73.2771      0.0000    256.0757     78.6214
    17.2500     71.8066      0.0000    256.1447     78.7216
    17.5000     70.2365      0.0000    256.2066     78.8236
    17.7500     68.7180      0.0000    256.2534     78.9483
    18.0000     67.0927      0.0000    256.2843     79.1128
    18.2500     64.8058      0.0000    256.3004     79.3204
    18.5000     61.5159      0.0000    256.3015     79.5576
    18.7500     57.7016      0.0000    256.2866     79.8001
    19.0000     54.5080      0.0000    256.2593     80.0223
    19.2500     53.1998      0.0000    256.2298     80.2052
    19.5000     54.6917      0.0000    256.2074     80.3418
    19.7500     58.9740      0.0000    256.1920     80.4387
    20.0000     64.7192      0.0000    256.1770     80.5153
    20.2500     69.8624      0.0000    256.1618     80.5969
    20.5000     72.8415      0.0000    256.1548     80.7062
    20.7500     73.3023      0.0000    256.1620     80.8542
    21.0000     71.9859      0.0000    256.1772     81.0395
    21.2500     70.3561      0.0000    256.1885     81.2518
    21.5000     69.9485      0.0000    256.1917     81.4768
    21.7500     71.3858      0.0000    256.1905     81.6975
    22.0000     73.8645      0.0000    256.1877     81.8944
    22.2500     75.9061      0.0000    256.1828     82.0500
    22.5000     76.9050      0.0000    256.1797     82.1563
    22.7500     77.9689      0.0000    256.1891     82.2206
    23.0000     80.8857      0.0000    256.2197     82.2646
    23.2500     86.1440      0.0000    256.2650     82.3152
    23.5000     92.1521      0.0000    256.3039     82.3957
    23.7500     96.2716      0.0000    256.3198     82.5205
    24.0000     96.4553      0.0000    256.3157     82.6964
    24.2500     92.3356      0.0000    256.3083     82.9223
    24.5000     85.4518      0.0000    256.3072     83.1875
    24.7500     78.6032      0.0000    256.3085     83.4682
    25.0000     74.5450      0.0000    256.3048     83.7289
    25.2500     74.7014      0.0000    256.2989     83.9312
    25.5000     78.6580      0.0000    256.3043     84.0457
    25.7500     84.4965      0.0000    256.3301     84.0632
    26.0000     89.4890      0.0000    256.3679     83.9975
    26.2500     91.1904      0.0000    256.3991     83.8791
    26.5000     88.9314      0.0000    256.4140     83.7424
    26.7500     84.4572      0.0000    256.4158     83.6140
    27.0000     80.5703      0.0000    256.4098     83.5080
    27.2500     79.0426      0.0000    256.3989     83.4301
    27.5000     79.8773      0.0000    256.3909     83.3864
    27.7500     82.0995      0.0000    256.3990     83.3882
    28.0000     84.7827      0.0000    256.4290     83.4480
    28.2500     87.4938      0.0000    256.4696     83.5693
    28.5000     90.2402      0.0000    256.5032     83.7378
    28.7500     93.2705      0.0000    256.5220     83.9224
    29.0000     96.8502      0.0000    256.5295     84.0872
    29.2500    100.8790      0.0000    256.5298     84.2054
    29.5000    104.5073      0.0000    256.5201     84.2703
    29.7500    106.3241      0.0000    256.4973     84.2927
    30.0000    105.3091      0.0000    256.4721     84.2909
    30.2500    101.8399      0.0000    256.4679     84.2768
    30.5000     97.8115      0.0000    256.4975     84.2493
    30.7500     95.6699      0.0000    256.5450     84.1976
    31.0000     96.8050      0.0000    256.5815     84.1118
    31.2500    100.2777      0.0000    256.5946     83.9895
    31.5000    103.2042      0.0000    256.5924     83.8292
    31.7500    102.9316      0.0000    256.5831     83.6083
    32.0000     98.9513      0.0000    256.5661     83.2494
    32.2500     92.7798      0.0000    256.5508     82.5966
    32.5000     86.4938      0.0000    256.5861     81.4203
    32.7500     81.4541      0.0000    256.7753     79.4687
    33.0000     77.7863      0.0000    257.2541     76.5588
    33.2500     74.7378      0.0000    258.1146     72.6759
