~Version Information
VERS.                      2.0: CWLS Log ASCII Standard - VERSION 2.0
WRAP.                       NO: One line per depth step
~Well Information Block
STRT.FT               620.0000: 
STOP.FT              2660.0000: 
STEP.FT                 0.1000: 
NULL.                -999.2500: 
COMP.          Evergreen Operating Corporation: COMPANY
WELL.             Carbon 34-21: WELL
FLD.           Purgatoire River: FIELD
LOC.           56' FSL & 2304' FEL: LOCATION
PROV.                 Colorado: PROVINCE
CNTY.               Las Animas: COUNTRY
SRVC.                Patterson: SERVICE COMPANY
DATE.          Mon Sep 13 14:13:15 2004: LOG DATE
UWI.           05 071 08117 00: UNIQUE WELL ID
~Curve Information Block
DEPT.FT            0 000 00 00: Depth
DCAL.in                       : CDL Caliper
DPOR.pu                       : CDL Density Porosity
NPOR.pu                       : Neutron Porosity
RHOB.g/cc                     : CDL Bulk Density
RHOC.g/cc                     : CDL Density Correction
GR.GAPI                       : Gamma Ray
~Parameter Information Block
~A  Depth       DCAL        DPOR        NPOR        RHOB        RHOC         GR     
# ...
  1839.2000      9.7039     16.3355     28.2693      2.3805      0.2074    173.0359
  1839.3000      9.8720     18.6706     28.2391      2.3419      0.1838    157.3210
  1839.4000      9.8720     20.7940     27.7673      2.3069      0.1522    148.8922
  1839.5000      9.7993     22.0088     27.1812      2.2869      0.1515    159.7469
  1839.6000      9.7993     21.9021     26.9057      2.2886      0.1366    169.5140
  1839.7000      9.7993     20.2097     26.9965      2.3165      0.1350    160.6701
  1839.8000      9.5913     17.3403     27.0784      2.3639      0.2136    155.3130
  1839.9000      9.5913     14.3938     27.0934      2.4125      0.2472    168.0708
  1840.0000      9.3751     12.5948     27.1504      2.4422      0.3341    178.1003
  1840.1000      9.3751     12.6669     27.0452      2.4410      0.2931    174.9986
  1840.2000      9.3751     13.8574     27.0958      2.4214      0.2820    168.6944
  1840.3000      9.1569     14.7389     27.6981      2.4068      0.2571    160.8466
  1840.4000      9.1569     14.6140     28.1511      2.4089      0.2328    155.5275
  1840.5000      8.9958     13.8758     28.0132      2.4210      0.2394    159.2799
  1840.6000      8.9958     13.2575     28.0412      2.4313      0.2165    166.3556
  1840.7000      8.9958     12.7915     28.3212      2.4389      0.2245    174.7294
  1840.8000      9.0030     12.2201     28.4398      2.4484      0.2694    179.3342
  1840.9000      9.0030     11.5577     28.4936      2.4593      0.2728    173.5454
  1841.0000      9.1528     11.0234     28.2389      2.4681      0.3018    166.3119
  1841.1000      9.1528     10.9869     27.3598      2.4687      0.2842    162.0172
  1841.2000      9.1528     11.0993     26.3727      2.4669      0.2347    153.7625
  1841.3000      9.3882     10.8968     26.0276      2.4702      0.2504    143.5434
  1841.4000      9.3882     11.5639     26.6214      2.4592      0.2869    142.0495
  1841.5000      9.6785     14.1717     28.2549      2.4162      0.1783    149.9000
  1841.6000      9.6785     17.2400     30.0153      2.3655      0.1123    163.5387
  1841.7000      9.6785     18.8875     30.3277      2.3384      0.1213    174.7672
  1841.8000      9.9133     19.1663     29.3239      2.3338      0.1330    173.3228
  1841.9000      9.9133     18.6724     28.3554      2.3419      0.1300    164.0769
  1842.0000     10.0398     17.2645     27.8429      2.3651      0.1422    154.6329
  1842.1000     10.0398     15.0428     27.6516      2.4018      0.1998    151.2069
  1842.2000     10.0398     12.8785     27.7663      2.4375      0.2385    155.0819
  1842.3000     10.0754     12.1307     28.2248      2.4498      0.3003    156.1214
  1842.4000     10.0754     14.4074     29.0163      2.4123      0.3094    152.3186
  1842.5000     10.0135     19.7774     29.5551      2.3237      0.2342    152.4806
  1842.6000     10.0135     25.6268     29.2281      2.2272      0.1865    159.5195
  1842.7000     10.0135     29.1058     28.4109      2.1698      0.1549    165.5373
  1842.8000      9.8243     29.5234     27.9148      2.1629      0.1412    164.3772
  1842.9000      9.8243     27.8998     27.8407      2.1897      0.1860    163.8777
  1843.0000      9.5354     25.4158     27.8942      2.2306      0.2258    175.0527
  1843.1000      9.5354     22.5381     28.2487      2.2781      0.3220    197.4734
  1843.2000      9.5354     19.2376     28.9006      2.3326      0.3255    212.6546
  1843.3000      9.2950     15.7440     29.1289      2.3902      0.3460    204.6079
  1843.4000      9.2950     13.0965     28.8952      2.4339      0.3612    187.5535
  1843.5000      9.2007     12.2532     28.7951      2.4478      0.2855    177.6217
  1843.6000      9.2007     13.3017     28.8043      2.4305      0.2336    175.8354
  1843.7000      9.2007     15.5300     28.5903      2.3938      0.1999    181.4190
  1843.8000      9.1732     17.2518     28.0010      2.3653      0.1425    185.8693
  1843.9000      9.1732     17.5363     27.2445      2.3607      0.1907    173.3160
  1844.0000      9.0117     17.2248     26.9674      2.3658      0.1164    147.1279
  1844.1000      9.0117     16.7037     26.8428      2.3744      0.1027    133.8268
  1844.2000      9.0117     16.0242     25.7481      2.3856      0.1160    145.3244
  1844.3000      8.6067     15.3126     23.8662      2.3973      0.0757    163.2610
  1844.4000      8.6067     14.0669     22.3245      2.4179      0.1304    167.1721
  1844.5000      8.1591     12.2515     21.9566      2.4479      0.1933    159.3452
  1844.6000      8.1591     10.6524     22.5159      2.4742      0.1684    150.4630
  1844.7000      8.1591      9.9971     22.9500      2.4850      0.1372    146.9347
  1844.8000      7.9182      9.8579     22.8232      2.4873      0.0487    149.3064
  1844.9000      7.9182      8.6297     22.2118      2.5076      0.0340    148.3310
  1845.0000      7.8492      5.9383     21.0171      2.5520      0.0772    139.8206
  1845.1000      7.8492      3.8086     19.3211      2.5872      0.1236    135.1008
  1845.2000      7.8492      4.0362     18.0222      2.5834      0.0583    139.7141
  1845.3000      7.8356      5.5866     17.7021      2.5578     -0.0003    143.7165
  1845.4000      7.8356      6.1414     17.8454      2.5487      0.0158    143.1983
  1845.5000      7.8317      5.4002     17.8201      2.5609      0.0735    138.9786
  1845.6000      7.8317      4.8591     17.7353      2.5698      0.0896    126.7154
  1845.7000      7.8317      5.0648     17.7145      2.5664      0.0611    117.2822
  1845.8000      7.8284      5.3447     17.2397      2.5618      0.0490    122.4335
  1845.9000      7.8284      5.3784     16.5028      2.5613      0.0359    132.6364
  1846.0000      7.8214      5.2672     16.5577      2.5631      0.0577    133.3684
  1846.1000      7.8214      5.1465     17.5228      2.5651      0.0796    121.5573
  1846.2000      7.8214      5.3605     18.6457      2.5616      0.0798    110.0658
  1846.3000      7.8042      6.1817     19.2403      2.5480      0.0735    112.0792
  1846.4000      7.8042      7.8184     19.0863      2.5210      0.0642    123.6771
  1846.5000      7.7867     10.3411     18.7241      2.4794      0.0682    130.3472
  1846.6000      7.7867     13.1623     18.9527      2.4328      0.0447    129.0213
  1846.7000      7.7867     15.6853     19.6502      2.3912      0.0493    126.9374
  1846.8000      7.7799     17.5910     19.9925      2.3597     -0.0010    124.3675
  1846.9000      7.7799     18.3411     19.8186      2.3474     -0.0204    118.2208
  1847.0000      7.7789     18.1265     19.5761      2.3509      0.0255    113.0590
  1847.1000      7.7789     18.1383     19.2596      2.3507      0.0553    111.3247
  1847.2000      7.7789     18.6286     18.7365      2.3426      0.0162    112.2932
  1847.3000      7.7787     18.3122     18.3618      2.3478      0.0447    117.7902
  1847.4000      7.7787     16.0610     17.9718      2.3850      0.0295    125.2364
  1847.5000      7.7801     12.1229     16.9512      2.4500      0.1023    128.7649
  1847.6000      7.7801      8.1911     15.8696      2.5148      0.1548    125.2055
  1847.7000      7.7801      5.8244     15.6915      2.5539      0.0946    117.4687
  1847.8000      7.7870      5.1462     16.0556      2.5651      0.1130    111.2188
  1847.9000      7.7870      5.6514     16.1264      2.5568      0.0909    109.7416
  1848.0000      7.8029      6.6669     15.8578      2.5400      0.0493    110.5263
  1848.1000      7.8029      7.4928     15.3804      2.5264      0.0549    106.0221
  1848.2000      7.8029      7.8254     14.9045      2.5209      0.0497     98.9488
  1848.3000      7.8189      7.6056     14.8174      2.5245      0.0360    102.3476
  1848.4000      7.8189      7.3196     14.7991      2.5292      0.0537    114.3702
  1848.5000      7.8193      7.4025     14.4899      2.5279      0.0066    121.4818
  1848.6000      7.8193      7.1822     14.0828      2.5315      0.0226    121.3893
  1848.7000      7.8193      6.3775     13.8208      2.5448      0.0746    119.2472
