~Version Information
VERS.                      2.0: CWLS Log ASCII Standard - VERSION 2.0
WRAP.                       NO: One line per depth step
~Well Information Block
STRT.FT               650.0000: 
STOP.FT              1080.5000: 
STEP.FT                 0.2500: 
NULL.                -999.2500: 
COMP.          Pioneer Natural Resources: COMPANY
WELL.            Galileo 21-11: WELL
FLD.           Purgatoire River: FIELD
LOC.           407' FNL & 2394' FWL: LOCATION
PROV.                 Colorado: PROVINCE
CNTY.               Las Animas: COUNTRY
SRVC.                Patterson: SERVICE COMPANY
DATE.          Mon Apr 11 11:14:18 2005: LOG DATE
UWI.           05 071 08353 00: UNIQUE WELL ID
~Curve Information Block
DEPT.FT            0 000 00 00: Depth
SN.Ohm-m                      : IEL Short Normal
SP.mV                         : IEL Spontaneous Potential
DIR.Ohm-m                     : IEL Induction Resistivity
GR.GAPI                       : Gamma Ray
~Parameter Information Block
~A  Depth        SN          SP         DIR          GR     
# ...
   918.0000     30.6084    240.1865     21.0969     89.4915
   918.2500     31.6584    235.9691     21.2523     86.8880
   918.5000     33.3443    231.2707     21.4002     84.0232
   918.7500     35.6928    226.0553     21.5901     82.9741
   919.0000     38.0565    219.9612     21.8698     82.6756
   919.2500     39.2387    212.3436     22.2670     83.1130
   919.5000     38.2240    202.3929     22.7805     84.3695
   919.7500     35.4294    189.1904     23.3811     85.5124
   920.0000     32.8619    171.5896     24.0208     87.4756
   920.2500     32.3478    148.0416     24.6444     88.6830
   920.5000     34.4764    116.7886     25.2002     89.6977
   920.7500     39.1148     76.8657     25.6483     89.5613
   921.0000     45.7774     29.7092     25.9704     88.3221
   921.2500     55.5549    -19.8545     26.1773     87.3873
   921.5000     76.5851    -64.6361     26.3062     86.9613
   921.7500    124.8743    -98.0250     26.3985     87.5277
   922.0000    207.2956   -116.8206     26.4736     88.8891
   922.2500    300.9076   -121.8573     26.5164     89.4415
   922.5000    368.0647   -116.3532     26.4913     89.1288
   922.7500    395.0805   -103.7228     26.3677     88.3563
   923.0000    396.8661    -86.3826     26.1380     87.1111
   923.2500    391.0817    -65.6790     25.8171     86.4863
   923.5000    384.8304    -42.2739     25.4328     85.8094
   923.7500    377.2554    -16.5025     25.0182     85.4411
   924.0000    360.8032     11.3854     24.6079     85.0793
   924.2500    321.6496     41.0584     24.2316     85.0828
   924.5000    252.0837     71.9543     23.9057     85.7113
   924.7500    167.2310    103.1283     23.6280     86.7446
   925.0000     95.4882    133.1898     23.3838     89.3602
   925.2500     50.3527    160.4862     23.1566     91.4842
   925.5000     26.2305    183.5795     22.9371     94.1506
   925.7500     14.7451    201.8130     22.7224     95.2416
   926.0000     11.9045    215.5775     22.5118     96.5169
   926.2500     15.1719    225.9556     22.3052     97.8643
   926.5000     20.4887    233.8967     22.1076    101.0096
   926.7500     23.1800    239.6348     21.9342    103.2446
   927.0000     22.0633    242.9404     21.8070    105.3247
   927.2500     20.6246    243.9070     21.7435    105.5270
   927.5000     22.4286    243.3705     21.7463    104.6885
   927.7500     26.9234    242.5424     21.8001    103.9649
   928.0000     31.0604    242.3130     21.8798    103.1631
   928.2500     33.2296    242.8764     21.9618    102.7846
   928.5000     33.9377    243.8268     22.0344    102.2539
   928.7500     34.1062    244.4622     22.0976    102.0114
   929.0000     34.1598    244.0357     22.1568    102.4209
   929.2500     34.1487    241.9080     22.2136    103.5505
   929.5000     34.0056    237.6796     22.2612    106.2932
   929.7500     33.6793    231.3616     22.2884    108.0923
   930.0000     33.5365    223.5192     22.2876    109.3489
   930.2500     35.7208    215.2100     22.2617    108.9486
   930.5000     45.2756    207.6185     22.2227    107.0490
   930.7500     67.2329    201.5949     22.1837    105.3518
   931.0000     99.8636    197.4875     22.1519    102.6413
   931.2500    131.6250    195.3788     22.1281    101.0648
   931.5000    149.3086    195.3814     22.1123     99.8814
   931.7500    155.8947    197.6209     22.1083    100.2306
   932.0000    175.0360    201.9481     22.1209    102.3989
   932.2500    219.7561    207.7540     22.1506    104.5258
   932.5000    261.0750    214.1361     22.1903    107.5363
   932.7500    255.1026    220.2817     22.2301    108.6436
   933.0000    199.3896    225.7415     22.2623    108.1515
   933.2500    132.2134    230.4190     22.2853    106.4294
   933.5000     83.6399    234.3945     22.3016    102.4067
   933.7500     56.5042    237.7820     22.3132     99.3178
   934.0000     42.9179    240.6640     22.3159     95.3421
   934.2500     36.7434    243.0371     22.2963     93.9109
   934.5000     34.4226    244.7694     22.2337     94.1896
   934.7500     33.7436    245.6218     22.1134     95.6591
   935.0000     33.5637    245.3145     21.9446     98.5732
   935.2500     33.5068    243.5632     21.7674    100.3716
   935.5000     33.4788    240.0598     21.6376    102.2372
   935.7500     33.4280    234.4415     21.5969    102.7186
   936.0000     33.3180    226.2743     21.6514    102.1103
   936.2500     33.1331    215.0074     21.7744    100.8577
   936.5000     32.8855    199.8504     21.9306     98.0978
   936.7500     32.6496    179.6298     22.0972     96.0979
   937.0000     32.5656    152.8213     22.2662     93.7558
   937.2500     32.7966    117.9832     22.4304     92.9542
   937.5000     33.7237     74.6747     22.5767     92.6791
   937.7500     36.8034     24.6083     22.6927     92.7075
   938.0000     46.5608    -27.6942     22.7780     92.5910
   938.2500     73.4202    -75.6857     22.8465     92.4470
   938.5000    131.9815   -113.1662     22.9161     92.5337
   938.7500    224.7416   -136.8607     22.9981     92.9275
   939.0000    323.8357   -147.2964     23.0938     93.6653
   939.2500    389.1661   -147.5320     23.1968     93.8454
   939.5000    409.3175   -141.0756     23.2991     93.4433
   939.7500    404.2105   -130.5099     23.3957     93.1131
   940.0000    395.0664   -117.2357     23.4860     93.3797
   940.2500    389.7031   -101.8427     23.5729     94.2335
   940.5000    387.4741    -84.5234     23.6570     96.4281
   940.7500    385.6732    -65.2796     23.7329     98.5935
   941.0000    380.9352    -43.9657     23.7885    103.4445
   941.2500    365.7551    -20.3305     23.8108    107.9549
   941.5000    326.1945      5.8429     23.7942    115.9859
   941.7500    254.3236     34.5419     23.7466    121.0649
   942.0000    168.0399     65.4009     23.6888    125.9061
   942.2500    100.1964     97.7059     23.6477    126.4988
   942.5000     63.3652    130.4477     23.6439    124.0262
   942.7500     45.8079    162.3338     23.6825    121.2572
   943.0000     34.8762    191.8073     23.7517    117.2123
   943.2500     25.9389    217.2403     23.8325    115.0529
   943.5000     18.4288    237.3748     23.9108    112.4902
   943.7500     13.9702    251.7983     23.9866    110.9183
   944.0000     14.5772    261.0922     24.0720    108.2421
   944.2500     19.9449    266.5188     24.1848    106.1128
   944.5000     27.0183    269.4955     24.3408    102.7157
   944.7500     32.4384    271.2133     24.5491    100.7721
   945.0000     35.1242    272.5182     24.8093     99.0238
   945.2500     35.9842    273.9206     25.1090     98.7000
   945.5000     36.0988    275.6158     25.4227     99.0075
   945.7500     36.0656    277.5468     25.7180     99.3442
   946.0000     36.2227    279.5318     25.9678     99.6553
   946.2500     36.7180    281.3588     26.1614     99.9039
   946.5000     37.4355    282.7784     26.3067    101.1879
   946.7500     38.0843    283.4873     26.4236    103.0471
   947.0000     38.4369    283.2061     26.5346    107.0787
   947.2500     38.4523    281.8170     26.6555    109.9623
   947.5000     38.2413    279.4739     26.7897    113.5834
   947.7500     37.9939    276.6364     26.9289    115.3392
   948.0000     37.9154    273.9711     27.0613    117.1089
   948.2500     38.1135    272.0721     27.1832    117.7363
   948.5000     38.4483    271.1116     27.3057    117.6748
   948.7500     38.6648    270.7237     27.4492    116.9182
   949.0000     38.7780    270.2894     27.6320    115.0006
   949.2500     39.0483    269.3832     27.8637    113.4715
   949.5000     39.5956    267.9637     28.1474    111.0077
   949.7500     40.3503    266.1913     28.4847    109.2364
   950.0000     41.1981    264.0891     28.8759    106.5806
   950.2500     41.9003    261.2827     29.3176    105.0695
   950.5000     42.1275    256.8932     29.8031    103.4686
   950.7500     41.8005    249.5742     30.3229    102.8735
   951.0000     41.3428    237.6433     30.8618    102.9432
   951.2500     41.4542    219.2162     31.3920    103.9128
