~Version Information
VERS.                      2.0: CWLS Log ASCII Standard - VERSION 2.0
WRAP.                       NO: One line per depth step
~Well Information Block
STRT.FT               811.0000: 
STOP.FT              2507.0000: 
STEP.FT                 0.1000: 
NULL.                -999.2500: 
COMP.          Petrogulf Corporation: COMPANY
WELL.               YWAM 7-32V: WELL
FLD.           Purgatoire River: FIELD
LOC.           2423' FNL & 2412' FEL: LOCATION
PROV.                 Colorado: PROVINCE
CNTY.               Las Animas: COUNTRY
SRVC.                Patterson: SERVICE COMPANY
DATE.          Mon Dec 15 07:18:47 2003: LOG DATE
UWI.                          : UNIQUE WELL ID
~Curve Information Block
DEPT.FT            0 000 00 00: Depth
DCAL.in                       : CDL Caliper
RHOB.g/cc                     : CDL Bulk Density
RHOC.g/cc                     : CDL Density Correction
DPOR.pu                       : CDL Density Porosity
NPOR.pu                       : Neutron Porosity
GR.GAPI                       : Gamma Ray
~Parameter Information Block
~A  Depth       DCAL        RHOB        RHOC        DPOR        NPOR         GR     
# ...
  2375.8000      8.1408      2.4754      0.0721     10.5843     25.6761    155.5527
  2375.9000      8.1408      2.4904      0.0594      9.6737     26.1594    164.1010
  2376.0000      8.1409      2.5030      0.0784      8.9113     26.3843    174.9409
  2376.1000      8.1409      2.5072      0.0870      8.6557     26.4036    182.1792
  2376.2000      8.1409      2.4896      0.0793      9.7214     26.5881    181.8552
  2376.3000      8.1467      2.4573      0.0305     11.6813     26.8019    176.2691
  2376.4000      8.1467      2.4314      0.0189     13.2508     26.7340    171.0249
  2376.5000      8.1596      2.4213      0.0114     13.8635     26.3508    167.0749
  2376.6000      8.1596      2.4227      0.0374     13.7767     26.3263    166.4118
  2376.7000      8.1596      2.4234      0.0572     13.7318     27.0817    171.2585
  2376.8000      8.1630      2.4162      0.0216     14.1702     27.8093    177.5064
  2376.9000      8.1630      2.4148      0.0038     14.2522     27.9055    183.9077
  2377.0000      8.1615      2.4280      0.0683     13.4536     27.9200    185.5139
  2377.1000      8.1615      2.4368      0.0665     12.9205     28.2128    177.4708
  2377.2000      8.1615      2.4271      0.0543     13.5110     28.3294    170.3392
  2377.3000      8.1632      2.4063      0.0301     14.7717     28.3637    174.2653
  2377.4000      8.1632      2.3802      0.0615     16.3485     28.5690    181.6452
  2377.5000      8.1638      2.3437      0.0486     18.5633     28.5142    185.3876
  2377.6000      8.1638      2.3008      0.0106     21.1642     28.3450    190.7645
  2377.7000      8.1638      2.2647     -0.0112     23.3532     28.6981    199.7330
  2377.8000      8.1697      2.2317      0.0022     25.3539     29.4881    205.2644
  2377.9000      8.1697      2.1863     -0.0207     28.1042     30.1244    203.3925
  2378.0000      8.1632      2.1269      0.0002     31.7052     30.3574    205.6254
  2378.1000      8.1632      2.0693     -0.0372     35.1914     30.6365    222.2948
  2378.2000      8.1632      2.0331     -0.0310     37.3871     31.1659    244.7528
  2378.3000      8.1643      2.0278     -0.0133     37.7090     31.4150    257.3294
  2378.4000      8.1643      2.0504      0.0500     36.3369     31.2092    253.7013
  2378.5000      8.1644      2.0831      0.1467     34.3605     31.2570    246.0922
  2378.6000      8.1644      2.1049      0.1530     33.0376     31.9091    244.8874
  2378.7000      8.1644      2.1140      0.1654     32.4873     32.5295    240.0004
  2378.8000      8.1546      2.1238      0.1525     31.8890     32.3999    220.5008
  2378.9000      8.1546      2.1410      0.2112     30.8474     31.7229    189.5867
  2379.0000      8.1330      2.1589      0.1510     29.7651     31.2109    164.8570
  2379.1000      8.1330      2.1866      0.0707     28.0836     30.7340    161.7563
  2379.2000      8.1330      2.2439      0.1160     24.6095     29.8135    176.7589
  2379.3000      8.1572      2.3151      0.1240     20.2958     28.9863    191.7418
  2379.4000      8.1572      2.3620      0.1127     17.4572     29.0436    194.7260
  2379.5000      8.0364      2.3705      0.0943     16.9375     29.5981    187.6008
  2379.6000      8.0364      2.3531      0.0672     17.9946     29.9301    173.6976
  2379.7000      8.0364      2.3238      0.0492     19.7675     29.9520    157.8680
  2379.8000      8.0247      2.2930      0.0056     21.6366     29.5811    149.5641
  2379.9000      8.0247      2.2727      0.0060     22.8664     28.8623    152.8783
  2380.0000      8.0187      2.2724      0.0162     22.8849     28.1680    163.5076
  2380.1000      8.0187      2.2902      0.0316     21.8060     27.6814    170.4625
  2380.2000      8.0187      2.3121      0.0630     20.4779     26.7990    161.6187
  2380.3000      8.0152      2.3282      0.0879     19.5051     25.0640    142.3791
  2380.4000      8.0152      2.3412      0.1196     18.7131     23.1978    131.3828
  2380.5000      8.0171      2.3534      0.1585     17.9763     22.1416    129.6729
  2380.6000      8.0171      2.3608      0.1361     17.5257     21.5358    122.6119
  2380.7000      8.0171      2.3632      0.1474     17.3822     20.3902    105.4210
  2380.8000      8.0279      2.3653      0.0899     17.2526     18.9281     89.6212
  2380.9000      8.0279      2.3743      0.0441     16.7081     17.7037     84.5626
  2381.0000      8.0202      2.3886      0.0536     15.8446     16.7107     82.4706
  2381.1000      8.0202      2.4031      0.0268     14.9644     16.0257     74.5855
  2381.2000      8.0202      2.4249      0.0245     13.6430     15.9035     66.6180
  2381.3000      8.0229      2.4567      0.0746     11.7170     16.2374     64.5239
  2381.4000      8.0229      2.4855      0.0680      9.9679     16.6235     65.1102
  2381.5000      8.0223      2.4991      0.1146      9.1430     16.9533     65.7447
  2381.6000      8.0223      2.4921      0.0975      9.5697     17.1384     67.9471
  2381.7000      8.0223      2.4719      0.0373     10.7969     17.0763     72.9520
  2381.8000      8.0241      2.4535      0.0611     11.9062     17.3076     76.1337
  2381.9000      8.0241      2.4488      0.0542     12.1941     18.0289     72.8081
  2382.0000      8.0229      2.4658      0.0316     11.1657     18.4385     68.5773
  2382.1000      8.0229      2.4959      0.0643      9.3417     18.1759     67.7887
  2382.2000      8.0229      2.5154      0.0901      8.1554     17.7378     64.7703
  2382.3000      8.0229      2.5171      0.0606      8.0541     17.5820     60.4977
  2382.4000      8.0229      2.5151      0.0527      8.1740     17.6793     62.9552
  2382.5000      8.0233      2.5135      0.0445      8.2719     17.9982     80.8658
  2382.6000      8.0233      2.4974      0.0568      9.2478     18.9098     90.1491
  2382.7000      8.0233      2.4670      0.0201     11.0936     20.3030     90.3834
  2382.8000      8.0178      2.4473      0.0271     12.2857     21.3013     88.2734
  2382.9000      8.0178      2.4546     -0.0093     11.8418     21.4881     94.7443
  2383.0000      8.0323      2.4777      0.0409     10.4442     21.1325    107.7179
  2383.1000      8.0323      2.4929      0.0575      9.5185     20.8146    115.6948
  2383.2000      8.0323      2.4885      0.0599      9.7887     21.0343    117.9782
  2383.3000      8.0333      2.4714      0.0465     10.8255     21.4240    120.4837
  2383.4000      8.0333      2.4646      0.0186     11.2344     20.9111    120.6220
  2383.5000      8.0251      2.4826      0.0659     10.1473     19.6689    117.8317
  2383.6000      8.0251      2.5100      0.1005      8.4841     19.3391    118.4676
  2383.7000      8.0251      2.5271      0.0702      7.4514     20.5769    123.6499
  2383.8000      8.0261      2.5292      0.0858      7.3215     22.0899    128.4800
  2383.9000      8.0261      2.5200      0.0619      7.8804     22.4651    130.6001
  2384.0000      8.0273      2.5098      0.0122      8.4977     21.8999    132.6052
  2384.1000      8.0273      2.5078      0.0404      8.6162     21.2833    135.4994
  2384.2000      8.0273      2.5078      0.0435      8.6172     20.7454    136.5557
  2384.3000      8.0339      2.5029      0.0184      8.9132     20.2220    134.4843
  2384.4000      8.0339      2.4949      0.0551      9.3991     19.8776    129.0062
  2384.5000      8.0308      2.4829      0.0439     10.1281     19.9397    121.3435
  2384.6000      8.0308      2.4677      0.0203     11.0458     20.7366    117.5146
  2384.7000      8.0308      2.4540      0.0106     11.8759     22.0238    123.0698
  2384.8000      8.0270      2.4430      0.0237     12.5465     22.9166    135.4976
  2384.9000      8.0270      2.4362     -0.0126     12.9549     23.1226    141.6355
  2385.0000      8.0281      2.4413     -0.0110     12.6481     23.4248    133.0514
  2385.1000      8.0281      2.4598      0.0228     11.5255     24.0927    127.2687
  2385.2000      8.0281      2.4807      0.0333     10.2623     24.1842    138.3626
  2385.3000      8.0298      2.4925      0.0656      9.5484     23.5809    147.7506
