~Version Information
VERS.                      2.0: CWLS Log ASCII Standard - VERSION 2.0
WRAP.                       NO: One line per depth step
~Well Information Block
STRT.FT               758.7500: 
STOP.FT              2420.7500: 
STEP.FT                 0.2500: 
NULL.                -999.2500: 
COMP.          Petrogulf Corporation: COMPANY
WELL.            Montoya 7-21V: WELL
FLD.           Purgatorie River: FIELD
LOC.           738' FSL & 2070' FWL: LOCATION
CNTY.               Las Animas: COUNTY
SRVC.                         : SERVICE COMPANY
DATE.          Fri Aug 20 07:13:07 2004: LOG DATE
UWI.           05 071 08018 00: UNIQUE WELL ID
STAT.                 Colorado: STATE
~Curve Information Block
DEPT.FT            0 000 00 00: Depth
SP.mV                         : DIL Spontaneous Potential
RILD.Ohm-m                    : DIL Deep Resistivity
RILM.Ohm-m                    : DIL Medium Resistivity
RLL3.Ohm-m                    : DIL Shallow Resistivity
GR.GAPI                       : Gamma Ray
~Parameter Information Block
~A  Depth        SP         RILD        RILM        RLL3         GR     
# ...
  1430.7500    -22.5447     30.1195     25.7885     33.2880    132.4419
  1431.0000    -23.0609     29.3463     26.1486     35.7487    132.3382
  1431.2500    -23.5403     28.3941     26.4553     38.6554    131.5777
  1431.5000    -23.8888     27.2604     26.6270     41.4948    129.0874
  1431.7500    -24.0266     25.9711     26.5763     43.6740    127.0202
  1432.0000    -23.9077     24.5830     26.2279     44.6744    124.6222
  1432.2500    -23.5362     23.1658     25.5398     44.1908    124.1531
  1432.5000    -22.9697     21.7783     24.5178     42.2173    126.0942
  1432.7500    -22.3077     20.4565     23.2159     39.0352    129.5892
  1433.0000    -21.6675     19.2156     21.7228     35.0996    137.9977
  1433.2500    -21.1549     18.0595     20.1403     30.8842    144.9487
  1433.5000    -20.8404     16.9890     18.5630     26.7678    155.9430
  1433.7500    -20.7469     16.0047     17.0650     23.0011    163.3743
  1434.0000    -20.8517     15.1056     15.6963     19.7306    174.7720
  1434.2500    -21.1018     14.2884     14.4838     17.0281    182.0966
  1434.5000    -21.4310     13.5482     13.4371     14.9036    190.5759
  1434.7500    -21.7788     12.8798     12.5536     13.3111    193.3349
  1435.0000    -22.1011     12.2796     11.8237     12.1650    192.9034
  1435.2500    -22.3727     11.7452     11.2341     11.3687    190.7234
  1435.5000    -22.5854     11.2759     10.7700     10.8464    187.4616
  1435.7500    -22.7410     10.8710     10.4165     10.5649    186.4291
  1436.0000    -22.8478     10.5292     10.1589     10.5368    186.4530
  1436.2500    -22.9166     10.2476      9.9823     10.8006    186.5506
  1436.5000    -22.9595     10.0201      9.8719     11.3800    185.7238
  1436.7500    -22.9892      9.8375      9.8128     12.2375    184.8987
  1437.0000    -23.0170      9.6884      9.7904     13.2487    184.4582
  1437.2500    -23.0503      9.5622      9.7910     14.2190    184.7553
  1437.5000    -23.0926      9.4527      9.8030     14.9451    185.2136
  1437.7500    -23.1425      9.3608      9.8174     15.2909    185.2128
  1438.0000    -23.1976      9.2932      9.8286     15.2390    184.8421
  1438.2500    -23.2563      9.2587      9.8343     14.8913    184.3380
  1438.5000    -23.3201      9.2625      9.8347     14.4159    182.9649
  1438.7500    -23.3939      9.3024      9.8317     13.9698    181.7831
  1439.0000    -23.4843      9.3675      9.8280     13.6355    180.3986
  1439.2500    -23.5970      9.4420      9.8266     13.4048    180.0303
  1439.5000    -23.7347      9.5099      9.8304     13.2137    180.1660
  1439.7500    -23.8962      9.5607      9.8427     13.0024    180.6080
  1440.0000    -24.0764      9.5918      9.8667     12.7643    181.9957
  1440.2500    -24.2672      9.6079      9.9055     12.5614    183.4577
  1440.5000    -24.4586      9.6178      9.9614     12.5037    185.9027
  1440.7500    -24.6398      9.6316     10.0357     12.6980    187.0715
  1441.0000    -24.7997      9.6578     10.1279     13.1821    187.0368
  1441.2500    -24.9278      9.7024     10.2358     13.8770    185.5230
  1441.5000    -25.0165      9.7684     10.3558     14.5987    181.7820
  1441.7500    -25.0606      9.8569     10.4843     15.1381    179.3981
  1442.0000    -25.0590      9.9674     10.6189     15.3639    177.6260
  1442.2500    -25.0146     10.0995     10.7596     15.2783    177.9249
  1442.5000    -24.9325     10.2526     10.9096     14.9933    180.2677
  1442.7500    -24.8186     10.4258     11.0756     14.6579    182.7988
  1443.0000    -24.6776     10.6176     11.2667     14.3951    187.1201
  1443.2500    -24.5140     10.8258     11.4946     14.2781    189.3747
  1443.5000    -24.3339     11.0496     11.7721     14.3417    190.3867
  1443.7500    -24.1497     11.2919     12.1131     14.6081    189.6162
  1444.0000    -23.9831     11.5614     12.5327     15.1299    188.0730
  1444.2500    -23.8633     11.8721     13.0473     16.0631    187.7181
  1444.5000    -23.8207     12.2394     13.6748     17.7607    188.0763
  1444.7500    -23.8755     12.6744     14.4345     20.8352    187.8575
  1445.0000    -24.0292     13.1794     15.3462     26.1132    184.3997
  1445.2500    -24.2610     13.7469     16.4279     34.4302    178.9035
  1445.5000    -24.5331     14.3613     17.6931     46.2790    165.5072
  1445.7500    -24.8024     15.0031     19.1451     61.4183    153.9158
  1446.0000    -25.0313     15.6506     20.7689     78.6350    134.8940
  1446.2500    -25.1954     16.2794     22.5219     95.8547    122.5470
  1446.5000    -25.2854     16.8598     24.3229    110.6470    106.4195
  1446.7500    -25.3037     17.3573     26.0451    120.9111     97.9765
  1447.0000    -25.2602     17.7379     27.5201    125.3837     89.3436
  1447.2500    -25.1685     17.9758     28.5621    123.7558     86.2328
  1447.5000    -25.0427     18.0598     29.0140    116.4941     84.9712
  1447.7500    -24.8962     17.9909     28.8003    104.6276     86.0958
  1448.0000    -24.7402     17.7763     27.9585     89.6383     90.9145
  1448.2500    -24.5832     17.4256     26.6271     73.3564     96.7627
  1448.5000    -24.4297     16.9509     24.9967     57.6953    110.0369
  1448.7500    -24.2800     16.3718     23.2540     44.2250    121.1178
  1449.0000    -24.1315     15.7181     21.5454     33.7923    137.7578
  1449.2500    -23.9791     15.0284     19.9653     26.4167    146.8884
  1449.5000    -23.8179     14.3447     18.5637     21.5181    156.7855
  1449.7500    -23.6443     13.7057     17.3585     18.3152    161.9992
  1450.0000    -23.4580     13.1417     16.3489     16.1633    170.0123
  1450.2500    -23.2623     12.6718     15.5241     14.6915    175.5026
  1450.5000    -23.0638     12.3028     14.8696     13.7550    181.7709
  1450.7500    -22.8719     12.0307     14.3699     13.3084    183.4042
  1451.0000    -22.6962     11.8432     14.0103     13.2997    182.0788
  1451.2500    -22.5442     11.7239     13.7773     13.6289    179.8755
  1451.5000    -22.4192     11.6559     13.6583     14.1676    177.0969
  1451.7500    -22.3178     11.6242     13.6408     14.8110    176.5869
  1452.0000    -22.2293     11.6161     13.7115     15.5238    178.0450
  1452.2500    -22.1372     11.6180     13.8543     16.3549    179.6462
  1452.5000    -22.0244     11.6142     14.0483     17.4045    180.5755
  1452.7500    -21.8806     11.5871     14.2670     18.7562    179.1085
  1453.0000    -21.7097     11.5235     14.4773     20.3950    173.6915
  1453.2500    -21.5345     11.4211     14.6427     22.1498    168.9172
  1453.5000    -21.3934     11.2929     14.7284     23.6934    162.3464
  1453.7500    -21.3290     11.1636     14.7097     24.6236    159.4902
  1454.0000    -21.3723     11.0612     14.5790     24.6078    158.7359
  1454.2500    -21.5298     11.0090     14.3500     23.5315    160.9189
  1454.5000    -21.7793     11.0208     14.0540     21.5701    167.4412
  1454.7500    -22.0768     11.1018     13.7331     19.1355    172.4993
  1455.0000    -22.3719     11.2506     13.4308     16.7245    178.5094
  1455.2500    -22.6224     11.4607     13.1855     14.7635    181.0349
  1455.5000    -22.8043     11.7206     13.0270     13.5550    183.6202
  1455.7500    -22.9133     12.0144     12.9765     13.3524    185.0172
  1456.0000    -22.9595     12.3230     13.0468     14.4875    186.1256
  1456.2500    -22.9607     12.6287     13.2441     17.3996    185.5504
  1456.5000    -22.9352     12.9206     13.5682     22.4328    181.8859
  1456.7500    -22.8976     13.1982     14.0123     29.4240    177.3611
  1457.0000    -22.8565     13.4718     14.5632     37.3461    167.7319
  1457.2500    -22.8140     13.7588     15.2016     44.3930    160.2637
  1457.5000    -22.7673     14.0781     15.9045     48.6649    150.0231
  1457.7500    -22.7108     14.4467     16.6494     49.1122    145.1611
  1458.0000    -22.6380     14.8769     17.4197     46.0786    141.3946
  1458.2500    -22.5452     15.3749     18.2090     41.0471    140.7206
  1458.5000    -22.4321     15.9396     19.0223     35.8216    141.4384
