~Version Information
VERS.                      2.0: CWLS Log ASCII Standard - VERSION 2.0
WRAP.                       NO: One line per depth step
~Well Information Block
STRT.FT               -11.2500: 
STOP.FT              1934.7500: 
STEP.FT                 0.2500: 
NULL.                -999.2500: 
COMP.          Pioneer Natural Resources: COMPANY
WELL.          Commander 43-26 Tr: WELL
FLD.           Purgatorie River: FIELD
LOC.           2439' FSL  & 446' FEL--------: LOCATION
PROV.                       CO: PROVINCE
CNTY.               Las Animas: COUNTRY
SRVC.          Patterson Wireline: SERVICE COMPANY
DATE.          Tue Apr 26 09:07:23 2005: LOG DATE
UWI.           05 071 08341 00: UNIQUE WELL ID
~Curve Information Block
DEPT.FT            0 000 00 00: Depth
CCL.                          : Casing Collar Locator
TT3.usec                      : CBL 3' Travel Time
AMP3.mV                       : CBL 3' Amplitude
GR.GAPI                       : Gamma Ray
~Parameter Information Block
~A  Depth       CCL         TT3         AMP3         GR     
# ...
  1127.7500      0.0000    818.1517      6.6389    152.4362
  1128.0000      0.0000    815.9537      6.9581    146.2315
  1128.2500      0.0000    816.2721      7.1982    141.1382
  1128.5000      0.0000    819.7088      7.3288    138.8138
  1128.7500      0.0000    825.6655      7.3673    137.5993
  1129.0000      0.0000    831.9030      7.3622    135.1927
  1129.2500      0.0000    835.5738      7.3650    131.3042
  1129.5000      0.0000    835.2385      7.3941    127.7681
  1129.7500      0.0000    831.6014      7.4226    126.5950
  1130.0000      0.0000    826.2012      7.4020    128.0485
  1130.2500      0.0000    820.1890      7.2943    130.2950
  1130.5000      0.0000    814.7446      7.0884    130.8107
  1130.7500      0.0000    811.3632      6.8070    128.2367
  1131.0000      0.0000    810.5468      6.5021    123.1561
  1131.2500      0.0000    810.9764      6.2350    117.5747
  1131.5000      0.0000    810.8281      6.0542    113.5710
  1131.7500      0.0000    809.3534      5.9827    111.7168
  1132.0000      0.0000    806.9781      6.0113    110.6806
  1132.2500      0.0000    804.7084      6.0980    108.8703
  1132.5000      0.0000    803.6368      6.1905    106.4302
  1132.7500      0.0000    804.3187      6.2573    105.1011
  1133.0000      0.0000    806.3658      6.3060    106.0393
  1133.2500      0.0000    808.9351      6.3756    108.1449
  1133.5000      0.0000    811.5137      6.5018    108.8804
  1133.7500      0.0000    813.8633      6.6805    106.7215
  1134.0000      0.0000    815.2813      6.8696    102.4042
  1134.2500      0.0000    814.4328      7.0235     97.6561
  1134.5000      0.0000    810.3765      7.1237     93.4698
  1134.7500      0.0000    803.6379      7.1873     90.0721
  1135.0000      0.0000    796.1011      7.2477     87.7616
  1135.2500      0.0000    790.0615      7.3153     86.8140
  1135.5000      0.0000    787.0963      7.3628     86.8495
  1135.7500      0.0000    786.5997      7.3557     87.0359
  1136.0000      0.0000    784.9658      7.2830     86.9224
  1136.2500      0.0000    777.6627      7.1538     86.6890
  1136.5000      0.0000    763.4118      6.9876     86.5711
  1136.7500      0.0000    746.0779      6.8081     86.1838
  1137.0000      0.0000    731.9940      6.6330     84.6324
  1137.2500      0.0000    725.4421      6.4747     81.7467
  1137.5000      0.0000    726.2713      6.3598     79.2378
  1137.7500      0.0000    730.9435      6.3315     79.9437
  1138.0000      0.0000    735.3928      6.4095     85.3620
  1138.2500      0.0000    737.6404      6.5517     94.2089
  1138.5000      0.0000    738.8190      6.6822    103.7117
  1138.7500      0.0000    741.6713      6.7562    111.8517
  1139.0000      0.0000    747.5096      6.7839    118.0946
  1139.2500      0.0000    755.0125      6.8003    122.5155
  1139.5000      0.0000    762.1476      6.8384    125.0068
  1139.7500      0.0000    767.8976      6.9235    125.5566
  1140.0000      0.0000    771.5027      7.0703    124.8279
  1140.2500      0.0000    771.6145      7.2763    123.7538
  1140.5000      0.0000    767.3560      7.5233    122.5638
  1140.7500      0.0000    759.6096      7.7832    120.6948
  1141.0000      0.0000    750.7206      8.0212    117.6412
  1141.2500      0.0000    743.0788      8.2035    113.5353
  1141.5000      0.0000    737.9078      8.3125    109.1449
  1141.7500      0.0000    735.0681      8.3560    105.8403
  1142.0000      0.0000    733.7255      8.3585    105.2669
  1142.2500      0.0000    733.0798      8.3450    108.1853
  1142.5000      0.0000    732.5502      8.3336    113.2976
  1142.7500      0.0000    731.5093      8.3325    117.6445
  1143.0000      0.0000    729.0783      8.3359    118.5880
  1143.2500      0.0000    724.4302      8.3218    115.5531
  1143.5000      0.0000    717.5831      8.2679    110.1385
  1143.7500      0.0000    709.9017      8.1759    104.8058
  1144.0000      0.0000    703.6310      8.0737    101.1882
  1144.2500      0.0000    700.8226      7.9857     99.0844
  1144.5000      0.0000    702.6614      7.9098     96.8288
  1144.7500      0.0000    709.3585      7.8343     92.8227
  1145.0000      0.0000    720.0180      7.7671     87.0977
  1145.2500      0.0000    732.3657      7.7269     81.6813
  1145.5000      0.0000    743.2015      7.7042     79.2174
  1145.7500      0.0000    749.9827      7.6488     80.7118
  1146.0000      0.0000    752.1819      7.5104     84.4325
  1146.2500      0.0000    750.9067      7.2924     87.2564
  1146.5000      0.0000    747.5433      7.0598     87.2632
  1146.7500      0.0000    743.1762      6.8896     85.0857
  1147.0000      0.0000    738.8088      6.8140     83.1990
  1147.2500      0.0000    735.3184      6.8064     84.3269
  1147.5000      0.0000    733.0795      6.8167     89.9751
  1147.7500      0.0000    731.8936      6.8156     99.4437
  1148.0000      0.0000    731.3231      6.8048    110.0184
  1148.2500      0.0000    731.0099      6.7920    118.6019
  1148.5000      0.0000    730.7964      6.7665    123.4458
  1148.7500      0.0000    730.6656      6.7113    124.4950
  1149.0000      0.0000    730.6472      6.6323    122.5100
  1149.2500      0.0000    730.7513      6.5592    118.3208
  1149.5000      0.0000    730.9514      6.5196    112.9253
  1149.7500      0.0000    731.1808      6.5227    107.9595
  1150.0000      0.0000    731.3221      6.5644    105.5058
  1150.2500      0.0000    731.1615      6.6324    107.1640
  1150.5000      0.0000    730.2391      6.7064    113.1767
  1150.7500      0.0000    727.7163      6.7660    122.0600
  1151.0000      0.0000    722.4163      6.8066    130.8347
  1151.2500      0.0000    712.8928      6.8473    136.3473
  1151.5000      0.0000    696.8696      6.9168    137.4223
  1151.7500      0.0000    670.4490      7.0278    135.6388
  1152.0000      0.0000    629.8388      7.1621    133.3535
  1152.2500      0.0000    577.0333      7.2875    131.2939
  1152.5000      0.0000    524.6830      7.3856    128.6739
  1152.7500      0.0000    492.5751      7.4636    125.0281
  1153.0000      0.0000    495.5217      7.5434    120.8640
  1153.2500      0.0000    532.1046      7.6509    116.7898
  1153.5000      0.0000    584.5155      7.8104    113.0348
  1153.7500      0.0000    630.7379      8.0335    109.8651
  1154.0000      0.0000    658.9319      8.3050    107.5951
  1154.2500      0.0000    671.5328      8.5811    106.0121
  1154.5000      0.0000    677.8003      8.8061    104.4336
  1154.7500      0.0000    684.7008      8.9422    102.7103
  1155.0000      0.0000    693.6750      8.9881    101.8991
  1155.2500      0.0000    701.9590      8.9687    103.6591
  1155.5000      0.0000    703.7773      8.9106    108.9197
  1155.7500      0.0000    691.2693      8.8296    117.0751
  1156.0000      0.0000    658.7816      8.7354    126.2850
  1156.2500      0.0000    610.7156      8.6377    134.4863
  1156.5000      0.0000    565.1689      8.5447    140.4390
  1156.7500      0.0000    545.2094      8.4621    144.2099
  1157.0000      0.0000    562.3063      8.3890    146.7787
  1157.2500      0.0000    607.7392      8.3140    149.0587
  1157.5000      0.0000    660.2645      8.2192    151.0724
  1157.7500      0.0000    701.0375      8.0974    152.0282
  1158.0000      0.0000    722.5330      7.9610    151.2121
  1158.2500      0.0000    727.6276      7.8237    148.7447
  1158.5000      0.0000    722.5371      7.6740    145.5247
  1158.7500      0.0000    709.0882      7.4752    142.4491
  1159.0000      0.0000    682.6575      7.1956    139.5399
  1159.2500      0.0000    638.2395      6.8507    135.8898
  1159.5000      0.0000    578.5107      6.5254    130.7161
  1159.7500      0.0000    515.2028      6.3387    124.4199
  1160.0000      0.0000    462.0395      6.3591    118.3497
  1160.2500      0.0000    426.1795      6.5546    113.6655
  1160.5000      2.0000    406.0322      6.8255    110.8196
  1160.7500     -2.0000    396.4678      7.0756    109.8946
  1161.0000     -2.0000    395.8026      7.2595    110.6700
