~Version Information
VERS.                      2.0: CWLS Log ASCII Standard - VERSION 2.0
WRAP.                       NO: One line per depth step
~Well Information Block
STRT.FT               965.2500: 
STOP.FT              2602.5000: 
STEP.FT                 0.2500: 
NULL.                -999.2500: 
COMP.          Petrogulf Corporation: COMPANY
WELL.             Valejo 8-12V: WELL
FLD.           Purgatorie River: FIELD
LOC.           1510' FNL & 1460' FWL: LOCATION
CNTY.               Las Animas: COUNTY
SRVC.                         : SERVICE COMPANY
DATE.          Fri Nov 14 05:32:33 2003: LOG DATE
UWI.                          : UNIQUE WELL ID
STAT.                 Colorado: STATE
~Curve Information Block
DEPT.FT            0 000 00 00: Depth
RILD.Ohm-m                    : DIL Deep Resistivity
RILM.Ohm-m                    : DIL Medium Resistivity
RLL3.Ohm-m                    : DIL Shallow Resistivity
SP.mV                         : DIL Spontaneous Potential
GR.GAPI                       : Gamma Ray
~Parameter Information Block
~A  Depth       RILD        RILM        RLL3         SP          GR     
# ...
  1077.2500     18.9875     20.8007     22.3835    -96.0588    142.0895
  1077.5000     18.7458     20.5141     22.6062    -95.5520    139.5607
  1077.7500     18.5289     20.2483     22.8741    -95.0591    139.2226
  1078.0000     18.3511     19.9996     23.0252    -94.5912    140.5442
  1078.2500     18.2163     19.7627     22.7830    -94.1525    141.9464
  1078.5000     18.1136     19.5402     21.9812    -93.7358    143.4661
  1078.7500     18.0192     19.3506     20.7789    -93.3272    143.8542
  1079.0000     17.9066     19.2227     19.6111    -92.9139    144.0607
  1079.2500     17.7571     19.1789     18.8841    -92.4884    144.2975
  1079.5000     17.5633     19.2154     18.7336    -92.0470    145.1429
  1079.7500     17.3250     19.2963     19.0530    -91.5872    146.3778
  1080.0000     17.0457     19.3635     19.6519    -91.1092    150.0048
  1080.2500     16.7352     19.3581     20.3330    -90.6195    153.6064
  1080.5000     16.4177     19.2383     20.8953    -90.1320    159.3853
  1080.7500     16.1355     18.9858     21.1691    -89.6669    162.2245
  1081.0000     15.9360     18.6021     21.0753    -89.2453    163.4805
  1081.2500     15.8441     18.1043     20.6256    -88.8858    162.4092
  1081.5000     15.8306     17.5222     19.8813    -88.6002    159.4315
  1081.7500     15.8020     16.8942     18.9476    -88.3897    157.3919
  1082.0000     15.6395     16.2601     17.9879    -88.2410    154.6290
  1082.2500     15.2802     15.6538     17.1749    -88.1274    152.8013
  1082.5000     14.7690     15.0988     16.6037    -88.0178    150.1826
  1082.7500     14.2224     14.6059     16.2669    -87.8876    148.8722
  1083.0000     13.7484     14.1766     16.1011    -87.7265    147.6939
  1083.2500     13.4014     13.8081     16.0197    -87.5371    146.9603
  1083.5000     13.1882     13.5016     15.8977    -87.3281    144.8103
  1083.7500     13.0968     13.2678     15.5804    -87.1065    142.3425
  1084.0000     13.1200     13.1292     14.9835    -86.8818    137.2973
  1084.2500     13.2663     13.1199     14.2456    -86.6734    133.3711
  1084.5000     13.5547     13.2827     13.8122    -86.5025    127.1403
  1084.7500     14.0007     13.6663     14.3678    -86.3707    122.9456
  1085.0000     14.6028     14.3215     16.6169    -86.2542    116.7905
  1085.2500     15.3395     15.2994     21.0298    -86.1278    112.8919
  1085.5000     16.1785     16.6526     27.8783    -85.9897    107.7028
  1085.7500     17.0918     18.4394     37.8319    -85.8623    104.9414
  1086.0000     18.0654     20.7281     52.6725    -85.7757    101.8877
  1086.2500     19.0962     23.5911     74.5815    -85.7576    100.0903
  1086.5000     20.1792     27.0773    103.2255    -85.8321     96.2760
  1086.7500     21.2925     31.1506    133.3520    -86.0203     92.3602
  1087.0000     22.3888     35.5954    157.1030    -86.3345     84.8813
  1087.2500     23.3983     39.9180    169.8320    -86.7690     80.0239
  1087.5000     24.2338     43.3220    172.3144    -87.2976     75.2029
  1087.7500     24.7948     44.8949    166.6571    -87.8832     74.1061
  1088.0000     24.9756     44.0747    152.5587    -88.4942     74.5308
  1088.2500     24.7006     41.0870    129.4872    -89.1137     75.2429
  1088.5000     23.9764     36.8426    100.6960    -89.7363     76.5132
  1088.7500     22.9095     32.3543     72.6585    -90.3572     77.9321
  1089.0000     21.6602     28.2836     50.7091    -90.9635     81.4191
  1089.2500     20.3753     24.8856     36.2501    -91.5324     84.2750
  1089.5000     19.1493     22.1595     27.7106    -92.0354     88.2125
  1089.7500     18.0285     19.9995     22.9610    -92.4473     90.4289
  1090.0000     17.0304     18.2834     20.5863    -92.7538     94.2092
  1090.2500     16.1619     16.9092     19.7519    -92.9593     97.9121
  1090.5000     15.4269     15.8028     19.7863    -93.0881    105.6598
  1090.7500     14.8303     14.9150     20.0960    -93.1778    111.4965
  1091.0000     14.3794     14.2175     20.2663    -93.2662    118.7526
  1091.2500     14.0851     13.6989     20.1111    -93.3758    121.2954
  1091.5000     13.9593     13.3591     19.6704    -93.5037    121.1570
  1091.7500     14.0094     13.2028     19.1643    -93.6194    119.2323
  1092.0000     14.2312     13.2335     18.8862    -93.6791    115.7446
  1092.2500     14.6065     13.4545     19.0923    -93.6498    113.9279
  1092.5000     15.1075     13.8732     19.9569    -93.5278    112.0507
  1092.7500     15.7074     14.5086     21.6044    -93.3360    110.6090
  1093.0000     16.3929     15.3977     24.3034    -93.1074    106.5274
  1093.2500     17.1684     16.5976     29.0654    -92.8689    102.0752
  1093.5000     18.0503     18.1844     38.7138    -92.6329     93.3159
  1093.7500     19.0551     20.2407     58.5834    -92.3977     86.7242
  1094.0000     20.1887     22.8288     94.9008    -92.1543     76.3407
  1094.2500     21.4435     25.9390    149.4220    -91.8968     69.1139
  1094.5000     22.8026     29.4205    212.8716    -91.6297     58.0983
  1094.7500     24.2453     32.9279    264.3936    -91.3691     51.3948
  1095.0000     25.7488     35.9531    281.9216    -91.1365     44.4412
  1095.2500     27.2809     38.0029    257.2964    -90.9489     42.9871
  1095.5000     28.7854     38.8609    202.3382    -90.8131     46.2085
  1095.7500     30.1653     38.7285    139.8891    -90.7257     51.5158
  1096.0000     31.2845     38.0916     88.9265    -90.6764     62.5912
  1096.2500     32.0040     37.4400     56.6458    -90.6496     70.8311
  1096.5000     32.2482     37.0613     40.5959    -90.6282     82.2247
  1096.7500     32.0542     36.9849     34.8292    -90.6001     88.0816
  1097.0000     31.5627     37.0340     34.1814    -90.5626     93.5258
  1097.2500     30.9588     36.9505     35.5010    -90.5210     95.3533
  1097.5000     30.4086     36.5588     37.3077    -90.4825     96.8973
  1097.7500     30.0202     35.8731     39.1187    -90.4505     97.6838
  1098.0000     29.8327     35.0682     40.8438    -90.4222     98.1707
  1098.2500     29.8303     34.3597     42.3280    -90.3891     97.6062
  1098.5000     29.9742     33.9083     43.1834    -90.3404     95.7080
  1098.7500     30.2380     33.7975     42.9917    -90.2646     94.4758
  1099.0000     30.6286     34.0585     41.7239    -90.1496     93.5778
  1099.2500     31.1806     34.7056     39.9943    -89.9853     93.5051
  1099.5000     31.9341     35.7626     38.8362    -89.7680     93.4721
  1099.7500     32.9084     37.2716     39.1084    -89.5032     93.3046
  1100.0000     34.0863     39.2865     41.0303    -89.1995     93.1333
  1100.2500     35.4177     41.8554     44.2218    -88.8578     93.2852
  1100.5000     36.8443     45.0061     48.1147    -88.4658     93.6009
  1100.7500     38.3277     48.7455     52.2958    -88.0051     93.3574
  1101.0000     39.8583     53.0708     56.5079    -87.4634     91.8163
  1101.2500     41.4353     57.9791     60.4635    -86.8458     90.2658
  1101.5000     43.0380     63.4583     63.8457    -86.1771     88.0361
  1101.7500     44.6206     69.4723     66.5898    -85.4979     86.8793
  1102.0000     46.1383     75.9615     69.0878    -84.8537     85.4331
  1102.2500     47.5861     82.8475     71.9920    -84.2837     84.3700
  1102.5000     49.0153     90.0432     75.7618    -83.8122     82.2062
  1102.7500     50.5065     97.4324     80.3100    -83.4436     80.3461
  1103.0000     52.1204    104.9726     84.9158    -83.1627     77.4014
  1103.2500     53.8609    112.9787     88.4649    -82.9429     75.7044
  1103.5000     55.6779    122.5906     90.0345    -82.7610     73.5961
  1103.7500     57.4912    136.1769     89.4940    -82.6083     72.1282
  1104.0000     59.2082    157.5193     87.5279    -82.4908     69.3382
  1104.2500     60.7158    191.1090     84.9996    -82.4217     67.1053
  1104.5000     61.8802    237.2449     82.3501    -82.4143     63.6243
  1104.7500     62.5790    277.3539     79.6221    -82.4801     61.6441
  1105.0000     62.7316    274.5655     76.8916    -82.6274     60.1777
