~Version Information
VERS.                      2.0: CWLS Log ASCII Standard - VERSION 2.0
WRAP.                       NO: One line per depth step
~Well Information Block
STRT.FT               250.0000: 
STOP.FT               894.7000: 
STEP.FT                 0.1000: 
NULL.                -999.2500: 
COMP.          Pioneer Natural Resources: COMPANY
WELL.          Santisteven 13-22: WELL
FLD.           Purgatoire River: FIELD
LOC.           1861' FSL & 992' FWL----: LOCATION
PROV.                 Colorado: PROVINCE
CNTY.               Las Animas: COUNTRY
SRVC.                Patterson: SERVICE COMPANY
DATE.          Mon Apr 04 11:05:36 2005: LOG DATE
UWI.           05 071 08337 00: UNIQUE WELL ID
~Curve Information Block
DEPT.FT            0 000 00 00: Depth
DCAL.in                       : CDL Caliper
RHOB.g/cc                     : CDL Bulk Density
RHOC.g/cc                     : CDL Density Correction
DPOR.pu                       : CDL Density Porosity
NPOR.pu                       : Neutron Porosity
GR.GAPI                       : Gamma Ray
~Parameter Information Block
~A  Depth       DCAL        RHOB        RHOC        DPOR        NPOR         GR     
# ...
   662.8000      8.1600      2.5831      0.0627      4.0535     23.3776     91.5444
   662.9000      8.1600      2.5798      0.0481      4.2546     23.3340     90.3349
   663.0000      8.1606      2.5802      0.0066      4.2290     23.3531     91.5039
   663.1000      8.1606      2.5989      0.0004      3.0993     23.5882     94.6567
   663.2000      8.1606      2.6133      0.0671      2.2238     23.8727    100.0135
   663.3000      8.1628      2.5951      0.0457      3.3256     23.9921    106.7134
   663.4000      8.1628      2.5600     -0.0185      5.4573     23.9608    109.8982
   663.5000      8.1635      2.5394     -0.0173      6.7047     23.8966    107.2046
   663.6000      8.1635      2.5348      0.0062      6.9814     23.7711    102.3476
   663.7000      8.1635      2.5272      0.0099      7.4416     23.4978    100.9193
   663.8000      8.1621      2.5144     -0.0326      8.2167     23.2785    106.6658
   663.9000      8.1621      2.5098     -0.0010      8.4980     23.2190    116.6446
   664.0000      8.1613      2.5129      0.0368      8.3079     23.1180    122.1276
   664.1000      8.1613      2.5161      0.0273      8.1161     22.9003    120.4956
   664.2000      8.1613      2.5269     -0.0010      7.4608     22.5922    121.9375
   664.3000      8.1624      2.5518      0.1006      5.9535     22.0293    129.8816
   664.4000      8.1624      2.5720      0.0909      4.7244     21.4202    135.1205
   664.5000      8.1639      2.5697      0.0661      4.8650     21.2032    133.8248
   664.6000      8.1639      2.5498      0.0553      6.0718     21.3242    129.0925
   664.7000      8.1639      2.5276      0.0165      7.4155     21.6438    125.6961
   664.8000      8.1652      2.5176      0.0238      8.0243     22.1621    126.5065
   664.9000      8.1652      2.5229      0.0554      7.7035     22.4970    129.6304
   665.0000      8.1653      2.5330      0.0435      7.0931     22.3280    131.9513
   665.1000      8.1653      2.5372      0.0349      6.8389     21.7960    134.0795
   665.2000      8.1653      2.5337      0.0356      7.0498     21.2692    138.9387
   665.3000      8.1640      2.5298      0.0179      7.2825     21.2166    143.9268
   665.4000      8.1640      2.5314      0.0188      7.1883     21.5974    142.3258
   665.5000      8.1629      2.5391      0.0195      6.7232     22.1325    135.0106
   665.6000      8.1629      2.5565     -0.0182      5.6688     22.8628    128.3370
   665.7000      8.1629      2.5753      0.0673      4.5257     23.4733    126.5588
   665.8000      8.1635      2.5760      0.0582      4.4875     23.5264    129.2862
   665.9000      8.1635      2.5661      0.0137      5.0832     23.2186    131.8653
   666.0000      8.1652      2.5712      0.0042      4.7771     22.9077    132.3266
   666.1000      8.1652      2.5874      0.0644      3.7943     22.8077    132.4257
   666.2000      8.1652      2.5957      0.0330      3.2905     22.8243    130.7294
   666.3000      8.1652      2.6058     -0.0048      2.6817     22.9075    127.1699
   666.4000      8.1652      2.6279      0.0490      1.3420     23.2828    126.2688
   666.5000      8.1644      2.6420      0.0489      0.4876     23.7994    129.5228
   666.6000      8.1644      2.6320      0.0430      1.0888     24.1063    131.6844
   666.7000      8.1644      2.6081      0.0053      2.5386     24.3608    130.5816
   666.8000      8.1645      2.5901     -0.0096      3.6313     24.7920    132.7417
   666.9000      8.1645      2.5869      0.0058      3.8257     25.2696    138.8164
   667.0000      8.1651      2.5937      0.0436      3.4120     25.6066    142.4100
   667.1000      8.1651      2.6029      0.0399      2.8543     25.5752    143.0066
   667.2000      8.1651      2.6103      0.0450      2.4090     25.2344    141.2367
   667.3000      8.1655      2.6128      0.0430      2.2544     25.0673    136.6436
   667.4000      8.1655      2.6070      0.0303      2.6052     24.9800    132.7948
   667.5000      8.1644      2.5956      0.0392      3.2940     24.5199    131.0094
   667.6000      8.1644      2.5860      0.0080      3.8804     23.9646    130.1517
   667.7000      8.1644      2.5791      0.0426      4.2965     23.6333    131.9074
   667.8000      8.1636      2.5728      0.0187      4.6783     23.4206    135.4496
   667.9000      8.1636      2.5694      0.0480      4.8824     23.4935    136.4632
   668.0000      8.1649      2.5690      0.0348      4.9089     24.0488    134.7844
   668.1000      8.1649      2.5701      0.0341      4.8436     24.4603    135.2160
   668.2000      8.1649      2.5712      0.0389      4.7772     23.9593    137.4670
   668.3000      8.1653      2.5648      0.0283      5.1622     23.0551    136.4360
   668.4000      8.1653      2.5446      0.0102      6.3851     22.7335    134.2526
   668.5000      8.1646      2.5208     -0.0214      7.8310     23.0441    133.7928
   668.6000      8.1646      2.5121      0.0080      8.3583     23.4035    130.7968
   668.7000      8.1646      2.5250     -0.0114      7.5748     23.5730    124.6012
   668.8000      8.1637      2.5500      0.0498      6.0616     23.7494    122.0210
   668.9000      8.1637      2.5655      0.0673      5.1213     24.0835    127.5713
   669.0000      8.1626      2.5585      0.0552      5.5455     24.5293    135.1254
   669.1000      8.1626      2.5416      0.0080      6.5697     24.8627    136.9523
   669.2000      8.1626      2.5313      0.0580      7.1913     24.8207    137.1646
   669.3000      8.1627      2.5259      0.0718      7.5241     24.6538    143.7332
   669.4000      8.1627      2.5193      0.0300      7.9217     24.7550    151.9591
   669.5000      8.1636      2.5176      0.0088      8.0221     24.9371    151.2588
   669.6000      8.1636      2.5291      0.0565      7.3276     24.8909    142.5125
   669.7000      8.1636      2.5464      0.0762      6.2800     24.8783    131.8413
   669.8000      8.1650      2.5496      0.1097      6.0868     25.1483    123.5884
   669.9000      8.1650      2.5253      0.0380      7.5567     25.3839    123.5834
   670.0000      8.1660      2.4845     -0.0083     10.0316     25.3340    132.1423
   670.1000      8.1660      2.4517     -0.0109     12.0183     25.2190    141.1215
   670.2000      8.1660      2.4399     -0.0144     12.7322     25.2952    144.8981
   670.3000      8.1695      2.4405      0.0164     12.6976     25.1861    142.8304
   670.4000      8.1695      2.4290      0.0669     13.3966     24.3382    136.4438
   670.5000      8.1777      2.3851      0.0341     16.0554     22.7940    130.8087
   670.6000      8.1777      2.3112     -0.0010     20.5360     21.0521    129.4305
   670.7000      8.1777      2.2231     -0.0438     25.8740     19.6610    132.0637
   670.8000      8.1831      2.1325     -0.0328     31.3653     18.5886    136.2938
   670.9000      8.1831      2.0384     -0.0303     37.0686     17.3892    138.8008
   671.0000      8.1841      1.9354     -0.0483     43.3071     15.9563    138.1082
   671.1000      8.1841      1.8296     -0.1223     49.7224     14.5577    130.5648
   671.2000      8.1841      1.7374     -0.1110     55.3106     13.3926    115.9841
   671.3000      8.1807      1.6639     -0.0647     59.7622     12.4018    105.7968
   671.4000      8.1807      1.5976     -0.0791     63.7821     11.4219    107.1038
   671.5000      8.1633      1.5347     -0.0972     67.5913     10.5154    111.4115
   671.6000      8.1633      1.4917     -0.1074     70.1995      9.8579    109.4823
   671.7000      8.1633      1.4860     -0.0617     70.5477      9.2435    102.8975
   671.8000      8.1278      1.5155     -0.0247     68.7550      8.4402     97.1378
   671.9000      8.1278      1.5682      0.0024     65.5636      7.7517     92.8599
   672.0000      8.0916      1.6432      0.0064     61.0189      7.4177     88.5815
   672.1000      8.0916      1.7473      0.0741     54.7062      7.3654     88.2453
   672.2000      8.0916      1.8727      0.1763     47.1081      7.5751     93.9582
   672.3000      8.0754      1.9975      0.2309     39.5442      8.0570     99.7227
