~Version Information
VERS.                      2.0: CWLS Log ASCII Standard - VERSION 2.0
WRAP.                       NO: One line per depth step
~Well Information Block
STRT.FT               590.0000: 
STOP.FT              1563.5000: 
STEP.FT                 0.2500: 
NULL.                -999.2500: 
COMP.          Petrogulf Corporation: COMPANY
WELL.             State 16-43R: WELL
FLD.           Purgatorie River: FIELD
LOC.           2538' FSL & 716' FEL: LOCATION
PROV.                 Colorado: PROVINCE
CNTY.               Las Animas: COUNTRY
SRVC.                Patterson: SERVICE COMPANY
DATE.          Tue Aug 09 14:21:37 2005: LOG DATE
UWI.                          : UNIQUE WELL ID
~Curve Information Block
DEPT.FT            0 000 00 00: Depth
RILD.Ohm-m                    : DIL Deep Resistivity
RILM.Ohm-m                    : DIL Medium Resistivity
GR.GAPI                       : Gamma Ray
~Parameter Information Block
~A  Depth       RILD        RILM         GR     
# ...
   757.0000     12.8593     12.9380    162.0765
   757.2500     13.1206     13.4403    159.5425
   757.5000     13.8848     13.2075    158.5134
   757.7500     14.2149     13.6540    156.8648
   758.0000     15.0359     14.0780    156.1683
   758.2500     15.2614     14.3494    159.0949
   758.5000     15.8824     15.3237    148.6372
   758.7500     16.6565     16.4182    142.2238
   759.0000     17.9519     17.8352    137.7949
   759.2500     18.3189     19.5772    126.8922
   759.5000     18.3475     20.4103    112.1200
   759.7500     19.1522     22.2727    105.4426
   760.0000     19.7337     24.4639    109.0396
   760.2500     20.5951     26.7009    109.4598
   760.5000     22.7715     26.6731    105.9516
   760.7500     24.0306     27.3931    115.9884
   761.0000     24.7700     28.5060    116.8790
   761.2500     25.1044     28.4947    112.1056
   761.5000     25.4752     29.5849    128.0458
   761.7500     26.8934     28.9117    134.8872
   762.0000     27.0804     31.2452    129.9471
   762.2500     26.7307     31.1175    131.1165
   762.5000     27.2900     31.9296    123.4058
   762.7500     26.1134     29.4986    125.0480
   763.0000     27.7345     30.1126    130.6031
   763.2500     27.1561     30.6003    137.5216
   763.5000     26.5415     30.8482    134.2313
   763.7500     25.7195     29.8686    128.6693
   764.0000     26.9170     29.8928    124.5584
   764.2500     27.6984     29.2448    122.7048
   764.5000     28.8508     28.6452    128.6761
   764.7500     29.3256     29.4383    119.4288
   765.0000     29.2764     31.0921    118.8109
   765.2500     28.3536     32.0126    118.9769
   765.5000     28.3293     30.8481    125.4219
   765.7500     29.2202     32.9702    126.5351
   766.0000     29.0572     32.6811    120.5327
   766.2500     29.9378     32.8052    116.3591
   766.5000     29.3624     35.3728    117.7283
   766.7500     29.5444     33.0163    118.8122
   767.0000     30.9161     33.0910    122.4763
   767.2500     31.0837     34.8955    125.1888
   767.5000     31.4182     35.4814    109.6880
   767.7500     32.0808     34.0548     96.1718
   768.0000     31.7741     34.9576     99.7792
   768.2500     31.4950     34.1410     98.8061
   768.5000     32.7798     34.6402     98.0878
   768.7500     32.3496     35.6433     94.1800
   769.0000     32.7538     36.2228     89.7764
   769.2500     31.4434     36.4329     94.3654
   769.5000     31.8488     34.9984     94.4048
   769.7500     34.0823     35.1412     88.6945
   770.0000     34.0502     35.2474     77.4306
   770.2500     33.4064     36.5653     75.1702
   770.5000     35.4243     36.6402     72.9695
   770.7500     36.6537     36.1157     72.8672
   771.0000     37.4989     35.8981     71.9229
   771.2500     36.9517     36.6802     71.9985
   771.5000     36.3484     38.7504     72.8103
   771.7500     39.6918     38.7398     71.2048
   772.0000     38.2826     38.9464     72.1346
   772.2500     36.6092     39.4439     71.1736
   772.5000     41.4893     42.9436     68.7407
   772.7500     38.6691     43.2496     69.4497
   773.0000     40.8707     46.6035     68.9883
   773.2500     43.3392     50.5032     68.4330
   773.5000     44.5175     48.3824     74.6493
   773.7500     45.8769     49.3069     70.8109
   774.0000     45.2067     54.3277     66.8331
   774.2500     41.3906     50.1655     68.2876
   774.5000     39.5322     50.7338     72.2208
   774.7500     41.6757     49.6441     71.8962
   775.0000     38.2612     50.8990     79.0944
   775.2500     36.0499     47.9023     87.0426
   775.5000     36.1412     44.7089     94.5112
   775.7500     32.4849     44.9055    103.3423
   776.0000     33.7299     45.0733    116.2058
   776.2500     33.2414     37.3812    121.0989
   776.5000     32.3419     37.4761    124.9967
   776.7500     30.3557     36.0348    123.9468
   777.0000     26.8868     31.0085    124.5107
   777.2500     25.8998     27.7145    129.8565
   777.5000     25.3485     26.4973    131.4283
   777.7500     24.1965     25.6127    126.8030
   778.0000     22.6401     23.8217    132.0905
   778.2500     23.8112     23.1770    138.4070
   778.5000     23.6187     20.6352    145.0717
   778.7500     22.5078     19.8127    148.6523
   779.0000     21.3154     20.1187    144.2805
   779.2500     22.3953     19.5740    144.3075
   779.5000     21.6060     20.1560    126.9768
   779.7500     22.0302     20.1167    125.8840
   780.0000     21.6147     20.4643    122.6803
   780.2500     21.7346     20.0694    128.2187
   780.5000     20.6785     20.3362    125.2221
   780.7500     20.9163     21.2959    131.8502
   781.0000     20.3393     21.5343    130.3159
   781.2500     21.3486     21.7273    124.4707
   781.5000     22.6097     21.9887    123.6101
   781.7500     22.6997     23.2638    129.7354
   782.0000     22.0910     22.5809    124.2199
   782.2500     23.2937     22.9368    125.2308
   782.5000     22.6025     24.6210    129.7150
   782.7500     21.3758     25.8828    125.9904
   783.0000     20.5695     24.8595    137.7633
   783.2500     20.1637     26.0841    141.2575
   783.5000     19.2855     25.6843    138.5437
   783.7500     19.3354     23.9091    134.6966
   784.0000     17.3073     21.6405    136.3031
   784.2500     17.0104     20.7656    139.8348
   784.5000     16.7359     18.8434    142.7606
   784.7500     15.3925     17.6098    152.0104
   785.0000     15.1033     15.8393    147.2068
   785.2500     14.5149     14.5599    141.7706
   785.5000     13.9852     13.6872    150.9897
   785.7500     13.9978     13.0866    150.3692
   786.0000     13.3268     12.2069    151.3750
   786.2500     12.7035     11.9718    151.1854
   786.5000     12.5034     11.8910    157.0259
   786.7500     12.8634     11.3814    154.0614
   787.0000     13.1990     11.1327    148.2860
   787.2500     13.5678     11.3198    140.1231
   787.5000     14.1916     11.3499    134.8209
   787.7500     14.9219     12.2288    136.5637
   788.0000     15.2787     12.9505    133.6233
   788.2500     15.8070     14.7030    113.9890
   788.5000     17.3242     16.5918     90.3173
   788.7500     18.7143     18.2943     77.7908
   789.0000     19.3683     21.3240     63.0821
   789.2500     20.9482     23.6159     56.4565
   789.5000     21.9171     25.1848     41.6470
   789.7500     23.5004     29.8662     40.7041
   790.0000     25.8456     35.5651     47.3538
   790.2500     28.7009     41.2697     43.5696
   790.5000     33.9535     44.1080     42.1629
   790.7500     34.4480     49.8759     42.3781
   791.0000     35.2882     54.4429     41.4134
   791.2500     35.5303     58.5345     49.8189
   791.5000     35.3364     59.0321     50.5083
   791.7500     32.3508     61.6884     52.2036
   792.0000     28.9657     56.0529     66.0634
   792.2500     27.3802     44.0871     80.4280
   792.5000     24.8644     35.9845    105.1691
   792.7500     23.1267     31.0818    116.2763
   793.0000     21.4590     25.6140    126.2139
   793.2500     20.6722     22.2268    132.0561
   793.5000     20.8425     19.0575    134.5981
   793.7500     19.7082     17.3072    128.5883
   794.0000     19.4561     16.6838    126.8117
   794.2500     18.3288     15.9901    119.2199
   794.5000     17.2238     16.5879    108.7307
   794.7500     16.2145     16.7793    100.9955
   795.0000     15.5755     16.8754    103.2125
   795.2500     14.8746     16.0405    121.8923
   795.5000     13.9774     15.6914    130.5474
   795.7500     13.5283     14.8081    142.6263
   796.0000     13.4430     13.7497    150.7083
   796.2500     13.7496     13.2472    153.2393
   796.5000     14.0102     13.2970    161.3773
   796.7500     13.9168     13.3477    159.5478
   797.0000     14.0532     13.5658    150.0108
   797.2500     13.7583     13.4506    147.3874
   797.5000     13.4429     13.5923    146.8651
   797.7500     13.3419     13.1610    151.6119
   798.0000     12.7092     13.1075    147.9859
   798.2500     12.6130     12.5559    148.3077
   798.5000     12.4253     12.3130    152.8577
