~Version Information
VERS.                      2.0: CWLS Log ASCII Standard - VERSION 2.0
WRAP.                       NO: One line per depth step
~Well Information Block
STRT.FT                -7.7500: 
STOP.FT              2394.2500: 
STEP.FT                 0.2500: 
NULL.                -999.2500: 
COMP.      PIONEER NATURAL RESOURCES  : COMPANY
WELL.         NOMAD 32-10  : WELL
FLD.                          : FIELD
LOC.      SWNE 10 32S 66W 6PM : LOCATION
PROV.                         : PROVINCE
CNTY.                         : COUNTRY
SRVC.                         : SERVICE COMPANY
DATE.          Thu Aug 26 13:45:47 2004: LOG DATE
UWI.      005 071 08127  : UNIQUE WELL ID
~Curve Information Block
DEPT.FT            0 000 00 00: Depth
CCL.                          : Casing Collar Locator
TT3.usec                      : CBL 3' Travel Time
AMP3.mV                       : CBL 3' Amplitude
GR.GAPI                       : Gamma Ray
~Parameter Information Block
~A  Depth       CCL         TT3         AMP3         GR     
# ...
   930.2500      0.0000    265.1942     62.2013    120.7645
   930.5000      0.0000    265.1925     62.3410    116.0178
   930.7500      0.0000    265.2010     62.3122    110.2545
   931.0000      0.0000    265.2193     62.1429    105.8289
   931.2500      0.0000    265.2376     61.8740    105.0733
   931.5000      0.0000    265.2436     61.5594    108.2290
   931.7500      0.0000    265.2335     61.2752    113.2604
   932.0000      0.0000    265.2160     61.1175    117.4557
   932.2500      0.0000    265.2025     61.1695    119.3724
   932.5000      0.0000    265.1941     61.4427    119.4797
   932.7500      0.0000    265.1808     61.8461    118.9119
   933.0000      0.0000    265.1546     62.2363    117.9779
   933.2500      0.0000    265.1212     62.5147    116.4708
   933.5000      0.0000    265.0991     62.6655    114.9262
   933.7500      0.0000    265.1041     62.7189    114.5895
   934.0000      0.0000    265.1371     62.7170    116.0092
   934.2500      0.0000    265.1830     62.7097    117.9952
   934.5000      0.0000    265.2223     62.7541    118.1726
   934.7500      0.0000    265.2418     62.9050    114.8041
   935.0000      0.0000    265.2411     63.1763    108.3402
   935.2500      0.0000    265.2360     63.4826    101.2188
   935.5000      0.0000    265.2487     63.6641     96.0713
   935.7500      0.0000    265.2847     63.6312     94.0960
   936.0000      0.0000    265.3191     63.4709     94.9960
   936.2500      0.0000    265.3157     63.3708     98.0634
   936.5000      0.0000    265.2605     63.4414    103.0095
   936.7500      0.0000    265.1735     63.6474    109.7515
   937.0000      0.0000    265.0884     63.8977    117.6488
   937.2500      0.0000    265.0257     64.1481    125.2787
   937.5000      0.0000    264.9837     64.3937    131.2135
   937.7500      0.0000    264.9524     64.6040    135.0710
   938.0000      0.0000    264.9311     64.7034    137.4746
   938.2500      0.0000    264.9326     64.6045    138.8540
   938.5000      0.0000    264.9695     64.2557    138.7516
   938.7500      0.0000    265.0378     63.6809    136.6983
   939.0000      0.0000    265.1141     62.9842    133.4386
   939.2500      0.0000    265.1707     62.3096    130.7768
   939.5000      0.0000    265.1914     61.7795    130.2637
   939.7500      0.0000    265.1783     61.4502    132.2799
   940.0000      0.0000    265.1468     61.2997    136.3458
   940.2500      0.0000    265.1150     61.2576    141.9595
   940.5000      0.0000    265.0953     61.2508    148.6122
   940.7500      0.0000    265.1052     61.1910    154.9136
   941.0000      0.0000    265.1996     60.8871    158.4898
   941.2500      0.0000    265.5022     59.9683    157.5965
   941.5000      0.0000    266.1823     57.9997    152.8588
   941.7500      0.0000    267.3502     54.8429    147.2094
   942.0000      0.0000    268.9313     50.9502    144.2299
   942.2500      0.0000    270.6445     47.1622    146.1776
   942.5000      0.0000    272.1280     44.1429    152.5217
   942.7500      0.0000    273.1223     42.0765    159.8484
   943.0000      0.0000    273.5839     40.8211    163.8585
   943.2500      0.0000    273.6680     40.1324    162.3169
   943.5000      1.8549    273.6353     39.7430    156.3847
   943.7500     -2.0000    273.7972     39.4155    149.1989
   944.0000     -2.0000    274.5399     39.0205    143.3323
   944.2500      0.0000    276.2070     38.6832    139.3496
   944.5000      0.0000    278.6281     38.9595    136.0554
   944.7500      0.0000    280.6818     40.6592    131.7867
   945.0000      0.0000    280.7815     44.1061    125.9597
   945.2500      0.0000    278.2542     48.5853    119.8542
   945.5000      0.0000    274.0867     52.8767    115.8507
   945.7500      0.0000    270.0443     56.2769    115.8366
   946.0000      0.0000    267.2580     58.8201    120.2055
   946.2500      0.0000    265.7969     60.7305    127.8479
   946.5000      0.0000    265.1925     62.0867    136.6891
   946.7500      0.0000    264.9985     62.9335    144.6439
   947.0000      0.0000    264.9608     63.3913    150.8308
   947.2500      0.0000    264.9630     63.5898    155.9054
   947.5000      0.0000    264.9617     63.6016    160.7485
   947.7500      0.0000    264.9510     63.4666    164.9876
   948.0000      0.0000    264.9409     63.2325    167.2593
   948.2500      0.0000    264.9309     62.9631    166.5816
   948.5000      0.0000    264.9035     62.7217    162.9682
   948.7500      0.0000    264.8439     62.5645    157.2190
   949.0000      0.0000    264.7608     62.5358    150.7940
   949.2500      0.0000    264.6851     62.6428    145.5649
   949.5000      0.0000    264.6461     62.8214    143.0292
   949.7500      0.0000    264.6508     62.9494    143.6224
   950.0000      0.0000    264.6842     62.9298    146.8085
   950.2500      0.0000    264.7248     62.7769    151.5257
   950.5000      0.0000    264.7591     62.6040    156.2622
   950.7500      0.0000    264.7857     62.5229    159.1723
   951.0000      0.0000    264.8109     62.5620    158.8797
   951.2500      0.0000    264.8402     62.6704    155.2064
   951.5000      0.0000    264.8731     62.7682    148.8661
   951.7500      0.0000    264.9070     62.7878    140.8904
   952.0000      0.0000    264.9420     62.6937    132.8625
   952.2500      0.0000    264.9774     62.4860    127.0745
   952.5000      0.0000    265.0061     62.1915    125.3232
   952.7500      0.0000    265.0168     61.8581    127.3964
   953.0000      0.0000    265.0039     61.5548    131.4173
   953.2500      0.0000    264.9735     61.3490    135.8407
   953.5000      0.0000    264.9406     61.2634    140.5888
   953.7500      0.0000    264.9212     61.2533    146.0935
   954.0000      0.0000    264.9248     61.2335    151.8760
   954.2500      0.0000    264.9502     61.1311    156.5384
   954.5000      0.0000    264.9847     60.9027    159.0165
   954.7500      0.0000    265.0113     60.4998    159.4488
   955.0000      0.0000    265.0221     59.8706    158.3895
   955.2500      0.0000    265.0252     59.0621    155.3748
   955.5000      0.0000    265.0348     58.2929    149.3076
   955.7500      0.0000    265.0568     57.8254    140.5007
   956.0000      0.0000    265.0846     57.7313    131.3696
   956.2500      0.0000    265.1056     57.8171    124.6990
   956.5000      0.0000    265.1136     57.7844    121.6212
   956.7500      0.0000    265.1164     57.4487    121.3898
   957.0000      0.0000    265.1307     56.8158    122.7074
   957.2500      0.0000    265.1669     55.9807    124.6572
   957.5000      0.0000    265.2221     54.9906    126.1571
   957.7500      0.0000    265.2835     53.8671    125.2230
   958.0000      0.0000    265.3297     52.7752    119.8647
   958.2500      0.0000    265.3349     52.0790    110.0330
   958.5000      0.0000    265.2882     52.1173     98.2232
   958.7500      0.0000    265.2105     52.9030     87.7979
   959.0000      0.0000    265.1453     54.0847     80.6946
   959.2500      0.0000    265.1268     55.2147     76.6365
   959.5000      0.0000    265.1579     56.0308     74.1443
   959.7500      0.0000    265.2148     56.4978     71.9421
   960.0000      0.0000    265.2662     56.6756     69.6496
   960.2500      0.0000    265.2905     56.6206     67.8202
   960.5000      0.0000    265.2845     56.3945     67.8667
   960.7500      0.0000    265.2636     56.1029     71.7565
   961.0000      0.0000    265.2492     55.8751     80.7948
   961.2500      0.0000    265.2490     55.7821     94.1214
   961.5000      0.0000    265.2534     55.7800    108.7483
   961.7500      0.0000    265.2509     55.7562    121.2886
   962.0000      0.0000    265.2410     55.6444    129.4685
   962.2500      0.0000    265.2277     55.4899    132.3266
   962.5000      0.0000    265.2089     55.4141    129.9531
   962.7500      0.0000    265.1797     55.5545    123.6831
   963.0000      0.0000    265.1422     56.0220    116.0675
   963.2500      0.0000    265.1081     56.8191    109.6618
   963.5000      0.0000    265.0936     57.7503    105.3618
