~Version Information
VERS.                      2.0: CWLS Log ASCII Standard - VERSION 2.0
WRAP.                       NO: One line per depth step
~Well Information Block
STRT.FT                15.0000: 
STOP.FT              1869.0000: 
STEP.FT                 0.2500: 
NULL.                -999.2500: 
COMP.          Pioneer Natural Resources: COMPANY
WELL.          Victory 12-14 Tr: WELL
FLD.           Purgatoire River: FIELD
LOC.           2522' FNL & 276' FWL: LOCATION
PROV.                 Colorado: PROVINCE
CNTY.               Las Animas: COUNTRY
SRVC.                Patterson: SERVICE COMPANY
DATE.          Fri Jul 22 14:39:41 2005: LOG DATE
UWI.           05 071 08433 00: UNIQUE WELL ID
~Curve Information Block
DEPT.FT            0 000 00 00: Depth
GR.GAPI                       : Gamma Ray
CCL.                          : Casing Collar Locator
TT3.usec                      : CBL 3' Travel Time
AMP3.mV                       : CBL 3' Amplitude
~Parameter Information Block
~A  Depth        GR         CCL         TT3         AMP3    
# ...
  1221.0000    108.8015      0.0000    685.8387     11.2189
  1221.2500     98.2398      0.0000    685.3759     11.1981
  1221.5000     89.0654      0.0000    684.8554     11.1871
  1221.7500     81.9525      0.0000    684.3057     11.1850
  1222.0000     76.9280      0.0000    683.8241     11.1876
  1222.2500     73.6722      0.0000    683.5169     11.1813
  1222.5000     71.7573      0.0000    683.4284     11.1602
  1222.7500     70.8898      0.0000    683.5054     11.1467
  1223.0000     70.9330      0.0000    683.6371     11.1787
  1223.2500     71.7719      0.0000    683.7427     11.2701
  1223.5000     73.3371      0.0000    683.8254     11.3911
  1223.7500     75.5586      0.0000    683.9478     11.4876
  1224.0000     77.9251      0.0000    684.1755     11.5190
  1224.2500     79.3344      0.0000    684.5554     11.4814
  1224.5000     79.0415      0.0000    685.1501     11.4051
  1224.7500     77.7876      0.0000    686.1211     11.3343
  1225.0000     77.3824      0.0000    687.8525     11.3057
  1225.2500     78.8820      0.0000    690.9973     11.3344
  1225.5000     81.3840      0.0000    696.1793     11.4108
  1225.7500     82.7229      0.0000    703.3319     11.5094
  1226.0000     81.3281      0.0000    711.2889     11.6034
  1226.2500     77.5458      0.0000    718.3167     11.6757
  1226.5000     73.2818      0.0000    723.2285     11.7240
  1226.7500     70.4736      0.0000    725.9470     11.7625
  1227.0000     69.9894      0.0000    727.1243     11.8185
  1227.2500     71.6146      0.0000    727.4191     11.9224
  1227.5000     74.4263      0.0000    727.0021     12.0922
  1227.7500     77.1662      0.0000    725.3336     12.3216
  1228.0000     78.9001      0.0000    721.4747     12.5788
  1228.2500     79.6754      0.0000    715.3007     12.8211
  1228.5000     80.3574      0.0000    708.7768     13.0185
  1228.7500     81.9004      0.0000    705.2398     13.1723
  1229.0000     85.1388      0.0000    706.4760     13.3107
  1229.2500     90.9154      0.0000    710.5967     13.4662
  1229.5000     99.4692      0.0000    712.8602     13.6530
  1229.7500    109.4986      0.0000    707.5986     13.8649
  1230.0000    118.4701      0.0000    689.3958     14.0860
  1230.2500    124.2083      0.0000    655.1738     14.2985
  1230.5000    126.1658      0.0000    607.6917     14.4855
  1230.7500    125.3350      0.0000    555.9146     14.6319
  1231.0000    123.3284      0.0000    509.2017     14.7264
  1231.2500    121.5501      0.0000    471.1468     14.7650
  1231.5000    120.8133      0.0000    440.3890     14.7537
  1231.7500    121.3104      0.0000    415.8560     14.7086
  1232.0000    122.8156      0.0000    399.4489     14.6480
  1232.2500    124.9954      0.0000    395.4579     14.5775
  1232.5000    127.6040      0.0000    408.7094     14.4794
  1232.7500    130.4118      0.0000    439.7885     14.3223
  1233.0000    132.9508      0.0000    478.6249     14.0907
  1233.2500    134.4623      0.0000    505.5157     13.8080
  1233.5000    134.1279      0.0000    504.3540     13.5219
  1233.7500    131.1463      0.0000    476.5074     13.2645
  1234.0000    124.8178      0.0000    439.9035     13.0274
  1234.2500    115.3426      0.0000    415.0634     12.7738
  1234.5000    104.6599      0.0000    413.6837     12.4668
  1234.7500     95.6260      0.0000    438.0736     12.0911
  1235.0000     89.9501      0.0000    485.4766     11.6603
  1235.2500     87.3435      0.0000    549.0399     11.2137
  1235.5000     86.7222      0.0000    616.2615     10.8013
  1235.7500     87.4425      0.0000    671.7845     10.4639
  1236.0000     88.9853      0.0000    705.2997     10.2190
  1236.2500     90.1195      0.0000    716.8375     10.0608
  1236.5000     89.2425      0.0000    714.4225      9.9667
  1236.7500     85.6195      0.0000    707.7287      9.9037
  1237.0000     79.9605      0.0000    703.3237      9.8340
  1237.2500     73.8857      0.0000    703.1935      9.7295
  1237.5000     69.0458      0.0000    705.9288      9.5894
  1237.7500     66.4652      0.0000    709.3417      9.4439
  1238.0000     66.1677      0.0000    712.3818      9.3307
  1238.2500     67.2347      0.0000    714.8877      9.2639
  1238.5000     68.4495      0.0000    716.5083      9.2258
  1238.7500     69.1310      0.0000    716.8266      9.1908
  1239.0000     69.4239      0.0000    716.3463      9.1542
  1239.2500     69.8455      0.0000    716.4607      9.1362
  1239.5000     70.6637      0.0000    718.1449      9.1579
  1239.7500     71.7065      0.0000    721.0581      9.2236
  1240.0000     72.7821      0.0000    724.1195      9.3310
  1240.2500     74.3575      0.0000    726.5925      9.4923
  1240.5000     77.7024      0.0000    728.3901      9.7306
  1240.7500     83.8888      0.0000    729.6745     10.0482
  1241.0000     92.4377      0.0000    730.5433     10.4028
  1241.2500    101.3867      0.0000    731.0652     10.7262
  1241.5000    109.0565      0.0000    731.3505     10.9674
  1241.7500    115.4242      0.0000    731.4826     11.1208
  1242.0000    121.4424      0.0000    731.4874     11.2179
  1242.2500    127.5062      0.0000    731.4228     11.2997
  1242.5000    133.1120      0.0000    731.4266     11.3921
  1242.7500    137.6356      0.0000    731.6088     11.4972
  1243.0000    140.8531      0.0000    731.9412     11.6009
  1243.2500    142.8981      0.0000    732.2814     11.6933
  1243.5000    144.1272      0.0000    732.4954     11.7825
  1243.7500    144.8043      0.0000    732.5854     11.8898
  1244.0000    144.5933      0.0000    732.8102     12.0293
  1244.2500    142.5160      0.0000    733.7018     12.1907
  1244.5000    137.6187      0.0000    735.8215     12.3423
  1244.7500    129.7663      0.0000    739.3658     12.4571
  1245.0000    120.1338      0.0000    744.0540     12.5378
  1245.2500    111.0802      0.0000    749.3686     12.6154
  1245.5000    104.9443      0.0000    754.7036     12.7214
  1245.7500    102.4055      0.0000    759.3495     12.8637
  1246.0000    102.1556      0.0000    762.7253     13.0259
  1246.2500    102.2935      0.0000    764.7504     13.1804
  1246.5000    101.8716      0.0000    765.8304     13.2981
  1246.7500    101.2643      0.0000    766.4661     13.3580
  1247.0000    101.5295      0.0000    766.9082     13.3556
  1247.2500    103.5817      0.0000    767.0026     13.3035
  1247.5000    107.6042      0.0000    766.0682     13.2230
  1247.7500    112.8403      0.0000    762.7872     13.1347
  1248.0000    118.0141      0.0000    755.5162     13.0526
  1248.2500    122.2239      0.0000    743.3784     12.9836
  1248.5000    125.3632      0.0000    727.5718     12.9318
  1248.7500    127.4957      0.0000    711.4481     12.9017
  1249.0000    128.1122      0.0000    698.8791     12.8934
  1249.2500    126.5106      0.0000    692.4357     12.8985
  1249.5000    122.9817      0.0000    692.8649     12.9036
  1249.7500    119.1973      0.0000    699.1569     12.8973
  1250.0000    117.0393      0.0000    708.1025     12.8719
  1250.2500    117.0752      0.0000    714.6823     12.8177
  1250.5000    118.3416      0.0000    715.1213     12.7050
  1250.7500    119.5022      0.0000    710.6093     12.4556
  1251.0000    120.0690      0.0000    707.1744     11.9585
  1251.2500    120.6057      0.0000    710.8559     11.1775
  1251.5000    121.7636      0.0000    722.3597     10.2564
  1251.7500    122.9827      0.0000    735.9432      9.4490
  1252.0000    122.3564      0.0000    743.8182      8.9173
  1252.2500    118.2819      0.0000    742.5923      8.6316
  1252.5000    111.3881      0.0000    735.6624      8.4673
  1252.7500    104.4486      0.0000    729.2581      8.3420
  1253.0000    100.1754      0.0000    726.7031      8.2682
  1253.2500     99.1793      0.0000    726.6396      8.3275
  1253.5000     99.9342      0.0000    725.7516      8.5898
  1253.7500    100.4096      0.0000    722.5249      9.0131
  1254.0000     99.6807      0.0000    718.7193      9.4417
  1254.2500     98.1932      0.0000    717.3715      9.7546
