~Version Information
VERS.                      2.0: CWLS Log ASCII Standard - VERSION 2.0
WRAP.                       NO: One line per depth step
~Well Information Block
STRT.FT               710.0000: 
STOP.FT              2922.5000: 
STEP.FT                 0.2500: 
NULL.                -999.2500: 
COMP.          Petrogulf Corporation: COMPANY
WELL.            Montoya 1-41V: WELL
FLD.           Purgatorie River: FIELD
LOC.           610' FNL & 1205' FEL: LOCATION
PROV.                 Colorado: PROVINCE
CNTY.               Las Animas: COUNTRY
SRVC.                Patterson: SERVICE COMPANY
DATE.          Mon Aug 22 08:00:56 2005: LOG DATE
UWI.                          : UNIQUE WELL ID
~Curve Information Block
DEPT.FT            0 000 00 00: Depth
SP.mV                         : DIL Spontaneous Potential
RILD.Ohm-m                    : DIL Deep Resistivity
RILM.Ohm-m                    : DIL Medium Resistivity
RLL3.Ohm-m                    : DIL Shallow Resistivity
GR.GAPI                       : Gamma Ray
~Parameter Information Block
~A  Depth        SP         RILD        RILM        RLL3         GR     
# ...
  2754.0000     70.0301      9.1414      9.8718     13.8394    104.9125
  2754.2500     63.7400      9.2103      9.9055     11.3661    112.9333
  2754.5000     58.0043      9.4938      9.9784      9.5541    110.3855
  2754.7500     53.5812      9.6152     10.0714      8.3260    100.9919
  2755.0000     49.7145      9.9844     10.2978      8.4231     91.1395
  2755.2500     46.5781      9.9787     10.7669     10.5532     90.9437
  2755.5000     43.6450     10.0835     11.3442     16.4080     82.9330
  2755.7500     41.1345     10.0374     11.9749     24.9414     91.4570
  2756.0000     38.8829     10.1499     12.5335     28.6460    107.2583
  2756.2500     37.0520     10.1510     12.6033     29.4421    115.8353
  2756.5000     35.3909     10.2241     12.3196     28.2046    106.4917
  2756.7500     33.7790     10.5720     12.1793     22.3015    110.5251
  2757.0000     32.2481     10.7574     12.0377     17.5014    115.6836
  2757.2500     30.5429     11.1563     12.1161     15.8347    126.3332
  2757.5000     28.9286     11.4645     12.3396     15.5293    116.7278
  2757.7500     27.5466     11.7052     12.5261     15.3914    119.0083
  2758.0000     26.6596     11.7948     12.7513     15.2352    119.4514
  2758.2500     26.3574     11.7144     13.0345     14.9569    109.5673
  2758.5000     26.8446     11.3172     13.1488     15.1137    115.4591
  2758.7500     28.2194     11.0361     12.9581     16.0155    126.4544
  2759.0000     31.0001     10.8101     12.9260     17.9353     88.8974
  2759.2500     34.6214     10.5071     12.4248     19.0950     72.9241
  2759.5000     38.1152     10.1078     12.2233     17.2556     94.0863
  2759.7500     39.7077      9.7963     11.6404     15.9048     81.6858
  2760.0000     39.9098      9.8312     11.0484     16.0776     83.0124
  2760.2500     39.4612      9.9327     10.7393     15.8340     85.7749
  2760.5000     38.8729      9.9981     10.2712     14.5505    105.4203
  2760.7500     37.9521     10.0157      9.9574     13.2012     84.0967
  2761.0000     36.9110     10.3056      9.9713     12.4376     80.2240
  2761.2500     35.9384     10.3376     10.0042     12.4143    101.5875
  2761.5000     35.0646     10.3707     10.2719     12.0537    102.1421
  2761.7500     34.2486     10.4468     10.8149     11.5363     86.4768
  2762.0000     34.3479     10.3010     11.3928     11.7294     86.0116
  2762.2500     36.6780     10.0683     12.3375     16.6630     74.4690
  2762.5000     42.5815      9.7968     12.9939     33.1238     55.2103
  2762.7500     53.2340      9.4620     13.2197     54.8038     63.9765
  2763.0000     64.2665      9.4579     12.9653     61.2393     67.7100
  2763.2500     75.4915      9.3937     12.3893     52.0107     70.3750
  2763.5000     84.6256      9.2463     11.7150     29.3124     78.3784
  2763.7500     92.9597      9.1970     10.9229     15.5364     84.1898
  2764.0000     98.8875      9.4519     10.4320     11.3933     92.9245
  2764.2500    103.1875      9.5872     10.1423     11.7070     91.4495
  2764.5000    106.0953      9.5927      9.9976     11.9827     88.8765
  2764.7500    108.1576      9.5181      9.7631     11.5793     96.9773
  2765.0000    109.3840      9.6689      9.6283     11.3600     87.2557
  2765.2500    110.0201      9.7620      9.4456     11.1199     79.7501
  2765.5000    110.3533      9.6071      9.3125     10.7720     80.4699
  2765.7500    110.2900      9.5331      9.2511     10.9745     77.3948
  2766.0000    109.9688      9.5234      9.6440     11.6825     84.7866
  2766.2500    109.4011      9.6212     10.1596     12.8677     78.8659
  2766.5000    108.7150      9.6747     10.8495     14.4323     57.6517
  2766.7500    107.9302     10.0836     11.2128     16.1622     55.4090
  2767.0000    107.1652     10.3297     11.7760     17.8380     58.6704
  2767.2500    106.2190     10.6961     12.3069     17.9120     64.2208
  2767.5000    105.1871     11.2235     12.7999     17.2026     58.2323
  2767.7500    104.0201     11.6447     13.1518     17.1903     44.2984
  2768.0000    102.5987     12.4987     13.8758     18.6056     55.8536
  2768.2500    101.1090     12.9434     14.8324     21.1569     46.3312
  2768.5000     99.3622     13.4937     15.8673     22.1254     35.2720
  2768.7500     97.0666     13.7887     16.4634     21.3632     34.8968
  2769.0000     94.2398     14.5214     17.1044     20.7442     32.3689
  2769.2500     90.6124     14.9293     17.8410     20.4520     34.2330
  2769.5000     85.9062     15.3672     18.8286     20.0219     42.5307
  2769.7500     80.9904     15.1580     19.0715     19.7817     45.0954
  2770.0000     75.7716     15.2017     19.5826     19.6158     51.2239
  2770.2500     69.9116     15.2309     19.8836     19.2809     50.9664
  2770.5000     64.6469     15.2127     19.3798     18.9774     49.5979
  2770.7500     59.8032     14.8054     19.3842     19.4288     57.3237
  2771.0000     55.0398     14.5125     18.8507     20.4691     52.6009
  2771.2500     51.2263     14.6863     17.8239     19.6299     59.9662
  2771.5000     48.1723     14.4767     17.3573     16.5421     61.0154
  2771.7500     45.7280     14.2837     16.4761     13.5059     53.2078
  2772.0000     43.7769     14.5314     16.1563     13.0116     56.6308
  2772.2500     41.7602     14.4450     16.0875     13.7168     48.2537
  2772.5000     40.0061     14.2328     16.4778     13.2926     59.1288
  2772.7500     38.4151     14.0595     16.5728     12.6686     69.6835
  2773.0000     36.9133     13.9182     16.3891     12.9673     52.6018
  2773.2500     35.3572     13.6168     16.1184     14.4467     56.6853
  2773.5000     34.0220     13.3847     16.4820     16.2951     46.6133
  2773.7500     32.8334     13.4186     15.9839     18.1552     42.8278
  2774.0000     31.8064     13.1205     14.9852     18.6404     58.4532
  2774.2500     30.7670     13.2771     14.4411     17.0476     65.3843
  2774.5000     29.7621     13.4021     14.0737     14.5206     60.8695
  2774.7500     28.7784     13.4954     13.8170     13.1427     69.2282
  2775.0000     27.8130     13.2895     13.6478     13.2677     59.5798
  2775.2500     26.6379     13.4876     13.7543     13.5112     55.7891
  2775.5000     25.5620     13.8775     14.0995     13.3859     65.8984
  2775.7500     24.6879     13.8802     14.3817     14.1729     67.1458
  2776.0000     23.8770     14.2837     14.9733     15.7885     54.9444
  2776.2500     23.0791     13.7891     15.3514     16.8185     39.9213
  2776.5000     22.3283     14.1487     15.6743     17.5773     43.1132
  2776.7500     21.4630     14.4154     15.9383     18.8914     48.6775
  2777.0000     20.2265     14.2883     15.9233     21.0637     47.1141
  2777.2500     18.7477     14.5934     16.3171     21.6557     45.6653
  2777.5000     17.1166     14.9132     16.3231     20.9131     38.0113
  2777.7500     15.3586     14.9239     16.5243     20.0058     46.0561
  2778.0000     13.9894     15.0891     16.1674     19.4266     55.6195
  2778.2500     12.9841     16.1214     16.5455     18.3739     52.9789
  2778.5000     12.3821     15.8415     17.1320     17.9340     36.5881
  2778.7500     12.1989     16.1211     17.6990     19.3157     36.8229
  2779.0000     12.6681     16.5076     18.8526     20.6686     45.1456
  2779.2500     13.5995     17.0138     19.2291     20.7943     44.3616
  2779.5000     14.9324     16.8532     19.7348     20.7758     45.8556
  2779.7500     16.2423     16.4842     19.6360     20.6431     41.1789
  2780.0000     17.4762     16.5623     20.6311     20.4059     39.6313
  2780.2500     18.5053     16.8712     19.8899     20.2590     41.3105
  2780.5000     19.5871     17.2115     19.9090     20.0884     49.7163
  2780.7500     20.6513     17.2486     19.7804     19.6253     42.3941
  2781.0000     21.7891     17.4454     20.4261     19.0769     52.2178
  2781.2500     22.9951     17.6145     20.4055     18.9885     48.9244
  2781.5000     24.0216     17.6604     20.8225     19.3835     44.6341
  2781.7500     25.1042     17.5527     21.2923     19.8765     53.9028
