~Version Information
VERS.                      2.0: CWLS Log ASCII Standard - VERSION 2.0
WRAP.                       NO: One line per depth step
~Well Information Block
STRT.FT                -7.5000: 
STOP.FT               872.5000: 
STEP.FT                 0.5000: 
NULL.                -999.2500: 
COMP.          Pioneer Natural Resources: COMPANY
WELL.          New Mexico 21-5: WELL
FLD.           Purgatorie River: FIELD
LOC.           175' FNL & 1700' FWL: LOCATION
PROV.                 Colorado: PROVINCE
CNTY.               Las Animas: COUNTRY
SRVC.          Patterson Wireline: SERVICE COMPANY
DATE.          Fri Dec 17 09:32:01 2004: LOG DATE
UWI.           05-071-08234-00: UNIQUE WELL ID
~Curve Information Block
DEPT.FT            0 000 00 00: Depth
CCL.                          : Casing Collar Locator
TT3.usec                      : CBL 3' Travel Time
AMP3.mV                       : CBL 3' Amplitude
GR.GAPI                       : Gamma Ray
~Parameter Information Block
~A  Depth       CCL         TT3         AMP3         GR     
# ...
   260.5000      0.0000    812.2922      6.0115    100.7220
   261.0000      0.0000    835.1115      6.3571    108.7864
   261.5000      0.0000    833.7406      6.9258    116.6202
   262.0000      0.0000    827.5622      7.2566    122.5998
   262.5000      0.0000    835.2706      7.4175    131.7485
   263.0000      0.0000    842.0762      7.4942    139.3348
   263.5000      0.0000    843.9305      7.4375    143.4766
   264.0000      0.0000    844.2044      7.4029    149.1712
   264.5000      0.0000    844.1111      7.5258    150.9759
   265.0000      0.0000    844.0546      7.6687    147.9790
   265.5000      0.0000    844.0479      7.6863    141.9529
   266.0000      0.0000    843.8066      7.5161    138.3543
   266.5000      0.0000    843.2801      7.2414    141.7172
   267.0000      0.0000    842.5081      7.0695    143.8592
   267.5000      0.0000    840.2859      6.9846    143.5506
   268.0000      0.0000    831.1588      6.8711    146.2888
   268.5000      0.0000    815.9990      6.8420    144.8602
   269.0000      0.0000    810.8713      6.9747    136.7493
   269.5000      0.0000    815.5517      7.1769    135.0551
   270.0000      0.0000    820.7520      7.3918    140.3520
   270.5000      0.0000    823.6369      7.4941    141.7232
   271.0000      0.0000    832.3511      7.4689    140.7657
   271.5000      0.0000    837.2885      7.4536    136.8120
   272.0000      0.0000    832.3220      7.4712    125.3229
   272.5000      0.0000    828.6078      7.5931    111.3663
   273.0000      0.0000    825.9218      7.7911    101.3497
   273.5000      0.0000    813.6489      7.7618     97.2175
   274.0000      0.0000    797.3364      7.4729     98.8056
   274.5000      0.0000    787.8585      7.2293    102.8277
   275.0000      0.0000    783.7203      7.0205    108.3068
   275.5000      0.0000    781.3724      6.6926    113.1616
   276.0000      0.0000    780.4016      6.4571    119.3190
   276.5000      0.0000    780.7487      6.3843    124.7246
   277.0000      0.0000    780.8765      6.2283    135.3924
   277.5000      0.0000    780.1240      6.0240    138.7237
   278.0000      0.0000    779.6570      5.9967    121.7680
   278.5000      0.0000    779.8476      6.1314    106.1969
   279.0000      0.0000    780.1360      6.2215    106.5216
   279.5000      0.0000    781.2083      6.2685    108.6639
   280.0000      0.0000    781.9598      6.3375    107.4233
   280.5000      0.0000    781.1931      6.3316    109.2879
   281.0000      0.0000    781.4020      6.2567    107.7127
   281.5000      0.0000    786.9525      6.2179     97.4429
   282.0000      0.0000    800.9888      6.3246     92.3570
   282.5000      0.0000    812.0023      6.3905     97.6595
   283.0000      0.0000    809.4805      6.2623    105.4473
   283.5000      0.0000    808.3733      6.2084    112.1111
   284.0000      0.0000    810.6086      6.3471    109.8034
   284.5000      0.0000    813.4219      6.4906    100.6316
   285.0000      0.0000    822.3255      6.5962    102.5046
   285.5000      0.0000    831.8987      6.6818    119.0136
   286.0000      0.0000    834.2000      6.6568    126.8520
   286.5000      0.0000    832.7582      6.6466    116.7042
   287.0000      0.0000    833.1497      6.7320    108.8669
   287.5000      0.0000    827.1462      6.8043    125.0603
   288.0000      0.0000    819.6518      6.7973    148.1003
   288.5000      0.0000    820.2089      6.6507    151.4420
   289.0000      0.0000    816.4513      6.5789    146.4983
   289.5000      0.0000    808.7012      6.6835    151.7555
   290.0000      0.0000    805.3708      6.7408    157.7119
   290.5000      0.0000    805.0027      6.5827    154.8602
   291.0000      0.0000    805.1321      6.4932    150.4959
   291.5000      0.0000    804.6985      6.6727    148.9594
   292.0000      0.0000    804.2318      6.8701    143.5439
   292.5000      0.0000    804.4637      6.9893    140.6523
   293.0000      0.0000    801.1792      7.0619    143.1961
   293.5000      0.0000    781.2862      7.0255    144.3262
   294.0000      0.0000    751.4006      7.0974    152.0397
   294.5000      0.0000    756.1122      7.4051    157.4108
   295.0000      0.0000    794.0775      7.6551    154.0388
   295.5000      0.0000    824.7216      7.7568    151.0521
   296.0000      0.0000    828.6616      7.7890    146.8430
   296.5000      0.0000    803.8421      7.6919    141.8108
   297.0000      0.0000    781.7933      7.6010    143.1350
   297.5000      0.0000    767.8237      7.5701    141.2475
   298.0000      0.0000    741.3683      7.4280    134.8337
   298.5000      0.0000    740.5385      7.2584    127.8457
   299.0000      0.0000    778.3318      7.0557    125.0889
   299.5000      0.0000    816.3715      6.8358    127.6169
   300.0000      0.0000    832.6353      6.6512    127.2677
   300.5000      0.0000    817.1315      6.4633    120.4697
   301.0000      0.0000    769.6180      6.1264    109.5229
   301.5000      0.0000    740.1079      5.7965     98.4972
   302.0000      0.0000    749.1319      5.6690     92.9454
   302.5000      0.0000    769.3550      5.6549     92.6784
   303.0000      0.0000    788.6321      5.9147     96.2440
   303.5000      0.0000    808.4631      6.1756    105.9554
   304.0000      0.0000    807.2104      6.5313    123.3140
   304.5000      0.0000    742.9528      7.2938    147.7891
   305.0000      0.0000    704.4264      7.7199    168.6001
   305.5000      0.0000    733.3066      7.5406    173.0832
   306.0000      0.0000    758.5347      7.3527    163.1045
   306.5000      0.0000    760.1200      7.3825    148.4518
   307.0000      0.0000    747.5457      7.5782    134.5679
   307.5000      0.0000    738.3520      7.9045    121.7337
   308.0000      0.0000    732.1905      8.3086    113.6119
   308.5000      0.0000    729.0382      8.5249    114.7534
   309.0000      0.0000    731.7692      8.6702    120.4478
   309.5000      0.0000    736.0413      8.8427    125.9376
   310.0000      0.0000    740.3812      8.9594    132.6626
   310.5000      0.0000    742.6252      8.8770    140.6634
   311.0000      0.0000    742.1541      8.6670    143.0890
   311.5000      0.0000    745.0562      8.4497    134.6814
   312.0000      0.0000    748.1042      8.2400    126.2289
   312.5000      0.0000    748.6064      8.0302    118.6026
   313.0000      0.0000    749.9997      7.7941    104.1488
   313.5000      0.0000    758.9369      7.5439     89.7095
   314.0000      0.0000    779.4257      7.3305     80.9196
   314.5000      0.0000    800.5434      7.1638     79.7593
   315.0000      0.0000    806.0538      6.9706     85.4675
   315.5000      0.0000    801.8547      6.8471     92.1629
   316.0000      0.0000    812.2509      6.7967     99.7149
   316.5000      0.0000    834.5389      6.8721    115.5394
   317.0000      0.0000    837.9466      6.9260    137.1318
   317.5000      0.0000    812.3838      6.7942    152.8125
   318.0000      0.0000    773.1404      6.6316    163.8196
   318.5000      0.0000    749.4661      6.5088    174.5793
   319.0000      0.0000    753.7421      6.5205    172.8283
   319.5000      0.0000    774.0440      6.5417    164.9515
   320.0000      0.0000    805.5275      6.5296    163.6325
   320.5000      0.0000    831.8221      6.6074    152.5236
   321.0000      0.0000    840.5309      6.6519    128.7843
   321.5000      0.0000    839.1694      6.7379    109.9668
   322.0000      0.0000    831.7247      6.7697    102.1718
   322.5000      0.0000    828.0085      6.5467    111.0359
   323.0000      0.0000    831.0569      6.3552    129.5074
   323.5000      0.0000    824.6667      6.3489    136.2614
   324.0000      0.0000    804.2944      6.4711    127.8570
   324.5000      0.0000    773.4866      6.5946    114.2946
   325.0000      0.0000    753.9561      6.6233    110.0373
   325.5000      0.0000    771.3891      6.5884    120.2275
   326.0000      0.0000    796.8130      6.5636    134.2457
   326.5000      0.0000    800.3249      6.5902    141.8581
   327.0000      0.0000    786.1226      6.6518    141.2336
