~Version Information
VERS.                      2.0: CWLS Log ASCII Standard - VERSION 2.0
WRAP.                       NO: One line per depth step
~Well Information Block
STRT.FT               390.0000: 
STOP.FT              2768.7000: 
STEP.FT                 0.1000: 
NULL.                -999.2500: 
COMP.          Pioneer Natural Resources: COMPANY
WELL.              Lynch 43-30: WELL
FLD.           Purgatoire River: FIELD
LOC.           1438' FSL & 429' FEL: LOCATION
PROV.                 Colorado: PROVINCE
CNTY.               Las Animas: COUNTRY
SRVC.                Patterson: SERVICE COMPANY
DATE.          Wed Oct 27 08:22:00 2004: LOG DATE
UWI.           05 071 08170 00: UNIQUE WELL ID
~Curve Information Block
DEPT.FT            0 000 00 00: Depth
DCAL.in                       : CDL Caliper
DPOR.pu                       : CDL Density Porosity
NPOR.pu                       : Neutron Porosity
RHOB.g/cc                     : CDL Bulk Density
RHOC.g/cc                     : CDL Density Correction
GR.GAPI                       : Gamma Ray
~Parameter Information Block
~A  Depth       DCAL        DPOR        NPOR        RHOB        RHOC         GR     
   390.0000      1.9929     63.5420     43.7897      1.6016      0.4552     48.2255
   390.1000      1.9929     63.7372     44.0149      1.5983      0.4417     49.6795
   390.2000      1.9929     63.7169     43.8719      1.5987      0.4277     52.9583
   390.3000      1.9918     63.2304     43.4413      1.6067      0.4479     59.2055
   390.4000      1.9918     62.7464     42.9086      1.6147      0.4658     62.7458
   390.5000      1.9924     62.6274     42.4983      1.6166      0.4664     60.1367
   390.6000      1.9924     62.6761     42.3242      1.6158      0.4675     58.1765
   390.7000      1.9924     62.5594     42.2589      1.6178      0.4624     61.1691
   390.8000      1.9773     62.1434     42.3469      1.6246      0.4570     64.6105
   390.9000      1.9773     61.6908     42.4444      1.6321      0.4751     63.2475
   391.0000      1.9884     61.5413     42.2437      1.6346      0.4646     58.2246
   391.1000      1.9884     61.5368     42.0116      1.6346      0.4588     53.8786
   391.2000      1.9884     61.4676     42.2567      1.6358      0.4706     51.8641
   391.3000      1.9908     61.4370     42.6341      1.6363      0.4675     53.0027
   391.4000      1.9908     61.4365     42.6222      1.6363      0.4532     56.1320
   391.5000      1.9956     61.4341     42.4449      1.6363      0.4732     57.0728
   391.6000      1.9956     61.6349     42.3582      1.6330      0.4636     55.3206
   391.7000      1.9956     62.0869     42.2959      1.6256      0.4659     54.8395
   391.8000      2.0036     62.5035     42.2135      1.6187      0.4498     56.7435
   391.9000      2.0036     62.6225     42.1670      1.6167      0.4476     58.3864
   392.0000      2.0022     62.5740     42.2192      1.6175      0.4617     58.5960
   392.1000      2.0022     62.6649     42.3269      1.6160      0.4713     58.4325
   392.2000      2.0022     62.8790     42.4748      1.6125      0.4666     57.1674
   392.3000      1.9970     63.0065     42.6289      1.6104      0.4660     53.1584
   392.4000      1.9970     63.0512     42.7754      1.6097      0.4651     48.0726
   392.5000      1.9891     63.1575     42.9108      1.6079      0.4468     44.2260
   392.6000      1.9891     63.3660     42.9115      1.6045      0.4601     43.3652
   392.7000      1.9891     63.6456     42.5636      1.5998      0.4637     46.4324
   392.8000      1.9905     63.9492     42.0480      1.5948      0.4662     51.4115
   392.9000      1.9905     64.1831     41.7676      1.5910      0.4648     55.2238
   393.0000      1.9939     64.3280     41.8130      1.5886      0.4791     54.9478
   393.1000      1.9939     64.4411     42.0843      1.5867      0.4574     49.6910
   393.2000      1.9939     64.4678     42.2216      1.5863      0.4620     43.1992
   393.3000      1.9897     64.3547     41.9439      1.5881      0.4595     40.3439
   393.4000      1.9897     64.1875     41.5610      1.5909      0.4679     42.4542
   393.5000      1.9885     64.1004     41.5327      1.5923      0.4595     46.2294
   393.6000      1.9885     64.0552     41.7849      1.5931      0.4694     48.1227
   393.7000      1.9885     63.9632     42.0512      1.5946      0.4776     48.3097
   393.8000      1.9845     63.8346     42.2544      1.5967      0.4633     47.7618
   393.9000      1.9845     63.7269     42.3487      1.5985      0.4553     46.2847
   394.0000      1.9835     63.7642     42.3529      1.5979      0.4652     44.1185
   394.1000      1.9835     63.8596     42.3175      1.5963      0.4465     43.2663
   394.2000      1.9835     63.7072     42.2823      1.5988      0.4665     44.8727
   394.3000      1.9866     63.4027     42.3233      1.6039      0.4755     46.8845
   394.4000      1.9866     63.2981     42.2281      1.6056      0.4737     47.6684
   394.5000      1.9888     63.3825     41.7934      1.6042      0.4587     48.6164
   394.6000      1.9888     63.3286     41.2633      1.6051      0.4500     49.4881
   394.7000      1.9888     63.0398     41.0120      1.6098      0.4700     48.4345
   394.8000      1.9813     62.6894     41.0317      1.6156      0.4579     46.1468
   394.9000      1.9813     62.3851     41.0072      1.6206      0.4687     45.1130
   395.0000      1.9790     62.1610     41.0009      1.6243      0.4676     46.1266
   395.1000      1.9790     62.0266     41.3578      1.6266      0.4716     47.8964
   395.2000      1.9790     61.9352     42.0365      1.6281      0.4567     49.6936
   395.3000      1.9826     61.7429     42.6334      1.6312      0.4649     51.8215
   395.4000      1.9826     61.2800     42.8856      1.6389      0.4711     53.3756
   395.5000      1.9771     60.6026     42.8054      1.6501      0.4724     52.8338
   395.6000      1.9771     60.1155     42.4331      1.6581      0.4752     51.1548
   395.7000      1.9771     60.1336     41.7608      1.6578      0.4705     50.0352
   395.8000      1.9811     60.5126     41.1164      1.6515      0.4656     49.2980
   395.9000      1.9811     60.7865     40.8161      1.6470      0.4487     47.9612
   396.0000      1.9880     60.6599     40.7001      1.6491      0.4657     46.3876
   396.1000      1.9880     60.2935     40.6893      1.6552      0.4628     46.1206
   396.2000      1.9880     59.9415     40.6802      1.6610      0.4650     46.4180
   396.3000      1.9732     59.7416     40.3225      1.6643      0.4781     45.2653
   396.4000      1.9732     59.6261     39.9193      1.6662      0.4694     43.7767
   396.5000      1.9808     59.2962     40.1131      1.6716      0.4680     43.4209
   396.6000      1.9808     58.8127     40.6284      1.6796      0.4845     43.7609
   396.7000      1.9808     58.5095     40.7218      1.6846      0.4801     45.0425
   396.8000      1.9842     58.2911     40.3826      1.6882      0.4694     47.5963
   396.9000      1.9842     57.8786     40.1333      1.6950      0.4775     49.4745
   397.0000      1.9796     57.1612     40.0838      1.7068      0.4724     48.5631
   397.1000      1.9796     56.1662     40.1280      1.7233      0.4921     45.9437
   397.2000      1.9796     55.2867     40.3908      1.7378      0.5156     44.4208
   397.3000      1.9851     54.9259     40.9053      1.7437      0.5109     44.3532
   397.4000      1.9851     54.8870     41.3312      1.7444      0.4924     44.5963
   397.5000      1.9898     54.7423     41.2908      1.7468      0.4938     45.1784
   397.6000      1.9898     54.5097     40.9070      1.7506      0.5094     45.3709
   397.7000      1.9898     54.4544     40.6961      1.7515      0.5000     43.3392
   397.8000      1.9915     54.5853     40.7644      1.7493      0.4962     41.0518
   397.9000      1.9915     54.7728     40.8092      1.7462      0.4871     41.2267
   398.0000      1.9927     54.9169     40.8499      1.7439      0.4827     41.4663
   398.1000      1.9927     54.8896     41.0457      1.7443      0.4761     40.3159
   398.2000      1.9927     54.5680     41.3494      1.7496      0.4896     41.1282
   398.3000      1.9967     53.8657     41.7099      1.7612      0.4790     46.9432
   398.4000      1.9967     52.7542     42.1812      1.7796      0.4939     56.0775
   398.5000      2.0157     51.5100     42.7156      1.8001      0.5035     61.9118
   398.6000      2.0157     50.7125     43.0942      1.8132      0.5220     59.8210
   398.7000      2.0157     50.7429     43.0622      1.8127      0.5114     54.3072
   398.8000      1.9959     51.2983     42.8837      1.8036      0.4824     53.3433
   398.9000      1.9959     51.9227     43.0090      1.7933      0.5053     57.7473
   399.0000      2.0011     52.5122     43.2717      1.7835      0.4922     61.6422
   399.1000      2.0011     52.5889     43.4371      1.7823      0.4661     63.7906
   399.2000      2.0011     51.6323     43.5222      1.7981      0.4846     68.1186
   399.3000      2.0011     50.0846     43.6602      1.8236      0.4900     71.8151
   399.4000      2.0011     48.8668     43.9035      1.8437      0.5177     69.6516
   399.5000      2.0003     48.4213     44.1175      1.8510      0.5090     65.8477
