~Version Information
VERS.                      2.0: CWLS Log ASCII Standard - VERSION 2.0
WRAP.                       NO: One line per depth step
~Well Information Block
STRT.FT               507.5000: 
STOP.FT              2145.0000: 
STEP.FT                 0.2500: 
NULL.                -999.2500: 
COMP.          Petrogulf Corporation: COMPANY
WELL.            Montoya 1-44R: WELL
FLD.           Purgatorie River: FIELD
LOC.           658' FSL & 1052' FWL: LOCATION
CNTY.               Las Animas: COUNTY
SRVC.                         : SERVICE COMPANY
DATE.          Tue Nov 16 02:59:24 2004: LOG DATE
UWI.           05 071 08239 00: UNIQUE WELL ID
STAT.                 Colorado: STATE
~Curve Information Block
DEPT.FT            0 000 00 00: Depth
SP.mV                         : DIL Spontaneous Potential
RILD.Ohm-m                    : DIL Deep Resistivity
RILM.Ohm-m                    : DIL Medium Resistivity
RLL3.Ohm-m                    : DIL Shallow Resistivity
GR.GAPI                       : Gamma Ray
~Parameter Information Block
~A  Depth        SP         RILD        RILM        RLL3         GR     
# ...
   535.5000   2000.0000      6.5746 100000.0000   2000.0000     94.6760
   535.7500   2000.0000      6.5609 100000.0000   2000.0000     95.2024
   536.0000   2000.0000      6.5533 100000.0000   2000.0000     94.7070
   536.2500   2000.0000      6.5526 100000.0000   2000.0000     93.5268
   536.5000   2000.0000      6.5578 100000.0000   2000.0000     91.9411
   536.7500   2000.0000      6.5673 100000.0000   2000.0000     91.7382
   537.0000   2000.0000      6.5791 100000.0000   2000.0000     92.6229
   537.2500   2000.0000      6.5914 100000.0000   2000.0000     93.5636
   537.5000   2000.0000      6.6028 100000.0000   2000.0000     95.2020
   537.7500   2000.0000      6.6124 100000.0000   2000.0000     96.5396
   538.0000   2000.0000      6.6199 100000.0000   2000.0000     98.8460
   538.2500   2000.0000      6.6253 100000.0000   2000.0000    100.2615
   538.5000   2000.0000      6.6287 100000.0000   2000.0000    101.4836
   538.7500   2000.0000      6.6302 100000.0000   2000.0000    101.4094
   539.0000   2000.0000      6.6302 100000.0000   2000.0000     99.9375
   539.2500   2000.0000      6.6288 100000.0000   2000.0000     98.3007
   539.5000   2000.0000      6.6267 100000.0000   2000.0000     95.3889
   539.7500   2000.0000      6.6244 100000.0000   2000.0000     93.2452
   540.0000   2000.0000      6.6227 100000.0000   2000.0000     89.6381
   540.2500   2000.0000      6.6224 100000.0000   2000.0000     87.1830
   540.5000   2000.0000      6.6237 100000.0000   2000.0000     84.7046
   540.7500   2000.0000      6.6268 100000.0000   2000.0000     84.7349
   541.0000   2000.0000      6.6312 100000.0000   2000.0000     87.6915
   541.2500   2000.0000      6.6359 100000.0000   2000.0000     90.8437
   541.5000   2000.0000      6.6402 100000.0000   2000.0000     95.1380
   541.7500   2000.0000      6.6431 100000.0000   2000.0000     96.6945
   542.0000   2000.0000      6.6441 100000.0000   2000.0000     96.7386
   542.2500   2000.0000      6.6429 100000.0000   2000.0000     95.7921
   542.5000   2000.0000      6.6399 100000.0000   2000.0000     94.1740
   542.7500   2000.0000      6.6356 100000.0000   2000.0000     93.4158
   543.0000   2000.0000      6.6308 100000.0000   2000.0000     92.8103
   543.2500   2000.0000      6.6263 100000.0000   2000.0000     92.4606
   543.5000   2000.0000      6.6226 100000.0000   2000.0000     91.2145
   543.7500   2000.0000      6.6204 100000.0000   2000.0000     89.5755
   544.0000   2000.0000      6.6200 100000.0000   2000.0000     86.3251
   544.2500   2000.0000      6.6216 100000.0000   2000.0000     84.4911
   544.5000   2000.0000      6.6251 100000.0000   2000.0000     83.7176
   544.7500   2000.0000      6.6303 100000.0000   2000.0000     84.6665
   545.0000   2000.0000      6.6370 100000.0000   2000.0000     87.0480
   545.2500   2000.0000      6.6448 100000.0000   2000.0000     88.2674
   545.5000   2000.0000      6.6531 100000.0000   2000.0000     88.6234
   545.7500   2000.0000      6.6616 100000.0000   2000.0000     88.0563
   546.0000   2000.0000      6.6698 100000.0000   2000.0000     87.1157
   546.2500   2000.0000      6.6771 100000.0000   2000.0000     87.0726
   546.5000   2000.0000      6.6831 100000.0000   2000.0000     88.1542
   546.7500   2000.0000      6.6875 100000.0000   2000.0000     89.2615
   547.0000   2000.0000      6.6901 100000.0000   2000.0000     90.6754
   547.2500   2000.0000      6.6908 100000.0000   2000.0000     91.2481
   547.5000   2000.0000      6.6900 100000.0000   2000.0000     91.5624
   547.7500   2000.0000      6.6878 100000.0000   2000.0000     91.3386
   548.0000   2000.0000      6.6845 100000.0000   2000.0000     90.0653
   548.2500   2000.0000      6.6806 100000.0000   2000.0000     88.6552
   548.5000   2000.0000      6.6759 100000.0000   2000.0000     86.5013
   548.7500   2000.0000      6.6707 100000.0000   2000.0000     85.5408
   549.0000   2000.0000      6.6649 100000.0000   2000.0000     84.9256
   549.2500   2000.0000      6.6587 100000.0000   2000.0000     84.8501
   549.5000   2000.0000      6.6524 100000.0000   2000.0000     85.3533
   549.7500   2000.0000      6.6467 100000.0000   2000.0000     86.5284
   550.0000   2000.0000      6.6423 100000.0000   2000.0000     89.8518
   550.2500   2000.0000      6.6400 100000.0000   2000.0000     92.5511
   550.5000   2000.0000      6.6404 100000.0000   2000.0000     95.6353
   550.7500   2000.0000      6.6436 100000.0000   2000.0000     96.4061
   551.0000   2000.0000      6.6497 100000.0000   2000.0000     95.8368
   551.2500   2000.0000      6.6581 100000.0000   2000.0000     94.8145
   551.5000   2000.0000      6.6683 100000.0000   2000.0000     92.7576
   551.7500   2000.0000      6.6795 100000.0000   2000.0000     90.8814
   552.0000   2000.0000      6.6909 100000.0000   2000.0000     86.8406
   552.2500   2000.0000      6.7019 100000.0000   2000.0000     83.2675
   552.5000   2000.0000      6.7116 100000.0000   2000.0000     77.0322
   552.7500   2000.0000      6.7195 100000.0000   2000.0000     72.6876
   553.0000   2000.0000      6.7246 100000.0000   2000.0000     66.2381
   553.2500   2000.0000      6.7262 100000.0000   2000.0000     61.8552
   553.5000   2000.0000      6.7233 100000.0000   2000.0000     54.6589
   553.7500   2000.0000      6.7154 100000.0000   2000.0000     49.3603
   554.0000   2000.0000      6.7023 100000.0000   2000.0000     41.4568
   554.2500   2000.0000      6.6842 100000.0000   2000.0000     37.1415
   554.5000   2000.0000      6.6625 100000.0000   2000.0000     33.3332
   554.7500   2000.0000      6.6387 100000.0000   2000.0000     32.4949
   555.0000   2000.0000      6.6153 100000.0000   2000.0000     32.5065
   555.2500   2000.0000      6.5944 100000.0000   2000.0000     32.6944
   555.5000   2000.0000      6.5783 100000.0000   2000.0000     33.4165
   555.7500   2000.0000      6.5685 100000.0000   2000.0000     34.9552
   556.0000   2000.0000      6.5657 100000.0000   2000.0000     40.1418
   556.2500   2000.0000      6.5698 100000.0000   2000.0000     45.7806
   556.5000   2000.0000      6.5800 100000.0000   2000.0000     57.0496
   556.7500   2000.0000      6.5949 100000.0000   2000.0000     65.7523
   557.0000   2000.0000      6.6125 100000.0000   2000.0000     78.8798
   557.2500   2000.0000      6.6308 100000.0000   2000.0000     86.5686
   557.5000   2000.0000      6.6480 100000.0000   2000.0000     95.0351
   557.7500   2000.0000      6.6625 100000.0000   2000.0000     98.2413
   558.0000   2000.0000      6.6733 100000.0000   2000.0000     99.4818
   558.2500   2000.0000      6.6799 100000.0000   2000.0000     98.2729
   558.5000   2000.0000      6.6824 100000.0000   2000.0000     94.2016
   558.7500   2000.0000      6.6809 100000.0000   2000.0000     90.4788
   559.0000   2000.0000      6.6762 100000.0000   2000.0000     84.3627
   559.2500   2000.0000      6.6689 100000.0000   2000.0000     80.6205
   559.5000   2000.0000      6.6597 100000.0000   2000.0000     76.6418
   559.7500   2000.0000      6.6493 100000.0000   2000.0000     75.4499
   560.0000   2000.0000      6.6384 100000.0000   2000.0000     75.6814
   560.2500   2000.0000      6.6275 100000.0000   2000.0000     76.6980
   560.5000   2000.0000      6.6174 100000.0000   2000.0000     78.7060
   560.7500   2000.0000      6.6085 100000.0000   2000.0000     80.2817
   561.0000   2000.0000      6.6018 100000.0000   2000.0000     83.4207
   561.2500   2000.0000      6.5980 100000.0000   2000.0000     86.1414
   561.5000   2000.0000      6.5985 100000.0000   2000.0000     90.5932
   561.7500   2000.0000      6.6046 100000.0000   2000.0000     93.2432
   562.0000   2000.0000      6.6183 100000.0000   2000.0000     95.9855
   562.2500   2000.0000      6.6417 100000.0000   2000.0000     96.7570
   562.5000   2000.0000      6.6769 100000.0000   2000.0000     96.1799
   562.7500   2000.0000      6.7252 100000.0000   2000.0000     94.7147
   563.0000   2000.0000      6.7865 100000.0000   2000.0000     91.3473
   563.2500   2000.0000      6.8589 100000.0000   2000.0000     88.7300
