~Version Information
VERS.                      2.0: CWLS Log ASCII Standard - VERSION 2.0
WRAP.                       NO: One line per depth step
~Well Information Block
STRT.FT               423.0000: 
STOP.FT              2306.0000: 
STEP.FT                 0.1000: 
NULL.                -999.2500: 
COMP.          Pioneer Natural Resources: COMPANY
WELL.             Culver 14-12: WELL
FLD.           Purgatoire River: FIELD
LOC.           913' FSL & 1140' FWL: LOCATION
PROV.                 Colorado: PROVINCE
CNTY.               Las Animas: COUNTRY
SRVC.                Patterson: SERVICE COMPANY
DATE.          Tue Jun 07 09:21:05 2005: LOG DATE
UWI.           05 071 08386 00: UNIQUE WELL ID
~Curve Information Block
DEPT.FT            0 000 00 00: Depth
DCAL.in                       : CDL Caliper
RHOB.g/cc                     : CDL Bulk Density
RHOC.g/cc                     : CDL Density Correction
DPOR.pu                       : CDL Density Porosity
GR.GAPI                       : Gamma Ray
NPOR.pu                       : Neutron Porosity
~Parameter Information Block
~A  Depth       DCAL        RHOB        RHOC        DPOR         GR         NPOR    
# ...
   922.2000      8.1806      2.4724      0.0874     10.7629    129.4319     21.9107
   922.3000      8.1881      2.4827      0.0799     10.1421    134.2854     21.3013
   922.4000      8.1881      2.4496      0.0614     12.1427    137.1111     20.6053
   922.5000      8.1607      2.3824      0.0746     16.2197    139.1846     20.0833
   922.6000      8.1607      2.3182      0.0428     20.1081    138.9767     19.9854
   922.7000      8.1607      2.2914      0.0546     21.7363    133.7691     20.3667
   922.8000      8.1508      2.2997      0.1235     21.2294    128.6609     21.2825
   922.9000      8.1508      2.3116      0.1434     20.5088    129.3715     22.5365
   923.0000      8.1553      2.3155      0.0877     20.2718    134.3169     23.5526
   923.1000      8.1553      2.3232      0.1131     19.8060    137.5975     23.9329
   923.2000      8.1553      2.3325      0.1442     19.2405    134.5273     24.0619
   923.3000      8.1793      2.3420      0.1783     18.6675    127.2665     24.4951
   923.4000      8.1793      2.3738      0.1465     16.7385    118.8018     25.1715
   923.5000      8.2387      2.4412      0.1433     12.6549    112.7274     26.0727
   923.6000      8.2387      2.5150      0.1651      8.1795    112.7904     27.1947
   923.7000      8.2387      2.5537      0.1221      5.8344    118.0472     28.0146
   923.8000      8.2029      2.5548      0.0734      5.7717    128.7070     28.3397
   923.9000      8.2029      2.5485      0.0475      6.1493    142.1951     28.3353
   924.0000      8.2239      2.5458      0.0958      6.3167    149.0878     28.0638
   924.1000      8.2239      2.5403      0.0310      6.6478    146.5706     27.7712
   924.2000      8.2239      2.5412      0.0481      6.5924    141.4731     27.6112
   924.3000      8.2465      2.5565      0.0219      5.6653    138.1455     27.3922
   924.4000      8.2465      2.5806      0.0227      4.2068    135.7811     27.2118
   924.5000      8.2483      2.6010      0.0609      2.9710    133.7791     27.3332
   924.6000      8.2483      2.6089      0.0406      2.4882    132.0528     27.4610
   924.7000      8.2483      2.6058      0.0460      2.6777    132.1140     27.2889
   924.8000      8.2330      2.6032      0.0341      2.8358    137.5016     27.0847
   924.9000      8.2330      2.6150      0.0118      2.1236    144.8000     27.0154
   925.0000      8.1904      2.6405      0.0402      0.5740    148.7593     26.9525
   925.1000      8.1904      2.6500      0.1036     -0.0002    150.2794     26.8985
   925.2000      8.1904      2.6232      0.0013      1.6224    152.5098     26.8715
   925.3000      8.1796      2.5886      0.0061      3.7190    158.1936     26.8994
   925.4000      8.1796      2.5725      0.0505      4.6997    161.9021     26.8724
   925.5000      8.1890      2.5778     -0.0029      4.3738    156.0557     26.4817
   925.6000      8.1890      2.6017      0.0596      2.9303    144.0391     26.0538
   925.7000      8.1890      2.6216      0.0757      1.7190    133.2087     26.2326
   925.8000      8.2011      2.6255      0.0238      1.4824    127.9592     26.5974
   925.9000      8.2011      2.6216      0.0650      1.7225    128.5965     26.3351
   926.0000      8.2052      2.6135     -0.0338      2.2098    132.2369     25.7475
   926.1000      8.2052      2.6061      0.0200      2.6602    132.9957     25.3769
   926.2000      8.2052      2.6048      0.0111      2.7382    127.7250     25.2963
   926.3000      8.2009      2.6201      0.0041      1.8107    120.7895     25.6435
   926.4000      8.2009      2.6555      0.0599     -0.3341    115.5493     26.2282
   926.5000      8.2198      2.6904      0.0873     -2.4478    113.4009     26.3037
   926.6000      8.2198      2.7053      0.0631     -3.3514    116.6076     25.7298
   926.7000      8.2198      2.6995      0.0643     -2.9999    120.8310     24.9520
   926.8000      8.2211      2.6760      0.0518     -1.5757    117.5561     24.1918
   926.9000      8.2211      2.6391      0.0298      0.6591    108.5822     23.7034
   927.0000      8.1987      2.6052     -0.0028      2.7181    102.4152     23.5628
   927.1000      8.1987      2.5822     -0.0121      4.1117    103.2404     23.4537
   927.2000      8.1987      2.5582      0.0301      5.5666    108.4371     23.3293
   927.3000      8.1776      2.5362     -0.0243      6.8970    110.2767     23.4330
   927.4000      8.1776      2.5368      0.0369      6.8587    105.4573     23.8351
   927.5000      8.1645      2.5652     -0.0018      5.1409     99.4167     24.3599
   927.6000      8.1645      2.6034      0.0894      2.8266     97.8794     24.7093
   927.7000      8.1645      2.6213      0.0711      1.7386    100.1131     24.6347
   927.8000      8.1144      2.6149      0.0668      2.1250    106.1069     24.4212
   927.9000      8.1144      2.6116      0.0937      2.3269    115.0550     24.5405
   928.0000      8.0921      2.6295      0.1071      1.2424    120.4704     24.6967
   928.1000      8.0921      2.6530      0.1953     -0.1788    118.8659     24.6229
   928.2000      8.0921      2.6603      0.1353     -0.6266    114.2974     24.6865
   928.3000      8.0876      2.6657      0.0725     -0.9490    111.2234     24.7151
   928.4000      8.0876      2.6810      0.1790     -1.8804    110.8919     24.4167
   928.5000      8.0939      2.6901      0.1199     -2.4279    113.8825     24.3794
   928.6000      8.0939      2.6939      0.1559     -2.6598    120.3921     24.8941
   928.7000      8.0939      2.6993      0.1137     -2.9879    128.7388     25.4741
   928.8000      8.0957      2.6919      0.1391     -2.5367    133.6638     25.8076
   928.9000      8.0957      2.6630      0.1045     -0.7894    132.4512     26.0006
   929.0000      8.0913      2.6386      0.0461      0.6891    128.5456     26.2894
   929.1000      8.0913      2.6510      0.0544     -0.0629    123.0072     26.5995
   929.2000      8.0913      2.6852      0.1479     -2.1324    117.3711     26.6012
   929.3000      8.0837      2.6990      0.1273     -2.9710    117.1059     26.3005
   929.4000      8.0837      2.6821      0.1009     -1.9446    123.0137     25.8988
   929.5000      8.0756      2.6511      0.0742     -0.0658    129.0456     25.5890
   929.6000      8.0756      2.6244      0.0550      1.5541    130.3366     25.4874
   929.7000      8.0756      2.6144      0.0594      2.1587    130.1213     25.5599
   929.8000      8.0712      2.6191      0.0275      1.8737    130.6204     25.5893
   929.9000      8.0712      2.6302      0.0587      1.1993    128.4642     25.4026
   930.0000      8.0632      2.6433      0.0690      0.4035    123.0240     25.2268
   930.1000      8.0632      2.6558      0.0868     -0.3527    117.2338     25.2327
   930.2000      8.0632      2.6694      0.0937     -1.1764    112.5880     25.3843
   930.3000      8.0931      2.6861      0.0801     -2.1849    106.2356     25.7094
   930.4000      8.0931      2.6967      0.1189     -2.8292     98.2343     26.0703
   930.5000      8.1112      2.6909      0.1019     -2.4814     95.5559     26.3185
   930.6000      8.1112      2.6762      0.0634     -1.5871    100.3335     26.5649
   930.7000      8.1112      2.6618      0.0784     -0.7142    107.0934     26.8494
   930.8000      8.1151      2.6455      0.0435      0.2717    111.1298     26.9800
   930.9000      8.1151      2.6298      0.0482      1.2269    112.1985     26.7573
   931.0000      8.1281      2.6128      0.0645      2.2518    112.6719     26.4199
   931.1000      8.1281      2.5872      0.0590      3.8073    113.3742     26.3806
   931.2000      8.1281      2.5561      0.0280      5.6884    115.8900     26.4543
   931.3000      8.1142      2.5288     -0.0168      7.3473    120.8776     26.3378
   931.4000      8.1142      2.5183     -0.0531      7.9829    122.5567     26.2720
   931.5000      8.1070      2.5431      0.0092      6.4797    116.9531     26.3399
   931.6000      8.1070      2.5957      0.1195      3.2893    110.0905     26.3611
   931.7000      8.1070      2.6414      0.1631      0.5195    108.9706     26.2100
