~Version Information
VERS.                      2.0: CWLS Log ASCII Standard - VERSION 2.0
WRAP.                       NO: One line per depth step
~Well Information Block
STRT.FT               483.5000: 
STOP.FT              2348.7500: 
STEP.FT                 0.2500: 
NULL.                -999.2500: 
COMP.          Pioneer Natural Resources: COMPANY
WELL.          Hill Climb 22-2: WELL
FLD.           Purgatoire River: FIELD
LOC.           1820' FNL & 2193' FWL: LOCATION
PROV.                 Colorado: PROVINCE
CNTY.               Las Animas: COUNTRY
SRVC.                Patterson: SERVICE COMPANY
DATE.          Wed Oct 20 08:57:51 2004: LOG DATE
UWI.           05 071 08175 00: UNIQUE WELL ID
~Curve Information Block
DEPT.FT            0 000 00 00: Depth
DIR.Ohm-m                     : IEL Induction Resistivity
SN.Ohm-m                      : IEL Short Normal
SP.mV                         : IEL Spontaneous Potential
GR.GAPI                       : Gamma Ray
~Parameter Information Block
~A  Depth       DIR          SN          SP          GR     
# ...
  1823.5000     37.0044     19.1441    148.0668     82.9112
  1823.7500     83.4067     18.7373    148.0656     87.5849
  1824.0000 100000.0000     18.0474    148.0532     93.6010
  1824.2500 100000.0000     17.0561    148.0322     95.8439
  1824.5000 100000.0000     15.7861    148.0071     97.8437
  1824.7500 100000.0000     14.3213    147.9832     99.2896
  1825.0000 100000.0000     12.8007    147.9587    100.7936
  1825.2500 100000.0000     11.3800    147.9265    100.1840
  1825.5000 100000.0000     10.1734    147.8523     97.5017
  1825.7500 100000.0000      9.2171    147.6442     96.6919
  1826.0000 100000.0000      8.4821    147.0974    100.1605
  1826.2500 100000.0000      7.9218    145.8197    105.7034
  1826.5000 100000.0000      7.5129    143.1694    116.5979
  1826.7500 100000.0000      7.2569    138.2704    123.8913
  1827.0000 100000.0000      7.1388    130.1829    132.5219
  1827.2500 100000.0000      7.0648    118.2450    135.9912
  1827.5000 100000.0000      6.8062    102.4820    137.4973
  1827.7500 100000.0000      6.0077     83.8591    136.0333
  1828.0000 100000.0000      4.3476     64.1724    130.2473
  1828.2500 100000.0000      1.8246     45.5498    124.6213
  1828.5000 100000.0000     -1.0880     29.7865    115.5453
  1828.7500 100000.0000     -3.6801     17.8465    110.2191
  1829.0000 100000.0000     -5.4691      9.7537    104.9125
  1829.2500 100000.0000     -6.4288      4.8452    103.9261
  1829.5000 100000.0000     -6.8294      2.1812    106.0395
  1829.7500 100000.0000     -6.9596      0.8874    108.2136
  1830.0000 100000.0000     -6.9925      0.3251    108.7912
  1830.2500 100000.0000     -6.9990      0.1064    106.2749
  1830.5000 100000.0000      0.0000      0.0303     99.6848
  1830.7500   1972.5037      0.0000      0.0066     95.4002
  1831.0000   1175.5942      0.0000      0.0000     91.3382
  1831.2500    955.2526      0.0000      0.0000     90.1423
  1831.5000    875.3740      0.0000      0.0000     89.8956
  1831.7500    846.0146      0.0000      0.0000     91.1037
  1832.0000    836.0946      0.0000      0.0000     96.4158
  1832.2500    833.1510      0.0000      0.0000    102.3618
  1832.5000    832.3992      0.0000      0.0000    112.4126
  1832.7500 100000.0000      0.0000      0.0000    117.7009
  1833.0000      0.0000      0.0000      0.0000    121.5435
  1833.2500      0.0000      0.0000      0.0000    122.1563
  1833.5000      0.0000      0.0000      0.0000    123.5443
  1833.7500      0.0000      0.0000      0.0000    126.2267
  1834.0000      0.0000      0.0000      0.0000    132.2203
  1834.2500      0.0000      0.0000      0.0000    135.9861
  1834.5000      0.0000      0.0000      0.0000    139.8805
  1834.7500      0.0000      0.0000      0.0000    141.6066
  1835.0000      0.0000      0.0000      0.0000    142.8017
  1835.2500      0.0000      0.0000      0.0000    141.5526
  1835.5000      0.0000      0.0000      0.0000    135.1479
  1835.7500      0.0000      0.0000      0.0000    128.4880
  1836.0000      0.0000      0.0000      0.0000    117.9777
  1836.2500      0.0000      0.0000      0.0000    112.4758
  1836.5000      0.0000      0.0000      0.0000    108.2986
  1836.7500      0.0000      0.0000      0.0000    108.2324
  1837.0000      0.0000      0.0000      0.0000    111.1627
  1837.2500      0.0000      0.0000      0.0000    114.6335
  1837.5000      0.0000      0.0000      0.0000    121.8413
  1837.7500      0.0000      0.0000      0.0000    127.5849
  1838.0000      0.0000      0.0000      0.0000    135.4187
  1838.2500      0.0000      0.0000      0.0000    138.2196
  1838.5000      0.0000      0.0000      0.0000    136.7469
  1838.7500      0.0000      0.0000      0.0000    132.5949
  1839.0000      0.0000      0.0000      0.0000    125.1981
  1839.2500      0.0000      0.0000      0.0000    121.5058
  1839.5000      0.0000      0.0000      0.0000    118.7312
  1839.7500      0.0000      0.0000      0.0000    117.7637
  1840.0000      0.0000      0.0000      0.0000    115.7014
  1840.2500      0.0000      0.0000      0.0000    113.8722
  1840.5000      0.0000      0.0000      0.0000    112.1698
  1840.7500      0.0000      0.0000      0.0000    112.5395
  1841.0000      0.0000      0.0000      0.0000    114.4601
  1841.2500      0.0000      0.0000      0.0000    115.2683
  1841.5000      0.0000      0.0000      0.0000    114.4939
  1841.7500      0.0000      0.0000      0.0000    113.2617
  1842.0000      0.0000      0.0000      0.0000    112.6743
  1842.2500      0.0000      0.0000      0.0000    114.3508
  1842.5000      0.0000      0.0000      0.0000    120.8590
  1842.7500      0.0000      0.0000      0.0000    127.3731
  1843.0000      0.0000      0.0000      0.0000    137.8789
  1843.2500      0.0000      0.0000      0.0000    143.5234
  1843.5000      0.0000      0.0000      0.0000    147.5617
  1843.7500      0.0000      0.0000      0.0000    146.7900
  1844.0000      0.0000      0.0000      0.0000    141.1626
  1844.2500      0.0000      0.0000      0.0000    135.5877
  1844.5000      0.0000      0.0000      0.0000    126.7584
  1844.7500      0.0000      0.0000      0.0000    121.5515
  1845.0000      0.0000      0.0000      0.0000    115.5526
  1845.2500      0.0000      0.0000      0.0000    112.8317
  1845.5000      0.0000      0.0000      0.0000    110.4557
  1845.7500      0.0000      0.0000      0.0000    109.9435
  1846.0000      0.0000      0.0000      0.0000    111.2674
  1846.2500      0.0000      0.0000      0.0000    113.9272
  1846.5000      0.0000      0.0000      0.0000    119.8145
  1846.7500      0.0000      0.0000      0.0000    123.3017
  1847.0000      0.0000      0.0000      0.0000    124.5944
  1847.2500      0.0000      0.0000      0.0000    122.0661
  1847.5000      0.0000      0.0000      0.0000    114.1936
  1847.7500      0.0000      0.0000      0.0000    107.3809
  1848.0000      0.0000      0.0000      0.0000     96.9820
  1848.2500      0.0000      0.0000      0.0000     91.3115
  1848.5000      0.0000      0.0000      0.0000     86.8057
  1848.7500      0.0000      0.0000      0.0000     86.9581
  1849.0000      0.0000      0.0000      0.0000     90.7830
  1849.2500      0.0000      0.0000      0.0000     94.0517
  1849.5000      0.0000      0.0000      0.0000     97.0732
  1849.7500      0.0000      0.0000      0.0000     97.1694
  1850.0000      0.0000      0.0000      0.0000     95.6433
  1850.2500      0.0000      0.0000      0.0000     94.7556
  1850.5000      0.0000      0.0000      0.0000     94.8984
  1850.7500      0.0000      0.0000      0.0000     95.8616
  1851.0000      0.0000      0.0000      0.0000     97.4424
  1851.2500      0.0000      0.0000      0.0000     97.9207
  1851.5000      0.0000      0.0000      0.0000     97.3504
  1851.7500      0.0000      0.0000      0.0000     96.1902
  1852.0000      0.0000      0.0000      0.0000     93.6612
  1852.2500      0.0000      0.0000      0.0000     92.0481
  1852.5000      0.0000      0.0000      0.0000     91.5954
  1852.7500      0.0000      0.0000      0.0000     93.4913
  1853.0000      0.0000      0.0000      0.0000     99.0872
  1853.2500      0.0000      0.0000      0.0000    103.2699
  1853.5000      0.0000      0.0000      0.0000    108.1622
  1853.7500      0.0000      0.0000      0.0000    110.2544
  1854.0000      0.0000      0.0000      0.0000    112.1121
  1854.2500      0.0000      0.0000      0.0000    112.6767
  1854.5000      0.0000      0.0000      0.0000    112.8964
  1854.7500      0.0000      0.0000      0.0000    113.2679
  1855.0000      0.0000      0.0000      0.0000    115.3792
  1855.2500      0.0000      0.0000      0.0000    117.7369
  1855.5000      0.0000      0.0000      0.0000    120.7061
  1855.7500      0.0000      0.0000      0.0000    120.9229
  1856.0000      0.0000      0.0000      0.0000    118.0682
  1856.2500      0.0000      0.0000      0.0000    115.1413
  1856.5000      0.0000      0.0000      0.0000    111.8915
  1856.7500      0.0000      0.0000      0.0000    111.2883
