~Version Information
VERS.                      2.0: CWLS Log ASCII Standard - VERSION 2.0
WRAP.                       NO: One line per depth step
~Well Information Block
STRT.FT               652.0000: 
STOP.FT              1880.5000: 
STEP.FT                 0.2500: 
NULL.                -999.2500: 
COMP.          Pioneer Natural Resources: COMPANY
WELL.          Corkscrew 33-12 Tr: WELL
FLD.           Purgatoire River: FIELD
LOC.           1870' FSL & 1706' FEL: LOCATION
PROV.                 Colorado: PROVINCE
CNTY.               Las Animas: COUNTRY
SRVC.                Patterson: SERVICE COMPANY
DATE.          Mon Mar 28 22:58:28 2005: LOG DATE
UWI.           05 071 08295 00: UNIQUE WELL ID
~Curve Information Block
DEPT.FT            0 000 00 00: Depth
SN.Ohm-m                      : IEL Short Normal
SP.mV                         : IEL Spontaneous Potential
DIR.Ohm-m                     : IEL Induction Resistivity
GR.GAPI                       : Gamma Ray
~Parameter Information Block
~A  Depth        SN          SP         DIR          GR     
# ...
  1523.0000     13.2635     18.8214     12.1538    107.5978
  1523.2500     13.4297     18.9903     12.3823    107.7545
  1523.5000     13.5451     18.9875     12.5849    107.9379
  1523.7500     13.5904     18.8616     12.7736    107.2163
  1524.0000     13.5565     18.6750     12.9544    104.5532
  1524.2500     13.4754     18.4698     13.1187    102.3115
  1524.5000     13.4047     18.2640     13.2508     99.7226
  1524.7500     13.3886     18.0666     13.3430     99.1127
  1525.0000     13.4536     17.8865     13.4043    100.0005
  1525.2500     13.5986     17.7312     13.4530    101.4076
  1525.5000     13.7653     17.5984     13.5065    103.7260
  1525.7500     13.8791     17.4714     13.5754    104.8768
  1526.0000     13.9242     17.3240     13.6651    105.4168
  1526.2500     13.9388     17.1330     13.7759    104.8036
  1526.5000     13.9652     16.8900     13.8989    102.4877
  1526.7500     14.0296     16.6076     14.0099    100.4532
  1527.0000     14.1376     16.3174     14.0732     97.9445
  1527.2500     14.2703     16.0587     14.0581     97.0325
  1527.5000     14.3993     15.8618     13.9590     95.8651
  1527.7500     14.5206     15.7331     13.8012     94.1464
  1528.0000     14.6592     15.6515     13.6280     89.3008
  1528.2500     14.8352     15.5825     13.4800     84.9864
  1528.5000     15.0519     15.4979     13.3832     78.2869
  1528.7500     15.3103     15.3907     13.3500     74.4406
  1529.0000     15.6156     15.2736     13.3861     70.7516
  1529.2500     15.9729     15.1693     13.4971     70.0926
  1529.5000     16.3652     15.0988     13.6864     71.4351
  1529.7500     16.7261     15.0760     13.9451     72.9526
  1530.0000     16.9650     15.1043     14.2400     74.0856
  1530.2500     17.0277     15.1788     14.5112     73.2424
  1530.5000     16.9196     15.2906     14.6875     69.7534
  1530.7500     16.6907     15.4298     14.7126     67.0178
  1531.0000     16.4071     15.5860     14.5654     64.7663
  1531.2500     16.1131     15.7510     14.2612     65.4224
  1531.5000     15.8250     15.9228     13.8442     69.1397
  1531.7500     15.5657     16.1052     13.3820     71.9845
  1532.0000     15.3598     16.2994     12.9585     73.8511
  1532.2500     15.1950     16.4968     12.6559     72.6173
  1532.5000     15.0530     16.6780     12.5327     67.9782
  1532.7500     14.9584     16.8209     12.6079     64.5499
  1533.0000     14.9383     16.9110     12.8567     61.2996
  1533.2500     14.9699     16.9486     13.2185     60.8334
  1533.5000     15.0082     16.9489     13.6159     61.5873
  1533.7500     15.0296     16.9326     13.9797     61.9489
  1534.0000     15.0343     16.9104     14.2626     61.1406
  1534.2500     15.0344     16.8714     14.4342     59.9296
  1534.5000     15.0463     16.7928     14.4698     58.5314
  1534.7500     15.0753     16.6651     14.3577     58.6199
  1535.0000     15.1053     16.5096     14.1223     60.3886
  1535.2500     15.1155     16.3673     13.8361     62.0310
  1535.5000     15.1072     16.2735     13.5969     63.8211
  1535.7500     15.1090     16.2425     13.4866     64.1732
  1536.0000     15.1575     16.2669     13.5414     63.7579
  1536.2500     15.2655     16.3267     13.7433     63.2159
  1536.5000     15.4029     16.3992     14.0325     62.0615
  1536.7500     15.5043     16.4688     14.3338     60.7873
  1537.0000     15.5147     16.5361     14.5837     57.9453
  1537.2500     15.4497     16.6227     14.7451     55.8115
  1537.5000     15.3881     16.7626     14.8058     53.3171
  1537.7500     15.3754     16.9803     14.7708     52.4738
  1538.0000     15.3720     17.2726     14.6557     52.1646
  1538.2500     15.3164     17.6083     14.4800     52.2287
  1538.5000     15.1933     17.9411     14.2586     52.5166
  1538.7500     15.0293     18.2279     14.0005     52.9531
  1539.0000     14.8532     18.4410     13.7189     53.9056
  1539.2500     14.6787     18.5758     13.4446     54.4158
  1539.5000     14.5208     18.6486     13.2236     54.6603
  1539.7500     14.4119     18.6833     13.0953     54.7599
  1540.0000     14.3903     18.6945     13.0635     55.6000
  1540.2500     14.4600     18.6801     13.0864     56.6764
  1540.5000     14.5814     18.6283     13.0961     58.3493
  1540.7500     14.7205     18.5311     13.0407     59.0976
  1541.0000     14.8732     18.3913     12.9168     59.5792
  1541.2500     15.0293     18.2233     12.7654     59.5812
  1541.5000     15.1679     18.0427     12.6421     59.0792
  1541.7500     15.2907     17.8507     12.5886     58.3552
  1542.0000     15.4185     17.6286     12.6208     56.9609
  1542.2500     15.5611     17.3567     12.7297     56.1259
  1542.5000     15.7114     17.0386     12.8906     55.1859
  1542.7500     15.8584     16.7066     13.0775     54.5807
  1543.0000     15.9940     16.4050     13.2736     53.4560
  1543.2500     16.1239     16.1693     13.4717     52.7120
  1543.5000     16.2846     16.0137     13.6648     52.0334
  1543.7500     16.5077     15.9295     13.8371     51.8429
  1544.0000     16.7698     15.8929     13.9617     51.3123
  1544.2500     17.0212     15.8768     14.0085     50.5000
  1544.5000     17.2362     15.8609     13.9617     48.9820
  1544.7500     17.4123     15.8371     13.8395     48.3227
  1545.0000     17.5631     15.8085     13.6986     48.2453
  1545.2500     17.7239     15.7846     13.6155     48.4946
  1545.5000     17.9343     15.7740     13.6559     48.6261
  1545.7500     18.2118     15.7800     13.8495     48.3543
  1546.0000     18.5354     15.8004     14.1749     47.2195
  1546.2500     18.8475     15.8289     14.5616     45.8826
  1546.5000     19.0932     15.8578     14.9141     43.1187
  1546.7500     19.2600     15.8796     15.1591     41.0207
  1547.0000     19.3749     15.8881     15.2901     37.9641
  1547.2500     19.4783     15.8846     15.3709     36.2513
  1547.5000     19.6080     15.8859     15.4922     34.7439
  1547.7500     19.7900     15.9239     15.7158     34.7875
  1548.0000     20.0226     16.0293     16.0362     36.5740
  1548.2500     20.2645     16.2129     16.3757     38.5835
  1548.5000     20.4514     16.4616     16.6220     41.8055
  1548.7500     20.5326     16.7526     16.6987     43.5802
  1549.0000     20.4922     17.0693     16.6197     45.4033
  1549.2500     20.3502     17.4056     16.4763     46.2422
  1549.5000     20.1522     17.7600     16.3739     47.5631
  1549.7500     19.9450     18.1261     16.3792     48.8427
  1550.0000     19.7582     18.4859     16.5097     51.6851
  1550.2500     19.5979     18.8108     16.7482     54.1357
  1550.5000     19.4453     19.0732     17.0545     58.1794
  1550.7500     19.2708     19.2587     17.3595     60.8132
  1551.0000     19.0603     19.3724     17.5625     64.4655
  1551.2500     18.8257     19.4359     17.5633     66.7376
  1551.5000     18.5946     19.4790     17.3237     69.6588
  1551.7500     18.3939     19.5275     16.8980     70.8589
  1552.0000     18.2372     19.5923     16.3959     71.1048
  1552.2500     18.1229     19.6681     15.9203     70.5673
  1552.5000     18.0425     19.7433     15.5373     69.8576
  1552.7500     17.9928     19.8154     15.2828     69.8246
  1553.0000     17.9825     19.9000     15.1751     70.0782
  1553.2500     18.0263     20.0290     15.2189     69.9406
  1553.5000     18.1320     20.2369     15.3997     68.5943
  1553.7500     18.2884     20.5404     15.6775     66.8166
  1554.0000     18.4604     20.9253     15.9828     63.0453
  1554.2500     18.6104     21.3504     16.2221     60.0977
  1554.5000     18.7274     21.7655     16.2963     55.8370
  1554.7500     18.8228     22.1338     16.1365     53.7590
  1555.0000     18.9118     22.4461     15.7346     52.9454
  1555.2500     19.0180     22.7206     15.1441     54.2953
  1555.5000     19.1671     22.9907     14.4497     58.6811
  1555.7500     19.3578     23.2866     13.7296     62.2795
  1556.0000     19.5468     23.6210     13.0314     66.7397
  1556.2500     19.6539     23.9858     12.3703     68.2495
