~Version Information
VERS.                      2.0: CWLS Log ASCII Standard - VERSION 2.0
WRAP.                       NO: One line per depth step
~Well Information Block
STRT.FT               704.0000: 
STOP.FT              2530.0000: 
STEP.FT                 0.2500: 
NULL.                -999.2500: 
COMP.          Pioneer Natural Resources: COMPANY
WELL.          Aztec Federal 41-15: WELL
FLD.           Purgatorie River: FIELD
LOC.           706' FNL & 1253' FEL: LOCATION
CNTY.               Las Animas: COUNTY
SRVC.          Superior Well Services: SERVICE COMPANY
DATE.          Tue Mar 18 09-04-19 2008: LOG DATE
UWI.           05-071-08342-00: UNIQUE WELL ID
STAT.                       CO: STATE
~Curve Information Block
DEPT.FT            0 000 00 00: Depth
DIR.Ohm-m                     : IEL Induction Resistivity
SN.Ohm-m                      : IEL Short Normal
SP.mV                         : IEL Spontaneous Potential
GR.GAPI                       : Gamma Ray
~Parameter Information Block
~A  Depth       DIR          SN          SP          GR     
# ...
  1910.0000     35.3413     44.0014    116.1406     70.1323
  1910.2500     35.7796     44.2328    116.0925     69.1032
  1910.5000     36.0996     44.4950    116.0536     68.1802
  1910.7500     36.4874     44.5684    116.0613     67.2273
  1911.0000     36.5899     44.5053    116.1512     67.3969
  1911.2500     36.3992     44.3713    116.2796     69.0680
  1911.5000     36.0386     44.0877    116.5826     70.7155
  1911.7500     35.2390     43.8573    116.8442     72.9813
  1912.0000     34.6179     43.4235    117.2806     74.0917
  1912.2500     33.7063     43.0566    117.5717     75.5577
  1912.5000     33.1920     42.4251    117.9684     76.8447
  1912.7500     32.6705     42.0122    118.1919     79.5227
  1913.0000     32.5322     41.5118    118.4604     81.4641
  1913.2500     32.6586     41.2939    118.6009     83.5997
  1913.5000     32.9356     41.1907    118.7696     84.2024
  1913.7500     33.5133     41.3183    118.8618     84.3177
  1914.0000     33.9060     41.8848    118.9724     84.3514
  1914.2500     34.3585     42.5059    119.0191     84.5744
  1914.5000     34.5347     43.6754    119.0221     84.5038
  1914.7500     34.6416     44.5206    118.9689     83.2734
  1915.0000     34.6408     45.7882    118.8236     81.4685
  1915.2500     34.5342     46.6367    118.7162     77.4890
  1915.5000     34.3525     47.9543    118.6148     74.4158
  1915.7500     33.8272     48.7791    118.6259     70.3585
  1916.0000     33.2903     49.4726    118.7991     68.8667
  1916.2500     32.2634     49.2501    119.0224     69.6313
  1916.5000     31.4981     47.6238    119.5008     72.3572
  1916.7500     30.3325     45.7443    119.9005     79.2510
  1917.0000     29.5758     42.0846    120.6046     85.1648
  1917.2500     28.4834     39.3566    121.1379     95.1168
  1917.5000     27.7813     35.3272    122.0090    101.9805
  1917.7500     26.7615     32.9093    122.6039    111.5344
  1918.0000     26.0946     29.8611    123.4360    116.6237
  1918.2500     25.0750     28.1990    123.9074    121.2341
  1918.5000     24.3485     26.1046    124.4575    122.0879
  1918.7500     23.1381     24.8795    124.7295    120.5000
  1919.0000     22.2419     23.2433    125.0423    118.1171
  1919.2500     20.7960     22.3169    125.2182    113.8389
  1919.5000     19.8046     21.2134    125.4802    111.2721
  1919.7500     18.3566     20.6138    125.6777    108.8452
  1920.0000     17.4582     19.7131    126.0334    108.5177
  1920.2500     16.2562     19.0136    126.3068    110.0865
  1920.5000     15.5618     17.7755    126.7324    112.2567
  1920.7500     14.6696     16.8597    126.9978    116.4061
  1921.0000     14.1554     15.4561    127.3360    119.4118
  1921.2500     13.4622     14.5703    127.5152    124.2416
  1921.5000     13.0284     13.4220    127.7161    127.7913
  1921.7500     12.3911     12.8070    127.8084    133.2703
  1922.0000     11.9668     12.1078    127.8944    136.3397
  1922.2500     11.3303     11.7666    127.9240    138.7043
  1922.5000     10.9120     11.3716    127.9413    138.4941
  1922.7500     10.3100     11.1479    127.9434    136.4048
  1923.0000      9.9356     10.8297    127.9472    134.8605
  1923.2500      9.4285     10.6067    127.9608    133.7500
  1923.5000      9.1321     10.2306    128.0207    134.0516
  1923.7500      8.7531      9.9652    128.1018    135.7285
  1924.0000      8.5429      9.5978    128.3049    137.3959
  1924.2500      8.2830      9.3926    128.4971    140.3334
  1924.5000      8.1400      9.1499    128.8533    142.2513
  1924.7500      7.9587      9.0284    129.1140    144.3314
  1925.0000      7.8544      8.9006    129.4890    144.9273
  1925.2500      7.7189      8.8553    129.6979    144.7965
  1925.5000      7.6429      8.8543    129.9136    144.3405
  1925.7500      7.5533      8.8849    129.9891    143.5778
  1926.0000      7.5110      8.9250    130.0282    143.1780
  1926.2500      7.4729      8.9310    130.0301    142.8074
  1926.5000      7.4618      8.9392    130.0259    142.5844
  1926.7500      7.4607      8.9702    130.0191    141.8852
  1927.0000      7.4661      9.0584    129.9840    141.0439
  1927.2500      7.4754      9.1250    129.9345    139.2778
  1927.5000      7.4777      9.1939    129.8245    137.8061
  1927.7500      7.4680      9.2029    129.7421    135.1429
  1928.0000      7.4501      9.1610    129.6402    133.1886
  1928.2500      7.4056      9.1092    129.6064    130.5547
  1928.5000      7.3664      9.0209    129.6302    129.3253
  1928.7500      7.3004      8.9590    129.7009    128.5273
  1929.0000      7.2563      8.8466    129.8752    128.7005
  1929.2500      7.1958      8.7520    130.0120    129.8655
  1929.5000      7.1611      8.5925    130.1915    131.0771
  1929.7500      7.1167      8.4901    130.2711    133.2950
  1930.0000      7.0900      8.3774    130.3309    134.9367
  1930.2500      7.0477      8.3433    130.3498    137.2713
  1930.5000      7.0140      8.3358    130.3825    138.3577
  1930.7500      6.9507      8.3307    130.4163    138.6719
  1931.0000      6.8998      8.2807    130.4711    137.8773
  1931.2500      6.8140      8.2189    130.4920    135.4939
  1931.5000      6.7538      8.1241    130.4732    133.5842
  1931.7500      6.6637      8.0853    130.4256    131.3302
  1932.0000      6.6056      8.0781    130.3260    130.8172
  1932.2500      6.5229      8.0990    130.2640    131.9703
  1932.5000      6.4713      8.1401    130.2173    133.7777
  1932.7500      6.3997      8.1530    130.2354    136.9459
  1933.0000      6.3564      8.1144    130.3512    138.6922
  1933.2500      6.2983      8.0449    130.4797    140.2059
  1933.5000      6.2645      7.9066    130.7023    140.5284
  1933.7500      6.2208      7.8071    130.8333    140.3045
  1934.0000      6.1963      7.6355    130.9536    139.8371
  1934.2500      6.1664      7.4964    130.9729    138.8139
  1934.5000      6.1513      7.2765    130.9212    138.0095
  1934.7500      6.1368      7.1657    130.8467    136.7672
  1935.0000      6.1331      7.1402    130.6966    135.8950
  1935.2500      6.1363      7.2478    130.5805    134.1129
  1935.5000      6.1440      7.5759    130.3927    132.2309
  1935.7500      6.1631      7.8444    130.2631    128.0486
  1936.0000      6.1807      8.1851    130.0720    124.7011
  1936.2500      6.2130      8.3209    129.9544    120.3631
  1936.5000      6.2372      8.3868    129.8113    118.8917
  1936.7500      6.2743      8.3762    129.7521    119.4889
  1937.0000      6.2984      8.3610    129.7378    121.3320
  1937.2500      6.3351      8.3756    129.7788    124.6433
  1937.5000      6.3628      8.4142    129.8861    126.3011
  1937.7500      6.4150      8.4294    129.9562    127.2971
  1938.0000      6.4587      8.4384    130.0053    127.1970
  1938.2500      6.5379      8.4560    129.9855    126.7915
  1938.5000      6.5996      8.5207    129.8881    126.6770
  1938.7500      6.7083      8.5883    129.7950    126.5620
  1939.0000      6.7949      8.7257    129.6303    126.2608
  1939.2500      6.9511      8.8408    129.5019    125.4801
  1939.5000      7.0719      9.0290    129.2746    124.9796
  1939.7500      7.2668      9.1498    129.1057    124.3667
  1940.0000      7.3947      9.2980    128.8531    123.7790
  1940.2500      7.5629      9.3379    128.7038    121.9910
  1940.5000      7.6518      9.2253    128.5402    120.0132
  1940.7500      7.7520      9.0208    128.4947    116.1354
  1941.0000      7.8058      8.6140    128.5723    113.4205
  1941.2500      7.8891      8.4135    128.7452    110.2631
  1941.5000      7.9583      8.5175    129.1821    109.3494
  1941.7500      8.0964      8.9332    129.5523    110.2389
  1942.0000      8.2137      9.9003    130.1171    112.2239
  1942.2500      8.4208     10.5706    130.4414    116.5989
  1942.5000      8.5687     11.3093    130.8020    119.9139
  1942.7500      8.7739     11.5478    130.9669    124.6071
  1943.0000      8.8766     11.5887    131.1504    127.1663
  1943.2500      8.9430     11.4907    131.2570    129.7842
