~Version Information
 VERS.                      2.0: CWLS Log ASCII Standard - VERSION 2.0
 WRAP.                       NO: One line per depth step
 ~Well Information Block
 STRT.FT               462.4000: 
 STOP.FT              2260.5000: 
 STEP.FT                 0.1000: 
 NULL.                -999.2500: 
 COMP.          Petrogulf Corporation: COMPANY
 WELL.             McLeod 9-42V: WELL
 FLD.           Purgatorie River: FIELD
 LOC.           1658' FNL & 415' FEL: LOCATION
 CNTY.               Las Animas: COUNTY
 SRVC.                         : SERVICE COMPANY
 DATE.          Fri Nov 12 10:12:24 2004: LOG DATE
 UWI.           05 071 08071 00: UNIQUE WELL ID
 STAT.                 Colorado: STATE
 PROV.                         :Province
 ~Curve Information Block
 DEPT.FT            0 000 00 00: Depth
 DCAL.in                       : CDL Caliper
 RHOB.g/cc                     : CDL Bulk Density
 RHOC.g/cc                     : CDL Density Correction
 DPOR.pu                       : CDL Density Porosity
 GR.GAPI                       : Gamma Ray
 NPOR.pu                       : Neutron Porosity
 ~Parameter Information Block
 ~A  Depth       DCAL        RHOB        RHOC        DPOR         GR         NPOR    
# ...
  2008.0000      7.8358      2.4934      0.0374      9.4896     73.8959     21.3635
  2008.1000      7.8358      2.4771      0.0312     10.4792     71.0846     21.3360
  2008.2000      7.8358      2.4505     -0.0035     12.0880     67.7524     21.2270
  2008.3000      7.8407      2.4167      0.0096     14.1372     64.6793     21.1199
  2008.4000      7.8407      2.3908     -0.0248     15.7098     63.0383     21.2474
  2008.5000      7.8584      2.3874     -0.0151     15.9130     65.8093     21.6855
  2008.6000      7.8584      2.4036      0.0891     14.9324     73.2720     22.5514
  2008.7000      7.8584      2.4231      0.1129     13.7487     79.9061     23.8886
  2008.8000      7.8558      2.4366      0.1320     12.9360     79.5082     25.1959
  2008.9000      7.8558      2.4501      0.1192     12.1170     72.8334     25.9534
  2009.0000      7.8020      2.4757      0.1767     10.5632     68.3901     26.2534
  2009.1000      7.8020      2.5105      0.2164      8.4563     71.7919     26.3248
  2009.2000      7.8020      2.5355      0.1913      6.9396     79.5699     26.2859
  2009.3000      7.7889      2.5357      0.2142      6.9290     86.4158     26.4597
  2009.4000      7.7889      2.5186      0.1555      7.9661     89.9882     27.0337
  2009.5000      7.8550      2.5055      0.1441      8.7591     92.1366     27.4828
  2009.6000      7.8550      2.5020      0.1255      8.9709     97.4900     27.4810
  2009.7000      7.8550      2.5032      0.1166      8.8957    106.9223     27.7105
  2009.8000      7.8909      2.5062      0.1192      8.7156    114.6115     28.4699
  2009.9000      7.8909      2.5038      0.0997      8.8601    115.1406     29.1876
  2010.0000      7.9150      2.4929      0.0929      9.5216    110.8343     29.5977
  2010.1000      7.9150      2.4765      0.0897     10.5156    106.8718     29.7095
  2010.2000      7.9150      2.4587      0.0407     11.5938    108.0797     29.2629
  2010.3000      7.9222      2.4461      0.0145     12.3571    113.9038     28.2031
  2010.4000      7.9222      2.4437      0.0099     12.5039    117.2689     26.9811
  2010.5000      7.9229      2.4526      0.0248     11.9647    115.3893     26.0943
  2010.6000      7.9229      2.4686      0.0336     10.9960    111.4014     25.8139
  2010.7000      7.9229      2.4798      0.0898     10.3151    106.8378     26.1000
  2010.8000      7.9174      2.4801      0.0443     10.2965    103.5050     26.5716
  2010.9000      7.9174      2.4774      0.0725     10.4616    103.7153     27.1567
  2011.0000      7.9226      2.4755      0.0780     10.5745    107.3452     28.0932
  2011.1000      7.9226      2.4673      0.0595     11.0728    113.8257     29.1159
  2011.2000      7.9226      2.4478      0.0448     12.2551    120.4949     29.6784
  2011.3000      7.9295      2.4308     -0.0110     13.2858    123.2423     29.6435
  2011.4000      7.9295      2.4378      0.0167     12.8580    122.9523     29.2931
  2011.5000      7.9336      2.4675      0.0743     11.0590    121.4575     28.9507
  2011.6000      7.9336      2.5014      0.0810      9.0073    119.0100     28.8070
  2011.7000      7.9336      2.5215      0.1195      7.7873    119.6572     28.7652
  2011.8000      7.9118      2.5266      0.0548      7.4798    124.7363     28.5705
  2011.9000      7.9118      2.5353      0.0401      6.9487    125.6531     28.1305
  2012.0000      7.9071      2.5473      0.1150      6.2266    117.5234     27.4666
  2012.1000      7.9071      2.5425      0.0979      6.5161    107.9482     26.7808
  2012.2000      7.9071      2.5223      0.1002      7.7379    104.9087     26.5074
  2012.3000      7.9102      2.5066      0.0261      8.6899    109.1440     26.8295
  2012.4000      7.9102      2.5100      0.0604      8.4842    115.4951     27.3199
  2012.5000      7.9124      2.5219      0.0780      7.7634    118.3843     27.6179
  2012.6000      7.9124      2.5145      0.0809      8.2127    117.9473     27.7974
  2012.7000      7.9124      2.4825     -0.0099     10.1534    115.7052     27.9610
  2012.8000      7.9167      2.4463     -0.0132     12.3463    113.1714     28.1429
  2012.9000      7.9167      2.4241     -0.0429     13.6920    111.5699     27.9331
  2013.0000      7.9095      2.4260      0.0016     13.5747    109.9278     26.9242
  2013.1000      7.9095      2.4447      0.0411     12.4438    109.9544     25.8106
  2013.2000      7.9095      2.4635      0.0136     11.3054    111.8873     25.4653
  2013.3000      7.9103      2.4774      0.0248     10.4631    112.0288     25.8091
  2013.4000      7.9103      2.4840      0.0192     10.0580    111.0947     26.3096
  2013.5000      7.8951      2.4837      0.0225     10.0806    111.8732     26.5286
  2013.6000      7.8951      2.4902     -0.0356      9.6872    112.6574     26.2961
  2013.7000      7.8951      2.5057      0.1118      8.7482    110.5506     25.7624
  2013.8000      7.9004      2.5054      0.1031      8.7640    107.0705     25.3552
  2013.9000      7.9004      2.4859      0.0492      9.9430    105.6208     25.1800
  2014.0000      7.8869      2.4722      0.0057     10.7750    104.7301     25.0473
  2014.1000      7.8869      2.4705      0.0700     10.8797    100.8239     25.0179
  2014.2000      7.8869      2.4683      0.0440     11.0116     96.2962     25.1403
  2014.3000      7.8866      2.4664      0.0335     11.1277     93.7939     25.4060
  2014.4000      7.8866      2.4711      0.0388     10.8423     93.3782     25.7099
  2014.5000      7.8914      2.4764      0.0623     10.5195     97.0654     25.7700
  2014.6000      7.8914      2.4726      0.0484     10.7495    104.6624     25.5875
  2014.7000      7.8914      2.4652     -0.0094     11.1987    110.0933     25.4360
  2014.8000      7.8953      2.4699      0.0062     10.9174    109.7545     25.4543
  2014.9000      7.8953      2.4841      0.0430     10.0548    107.2528     25.4945
  2015.0000      7.8974      2.4905      0.0430      9.6694    104.9182     25.4071
  2015.1000      7.8974      2.4875     -0.0077      9.8505    103.0750     25.5195
  2015.2000      7.8974      2.4873      0.0388      9.8623    101.1557     26.1522
  2015.3000      7.9019      2.4907      0.0305      9.6564     97.3224     26.8713
  2015.4000      7.9019      2.4947     -0.0119      9.4100     93.3883     27.1932
  2015.5000      7.9030      2.5010      0.0306      9.0318     94.5683     27.1229
  2015.6000      7.9030      2.5033      0.0344      8.8885    100.8101     26.7574
  2015.7000      7.9030      2.4967      0.0241      9.2898    106.2563     26.3688
  2015.8000      7.8980      2.4873      0.0185      9.8609    107.9746     26.2312
  2015.9000      7.8980      2.4864      0.0271      9.9129    106.4442     26.0604
  2016.0000      7.8889      2.5013      0.0106      9.0123    103.2077     25.4094
  2016.1000      7.8889      2.5289      0.0415      7.3403    100.7961     24.4860
  2016.2000      7.8889      2.5490      0.0830      6.1202    100.4633     23.9140
  2016.3000      7.8703      2.5441      0.0767      6.4198    101.1785     23.9922
  2016.4000      7.8703      2.5286      0.0429      7.3578    100.6495     24.3526
  2016.5000      7.8462      2.5264      0.0841      7.4903     97.0746     24.7178
  2016.6000      7.8462      2.5413      0.1298      6.5906     92.9415     25.2175
  2016.7000      7.8462      2.5629      0.1687      5.2773     93.1687     25.7462
  2016.8000      7.7749      2.5793      0.1663      4.2819     96.7667     26.0052
  2016.9000      7.7749      2.5882      0.0890      3.7442     98.5772     25.8746
  2017.0000      7.7583      2.5913      0.1224      3.5558     97.1914     25.5276
  2017.1000      7.7583      2.5862      0.0916      3.8640     95.9512     25.0359
  2017.2000      7.7583      2.5781      0.0744      4.3553     97.1213     24.3360
  2017.3000      7.7978      2.5653      0.0694      5.1306     98.7488     23.8719
  2017.4000      7.7978      2.5320      0.0852      7.1507     99.5030     24.1775
  2017.5000      7.8714      2.4829      0.0032     10.1257    101.5716     24.9947
