~Version Information
VERS.                      2.0: CWLS Log ASCII Standard - VERSION 2.0
WRAP.                       NO: One line per depth step
~Well Information Block
STRT.FT                15.0000: 
STOP.FT              2409.7500: 
STEP.FT                 0.2500: 
NULL.                -999.2500: 
COMP.          Pioneer Natural Resources: COMPANY
WELL.          Oink Oink 14-36: WELL
FLD.           Purgatoire River: FIELD
LOC.           216' FSL & 263' FWL: LOCATION
PROV.                 Colorado: PROVINCE
CNTY.               Las Animas: COUNTRY
SRVC.                Patterson: SERVICE COMPANY
DATE.          Wed Jun 22 11:05:26 2005: LOG DATE
UWI.           05 071 08394 00: UNIQUE WELL ID
~Curve Information Block
DEPT.FT            0 000 00 00: Depth
GR.GAPI                       : Gamma Ray
CCL.                          : Casing Collar Locator
TT3.usec                      : CBL 3' Travel Time
AMP3.mV                       : CBL 3' Amplitude
~Parameter Information Block
~A  Depth        GR         CCL         TT3         AMP3    
# ...
  2360.0000     83.0516      0.0000    310.2230     22.8663
  2360.2500     86.0250      0.0000    309.3752     22.8165
  2360.5000     89.0965      0.0000    309.9903     22.7376
  2360.7500     91.6017      0.0000    312.2754     22.6367
  2361.0000     92.7605      0.0000    316.4699     22.5223
  2361.2500     92.2862      0.0000    321.9371     22.4287
  2361.5000     91.0011      0.0000    326.7231     22.4160
  2361.7500     90.5831      0.0000    328.4428     22.5367
  2362.0000     92.2108      0.0000    326.0379     22.7982
  2362.2500     95.2253      0.0000    320.6755     23.1558
  2362.5000     97.4630      0.0000    314.7839     23.5470
  2362.7500     97.1805      0.0000    310.2598     23.9334
  2363.0000     94.4763      0.0000    307.5900     24.3138
  2363.2500     90.9231      0.0000    306.2892     24.6981
  2363.5000     88.2700      0.0000    305.7287     25.0752
  2363.7500     87.3466      0.0000    305.5852     25.4022
  2364.0000     87.7328      0.0000    305.9302     25.6146
  2364.2500     88.4535      0.0000    307.2232     25.6144
  2364.5000     89.1412      0.0000    310.1512     25.2332
  2364.7500     90.4158      0.0000    315.0008     24.2722
  2365.0000     93.1303      0.0000    320.7829     22.6995
  2365.2500     97.3293      0.0000    325.2142     20.8308
  2365.5000    101.8892      0.0000    326.2567     19.1867
  2365.7500    105.2970      0.0000    323.9680     18.0990
  2366.0000    107.0343      0.0000    320.6403     17.5102
  2366.2500    107.9101      0.0000    319.2369     17.1502
  2366.5000    108.6785     -3.0000    322.0901     16.8052
  2366.7500    108.7771     -3.0000    330.5539     16.4373
  2367.0000    106.9510      0.0000    345.0088     16.1779
  2367.2500    102.8103      0.0000    364.5906     16.2233
  2367.5000     97.4117      0.0000    386.1104     16.6229
  2367.7500     92.4393      0.0000    402.9529     17.1428
  2368.0000     88.9507      0.0000    407.7685     17.4426
  2368.2500     87.0024      0.0000    399.8558     17.3760
  2368.5000     86.6437      0.0000    388.7541     17.0348
  2368.7500     88.8224      0.0000    387.0207     16.5557
  2369.0000     94.5611      0.0000    399.5018     16.0019
  2369.2500    103.1361      0.0000    420.8758     15.3961
  2369.5000    111.5955      0.0000    442.0136     14.7642
  2369.7500    116.5222      0.0000    456.9847     14.1313
  2370.0000    116.4633      0.0000    465.0541     13.5136
  2370.2500    112.7519      0.0000    468.4774     12.9215
  2370.5000    108.0124      0.0000    469.7342     12.3583
  2370.7500    103.9512      0.0000    470.2719     11.8195
  2371.0000    100.7525      0.0000    470.6488     11.2979
  2371.2500     98.2689      0.0000    470.9945     10.7928
  2371.5000     96.8160      0.0000    471.3203     10.3136
  2371.7500     96.3783      0.0000    471.6279      9.8728
  2372.0000     95.8906      0.0000    471.9090      9.4766
  2372.2500     94.1008      0.0000    472.1442      9.1198
  2372.5000     90.8921      0.0000    472.3110      8.7914
  2372.7500     87.3159      0.0000    472.3881      8.4857
  2373.0000     84.7008      0.0000    472.3511      8.2038
  2373.2500     84.1004      0.0000    472.1708      7.9473
  2373.5000     86.0504      0.0000    471.8219      7.7181
  2373.7500     90.1778      0.0000    471.2987      7.5217
  2374.0000     95.3650      0.0000    470.6258      7.3643
  2374.2500    100.9013      0.0000    469.8511      7.2382
  2374.5000    107.2684      0.0000    469.0238      7.1180
  2374.7500    115.2595      0.0000    468.1761      6.9792
  2375.0000    124.3390      0.0000    467.3304      6.8184
  2375.2500    132.0938      0.0000    466.5325      6.6539
  2375.5000    135.4202      0.0000    465.8807      6.5083
  2375.7500    132.6403      0.0000    465.5075      6.3960
  2376.0000    124.9388      0.0000    465.5035      6.3235
  2376.2500    115.7656      0.0000    465.8344      6.2920
  2376.5000    108.6491      0.0000    466.3359      6.2945
  2376.7500    105.2895      0.0000    466.8062      6.3133
  2377.0000    105.1980      0.0000    467.1096      6.3269
  2377.2500    106.6965      0.0000    467.1960      6.3224
  2377.5000    108.3952      0.0000    467.0498      6.3030
  2377.7500    109.9459      0.0000    466.6659      6.2823
  2378.0000    111.3918      0.0000    466.0896      6.2732
  2378.2500    112.0054      0.0000    465.4543      6.2782
  2378.5000    110.3342      0.0000    464.9497      6.2916
  2378.7500    105.6352      0.0000    464.7265      6.3088
  2379.0000     99.0423      0.0000    464.8091      6.3338
  2379.2500     93.1008      0.0000    465.0882      6.3768
  2379.5000     90.1968      0.0000    465.3944      6.4459
  2379.7500     91.1063      0.0000    465.5934      6.5407
  2380.0000     94.4489      0.0000    465.6521      6.6503
  2380.2500     97.6760      0.0000    465.6523      6.7541
  2380.5000     99.2389      0.0000    465.7339      6.8308
  2380.7500     99.8177      0.0000    465.9938      6.8686
  2381.0000    101.1501      0.0000    466.4285      6.8708
  2381.2500    103.8426      0.0000    467.0358      6.8479
  2381.5000    106.6124      0.0000    468.1237      6.8100
  2381.7500    107.5266      0.0000    470.7491      6.7643
  2382.0000    105.7104      0.0000    476.8442      6.7167
  2382.2500    101.7028      0.0000    488.3051      6.6706
  2382.5000     96.4581      0.0000    505.0956      6.6277
  2382.7500     90.7303      0.0000    524.1375      6.5884
  2383.0000     85.6760      0.0000    540.8102      6.5508
  2383.2500     83.0538      0.0000    551.9336      6.5068
  2383.5000     83.8817      0.0000    557.1411      6.4430
  2383.7500     87.1730      0.0000    557.6588      6.3496
  2384.0000     90.6066      0.0000    554.6823      6.2291
  2384.2500     92.3882      0.0000    549.4274      6.0977
  2384.5000     92.2248      0.0000    544.1749      5.9765
  2384.7500     90.7670      0.0000    541.9376      5.8804
  2385.0000     88.6857      0.0000    544.2665      5.8120
  2385.2500     86.5943      0.0000    549.8619      5.7646
  2385.5000     85.4566      0.0000    555.9368      5.7280
  2385.7500     86.3128      0.0000    560.4807      5.6956
  2386.0000     89.3003      0.0000    562.8230      5.6684
  2386.2500     93.1943      0.0000    562.7117      5.6513
  2386.5000     96.1131      0.0000    559.8175      5.6467
  2386.7500     96.6121      0.0000    554.5297      5.6537
  2387.0000     94.2376      0.0000    548.9573      5.6756
  2387.2500     89.5997      0.0000    546.2017      5.7217
  2387.5000     84.2105      0.0000    547.8659      5.7978
  2387.7500     79.8566      0.0000    552.4901      5.8972
  2388.0000     77.7488      0.0000    556.7836      6.0028
  2388.2500     78.2580      0.0000    557.7610      6.0969
  2388.5000     81.2129      0.0000    553.4388      6.1680
  2388.7500     86.0463      0.0000    542.7901      6.2113
  2389.0000     91.7073      0.0000    526.5623      6.2270
  2389.2500     96.8661      0.0000    508.1190      6.2192
  2389.5000    100.4308      0.0000    492.3009      6.1955
  2389.7500    101.9961      0.0000    482.8260      6.1658
  2390.0000    101.8918      0.0000    480.6538      6.1382
  2390.2500    100.6391      0.0000    483.9951      6.1144
  2390.5000     98.2976      0.0000    489.0771      6.0912
  2390.7500     94.7205      0.0000    491.9156      6.0652
  2391.0000     90.5729      0.0000    491.3293      6.0369
  2391.2500     87.4779      0.0000    490.9710      6.0153
  2391.5000     86.5558      0.0000    497.8044      6.0165
  2391.7500     87.0358      0.0000    517.3872      6.0555
  2392.0000     86.9196      0.0000    548.7637      6.1323
  2392.2500     85.0777      0.0000    582.8337      6.2239
  2392.5000     82.1901      0.0000    607.0585      6.2946
  2392.7500     79.6289      0.0000    613.8676      6.3189
  2393.0000     78.1073      0.0000    605.3060      6.2937
  2393.2500     77.7136      0.0000    590.0704      6.2316
