~Version Information
VERS.                      2.0: CWLS Log ASCII Standard - VERSION 2.0
WRAP.                       NO: One line per depth step
~Well Information Block
STRT.FT               840.0000: 
STOP.FT              2020.0000: 
STEP.FT                 0.1000: 
NULL.                -999.2500: 
COMP.          Petrogulf Corporation: COMPANY
WELL.           Lavedure 7-44R: WELL
FLD.           Purgatorie River: FIELD
LOC.           946' FSL & 521' FEL: LOCATION
PROV.                 Colorado: PROVINCE
CNTY.               Las Animas: COUNTRY
SRVC.                Patterson: SERVICE COMPANY
DATE.          Mon Sep 26 08:30:48 2005: LOG DATE
UWI.                          : UNIQUE WELL ID
~Curve Information Block
DEPT.FT            0 000 00 00: Depth
DCAL.in                       : CDL Caliper
RHOB.g/cc                     : CDL Bulk Density
RHOC.g/cc                     : CDL Density Correction
DPOR.pu                       : CDL Density Porosity
GR.GAPI                       : Gamma Ray
NPOR.pu                       : Neutron Porosity
~Parameter Information Block
~A  Depth       DCAL        RHOB        RHOC        DPOR         GR         NPOR    
# ...
  1147.2000      8.2184      2.5549      0.0167      5.7631    126.1872     28.7107
  1147.3000      8.2222      2.5651      0.0572      5.1446    126.6487     28.7036
  1147.4000      8.2222      2.5616      0.0471      5.3546    128.9087     28.5322
  1147.5000      8.2193      2.5524      0.0038      5.9143    128.9022     28.2608
  1147.6000      8.2193      2.5439      0.0525      6.4316    127.2535     28.0874
  1147.7000      8.2193      2.5416      0.0101      6.5723    128.2031     27.9494
  1147.8000      8.2155      2.5517     -0.0072      5.9579    131.8201     27.6281
  1147.9000      8.2155      2.5652      0.0671      5.1382    134.5160     27.1321
  1148.0000      8.2137      2.5620      0.0576      5.3352    135.2153     26.8453
  1148.1000      8.2137      2.5448     -0.0119      6.3747    133.4956     27.0612
  1148.2000      8.2137      2.5347     -0.0110      6.9858    131.2901     27.7227
  1148.3000      8.2176      2.5376      0.0074      6.8129    132.6288     28.3995
  1148.4000      8.2176      2.5443      0.0171      6.4071    134.5193     28.6122
  1148.5000      8.2108      2.5471      0.0155      6.2358    133.6428     28.2907
  1148.6000      8.2108      2.5438      0.0294      6.4383    133.4129     27.8210
  1148.7000      8.2108      2.5390      0.0004      6.7252    134.8611     27.7854
  1148.8000      8.2076      2.5398     -0.0160      6.6786    134.0918     28.2066
  1148.9000      8.2076      2.5427      0.0388      6.5055    131.3365     28.5338
  1149.0000      8.2071      2.5415     -0.0189      6.5767    130.0510     28.7106
  1149.1000      8.2071      2.5397      0.0179      6.6849    129.6273     29.1721
  1149.2000      8.2071      2.5356      0.0799      6.9336    128.6074     29.7719
  1149.3000      8.2143      2.5305      0.0068      7.2419    128.1906     30.0766
  1149.4000      8.2143      2.5420     -0.0001      6.5459    129.9707     29.9717
  1149.5000      8.2223      2.5713      0.0603      4.7693    133.4558     29.6309
  1149.6000      8.2223      2.6027      0.0509      2.8657    135.4392     29.3945
  1149.7000      8.2223      2.6370      0.0560      0.7874    134.4214     29.3921
  1149.8000      8.2147      2.6779      0.0870     -1.6936    130.7035     29.4710
  1149.9000      8.2147      2.7140      0.1176     -3.8813    127.1043     29.4006
  1150.0000      8.2103      2.7392      0.0555     -5.4086    127.9146     29.0965
  1150.1000      8.2103      2.7563      0.1306     -6.4416    132.0736     28.8255
  1150.2000      8.2103      2.7613      0.0680     -6.7476    135.1592     28.9207
  1150.3000      8.2087      2.7483      0.0575     -5.9568    137.5476     29.2812
  1150.4000      8.2087      2.7173      0.0172     -4.0761    140.7580     29.5971
  1150.5000      8.2086      2.6740      0.0316     -1.4540    141.1005     29.6169
  1150.6000      8.2086      2.6302     -0.0479      1.2028    137.9910     29.2188
  1150.7000      8.2086      2.6032     -0.0550      2.8387    135.5711     28.7293
  1150.8000      8.2154      2.5968     -0.0229      3.2235    134.3689     28.5421
  1150.9000      8.2154      2.5991      0.0120      3.0853    130.9297     28.6080
  1151.0000      8.2137      2.6059      0.0230      2.6724    124.7464     28.7096
  1151.1000      8.2137      2.6228      0.0388      1.6501    121.6236     28.6943
  1151.2000      8.2137      2.6479      0.1062      0.1294    125.4551     28.6580
  1151.3000      8.2089      2.6702      0.0832     -1.2214    134.4584     28.7333
  1151.4000      8.2089      2.6825      0.0613     -1.9694    142.4467     28.8035
  1151.5000      8.2028      2.6842      0.0412     -2.0709    142.6510     28.8059
  1151.6000      8.2028      2.6765      0.0579     -1.6073    137.8464     28.6992
  1151.7000      8.2028      2.6664      0.0423     -0.9966    135.9836     28.4669
  1151.8000      8.1848      2.6597      0.0591     -0.5862    137.4956     28.3417
  1151.9000      8.1848      2.6484      0.0465      0.0951    137.9304     28.3379
  1152.0000      8.1823      2.6230      0.0397      1.6392    135.5795     28.1246
  1152.1000      8.1823      2.5920      0.0711      3.5138    130.7185     27.7013
  1152.2000      8.1823      2.5770      0.0252      4.4267    125.4605     27.3256
  1152.3000      8.1807      2.5851      0.0764      3.9352    125.5957     27.1010
  1152.4000      8.1807      2.6024      0.0619      2.8870    130.1653     27.0632
  1152.5000      8.1768      2.6140      0.0741      2.1827    134.2946     27.1814
  1152.6000      8.1768      2.6141      0.1040      2.1783    139.2367     27.3218
  1152.7000      8.1768      2.6057      0.0414      2.6864    143.1059     27.3972
  1152.8000      8.1790      2.5988      0.0604      3.1004    139.9339     27.4872
  1152.9000      8.1790      2.5976      0.0327      3.1776    132.8689     27.5431
  1153.0000      8.1767      2.6061      0.0172      2.6603    129.3140     27.4024
  1153.1000      8.1767      2.6259      0.0709      1.4603    128.6991     27.2334
  1153.2000      8.1767      2.6410      0.0973      0.5433    128.4941     27.4177
  1153.3000      8.1794      2.6345      0.0582      0.9419    130.3558     27.9009
  1153.4000      8.1794      2.6117      0.0416      2.3221    134.3252     28.2561
  1153.5000      8.1798      2.5926      0.0047      3.4779    137.0675     28.3220
  1153.6000      8.1798      2.5896      0.0183      3.6601    139.9531     28.3603
  1153.7000      8.1798      2.6041      0.0324      2.7789    144.0926     28.6359
  1153.8000      8.1795      2.6263      0.0735      1.4346    145.8527     28.9767
  1153.9000      8.1795      2.6367      0.0548      0.8043    145.9816     29.0587
  1154.0000      8.1777      2.6237      0.0742      1.5949    146.6217     28.9306
  1154.1000      8.1777      2.5970      0.0137      3.2143    147.1918     28.8474
  1154.2000      8.1777      2.5784      0.0243      4.3374    147.1788     28.9073
  1154.3000      8.1804      2.5765      0.0569      4.4542    146.9299     29.1422
  1154.4000      8.1804      2.5839      0.0254      4.0042    147.4036     29.5339
  1154.5000      8.1856      2.5882      0.0415      3.7427    147.9516     29.9434
  1154.6000      8.1856      2.5823      0.0312      4.1009    146.4003     30.1722
  1154.7000      8.1856      2.5706      0.0214      4.8144    143.0082     30.1700
  1154.8000      8.1778      2.5572      0.0460      5.6235    140.5733     29.9953
  1154.9000      8.1778      2.5475      0.0230      6.2099    141.1686     29.6547
  1155.0000      8.1805      2.5461      0.0568      6.2954    143.9574     29.3789
  1155.1000      8.1805      2.5455      0.0573      6.3348    145.4930     29.4303
  1155.2000      8.1805      2.5365      0.0287      6.8791    145.2116     29.6801
  1155.3000      8.1720      2.5157      0.0250      8.1376    144.7610     29.8202
  1155.4000      8.1720      2.4938     -0.0072      9.4689    144.7054     29.6572
  1155.5000      8.1714      2.4920     -0.0175      9.5754    145.1879     29.2925
  1155.6000      8.1714      2.5042      0.0577      8.8362    145.1359     29.0140
  1155.7000      8.1714      2.5029      0.0069      8.9125    144.1794     29.0609
  1155.8000      8.1688      2.4814      0.0065     10.2178    142.0388     29.2705
  1155.9000      8.1688      2.4480      0.0223     12.2442    138.7613     29.2705
  1156.0000      8.1721      2.4153     -0.0055     14.2231    137.8227     29.1996
  1156.1000      8.1721      2.4039      0.0140     14.9144    140.3647     29.4112
  1156.2000      8.1721      2.4207      0.0707     13.8950    140.9883     29.7437
  1156.3000      8.1763      2.4441      0.1132     12.4814    136.8542     29.8297
  1156.4000      8.1763      2.4525      0.0961     11.9701    133.6150     29.6498
  1156.5000      8.1752      2.4570      0.0589     11.6969    136.3829     29.5353
  1156.6000      8.1752      2.4758      0.1092     10.5556    141.6876     29.7345
  1156.7000      8.1752      2.4948      0.2071      9.4056    144.2444     30.1265
