~Version Information
VERS.                      2.0: CWLS Log ASCII Standard - VERSION 2.0
WRAP.                       NO: One line per depth step
~Well Information Block
STRT.FT               492.8000: 
STOP.FT              1992.0000: 
STEP.FT                 0.1000: 
NULL.                -999.2500: 
COMP.          Petrogulf Corporation: COMPANY
WELL.               Furu 6-23R: WELL
FLD.           Purgatoire River: FIELD
LOC.           2211' FSL & 1780' FWL--: LOCATION
CNTY.               Las Animas: COUNTY
SRVC.                Patterson: SERVICE COMPANY
DATE.          Thu Jun 22 14:21:35 2006: LOG DATE
UWI.           05 071 08266 00: UNIQUE WELL ID
STAT.                 Colorado: STATE
~Curve Information Block
DEPT.FT            0 000 00 00: Depth
DCAL.in                       : CDL Caliper
RHOB.g/cc                     : CDL Bulk Density
RHOC.g/cc                     : CDL Density Correction
DPOR.pu                       : CDL Density Porosity
NPOR.pu                       : Neutron Porosity
GR.GAPI                       : Gamma Ray
~Parameter Information Block
~A  Depth       DCAL        RHOB        RHOC        DPOR        NPOR         GR     
# ...
   694.4000      7.9725      2.4956      0.1122      9.3556     31.2045    171.6598
   694.5000      7.9717      2.4689      0.1034     10.9773     31.0440    175.0670
   694.6000      7.9717      2.4458      0.1229     12.3786     31.0722    172.4992
   694.7000      7.9717      2.4427      0.1481     12.5653     31.5499    167.1876
   694.8000      7.9701      2.4567      0.1756     11.7149     32.1740    164.2797
   694.9000      7.9701      2.4768      0.2563     10.4964     32.4239    165.9288
   695.0000      7.9669      2.4950      0.2867      9.3923     32.2360    167.8232
   695.1000      7.9669      2.5097      0.2313      8.5042     31.9497    166.5222
   695.2000      7.9669      2.5239      0.2317      7.6440     31.7241    161.5201
   695.3000      7.9606      2.5411      0.2514      6.6025     31.3055    155.4345
   695.4000      7.9606      2.5559      0.3039      5.7045     30.7510    154.0418
   695.5000      7.9579      2.5547      0.2843      5.7753     30.4877    159.3038
   695.6000      7.9579      2.5329      0.2315      7.0967     30.3261    164.5464
   695.7000      7.9579      2.5031      0.1708      8.9042     29.6199    162.7126
   695.8000      7.9524      2.4856      0.1357      9.9654     28.2104    156.7857
   695.9000      7.9524      2.4855      0.2317      9.9682     26.8452    154.2382
   696.0000      7.9415      2.4854      0.2202      9.9729     26.3403    155.8280
   696.1000      7.9415      2.4777      0.1557     10.4394     26.5929    155.9884
   696.2000      7.9415      2.4785      0.1386     10.3939     27.0282    150.9396
   696.3000      7.9396      2.4927      0.2131      9.5336     27.4518    142.0408
   696.4000      7.9396      2.5055      0.2048      8.7599     27.9314    136.4088
   696.5000      7.9359      2.5147      0.1995      8.2002     28.4532    138.5966
   696.6000      7.9359      2.5344      0.1776      7.0089     28.6228    143.8316
   696.7000      7.9359      2.5679      0.2104      4.9753     28.3178    145.7074
   696.8000      7.9284      2.5977      0.2402      3.1674     28.0278    142.3528
   696.9000      7.9284      2.6128      0.1857      2.2544     27.9441    136.4914
   697.0000      7.9235      2.6203      0.1833      1.8022     27.9547    132.1022
   697.1000      7.9235      2.6162      0.1903      2.0482     28.1804    131.6613
   697.2000      7.9235      2.5997      0.1123      3.0498     28.6388    133.1706
   697.3000      7.9236      2.5909      0.1243      3.5813     29.2294    132.4384
   697.4000      7.9236      2.5993      0.1616      3.0756     29.8370    129.5025
   697.5000      7.9238      2.6208      0.0850      1.7697     30.3673    127.6912
   697.6000      7.9238      2.6444      0.1408      0.3379     30.7757    127.1749
   697.7000      7.9238      2.6449      0.1189      0.3097     30.9603    124.6853
   697.8000      7.9243      2.6102      0.1536      2.4115     30.7996    121.8393
   697.9000      7.9243      2.5587      0.0929      5.5364     30.3412    122.6058
   698.0000      7.9252      2.5167      0.0902      8.0785     30.0510    126.9844
   698.1000      7.9252      2.4915      0.0929      9.6076     30.1623    132.7583
   698.2000      7.9252      2.4809      0.0863     10.2511     30.1000    138.0232
   698.3000      7.9271      2.4915      0.0777      9.6043     29.6455    143.7409
   698.4000      7.9271      2.5262      0.1328      7.5033     29.2808    148.0712
   698.5000      7.9309      2.5616      0.1960      5.3595     28.9877    148.4768
   698.6000      7.9309      2.5735      0.1691      4.6376     28.6146    146.2526
   698.7000      7.9309      2.5731      0.1887      4.6635     28.5603    142.0844
   698.8000      7.9384      2.5831      0.2188      4.0559     28.7801    135.9921
   698.9000      7.9384      2.6062      0.2382      2.6572     28.8863    132.7477
   699.0000      7.9434      2.6264      0.2627      1.4312     28.9777    135.8474
   699.1000      7.9434      2.6305      0.1889      1.1819     29.1179    139.0148
   699.2000      7.9434      2.6182      0.1555      1.9265     29.2719    138.3205
   699.3000      7.9434      2.6000      0.0694      3.0290     29.6247    137.6679
   699.4000      7.9434      2.5957      0.0861      3.2887     30.2236    139.8255
   699.5000      7.9436      2.6022      0.1383      2.8994     30.9149    141.1728
   699.6000      7.9436      2.5941      0.1068      3.3883     31.5456    139.3747
   699.7000      7.9436      2.5690      0.1198      4.9118     31.8864    137.6920
   699.8000      7.9438      2.5444      0.1006      6.3996     31.9194    138.0348
   699.9000      7.9438      2.5322      0.0907      7.1373     31.9008    139.9060
   700.0000      7.9442      2.5270      0.1043      7.4564     31.6600    141.0216
   700.1000      7.9442      2.5199      0.1114      7.8848     31.0122    140.3146
   700.2000      7.9442      2.5185      0.0880      7.9724     30.4295    137.7447
   700.3000      7.9451      2.5327      0.0932      7.1072     30.3051    133.6001
   700.4000      7.9451      2.5558      0.1020      5.7064     30.3859    132.3665
   700.5000      7.9469      2.5736      0.1394      4.6294     30.2308    136.6835
   700.6000      7.9469      2.5787      0.1111      4.3186     29.7899    142.7707
   700.7000      7.9469      2.5619      0.1869      5.3406     29.4555    145.4162
   700.8000      7.9506      2.5194      0.0956      7.9174     29.5480    142.7609
   700.9000      7.9506      2.4705      0.0893     10.8771     29.7422    137.1978
   701.0000      7.9578      2.4319      0.0608     13.2181     29.5284    132.6691
   701.1000      7.9578      2.4039      0.1031     14.9170     29.0048    132.9385
   701.2000      7.9578      2.3835      0.0905     16.1517     28.5789    138.3637
   701.3000      7.9622      2.3744      0.0973     16.7003     28.2114    145.3698
   701.4000      7.9622      2.3799      0.1445     16.3705     27.7379    149.7786
   701.5000      7.9712      2.3963      0.1548     15.3762     27.4470    149.7170
   701.6000      7.9712      2.4198      0.2099     13.9516     27.5890    144.3644
   701.7000      7.9712      2.4411      0.2656     12.6582     27.7657    136.6447
   701.8000      7.9790      2.4499      0.2177     12.1255     27.5873    133.1983
   701.9000      7.9790      2.4437      0.2076     12.5007     27.0670    133.0801
   702.0000      7.9947      2.4163      0.1981     14.1653     26.4715    132.9980
   702.1000      7.9947      2.3644      0.1874     17.3106     26.0900    136.8191
   702.2000      7.9947      2.3091      0.1067     20.6604     25.8361    143.9869
   702.3000      7.9961      2.2687      0.1470     23.1111     25.5075    149.2145
   702.4000      7.9961      2.2287      0.1470     25.5362     25.1287    153.8623
   702.5000      7.9989      2.1770      0.0850     28.6685     24.6609    157.4134
   702.6000      7.9989      2.1277      0.0611     31.6523     23.8456    157.1046
   702.7000      7.9989      2.0994      0.0794     33.3685     22.7585    156.6587
   702.8000      8.0046      2.1020      0.0950     33.2118     21.8675    159.7695
   702.9000      8.0046      2.1267      0.1870     31.7149     21.3862    162.7099
   703.0000      8.0158      2.1472      0.2032     30.4732     21.2963    162.1529
   703.1000      8.0158      2.1574      0.1667     29.8544     21.6060    163.8022
   703.2000      8.0158      2.1744      0.1478     28.8263     22.0934    168.0024
   703.3000      8.0184      2.2013      0.1909     27.1909     22.3390    165.2499
   703.4000      8.0184      2.2274      0.1694     25.6138     22.2561    154.3761
   703.5000      8.0235      2.2543      0.1473     23.9804     22.3131    143.7964
   703.6000      8.0235      2.2914      0.1598     21.7357     22.8954    137.0617
   703.7000      8.0235      2.3297      0.2034     19.4142     23.5170    138.3190
   703.8000      8.0237      2.3580      0.1893     17.6948     23.6070    152.3066
   703.9000      8.0237      2.3847      0.1884     16.0816     23.5063    167.5450
