~Version Information
VERS.                      2.0: CWLS Log ASCII Standard - VERSION 2.0
WRAP.                       NO: One line per depth step
~Well Information Block
STRT.FT                 3.0000: 
STOP.FT              1884.7500: 
STEP.FT                 0.2500: 
NULL.                -999.2500: 
COMP.          Pioneer Natural Resources: COMPANY
WELL.          Blackjack 32-11 Tr: WELL
FLD.           Purgatoire River: FIELD
LOC.           2066' FNL & 1453' FEL: LOCATION
PROV.                 Colorado: PROVINCE
CNTY.               Las Animas: COUNTRY
SRVC.                Patterson: SERVICE COMPANY
DATE.          Fri Aug 19 11:07:11 2005: LOG DATE
UWI.           05 071 08310 00: UNIQUE WELL ID
~Curve Information Block
DEPT.FT            0 000 00 00: Depth
CCL.                          : Casing Collar Locator
TT3.usec                      : CBL 3' Travel Time
AMP3.mV                       : CBL 3' Amplitude
GR.GAPI                       : Gamma Ray
~Parameter Information Block
~A  Depth       CCL         TT3         AMP3         GR     
# ...
  1108.5000      0.0000    824.2036     11.6399    103.2802
  1108.7500      0.0000    826.2252     12.2942    101.5283
  1109.0000      0.0000    825.9135     12.4327    100.3328
  1109.2500      0.0000    825.9144     12.2656    100.9419
  1109.5000      0.0000    828.1356     12.0229    103.5693
  1109.7500      0.0000    831.9299     11.8273    107.9411
  1110.0000      0.0000    835.0054     11.7071    113.0716
  1110.2500      0.0000    835.6449     11.6465    117.0497
  1110.5000      0.0000    833.9042     11.6172    118.0205
  1110.7500      0.0000    831.5167     11.5950    115.4204
  1111.0000      0.0000    830.9384     11.5691    110.1074
  1111.2500      0.0000    833.7230     11.5414    103.6329
  1111.5000      0.0000    839.5649     11.5217     97.3930
  1111.7500      0.0000    847.5045     11.5239     92.1008
  1112.0000      0.0000    857.5540     11.5682     87.8793
  1112.2500      0.0000    869.2682     11.6913     84.7216
  1112.5000      0.0000    878.9078     11.9453     82.7145
  1112.7500      0.0000    880.9193     12.3601     82.0017
  1113.0000      0.0000    872.8901     12.8910     82.8789
  1113.2500      0.0000    856.6643     13.4274     85.8526
  1113.5000      0.0000    834.7044     13.8729     91.3134
  1113.7500      0.0000    808.6827     14.1993     98.9612
  1114.0000      0.0000    782.4789     14.4248    107.5320
  1114.2500      0.0000    763.8175     14.5859    115.2185
  1114.5000      0.0000    760.9341     14.7242    120.5300
  1114.7500      0.0000    777.4874     14.8390    122.8352
  1115.0000      0.0000    809.6595     14.8459    122.3596
  1115.2500      0.0000    846.8159     14.6443    120.0168
  1115.5000      0.0000    875.7746     14.2439    117.1005
  1115.7500      0.0000    886.6627     13.7836    114.7320
  1116.0000      0.0000    876.5555     13.4111    113.4679
  1116.2500      0.0000    849.3000     13.1782    113.4122
  1116.5000      0.0000    813.1630     13.0512    114.3828
  1116.7500      0.0000    777.7137     12.9755    115.7824
  1117.0000      0.0000    750.2336     12.9092    116.8198
  1117.2500      0.0000    733.2515     12.8249    117.2866
  1117.5000      0.0000    725.1956     12.7096    117.7959
  1117.7500      0.0000    723.3740     12.5703    118.8430
  1118.0000      0.0000    726.5417     12.4329    119.8455
  1118.2500      0.0000    734.9528     12.3260    119.5331
  1118.5000      0.0000    747.7399     12.2662    117.2566
  1118.7500      0.0000    760.2343     12.2543    113.6966
  1119.0000      0.0000    765.4756     12.2777    110.4349
  1119.2500      0.0000    760.0215     12.3163    108.9648
  1119.5000      0.0000    747.4063     12.3530    109.7521
  1119.7500      0.0000    734.6484     12.3851    111.8674
  1120.0000      0.0000    726.4006     12.4222    113.6043
  1120.2500      0.0000    723.2671     12.4751    113.7560
  1120.5000      0.0000    723.9496     12.5493    112.4895
  1120.7500      0.0000    727.1129     12.6481    111.0669
  1121.0000      0.0000    731.4374     12.7756    110.6896
  1121.2500      0.0000    735.2398     12.9320    111.6057
  1121.5000      0.0000    737.0899     13.1044    113.3534
  1121.7500      0.0000    737.1414     13.2632    115.6225
  1122.0000      0.0000    738.1951     13.3758    118.4999
  1122.2500      0.0000    745.1427     13.4312    121.8554
  1122.5000      0.0000    762.2493     13.4521    124.7981
  1122.7500      0.0000    789.8107     13.4753    125.9896
  1123.0000      0.0000    823.2771     13.5194    124.5199
  1123.2500      0.0000    855.4334     13.5738    120.5116
  1123.5000      0.0000    878.8381     13.6182    115.1268
  1123.7500      0.0000    887.6581     13.6480    110.1440
  1124.0000      0.0000    880.8578     13.6766    107.1289
  1124.2500      0.0000    865.0839     13.7151    106.5335
  1124.5000      0.0000    851.8694     13.7539    107.6380
  1124.7500      0.0000    848.8663     13.7649    109.5201
  1125.0000      0.0000    852.6287     13.7264    111.9143
  1125.2500      0.0000    850.5630     13.6473    114.9577
  1125.5000      0.0000    831.0211     13.5643    118.2004
  1125.7500      0.0000    792.7402     13.5081    120.0891
  1126.0000      0.0000    746.0037     13.4729    118.6483
  1126.2500      0.0000    705.6542     13.4267    112.8717
  1126.5000      0.0000    681.3169     13.3492    103.6286
  1126.7500      0.0000    671.0045     13.2510     93.2411
  1127.0000      0.0000    664.2433     13.1546     84.0998
  1127.2500      0.0000    653.9412     13.0664     77.6076
  1127.5000      0.0000    643.7664     12.9706     74.1266
  1127.7500      0.0000    640.7186     12.8434     73.4529
  1128.0000      0.0000    643.7406     12.6718     75.2324
  1128.2500      0.0000    646.0834     12.4666     79.1865
  1128.5000      0.0000    647.4536     12.2622     85.0417
  1128.7500      0.0000    656.3911     12.1005     92.1506
  1129.0000      0.0000    679.7097     12.0125     99.3004
  1129.2500      0.0000    715.0949     12.0091    105.1519
  1129.5000      0.0000    754.8447     12.0804    108.8859
  1129.7500      0.0000    792.4396     12.2030    110.3372
  1130.0000      0.0000    824.5207     12.3510    109.6555
  1130.2500      0.0000    850.0867     12.5019    107.1504
  1130.5000      0.0000    869.1501     12.6339    103.4792
  1130.7500      0.0000    881.0228     12.7267     99.6788
  1131.0000      0.0000    884.2199     12.7782     96.8054
  1131.2500      0.0000    879.0281     12.8140     95.5433
  1131.5000      0.0000    868.5578     12.8648     96.0806
  1131.7500      0.0000    855.5283     12.9262     98.2148
  1132.0000      0.0000    839.5989     12.9472    101.3872
  1132.2500      0.0000    819.5741     12.8677    104.5624
  1132.5000      0.0000    796.8233     12.6699    106.5048
  1132.7500      0.0000    775.1037     12.3986    106.8233
  1133.0000      0.0000    758.1698     12.1333    106.7773
  1133.2500      0.0000    748.0690     11.9398    108.4237
  1133.5000      0.0000    743.4619     11.8428    112.5971
  1133.7500      0.0000    737.7433     11.8330    117.9005
  1134.0000      0.0000    721.4528     11.8918    121.7673
  1134.2500      0.0000    690.8068     12.0044    122.5254
  1134.5000      0.0000    653.4089     12.1563    120.6299
  1134.7500      0.0000    622.5173     12.3274    117.8886
  1135.0000      0.0000    607.0001     12.4978    115.4041
  1135.2500      0.0000    609.2926     12.6567    112.5311
  1135.5000      0.0000    628.2562     12.7999    107.9326
  1135.7500      0.0000    658.3436     12.9162    101.3142
  1136.0000      0.0000    689.1058     12.9846     93.9312
  1136.2500      0.0000    710.9888     12.9857     87.5918
  1136.5000      0.0000    721.5823     12.9178     83.2350
  1136.7500      0.0000    725.1334     12.8002     80.4202
  1137.0000      0.0000    727.4298     12.6638     78.2614
  1137.2500      0.0000    731.7309     12.5397     76.7390
  1137.5000      0.0000    738.0049     12.4515     76.8596
  1137.7500      0.0000    744.7505     12.4119     79.6866
  1138.0000      0.0000    751.1991     12.4249     85.4279
  1138.2500      0.0000    757.1693     12.4900     93.1854
  1138.5000      0.0000    761.0735     12.6047    101.2449
  1138.7500      0.0000    759.9753     12.7666    107.6817
  1139.0000      0.0000    752.6779     12.9698    111.1471
  1139.2500      0.0000    741.8080     13.1848    111.5538
  1139.5000      0.0000    732.1196     13.3381    110.0612
  1139.7500      0.0000    727.5128     13.3421    108.0539
  1140.0000      0.0000    729.9734     13.1745    106.0942
  1140.2500      0.0000    739.9911     12.9152    104.0791
  1140.5000      0.0000    756.4954     12.6850    102.1845
  1140.7500      0.0000    776.5122     12.5559    101.3391
  1141.0000      0.0000    795.9072     12.5264    102.8219
  1141.2500      0.0000    810.6124     12.5555    107.3153
  1141.5000      0.0000    816.5596     12.6009    114.0719
  1141.7500      0.0000    808.9349     12.6362    121.0872
