~Version Information
VERS.                      2.0: CWLS Log ASCII Standard - VERSION 2.0
WRAP.                       NO: One line per depth step
~Well Information Block
STRT.FT               360.0000: 
STOP.FT              1622.7500: 
STEP.FT                 0.2500: 
NULL.                -999.2500: 
COMP.          Pioneer Natural Resources: COMPANY
WELL.                Eric 42-9: WELL
FLD.           Purgatoire River: FIELD
LOC.           2050' FNL & 850' FEL: LOCATION
PROV.                 Colorado: PROVINCE
CNTY.               Las Animas: COUNTRY
SRVC.                Patterson: SERVICE COMPANY
DATE.          Sun Oct 31 17:26:46 2004: LOG DATE
UWI.           05 071 07999 00: UNIQUE WELL ID
~Curve Information Block
DEPT.FT            0 000 00 00: Depth
SN.Ohm-m                      : IEL Short Normal
SP.mV                         : IEL Spontaneous Potential
DIR.Ohm-m                     : IEL Induction Resistivity
GR.GAPI                       : Gamma Ray
~Parameter Information Block
~A  Depth        SN          SP         DIR          GR     
# ...
  1197.5000     27.2903    103.8345     23.1582    118.3569
  1197.7500     26.2012    104.6014     22.5313    128.4188
  1198.0000     24.9540    105.3664     21.8766    138.4147
  1198.2500     23.6570    106.0925     21.1889    140.9594
  1198.5000     22.4708    106.7479     20.4797    140.2780
  1198.7500     21.5323    107.3139     19.7827    139.0629
  1199.0000     20.8927    107.7877     19.1421    139.4889
  1199.2500     20.5143    108.1805     18.5923    141.5742
  1199.5000     20.3181    108.5098     18.1413    144.8201
  1199.7500     20.2293    108.7916     17.7679    145.2058
  1200.0000     20.1857    109.0337     17.4363    142.3831
  1200.2500     20.1355    109.2334     17.1203    139.4087
  1200.5000     20.0525    109.3794     16.8228    135.8332
  1200.7500     19.9615    109.4560     16.5777    134.7907
  1201.0000     19.9303    109.4490     16.4335    135.2822
  1201.2500     20.0227    109.3495     16.4308    136.5990
  1201.5000     20.2635    109.1560     16.5852    138.7064
  1201.7500     20.6452    108.8748     16.8824    139.0828
  1202.0000     21.1502    108.5192     17.2869    136.6947
  1202.2500     21.7593    108.1074     17.7597    133.1182
  1202.5000     22.4607    107.6611     18.2745    125.8245
  1202.7500     23.2673    107.2032     18.8226    120.4376
  1203.0000     24.2140    106.7543     19.4059    112.8051
  1203.2500     25.3183    106.3299     20.0265    108.6759
  1203.5000     26.5412    105.9378     20.6818    104.5207
  1203.7500     27.7939    105.5785     21.3658    102.7578
  1204.0000     28.9874    105.2459     22.0731     99.6453
  1204.2500     30.0730    104.9312     22.7957     95.8894
  1204.5000     31.0447    104.6263     23.5149     87.0492
  1204.7500     31.9185    104.3262     24.1962     80.1578
  1205.0000     32.7126    104.0304     24.8035     71.6087
  1205.2500     33.4363    103.7416     25.3272     68.4406
  1205.5000     34.0897    103.4641     25.8013     67.4629
  1205.7500     34.6753    103.2015     26.2921     68.3119
  1206.0000     35.2060    102.9551     26.8619     69.8713
  1206.2500     35.6979    102.7236     27.5329     70.3677
  1206.5000     36.1581    102.5032     28.2632     69.7817
  1206.7500     36.5812    102.2893     28.9516     68.4912
  1207.0000     36.9552    102.0771     29.4802     65.7131
  1207.2500     37.2690    101.8640     29.7851     63.9033
  1207.5000     37.5175    101.6512     29.8957     62.1517
  1207.7500     37.7031    101.4449     29.9086     61.6241
  1208.0000     37.8353    101.2561     29.9273     61.0244
  1208.2500     37.9249    101.0980     30.0216     60.4482
  1208.5000     37.9778    100.9832     30.2165     59.8385
  1208.7500     37.9917    100.9197     30.4942     60.3554
  1209.0000     37.9607    100.9087     30.8007     63.4205
  1209.2500     37.8775    100.9442     31.0616     66.6897
  1209.5000     37.7343    101.0136     31.2015     71.3285
  1209.7500     37.5283    101.0996     31.1607     72.6942
  1210.0000     37.2765    101.1830     30.9086     70.6922
  1210.2500     37.0181    101.2449     30.4565     67.0521
  1210.5000     36.7932    101.2678     29.8615     60.4844
  1210.7500     36.6168    101.2376     29.2069     56.9749
  1211.0000     36.4723    101.1438     28.5689     55.1238
  1211.2500     36.3221    100.9818     27.9956     56.7265
  1211.5000     36.1266    100.7563     27.5050     62.7252
  1211.7500     35.8639    100.4864     27.0962     67.7760
  1212.0000     35.5277    100.2082     26.7552     74.1455
  1212.2500     35.0982     99.9743     26.4541     76.6627
  1212.5000     34.5192     99.8478     26.1505     78.2774
  1212.7500     33.7150     99.8913     25.7944     78.9015
  1213.0000     32.6378    100.1558     25.3388     80.8746
  1213.2500     31.3033    100.6719     24.7464     83.6910
  1213.5000     29.7879    101.4449     23.9933     91.4342
  1213.7500     28.1917    102.4546     23.0778     99.3707
  1214.0000     26.5973    103.6570     22.0309    114.6521
  1214.2500     25.0501    104.9892     20.9132    125.6346
  1214.5000     23.5663    106.3756     19.7937    140.1858
  1214.7500     22.1501    107.7367     18.7231    147.2697
  1215.0000     20.8097    108.9990     17.7234    153.3796
  1215.2500     19.5688    110.1042     16.7989    155.0249
  1215.5000     18.4727    111.0145     15.9553    155.7016
  1215.7500     17.5817    111.7133     15.2116    156.0987
  1216.0000     16.9545    112.2019     14.5979    157.7915
  1216.2500     16.6294    112.4922     14.1445    159.5197
  1216.5000     16.6107    112.6005     13.8734    161.7557
  1216.7500     16.8632    112.5419     13.7958    162.3666
  1217.0000     17.3213    112.3285     13.9131    161.6316
  1217.2500     17.9152    111.9709     14.2198    159.8492
  1217.5000     18.6049    111.4801     14.7038    154.0415
  1217.7500     19.3991    110.8722     15.3467    147.2732
  1218.0000     20.3455    110.1709     16.1238    132.9648
  1218.2500     21.4986    109.4092     17.0048    121.9736
  1218.5000     22.8936    108.6283     17.9581    106.1544
  1218.7500     24.5390    107.8727     18.9545     97.1644
  1219.0000     26.4073    107.1839     19.9726     86.8445
  1219.2500     28.4200    106.5921     21.0063     82.1985
  1219.5000     30.4492    106.1098     22.0703     78.1577
  1219.7500     32.3540    105.7303     23.1927     76.7294
  1220.0000     34.0282    105.4303     24.3863     74.9561
  1220.2500     35.4251    105.1772     25.6122     73.2642
  1220.5000     36.5535    104.9383     26.7698     69.3775
  1220.7500     37.4594    104.6886     27.7369     66.0388
  1221.0000     38.2025    104.4154     28.4398     60.6534
  1221.2500     38.8327    104.1188     28.8959     57.1808
  1221.5000     39.3774    103.8087     29.1970     52.3637
  1221.7500     39.8437    103.5000     29.4548     49.4178
  1222.0000     40.2317    103.2079     29.7485     45.5644
  1222.2500     40.5425    102.9442     30.0983     43.6150
  1222.5000     40.7803    102.7166     30.4741     42.1233
  1222.7500     40.9533    102.5297     30.8337     42.3695
  1223.0000     41.0756    102.3876     31.1605     44.9888
  1223.2500     41.1635    102.2946     31.4614     48.2562
  1223.5000     41.2239    102.2548     31.7221     54.7145
  1223.7500     41.2457    102.2698     31.8734     59.0949
  1224.0000     41.2029    102.3360     31.8181     63.6530
  1224.2500     41.0699    102.4425     31.5007     64.5420
  1224.5000     40.8383    102.5715     30.9570     63.4514
  1224.7500     40.5256    102.7013     30.2970     62.8275
  1225.0000     40.1708    102.8092     29.6486     64.9989
  1225.2500     39.8207    102.8764     29.1105     68.8985
  1225.5000     39.5103    102.8904     28.7349     76.3106
  1225.7500     39.2458    102.8470     28.5297     80.3114
  1226.0000     39.0031    102.7509     28.4686     82.0748
  1226.2500     38.7488    102.6141     28.5028     79.6921
  1226.5000     38.4636    102.4539     28.5794     71.5556
  1226.7500     38.1520    102.2905     28.6598     64.6297
  1227.0000     37.8371    102.1463     28.7298     55.2836
  1227.2500     37.5515    102.0466     28.7911     51.1396
  1227.5000     37.3247    102.0194     28.8407     48.6723
  1227.7500     37.1615    102.0927     28.8566     49.1171
  1228.0000     37.0217    102.2862     28.8033     51.8832
  1228.2500     36.8326    102.6022     28.6483     54.5942
  1228.5000     36.5401    103.0174     28.3778     59.1388
  1228.7500     36.1513    103.4837     28.0013     62.1254
  1229.0000     35.7221    103.9355     27.5458     66.4462
  1229.2500     35.3083    104.3032     27.0466     69.3800
  1229.5000     34.9315    104.5243     26.5416     73.6279
  1229.7500     34.5875    104.5516     26.0659     75.5194
  1230.0000     34.2805    104.3561     25.6466     74.6832
  1230.2500     34.0501    103.9286     25.2957     70.7110
  1230.5000     33.9654    103.2835     25.0090     60.1840
  1230.7500     34.0871    102.4636     24.7756     51.7979
