~Version Information
VERS.                      2.0: CWLS Log ASCII Standard - VERSION 2.0
WRAP.                       NO: One line per depth step
~Well Information Block
STRT.FT               948.2500: 
STOP.FT              2134.5000: 
STEP.FT                 0.2500: 
NULL.                -999.2500: 
COMP.          Petrogulf Corporation: COMPANY
WELL.             Valejo 8-12R: WELL
FLD.           Purgatorie River: FIELD
LOC.           1351'' FNL & 1562' FWL: LOCATION
CNTY.               Las Animas: COUNTY
SRVC.                         : SERVICE COMPANY
DATE.          Wed Apr 28 02:30:32 2004: LOG DATE
UWI.           05 071 08038 00: UNIQUE WELL ID
STAT.                 Colorado: STATE
~Curve Information Block
DEPT.FT            0 000 00 00: Depth
SP.mV                         : DIL Spontaneous Potential
RILD.Ohm-m                    : DIL Deep Resistivity
RILM.Ohm-m                    : DIL Medium Resistivity
RLL3.Ohm-m                    : DIL Shallow Resistivity
GR.GAPI                       : Gamma Ray
~Parameter Information Block
~A  Depth        SP         RILD        RILM        RLL3         GR     
# ...
  1340.2500     96.4957     27.2863     34.4695     65.2199     55.6376
  1340.5000     96.2796     27.3697     34.6346     66.7993     56.4766
  1340.7500     96.0567     27.3568     34.6792     68.3807     56.4351
  1341.0000     95.8255     27.2923     34.6073     69.7110     55.3190
  1341.2500     95.5929     27.2212     34.4328     70.6118     54.0965
  1341.5000     95.3809     27.1806     34.1853     71.0147     52.1694
  1341.7500     95.2181     27.1954     33.9005     71.0292     51.1706
  1342.0000     95.1184     27.2727     33.5972     70.9298     50.5188
  1342.2500     95.0674     27.3963     33.2624     70.9993     50.7778
  1342.5000     95.0341     27.5300     32.8703     71.2923     52.3708
  1342.7500     95.0024     27.6341     32.4319     71.4879     54.3600
  1343.0000     94.9915     27.6858     32.0287     71.0331     58.7963
  1343.2500     95.0402     27.6895     31.7885     69.5817     62.4813
  1343.5000     95.1704     27.6690     31.8171     67.3761     68.1500
  1343.7500     95.3648     27.6512     32.1372     65.1787     71.3234
  1344.0000     95.5766     27.6511     32.6719     63.7835     74.1977
  1344.2500     95.7604     27.6664     33.2770     63.5417     74.6637
  1344.5000     95.8947     27.6825     33.8043     64.3025     73.6358
  1344.7500     95.9827     27.6854     34.1613     65.7409     72.3050
  1345.0000     96.0372     27.6703     34.3313     67.6382     70.0055
  1345.2500     96.0686     27.6425     34.3540     69.7540     68.3493
  1345.5000     96.0833     27.6119     34.2906     71.5123     65.3782
  1345.7500     96.0874     27.5878     34.1974     72.0801     62.9386
  1346.0000     96.0910     27.5766     34.1102     70.9601     59.1416
  1346.2500     96.1111     27.5824     34.0367     68.5011     57.3068
  1346.5000     96.1709     27.6068     33.9608     65.7172     56.7115
  1346.7500     96.2912     27.6476     33.8533     63.5126     57.6832
  1347.0000     96.4774     27.6939     33.6922     62.0674     59.9451
  1347.2500     96.7105     27.7214     33.4791     60.9705     61.1614
  1347.5000     96.9555     27.6957     33.2437     59.8249     61.8479
  1347.7500     97.1798     27.5856     33.0297     58.5769     61.6672
  1348.0000     97.3675     27.3795     32.8698     57.3497     61.2376
  1348.2500     97.5181     27.0881     32.7657     56.2437     61.3693
  1348.5000     97.6372     26.7348     32.6841     55.4161     62.6274
  1348.7500     97.7267     26.3405     32.5700     55.1798     64.0187
  1349.0000     97.7857     25.9165     32.3667     55.8334     66.4505
  1349.2500     97.8184     25.4681     32.0309     57.3560     68.3576
  1349.5000     97.8410     25.0030     31.5349     59.2692     72.5987
  1349.7500     97.8735     24.5386     30.8630     60.7572     77.0553
  1350.0000     97.9260     24.0984     30.0142     60.9462     86.8149
  1350.2500     97.9941     23.7023     29.0158     59.2251     95.1528
  1350.5000     98.0657     23.3580     27.9318     55.5199    108.9916
  1350.7500     98.1310     23.0612     26.8515     50.4091    117.8295
  1351.0000     98.1900     22.8026     25.8624     44.9678    128.3509
  1351.2500     98.2505     22.5747     25.0246     40.3487    132.8586
  1351.5000     98.3176     22.3745     24.3603     37.3120    136.0465
  1351.7500     98.3871     22.2015     23.8612     35.9779    136.3943
  1352.0000     98.4538     22.0549     23.5052     35.9126    135.5010
  1352.2500     98.5251     21.9329     23.2743     36.4454    134.7134
  1352.5000     98.6269     21.8378     23.1625     37.0452    134.3047
  1352.7500     98.7954     21.7802     23.1737     37.5846    134.7225
  1353.0000     99.0563     21.7788     23.3146     38.3418    135.6954
  1353.2500     99.3997     21.8510     23.5884     39.7113    135.9304
  1353.5000     99.7744     22.0012     23.9926     41.8469    135.0199
  1353.7500    100.1167     22.2161     24.5144     44.5586    133.5935
  1354.0000    100.3884     22.4736     25.1258     47.5121    130.4713
  1354.2500    100.5879     22.7580     25.7840     50.4213    127.8885
  1354.5000    100.7331     23.0713     26.4437     53.0291    123.9702
  1354.7500    100.8435     23.4275     27.0780     55.1469    122.0331
  1355.0000    100.9292     23.8360     27.6926     57.0102    120.8437
  1355.2500    100.9891     24.2879     28.3222     59.5373    120.7845
  1355.5000    101.0142     24.7570     29.0134     63.8373    120.0751
  1355.7500    101.0016     25.2141     29.8035     70.1729    118.3128
  1356.0000    100.9654     25.6381     30.6993     77.4478    113.3430
  1356.2500    100.9281     26.0143     31.6593     83.8006    108.8977
  1356.5000    100.9013     26.3247     32.5917     87.6962    101.8895
  1356.7500    100.8778     26.5490     33.3754     88.5802     97.7950
  1357.0000    100.8404     26.6814     33.8932     86.8695     93.2340
  1357.2500    100.7740     26.7479     34.0682     83.5675     91.1802
  1357.5000    100.6754     26.7979     33.8996     79.7202     89.0529
  1357.7500    100.5618     26.8747     33.4873     75.9252     87.9101
  1358.0000    100.4694     26.9896     33.0130     72.2466     85.9251
  1358.2500    100.4370     27.1239     32.6652     68.6064     84.0347
  1358.5000    100.4819     27.2519     32.5527     65.2015     80.0072
  1358.7500    100.5880     27.3659     32.6675     62.5062     76.5763
  1359.0000    100.7160     27.4815     32.9170     60.9698     70.5949
  1359.2500    100.8307     27.6232     33.1983     60.8245     66.2208
  1359.5000    100.9248     27.8040     33.4554     62.1112     59.4069
  1359.7500    101.0215     28.0179     33.6888     64.6914     54.9562
  1360.0000    101.1515     28.2493     33.9299     68.1286     48.9551
  1360.2500    101.3231     28.4900     34.2181     71.6617     45.7282
  1360.5000    101.5125     28.7494     34.5936     74.4710     42.5316
  1360.7500    101.6816     29.0476     35.0965     76.0945     41.5949
  1361.0000    101.8014     29.3961     35.7668     76.6535     41.6560
  1361.2500    101.8579     29.7816     36.6386     76.7462     42.3315
  1361.5000    101.8420     30.1608     37.7297     77.1920     43.9210
  1361.7500    101.7377     30.4706     39.0201     78.8727     45.3413
  1362.0000    101.5229     30.6448     40.4251     82.6851     48.0860
  1362.2500    101.1876     30.6319     41.7828     89.4106     50.3442
  1362.5000    100.7567     30.4071     42.8685     99.4016     54.3854
  1362.7500    100.2957     29.9753     43.4372    112.1307     57.5053
  1363.0000     99.8927     29.3648     43.2688    125.7361     62.7135
  1363.2500     99.6299     28.6135     42.2099    136.9888     66.4837
  1363.5000     99.5583     27.7574     40.2359    142.2197     72.8484
  1363.7500     99.6842     26.8265     37.5130    138.9196     77.9717
  1364.0000     99.9696     25.8453     34.3805    126.8614     87.5545
  1364.2500    100.3460     24.8355     31.2172    108.1386     95.1064
  1364.5000    100.7407     23.8189     28.2965     86.4785    107.1997
  1364.7500    101.1009     22.8168     25.7358     66.0582    115.0523
  1365.0000    101.4015     21.8495     23.5401     49.9710    125.4851
  1365.2500    101.6375     20.9362     21.6687     39.2000    131.1092
  1365.5000    101.8167     20.0953     20.0769     32.8990    137.2179
  1365.7500    101.9599     19.3431     18.7308     29.5359    139.8618
  1366.0000    102.0988     18.6924     17.6127     27.8138    142.1658
  1366.2500    102.2619     18.1531     16.7248     26.9205    142.8282
  1366.5000    102.4570     17.7359     16.0845     26.4037    142.9738
  1366.7500    102.6684     17.4536     15.7084     26.0303    142.9577
  1367.0000    102.8732     17.3180     15.5960     25.7310    143.3823
  1367.2500    103.0601     17.3340     15.7271     25.6157    143.7806
  1367.5000    103.2391     17.4967     16.0745     26.1089    143.1752
  1367.7500    103.4440     17.7937     16.6242     28.3347    140.9554
  1368.0000    103.7258     18.2089     17.3861     34.7355    133.6616
