~Version Information
VERS.                      2.0: CWLS Log ASCII Standard - VERSION 2.0
WRAP.                       NO: One line per depth step
~Well Information Block
STRT.FT               998.8000: 
STOP.FT              2235.5000: 
STEP.FT                 0.1000: 
NULL.                -999.2500: 
COMP.          Petrogulf Corporation: COMPANY
WELL.          Latiluppe 8-13R: WELL
FLD.           Purgatorie River: FIELD
LOC.           1495' FSL & 946' FWL: LOCATION
CNTY.               Las Animas: COUNTY
SRVC.                         : SERVICE COMPANY
DATE.          Wed Apr 21 10:46:16 2004: LOG DATE
UWI.           05 071 08035 00: UNIQUE WELL ID
STAT.                 Colorado: STATE
~Curve Information Block
DEPT.FT            0 000 00 00: Depth
DCAL.in                       : CDL Caliper
RHOB.g/cc                     : CDL Bulk Density
RHOC.g/cc                     : CDL Density Correction
DPOR.pu                       : CDL Density Porosity
NPOR.pu                       : Neutron Porosity
GR.GAPI                       : Gamma Ray
~Parameter Information Block
~A  Depth       DCAL        RHOB        RHOC        DPOR        NPOR         GR     
# ...
  1008.4000   -999.2500   -999.2500   -999.2500   -999.2500     41.1473     54.2324
  1008.5000   -999.2500   -999.2500   -999.2500   -999.2500     41.4559     52.6845
  1008.6000   -999.2500   -999.2500   -999.2500   -999.2500     42.1773     50.9011
  1008.7000   -999.2500   -999.2500   -999.2500   -999.2500     42.6470     50.8610
  1008.8000   -999.2500   -999.2500   -999.2500   -999.2500     42.4456     52.9466
  1008.9000   -999.2500   -999.2500   -999.2500   -999.2500     41.8214     54.3658
  1009.0000   -999.2500   -999.2500   -999.2500   -999.2500     41.3246     55.1860
  1009.1000   -999.2500   -999.2500   -999.2500   -999.2500     41.4004     56.6532
  1009.2000   -999.2500   -999.2500   -999.2500   -999.2500     41.9814     56.5494
  1009.3000   -999.2500   -999.2500   -999.2500   -999.2500     42.4013     54.0317
  1009.4000   -999.2500   -999.2500   -999.2500   -999.2500     42.3344     51.8944
  1009.5000   -999.2500   -999.2500   -999.2500   -999.2500     42.2208     52.0349
  1009.6000   -999.2500   -999.2500   -999.2500   -999.2500     42.4098     52.8128
  1009.7000   -999.2500   -999.2500   -999.2500   -999.2500     42.6077     53.2009
  1009.8000   -999.2500   -999.2500   -999.2500   -999.2500     42.5261     54.4421
  1009.9000   -999.2500   -999.2500   -999.2500   -999.2500     42.1570     55.6504
  1010.0000   -999.2500   -999.2500   -999.2500   -999.2500     41.6242     54.0426
  1010.1000   -999.2500   -999.2500   -999.2500   -999.2500     41.0923     50.9252
  1010.2000   -999.2500   -999.2500   -999.2500   -999.2500     40.7651     49.8369
  1010.3000   -999.2500   -999.2500   -999.2500   -999.2500     40.6724     49.7608
  1010.4000   -999.2500   -999.2500   -999.2500   -999.2500     40.6278     48.2455
  1010.5000   -999.2500   -999.2500   -999.2500   -999.2500     40.5872     46.3750
  1010.6000   -999.2500   -999.2500   -999.2500   -999.2500     40.5832     47.0924
  1010.7000   -999.2500   -999.2500   -999.2500   -999.2500     40.7150     50.4520
  1010.8000   -999.2500   -999.2500   -999.2500   -999.2500     41.0811     53.3846
  1010.9000   -999.2500   -999.2500   -999.2500   -999.2500     41.4654     53.4053
  1011.0000   -999.2500   -999.2500   -999.2500   -999.2500     41.6343     50.0913
  1011.1000   -999.2500   -999.2500   -999.2500   -999.2500     41.6272     45.1898
  1011.2000   -999.2500   -999.2500   -999.2500   -999.2500     41.5761     42.5154
  1011.3000   -999.2500   -999.2500   -999.2500   -999.2500     41.3890     44.3447
  1011.4000   -999.2500   -999.2500   -999.2500   -999.2500     41.1039     47.7341
  1011.5000   -999.2500   -999.2500   -999.2500   -999.2500     41.1386     49.6352
  1011.6000   -999.2500   -999.2500   -999.2500   -999.2500     41.4329     52.3177
  1011.7000   -999.2500   -999.2500   -999.2500   -999.2500     41.3442     55.8186
  1011.8000   -999.2500   -999.2500   -999.2500   -999.2500     40.8593     57.6937
  1011.9000   -999.2500   -999.2500   -999.2500   -999.2500     40.6713     58.0899
  1012.0000   -999.2500   -999.2500   -999.2500   -999.2500     41.1262     56.6714
  1012.1000   -999.2500   -999.2500   -999.2500   -999.2500     41.7296     52.2815
  1012.2000   -999.2500   -999.2500     -0.3153   -999.2500     42.0517     46.7707
  1012.3000      7.8887   -999.2500     -0.3103   -999.2500     42.2041     45.1488
  1012.4000      7.8887   -999.2500     -0.1927   -999.2500     42.1761     47.1502
  1012.5000      7.8902   -999.2500     -0.2602   -999.2500     41.8940     49.0345
  1012.6000      7.8902   -999.2500     -0.2907   -999.2500     41.7267     52.2340
  1012.7000      7.8902      2.5547     -0.2231      5.7779     41.9361     56.5481
  1012.8000      7.8910      2.5628     -0.2858      5.2846     42.3252     58.3373
  1012.9000      7.8910      2.5747     -0.2867      4.5639     42.7428     58.0195
  1013.0000      7.8897      2.5756     -0.1966      4.5063     43.1184     57.3789
  1013.1000      7.8897      2.5509     -0.2533      6.0033     43.2324     56.2829
  1013.2000      7.8897      2.5158     -0.3275      8.1343     43.0744     55.2543
  1013.3000      7.8961      2.4865     -0.2456      9.9087     42.9024     55.1317
  1013.4000      7.8961      2.4748     -0.3465     10.6178     42.6941     53.5788
  1013.5000      7.8901      2.4902     -0.2454      9.6877     42.3746     51.3279
  1013.6000      7.8901      2.5069     -0.2110      8.6700     42.1314     52.4664
  1013.7000      7.8901      2.5046     -0.3165      8.8123     42.0322     53.3839
  1013.8000      7.8900      2.4952     -0.2110      9.3801     42.0422     48.9293
  1013.9000      7.8900      2.4917     -0.3110      9.5940     42.0243     44.0359
  1014.0000      7.8954      2.5004     -0.2139      9.0641     41.8166     44.7085
  1014.1000      7.8954      2.5086     -0.2155      8.5723     41.5617     47.5271
  1014.2000      7.8954      2.4963     -0.2108      9.3160     41.5805     47.3321
  1014.3000      7.8886      2.4651     -0.3018     11.2067     42.0350     45.7052
  1014.4000      7.8886      2.4353     -0.3091     13.0124     42.4987     45.7579
  1014.5000      7.8904      2.4260     -0.3034     13.5773     42.4654     47.9888
  1014.6000      7.8904      2.4417     -0.2663     12.6240     42.2268     50.6187
  1014.7000      7.8904      2.4617     -0.2324     11.4114     42.2247     50.9592
  1014.8000      7.9046      2.4552     -0.2510     11.8073     42.2204     48.8603
  1014.9000      7.9046      2.4291     -0.3068     13.3873     41.8375     47.3063
  1015.0000      7.8925      2.4184     -0.2889     14.0381     41.3239     46.7319
  1015.1000      7.8925      2.4290     -0.2538     13.3948     41.2422     45.8788
  1015.2000      7.8925      2.4378     -0.2651     12.8576     41.6366     46.7887
  1015.3000      7.8895      2.4335     -0.2410     13.1230     42.0265     50.3797
  1015.4000      7.8895      2.4314     -0.3328     13.2457     42.0617     53.6069
  1015.5000      7.8892      2.4510     -0.2419     12.0585     41.8823     54.2681
  1015.6000      7.8892      2.4798     -0.2163     10.3131     42.0310     53.4777
  1015.7000      7.8892      2.4919     -0.2158      9.5814     42.6657     52.1728
  1015.8000      7.8808      2.4798     -0.2013     10.3136     43.2253     49.7059
  1015.9000      7.8808      2.4657     -0.2958     11.1697     43.4982     48.1533
  1016.0000      7.8911      2.4788     -0.2168     10.3785     43.7607     49.7747
  1016.1000      7.8911      2.5140     -0.2216      8.2441     43.7310     50.7900
  1016.2000      7.8911      2.5440     -0.1881      6.4235     43.0875     48.2649
  1016.3000      7.8896      2.5586     -0.2241      5.5370     42.3812     46.1538
  1016.4000      7.8896      2.5674     -0.1937      5.0080     42.2415     47.4373
  1016.5000      7.8903      2.5695     -0.1750      4.8785     42.4655     49.5570
  1016.6000      7.8903      2.5564     -0.1630      5.6738     42.5489     49.6886
  1016.7000      7.8903      2.5387     -0.2228      6.7481     42.4409     48.0732
  1016.8000      7.9013      2.5304     -0.1853      7.2495     42.2997     46.3619
  1016.9000      7.9013      2.5266     -0.2205      7.4812     42.1518     44.8901
  1017.0000      7.9182      2.5274     -0.2593      7.4323     41.9871     43.9483
  1017.1000      7.9182      2.5379     -0.2189      6.7963     41.9278     44.6640
  1017.2000      7.9182      2.5450     -0.2322      6.3653     42.1687     45.3123
  1017.3000      7.8913      2.5412     -0.2746      6.5938     42.5789     44.6421
  1017.4000      7.8913      2.5394     -0.2845      6.7051     42.9390     45.6119
  1017.5000      7.8911      2.5427     -0.2289      6.5000     43.0279     50.2083
  1017.6000      7.8911      2.5453     -0.2665      6.3434     42.8786     55.3868
  1017.7000      7.8911      2.5490     -0.2452      6.1233     42.8261     56.8183
  1017.8000      7.8924      2.5453     -0.1929      6.3447     42.8477     54.7938
  1017.9000      7.8924      2.5210     -0.2605      7.8206     42.7682     51.6881
