~Version Information
VERS.                      2.0: CWLS Log ASCII Standard - VERSION 2.0
WRAP.                       NO: One line per depth step
~Well Information Block
STRT.FT               480.0000: 
STOP.FT              1994.2500: 
STEP.FT                 0.2500: 
NULL.                -999.2500: 
COMP.          Evergreen Operating Corporation: COMPANY
WELL.          McCullough 34-32 Tr: WELL
FLD.           Purgatoire River: FIELD
LOC.           394' FSL & 2077' FEL: LOCATION
PROV.                 Colorado: PROVINCE
CNTY.               Las Animas: COUNTRY
SRVC.                Patterson: SERVICE COMPANY
DATE.          Sun Sep 19 05:48:59 2004: LOG DATE
UWI.           05 071 08157 00: UNIQUE WELL ID
~Curve Information Block
DEPT.FT            0 000 00 00: Depth
SN.Ohm-m                      : IEL Short Normal
SP.mV                         : IEL Spontaneous Potential
DIR.Ohm-m                     : IEL Induction Resistivity
GR.GAPI                       : Gamma Ray
~Parameter Information Block
~A  Depth        SN          SP         DIR          GR     
# ...
  1250.5000     18.6949    286.3618     16.5524     68.4898
  1250.7500     19.9795    286.2982     16.8765     77.2279
  1251.0000     20.8748    286.1798     17.1283     93.4379
  1251.2500     21.1001    285.9999     17.2551    104.0726
  1251.5000     20.6918    285.7649     17.2086    117.1209
  1251.7500     19.9225    285.4902     16.9754    123.2670
  1252.0000     19.0896    285.1952     16.5934    128.4121
  1252.2500     18.3592    284.8991     16.1380    129.1411
  1252.5000     17.7574    284.6190     15.6897    126.8431
  1252.7500     17.2484    284.3699     15.3050    124.0277
  1253.0000     16.7972    284.1645     15.0062    120.0346
  1253.2500     16.3846    284.0125     14.7876    118.5042
  1253.5000     15.9974    283.9178     14.6278    118.6320
  1253.7500     15.6225    283.8760     14.4988    120.2773
  1254.0000     15.2479    283.8737     14.3715    124.3848
  1254.2500     14.8670    283.8911     14.2191    127.5670
  1254.5000     14.4821    283.9097     14.0224    131.8286
  1254.7500     14.1051    283.9216     13.7745    133.8476
  1255.0000     13.7545    283.9402     13.4836    135.5855
  1255.2500     13.4504    284.0046     13.1722    136.3673
  1255.5000     13.2071    284.1711     12.8720    138.2173
  1255.7500     13.0272    284.4913     12.6144    140.3107
  1256.0000     12.9011    284.9815     12.4219    144.0435
  1256.2500     12.8130    285.5990     12.3025    145.8224
  1256.5000     12.7484    286.2437     12.2509    145.6725
  1256.7500     12.7012    286.7886     12.2540    143.4528
  1257.0000     12.6771    287.1281     12.2975    138.0255
  1257.2500     12.6897    287.2175     12.3699    134.0813
  1257.5000     12.7497    287.0839     12.4637    129.3116
  1257.7500     12.8576    286.8044     12.5745    127.3844
  1258.0000     13.0029    286.4689     12.6999    126.4039
  1258.2500     13.1668    286.1479     12.8364    126.7676
  1258.5000     13.3245    285.8791     12.9757    128.1335
  1258.7500     13.4521    285.6716     13.1030    129.0893
  1259.0000     13.5372    285.5193     13.2001    129.9939
  1259.2500     13.5824    285.4128     13.2522    130.2321
  1259.5000     13.5977    285.3455     13.2546    130.3761
  1259.7500     13.5917    285.3134     13.2152    130.4858
  1260.0000     13.5692    285.3120     13.1526    130.7533
  1260.2500     13.5383    285.3327     13.0910    131.0463
  1260.5000     13.5166    285.3623     13.0539    131.8601
  1260.7500     13.5295    285.3849     13.0591    132.7226
  1261.0000     13.6007    285.3857     13.1174    134.1274
  1261.2500     13.7465    285.3551     13.2345    134.6317
  1261.5000     13.9761    285.2913     13.4164    133.9848
  1261.7500     14.2946    285.2023     13.6707    132.5697
  1262.0000     14.7034    285.1074     14.0038    129.5475
  1262.2500     15.1987    285.0380     14.4162    127.4238
  1262.5000     15.7714    285.0375     14.9001    124.6565
  1262.7500     16.4119    285.1551     15.4431    123.0262
  1263.0000     17.1175    285.4308     16.0340    120.1529
  1263.2500     17.9037    285.8747     16.6681    117.5847
  1263.5000     18.8113    286.4484     17.3488    113.0230
  1263.7500     19.8974    287.0627     18.0838    110.0876
  1264.0000     21.2078    287.5981     18.8792    106.4712
  1264.2500     22.7433    287.9425     19.7333    104.2710
  1264.5000     24.4451    288.0311     20.6383     99.8761
  1264.7500     26.2141    287.8661     21.5879     95.6049
  1265.0000     27.9570    287.5104     22.5858     87.4938
  1265.2500     29.6287    287.0597     23.6435     81.7138
  1265.5000     31.2282    286.6089     24.7661     73.6662
  1265.7500     32.7368    286.2277     25.9295     69.0265
  1266.0000     34.0448    285.9512     27.0574     63.3625
  1266.2500     34.9476    285.7837     28.0071     60.6305
  1266.5000     35.2436    285.7081     28.5860     58.7194
  1266.7500     34.8620    285.6978     28.6222     59.5040
  1267.0000     33.9015    285.7253     28.0590     64.9508
  1267.2500     32.5532    285.7687     26.9942     71.7729
  1267.5000     30.9979    285.8142     25.6202     85.7766
  1267.7500     29.3640    285.8547     24.1290     95.9230
  1268.0000     27.7451    285.8869     22.6594    108.7504
  1268.2500     26.2258    285.9080     21.3003    114.4879
  1268.5000     24.8853    285.9134     20.1131    119.6160
  1268.7500     23.7842    285.8979     19.1453    122.0752
  1269.0000     22.9556    285.8573     18.4326    125.7294
  1269.2500     22.4081    285.7919     17.9954    127.8921
  1269.5000     22.1356    285.7066     17.8368    129.3744
  1269.7500     22.1315    285.6093     17.9430    128.5236
  1270.0000     22.4107    285.5063     18.2878    123.9814
  1270.2500     23.0344    285.3993     18.8409    118.7518
  1270.5000     24.1222    285.2844     19.5784    107.8410
  1270.7500     25.8292    285.1555     20.4919     98.9046
  1271.0000     28.2812    285.0084     21.5929     84.5158
  1271.2500     31.4850    284.8458     22.9063     75.6004
  1271.5000     35.2615    284.6790     24.4503     65.2266
  1271.7500     39.2575    284.5268     26.2057     60.6051
  1272.0000     43.0473    284.4108     28.0901     56.0970
  1272.2500     46.2739    284.3501     29.9576     53.8489
  1272.5000     48.7619    284.3551     31.6389     50.7742
  1272.7500     50.5486    284.4245     33.0034     48.9072
  1273.0000     51.8161    284.5448     34.0028     46.7010
  1273.2500     52.7626    284.6941     34.6706     45.7353
  1273.5000     53.4907    284.8476     35.0881     44.9698
  1273.7500     53.9797    284.9838     35.3471     44.8298
  1274.0000     54.1409    285.0885     35.5258     45.1201
  1274.2500     53.9015    285.1552     35.6754     45.6318
  1274.5000     53.2607    285.1834     35.8143     46.8115
  1274.7500     52.2995    285.1763     35.9255     47.8500
  1275.0000     51.1530    285.1400     35.9670     49.7057
  1275.2500     49.9628    285.0839     35.8975     50.9197
  1275.5000     48.8377    285.0215     35.7074     51.9970
  1275.7500     47.8445    284.9695     35.4276     51.9134
  1276.0000     47.0226    284.9459     35.1047     50.8309
  1276.2500     46.3941    284.9659     34.7673     49.9902
  1276.5000     45.9597    285.0385     34.4176     49.3833
  1276.7500     45.6922    285.1643     34.0545     49.6608
  1277.0000     45.5445    285.3364     33.6998     51.4997
  1277.2500     45.4689    285.5434     33.3929     54.1584
  1277.5000     45.4279    285.7729     33.1634     61.2226
  1277.7500     45.3849    286.0139     33.0095     67.9168
  1278.0000     45.2974    286.2558     32.9061     78.8514
  1278.2500     45.1360    286.4859     32.8295     84.7919
  1278.5000     44.9129    286.6881     32.7763     89.3948
  1278.7500     44.6851    286.8434     32.7630     89.7656
  1279.0000     44.5350    286.9343     32.8106     88.3515
  1279.2500     44.5479    286.9507     32.9289     87.1783
  1279.5000     44.7925    286.8941     33.1087     85.6786
  1279.7500     45.2931    286.7789     33.3263     84.8455
  1280.0000     46.0141    286.6288     33.5581     83.9888
  1280.2500     46.8777    286.4703     33.7957     83.7203
  1280.5000     47.8014    286.3252     34.0509     83.1935
  1280.7500     48.7200    286.2046     34.3427     82.1976
  1281.0000     49.5802    286.1073     34.6785     79.3259
  1281.2500     50.3268    286.0216     35.0377     76.8235
  1281.5000     50.9038    285.9313     35.3749     73.2208
  1281.7500     51.2746    285.8212     35.6400     71.3383
  1282.0000     51.4484    285.6818     35.8046     69.2835
  1282.2500     51.4959    285.5091     35.8756     68.1364
  1282.5000     51.5382    285.3019     35.8880     66.5038
  1282.7500     51.7074    285.0575     35.8859     65.7981
  1283.0000     52.0988    284.7707     35.9070     66.4466
  1283.2500     52.7404    284.4353     35.9774     68.4056
  1283.5000     53.5920    284.0488     36.1142     72.7730
  1283.7500     54.5612    283.6154     36.3276     75.3593
