~Version Information
VERS.                      2.0: CWLS Log ASCII Standard - VERSION 2.0
WRAP.                       NO: One line per depth step
~Well Information Block
STRT.FT               953.8000: 
STOP.FT              2226.0000: 
STEP.FT                 0.1000: 
NULL.                -999.2500: 
COMP.          Petrogulf Corporation: COMPANY
WELL.             Burson 8-13R: WELL
FLD.           Purgatorie River: FIELD
LOC.           1045' FNL & 2189' FEL: LOCATION
CNTY.               Las Animas: COUNTY
SRVC.                         : SERVICE COMPANY
DATE.          Fri Apr 30 07:30:36 2004: LOG DATE
UWI.           05 071 08039 00: UNIQUE WELL ID
STAT.                 Colorado: STATE
~Curve Information Block
DEPT.FT            0 000 00 00: Depth
DCAL.in                       : CDL Caliper
RHOB.g/cc                     : CDL Bulk Density
RHOC.g/cc                     : CDL Density Correction
DPOR.pu                       : CDL Density Porosity
NPOR.pu                       : Neutron Porosity
GR.GAPI                       : Gamma Ray
~Parameter Information Block
~A  Depth       DCAL        RHOB        RHOC        DPOR        NPOR         GR     
# ...
  1779.4000      7.8517      2.7123      0.0947     -3.7775     12.4757    101.5123
  1779.5000      7.8521      2.6878      0.0379     -2.2906     12.2305    110.3105
  1779.6000      7.8521      2.6634      0.0057     -0.8094     12.0994    113.4817
  1779.7000      7.8521      2.6563      0.0885     -0.3791     12.1765    107.3041
  1779.8000      7.8604      2.6505      0.0136     -0.0300     12.4177     97.7066
  1779.9000      7.8604      2.6395      0.0471      0.6386     12.5000     95.0915
  1780.0000      7.8565      2.6307      0.0249      1.1714     12.4539     99.0674
  1780.1000      7.8565      2.6287      0.0276      1.2913     12.5755     99.8025
  1780.2000      7.8565      2.6295      0.0442      1.2441     12.8408     97.1353
  1780.3000      7.8516      2.6329      0.0231      1.0355     13.2069     95.5076
  1780.4000      7.8516      2.6400      0.0464      0.6076     13.5505     92.4664
  1780.5000      7.8525      2.6378      0.0688      0.7409     13.8116     85.3481
  1780.6000      7.8525      2.6214      0.0102      1.7362     13.9722     78.1368
  1780.7000      7.8525      2.6010      0.0714      2.9715     13.8802     74.9053
  1780.8000      7.8537      2.5804      0.0139      4.2153     13.6394     73.6505
  1780.9000      7.8537      2.5657      0.0173      5.1118     13.8242     72.6419
  1781.0000      7.8521      2.5686      0.0183      4.9359     14.7019     73.0138
  1781.1000      7.8521      2.5839      0.0652      4.0056     15.5653     75.0379
  1781.2000      7.8521      2.5924      0.0101      3.4915     15.6132     76.7520
  1781.3000      7.8528      2.5893      0.0305      3.6788     15.1801     76.7092
  1781.4000      7.8528      2.5811      0.0763      4.1772     15.1911     75.5407
  1781.5000      7.8505      2.5733      0.0431      4.6477     15.7070     73.8362
  1781.6000      7.8505      2.5648      0.0785      5.1642     15.9864     71.0426
  1781.7000      7.8505      2.5500      0.0342      6.0581     15.7631     66.3766
  1781.8000      7.8507      2.5370      0.0630      6.8468     15.3776     58.8052
  1781.9000      7.8507      2.5356      0.0417      6.9344     15.1531     51.0357
  1782.0000      7.8509      2.5407      0.0703      6.6220     15.3409     47.9781
  1782.1000      7.8509      2.5436      0.0321      6.4492     15.8505     50.1350
  1782.2000      7.8509      2.5446      0.0552      6.3852     16.0308     56.3219
  1782.3000      7.8517      2.5479      0.0383      6.1906     15.4605     63.5946
  1782.4000      7.8517      2.5510      0.0698      6.0004     14.6129     67.7593
  1782.5000      7.8527      2.5430      0.0868      6.4874     14.2664     69.1832
  1782.6000      7.8527      2.5208      0.0616      7.8306     14.7571     67.5629
  1782.7000      7.8527      2.5026      0.0296      8.9362     15.6428     62.0042
  1782.8000      7.8499      2.5053      0.0411      8.7718     16.2597     56.3922
  1782.9000      7.8499      2.5195      0.0837      7.9099     16.5733     54.5931
  1783.0000      7.8518      2.5303      0.0262      7.2541     16.5594     56.7940
  1783.1000      7.8518      2.5381      0.0620      6.7817     16.2084     60.9901
  1783.2000      7.8518      2.5369      0.0957      6.8533     16.0481     64.6546
  1783.3000      7.8549      2.5203      0.0613      7.8616     16.4336     63.5880
  1783.4000      7.8549      2.5013      0.0463      9.0103     16.9738     57.2697
  1783.5000      7.8533      2.4936      0.0496      9.4815     16.9843     55.1005
  1783.6000      7.8533      2.4926      0.0603      9.5412     16.5212     61.6746
  1783.7000      7.8533      2.4912      0.0333      9.6237     16.2561     67.6923
  1783.8000      7.8599      2.4924      0.0420      9.5507     16.4931     66.4714
  1783.9000      7.8599      2.4972      0.0534      9.2594     16.9399     64.4629
  1784.0000      7.8796      2.4985      0.0774      9.1809     17.2542     69.1332
  1784.1000      7.8796      2.4977      0.0468      9.2325     17.6703     75.7974
  1784.2000      7.8796      2.5118      0.0407      8.3753     18.5818     76.2881
  1784.3000      7.8541      2.5448      0.0869      6.3760     19.6743     71.8742
  1784.4000      7.8541      2.5740      0.1033      4.6070     20.1192     68.3428
  1784.5000      7.8519      2.5833      0.0935      4.0425     19.9611     67.5976
  1784.6000      7.8519      2.5774      0.0860      4.3977     19.7452     65.7194
  1784.7000      7.8519      2.5673      0.0576      5.0133     19.3649     60.7479
  1784.8000      7.8549      2.5646      0.0626      5.1728     18.8442     58.0291
  1784.9000      7.8549      2.5678      0.0589      4.9792     18.5316     61.1523
  1785.0000      7.8528      2.5610      0.0905      5.3954     18.8325     68.0478
  1785.1000      7.8528      2.5475      0.0170      6.2139     19.7523     73.5317
  1785.2000      7.8528      2.5550      0.0206      5.7546     20.5040     73.4413
  1785.3000      7.8521      2.5789      0.1224      4.3064     20.6526     69.3987
  1785.4000      7.8521      2.5818      0.0942      4.1358     20.7022     66.1805
  1785.5000      7.8501      2.5616      0.0427      5.3557     20.8748     67.0799
  1785.6000      7.8501      2.5470      0.0524      6.2439     20.6334     72.1468
  1785.7000      7.8501      2.5453      0.0801      6.3438     20.0624     76.1353
  1785.8000      7.8535      2.5443      0.0568      6.4044     19.8142     74.1396
  1785.9000      7.8535      2.5417      0.0307      6.5611     19.8722     68.2148
  1786.0000      7.8528      2.5434      0.0386      6.4601     20.0333     64.9559
  1786.1000      7.8528      2.5458      0.0592      6.3173     20.3296     67.3791
  1786.2000      7.8528      2.5424      0.0543      6.5206     20.6321     70.9620
  1786.3000      7.8494      2.5328      0.0409      7.1025     20.6462     69.7801
  1786.4000      7.8494      2.5200      0.0394      7.8760     20.4700     66.4455
  1786.5000      7.8495      2.5072      0.0581      8.6517     20.3832     67.0401
  1786.6000      7.8495      2.4954      0.0823      9.3684     20.0239     69.5609
  1786.7000      7.8495      2.4845      0.0517     10.0311     19.4053     68.1852
  1786.8000      7.8288      2.4732      0.0413     10.7146     19.4782     62.5640
  1786.9000      7.8288      2.4586      0.0545     11.5982     20.3410     57.1325
  1787.0000      7.8461      2.4419      0.0466     12.6093     20.9016     55.6730
  1787.1000      7.8461      2.4320      0.0623     13.2100     20.6955     58.5279
  1787.2000      7.8461      2.4310      0.0476     13.2740     20.0163     63.0905
  1787.3000      7.8291      2.4270      0.0509     13.5167     19.1639     68.5282
  1787.4000      7.8291      2.4160      0.0444     14.1804     18.3509     72.6321
  1787.5000      7.8476      2.4104      0.0332     14.5205     17.7395     70.1406
  1787.6000      7.8476      2.4194      0.0353     13.9733     17.5178     64.2689
  1787.7000      7.8476      2.4402      0.0534     12.7169     17.6870     61.3764
  1787.8000      7.8539      2.4631      0.0826     11.3279     18.0626     61.1552
  1787.9000      7.8539      2.4775      0.0865     10.4572     18.4294     63.5689
  1788.0000      7.8564      2.4766      0.1099     10.5102     18.6230     68.4158
  1788.1000      7.8564      2.4650      0.0795     11.2091     18.5872     70.8356
  1788.2000      7.8564      2.4583      0.0499     11.6153     18.3976     66.4234
  1788.3000      7.8561      2.4627      0.0804     11.3511     18.2401     58.1923
  1788.4000      7.8561      2.4684      0.0977     11.0038     18.0785     52.4477
  1788.5000      7.8487      2.4720      0.0648     10.7865     17.7907     50.3600
  1788.6000      7.8487      2.4734      0.1090     10.7059     17.6261     51.7462
  1788.7000      7.8487      2.4628      0.0928     11.3433     17.5904     56.8093
  1788.8000      7.8532      2.4458      0.0199     12.3750     17.3599     61.6585
  1788.9000      7.8532      2.4462      0.0287     12.3521     16.8449     61.1041
