~Version Information
VERS.                      2.0: CWLS Log ASCII Standard - VERSION 2.0
WRAP.                       NO: One line per depth step
~Well Information Block
STRT.FT               483.0000: 
STOP.FT              1702.5000: 
STEP.FT                 0.2500: 
NULL.                -999.2500: 
COMP.          Pioneer Natural Resources: COMPANY
WELL.            Mad Dog 42-31: WELL
FLD.           Purgatorie River: FIELD
LOC.           2064' FNL & 479' FEL: LOCATION
PROV.                 Colorado: PROVINCE
CNTY.               Las Animas: COUNTRY
SRVC.                         : SERVICE COMPANY
DATE.          Sun Oct 10 04:26:24 2004: LOG DATE
UWI.           05 071 08195 00: UNIQUE WELL ID
~Curve Information Block
DEPT.FT            0 000 00 00: Depth
LTEN.lb                       : Surface Line Tension
SN.Ohm-m                      : IEL Short Normal
SP.mV                         : IEL Spontaneous Potential
DIR.Ohm-m                     : IEL Induction Resistivity
GR.GAPI                       : Gamma Ray
~Parameter Information Block
~A  Depth       LTEN         SN          SP         DIR          GR     
   483.0000    619.7997   2000.0000   2000.0000    125.9063    124.7576
   483.2500    621.0713   2000.0000   2000.0000    131.1352    117.9000
   483.5000    620.5526   2000.0000   2000.0000    143.4376    108.8491
   483.7500    618.3468   2000.0000   2000.0000    157.7734    104.6521
   484.0000    615.7220   2000.0000   2000.0000    163.6037    101.0289
   484.2500    613.7976   2000.0000   2000.0000    154.0629     99.3683
   484.5000    612.9170   2000.0000   2000.0000    135.2965     96.2390
   484.7500    613.0557   2000.0000   2000.0000    116.7714     93.6454
   485.0000    613.9676   2000.0000   2000.0000    102.1382     90.5126
   485.2500    614.9461   2000.0000   2000.0000     91.1762     89.8910
   485.5000    615.1832   2000.0000   2000.0000     83.1354     91.3612
   485.7500    614.2873   2000.0000   2000.0000     77.7720     93.1032
   486.0000    612.2048   2000.0000   2000.0000     75.0241     94.7094
   486.2500    609.3475   2000.0000   2000.0000     74.6138     94.1645
   486.5000    607.1989   2000.0000   2000.0000     76.0831     90.7637
   486.7500    607.8088   2000.0000   2000.0000     79.0936     87.4766
   487.0000    611.8651   2000.0000   2000.0000     83.5766     82.5274
   487.2500    617.7141   2000.0000   2000.0000     89.3290     79.6718
   487.5000    622.7774   2000.0000   2000.0000     95.2890     75.9336
   487.7500    625.5430   2000.0000   2000.0000     99.5674     73.6690
   488.0000    625.7626   2000.0000   2000.0000    101.1217     70.8663
   488.2500    623.4792   2000.0000   2000.0000    101.0685     69.5730
   488.5000    619.0759   2000.0000   2000.0000    101.2339     68.3571
   488.7500    614.1602   2000.0000   2000.0000    101.9567     67.8567
   489.0000    611.0957   2000.0000   2000.0000    101.8671     67.5299
   489.2500    611.0565   2000.0000   2000.0000     99.9525     67.5526
   489.5000    613.0247   2000.0000   2000.0000     97.5848     67.5620
   489.7500    614.9933   2000.0000   2000.0000     97.6724     67.3836
   490.0000    615.8330   2000.0000   2000.0000    102.4433     67.1732
   490.2500    615.8074   2000.0000   2000.0000    112.0189     67.4670
   490.5000    615.6605   2000.0000   2000.0000    122.9734     68.5761
   490.7500    615.7126   2000.0000   2000.0000    128.9571     69.0936
   491.0000    615.9544   2000.0000   2000.0000    127.1072     68.0664
   491.2500    616.5719   2000.0000   2000.0000    121.8557     66.0335
   491.5000    617.8859   2000.0000   2000.0000    119.0337     62.6013
   491.7500    619.8835   2000.0000   2000.0000    121.3414     61.3227
   492.0000    622.1207   2000.0000   2000.0000    128.8132     61.5281
   492.2500    623.9780   2000.0000   2000.0000    140.1206     62.3872
   492.5000    624.8306   2000.0000   2000.0000    153.4546     63.5049
   492.7500    624.2908   2000.0000   2000.0000    167.0965     64.1580
   493.0000    622.7946   2000.0000   2000.0000    179.5549     65.8486
   493.2500    621.7914   2000.0000   2000.0000    189.6625     67.5820
   493.5000    622.6870   2000.0000   2000.0000    196.8055     69.9856
   493.7500    625.2805   2000.0000   2000.0000    200.9371     70.5451
   494.0000    627.5320   2000.0000   2000.0000    202.2003     69.5262
   494.2500    627.2603   2000.0000   2000.0000    201.0883     68.4724
   494.5000    624.0983   2000.0000   2000.0000    198.4753     68.1296
   494.7500    619.7406   2000.0000   2000.0000    194.0170     69.0798
   495.0000    616.6088   2000.0000   2000.0000    184.9749     71.9106
   495.2500    616.4258   2000.0000   2000.0000    168.4174     74.5330
   495.5000    619.4682   2000.0000   2000.0000    145.6219     79.0931
   495.7500    624.5883   2000.0000   2000.0000    121.6186     81.8367
   496.0000    630.0521   2000.0000   2000.0000    100.7488     84.1147
   496.2500    634.6483   2000.0000   2000.0000     85.1631     84.2100
   496.5000    638.0044   2000.0000   2000.0000     75.9771     83.0329
   496.7500    640.1580   2000.0000   2000.0000     74.6723     81.8787
   497.0000    641.2954   2000.0000   2000.0000     85.4736     79.6802
   497.2500    641.6075   2000.0000   2000.0000    124.5765     77.7124
   497.5000    641.0349   2000.0000   2000.0000    299.0114     74.0426
   497.7500    639.3431   2000.0000   2000.0000 100000.0000     71.4254
   498.0000    636.4451   2000.0000   2000.0000 100000.0000     67.8597
   498.2500    632.4194   2000.0000   2000.0000 100000.0000     65.9256
   498.5000    627.5944   2000.0000   2000.0000 100000.0000     63.6173
   498.7500    622.9687   2000.0000   2000.0000   3067.5952     62.2368
   499.0000    620.1159   2000.0000   2000.0000    855.0711     60.0394
   499.2500    620.1745   2000.0000   2000.0000   1313.6245     58.5665
   499.5000    623.0054   2000.0000   2000.0000 100000.0000     57.0969
   499.7500    627.2809   2000.0000   2000.0000 100000.0000     57.1377
   500.0000    631.1520   2000.0000   2000.0000 100000.0000     59.2048
   500.2500    633.0814   2000.0000   2000.0000 100000.0000     58.0917
   500.5000    632.5861   2000.0000   2000.0000 100000.0000     64.0782
   500.7500    630.3993   2000.0000   2000.0000 100000.0000     69.6744
   501.0000    627.7979   2000.0000   2000.0000 100000.0000     80.4023
   501.2500    625.6886   2000.0000   2000.0000    219.3519     82.6209
   501.5000    624.3746   2000.0000   2000.0000    123.2928     94.0150
   501.7500    624.0594   2000.0000   2000.0000    233.4342    101.2936
   502.0000    625.1391   2000.0000   2000.0000 100000.0000    112.3424
   502.2500    627.6514   2000.0000   2000.0000 100000.0000    111.6500
   502.5000    630.7271   2000.0000   2000.0000 100000.0000    123.0026
   502.7500    633.1577   2000.0000   2000.0000 100000.0000    129.8992
   503.0000    634.6066   2000.0000   2000.0000 100000.0000    137.4973
   503.2500    635.6821   2000.0000   2000.0000 100000.0000    129.5528
   503.5000    636.6537   2000.0000   2000.0000 100000.0000    131.5771
   503.7500    636.6464   2000.0000   2000.0000 100000.0000    133.0753
   504.0000    634.5002   2000.0000   2000.0000     11.1597    137.7013
   504.2500    630.2303   2000.0000   2000.0000      5.3955    130.7195
   504.5000    625.4183   2000.0000   2000.0000      3.9670    138.3665
   504.7500    622.1120   2000.0000   2000.0000      3.6150    142.5356
   505.0000    621.2709   2000.0000   2000.0000      3.7622    145.3632
   505.2500    622.2158   2000.0000   2000.0000      4.2415    131.6049
   505.5000    623.5573   2000.0000   2000.0000      5.0076    128.6307
   505.7500    624.5855   2000.0000   2000.0000      6.1132    126.3205
   506.0000    625.7498   2000.0000   2000.0000      7.7390    123.7585
   506.2500    627.8579   2000.0000   2000.0000     10.1461    122.7758
   506.5000    630.9497   2000.0000   2000.0000     13.3202    121.5224
   506.7500    634.0576   2000.0000   2000.0000     16.2195    120.1290
   507.0000    636.0962   2000.0000   2000.0000     17.2432    116.6466
   507.2500    636.7737   2000.0000   2000.0000     16.6314    113.6286
   507.5000    636.5618   2000.0000   2000.0000     15.9345    108.7375
   507.7500    636.0267   2000.0000   2000.0000     15.9866    105.4275
   508.0000    635.3730   2000.0000   2000.0000     16.7715    100.5580
   508.2500    634.4503   2000.0000   2000.0000     17.8008     97.5175
   508.5000    633.0788   2000.0000   2000.0000     18.4984     93.1981
   508.7500    631.3730   2000.0000   2000.0000     18.7508     90.1689
   509.0000    629.5873   2000.0000   2000.0000     19.0773     85.1500
   509.2500    627.7137   2000.0000   2000.0000     20.3956     81.8907
   509.5000    625.6354   2000.0000   2000.0000     24.4259     78.4117
   509.7500    623.8583   2000.0000   2000.0000     38.0319     77.6260
   510.0000    623.7128   2000.0000   2000.0000    262.1606     78.9919
   510.2500    626.2591   2000.0000   2000.0000 100000.0000     81.2689
   510.5000    630.9406   2000.0000   2000.0000 100000.0000     85.4798
   510.7500    635.6676   2000.0000   2000.0000 100000.0000     87.8866
