~Version Information
 VERS.                                  2.0 : CWLS LAS VERSION
 WRAP.                                   NO : WRAPING MODE
 SWARE .                 MController 2.5.0J : SOFTWARE VERSION
~Well Information
 WELL.                          Quack 22-24 : WELL
 COMP.    PIONEER NATURAL RESOURCES USA INC : COMPANY
 FLD.                      PURGATOIRE RIVER : FIELD
 LOC.                 SE/NW Sec 24 32S  67W : LOCATION
 DATE.                                  N/A : DATE(S) LOGGED
 SRVC.       Blanco Geological Services LLC : SERVICE COMPANY
 STAT.                                   CO : STATE
 CNTY.                           LAS ANIMAS : COUNTY
 CTRY.                                  USA : COUNTRY
 API.                       05-071-08402-00 : API NUMBER
 STRT.FT                             201.00 : START DEPTH
 STOP.FT                            2610.00 : STOP DEPTH
 STEP.FT                               1.00 : DEPTH INCREMENT
 NULL.                                -9999 : NULL VALUE
~Curve information
 DEPTH.FT                                   :
 ROP.MIN/FT                                 :
 GAS.UNITS                                  :
~ASCII Log data
# ...
      1001.0         0.23         19.8 
      1002.0         0.23         19.1 
      1003.0         0.23         19.3 
      1004.0         0.23         18.3 
      1005.0         0.23         18.8 
      1006.0         0.23         19.3 
      1007.0         0.25         18.6 
      1008.0         0.23         18.1 
      1009.0         0.20         15.3 
      1010.0         0.23         16.6 
      1011.0         0.23         23.4 
      1012.0         0.23         33.3 
      1013.0         0.27         51.2 
      1014.0         0.23         70.3 
      1015.0         0.20         85.2 
      1016.0         1.55         88.1 
      1017.0         0.43         46.5 
      1018.0         0.30         76.6 
      1019.0         0.33         87.1 
      1020.0         0.30         87.2 
      1021.0         0.27         82.3 
      1022.0         0.23         78.5 
      1023.0         0.13         75.2 
      1024.0         0.17         73.0 
      1025.0         0.30         71.2 
      1026.0         0.27         67.8 
      1027.0         0.27         64.4 
      1028.0         0.15         61.3 
      1029.0         0.13         60.2 
      1030.0         0.23         59.7 
      1031.0         0.17         58.6 
      1032.0         0.20         58.1 
      1033.0         0.23         57.1 
      1034.0         0.23         56.0 
      1035.0         0.27         54.8 
      1036.0         0.17         52.8 
      1037.0         0.20         51.1 
      1038.0         0.23         46.9 
      1039.0         0.20         39.4 
      1040.0         0.20         45.5 
      1041.0         0.23         66.0 
      1042.0         0.23         97.6 
      1043.0         0.17        125.8 
      1044.0         0.25        178.8 
      1045.0         0.20        214.8 
      1046.0         2.10        217.8 
      1047.0         0.30         53.2 
      1048.0         0.20         50.8 
      1049.0         0.23         48.3 
      1050.0         0.22         45.8 
      1051.0         0.20         43.8 
      1052.0         0.20         42.7 
      1053.0         0.20         42.1 
      1054.0         0.20         40.4 
      1055.0         0.20         39.2 
      1056.0         0.23         37.5 
      1057.0         0.20         36.8 
      1058.0         0.27         36.3 
      1059.0         0.30         38.5 
      1060.0         0.23         41.4 
      1061.0         0.20         42.4 
      1062.0         0.23         42.8 
      1063.0         0.23         41.9 
      1064.0         0.23         38.9 
      1065.0         0.13         35.9 
      1066.0         0.18         38.3 
      1067.0         0.13         38.5 
      1068.0         0.17         36.7 
      1069.0         0.20         34.0 
      1070.0         0.23         35.4 
      1071.0         0.23         48.9 
      1072.0         0.23         70.9 
      1073.0         0.23        100.8 
      1074.0         0.20        130.3 
      1075.0         0.27        177.1 
      1076.0         2.02        185.9 
      1077.0         0.37         43.9 
      1078.0         0.33         42.3 
      1079.0         0.33         39.0 
      1080.0         0.23         36.4 
      1081.0         0.23         34.9 
      1082.0         0.27         34.6 
      1083.0         0.30         34.4 
      1084.0         0.30         33.1 
      1085.0         0.23         33.0 
      1086.0         0.18         32.7 
      1087.0         0.13         32.6 
      1088.0         0.20         32.1 
      1089.0         0.23         32.1 
      1090.0         0.23         31.9 
      1091.0         0.20         31.3 
      1092.0         0.20         29.8 
      1093.0         0.23         31.4 
      1094.0         0.23         32.5 
      1095.0         0.20         31.4 
      1096.0         0.30         38.2 
      1097.0         0.27         69.0 
      1098.0         0.23        109.7 
      1099.0         0.17        145.0 
      1100.0         0.13        175.8 
      1101.0         0.10        200.2 
      1102.0         0.12        235.0 
      1103.0         0.13        274.5 
      1104.0         0.10        301.2 
      1105.0         0.07        311.3 
      1106.0         1.87        313.3 
      1107.0         0.37         60.0 
      1108.0         0.30         55.0 
      1109.0         0.27         53.3 
      1110.0         0.25         51.0 
      1111.0         0.20         47.6 
      1112.0         0.23         44.5 
      1113.0         0.17         41.8 
      1114.0         0.23         40.6 
      1115.0         0.27         39.4 
      1116.0         0.27         38.0 
      1117.0         0.27         36.7 
      1118.0         0.27         34.9 
      1119.0         0.23         35.2 
      1120.0         0.27         35.0 
      1121.0         0.23         34.4 
      1122.0         0.23         33.4 
      1123.0         0.20         34.4 
      1124.0         0.23         35.5 
      1125.0         0.25         36.0 
      1126.0         0.23         35.7 
      1127.0         0.20         31.7 
      1128.0         0.23         28.1 
      1129.0         0.20         33.0 
      1130.0         0.23         51.1 
      1131.0         0.23         81.0 
      1132.0         0.23        116.5 
      1133.0         0.23        158.1 
      1134.0         0.17        186.1 
      1135.0         0.07        191.4 
      1136.0         1.78        192.4 
      1137.0         0.17        103.3 
      1138.0         0.10         94.0 
      1139.0         0.10         98.3 
      1140.0         0.23        110.6 
      1141.0         0.23        118.3 
      1142.0         0.20        119.9 
      1143.0         0.13        119.2 
      1144.0         0.10        116.0 
      1145.0         0.20        112.3 
      1146.0         0.23        105.4 
      1147.0         0.27        101.8 
      1148.0         0.27        101.7 
      1149.0         0.27        101.8 
      1150.0         0.28         99.6 
      1151.0         0.20         91.2 
      1152.0         0.13         78.2 
      1153.0         0.20         67.1 
      1154.0         0.20         55.9 
      1155.0         0.27         60.1 
      1156.0         0.30         60.1 
      1157.0         0.23         48.0 
      1158.0         0.27         75.1 
      1159.0         0.17        114.7 
      1160.0         0.13        154.7 
      1161.0         0.17        215.8 
      1162.0         0.27        326.8 
      1163.0         0.17        411.7 
      1164.0         0.13        462.4 
      1165.0         0.23        475.3 
      1166.0         1.02        448.6 
      1167.0         0.23        193.3 
      1168.0         0.37        171.2 
      1169.0         0.27        141.5 
      1170.0         0.27        131.7 
      1171.0         0.17        129.1 
      1172.0         0.10        127.2 
      1173.0         0.13        126.7 
      1174.0         0.23        125.6 
      1175.0         0.20        119.5 
      1176.0         0.20        112.3 
      1177.0         0.23        105.7 
      1178.0         0.25         98.5 
      1179.0         0.27         92.7 
      1180.0         0.30         85.3 
      1181.0         0.27         74.4 
      1182.0         0.23         93.4 
      1183.0         0.20        111.6 
      1184.0         0.17        118.9 
      1185.0         0.17        120.0 
      1186.0         0.23        116.7 
      1187.0         0.20         96.9 
      1188.0         0.13         94.5 
      1189.0         0.10        106.8 
      1190.0         0.13        129.3 
      1191.0         0.10        155.1 
      1192.0         0.10        186.2 
      1193.0         0.17        247.6 
      1194.0         0.20        335.7 
      1195.0         0.13        397.3 
      1196.0         2.32       1405.1 
      1197.0         0.37        146.2 
      1198.0         0.30        136.9 
      1199.0         0.30        139.8 
      1200.0         0.28        139.5 
