~Version Information
VERS.                      2.0: CWLS Log ASCII Standard - VERSION 2.0
WRAP.                       NO: One line per depth step
~Well Information Block
STRT.FT                 1.5000: 
STOP.FT              1895.2500: 
STEP.FT                 0.2500: 
NULL.                -999.2500: 
COMP.          Petrogulf Corporation: COMPANY
WELL.             State 16-32R: WELL
FLD.           Purgatorie River: FIELD
LOC.           1849' FNL & 1677' FEL: LOCATION
CNTY.               Las Animas: COUNTY
SRVC.                         : SERVICE COMPANY
DATE.          Thu May 20 08:40:19 2004: LOG DATE
UWI.           05 071 08033 00: UNIQUE WELL ID
STAT.                 Colorado: STATE
~Curve Information Block
DEPT.FT            0 000 00 00: Depth
GR.GAPI                       : Gamma Ray
CCL.                          : Casing Collar Locator
TT3.usec                      : CBL 3' Travel Time
AMP3.mV                       : CBL 3' Amplitude
~Parameter Information Block
~A  Depth        GR         CCL         TT3         AMP3    
# ...
  1509.0000    143.2404      0.0000    242.1470     42.1239
  1509.2500    134.7442      0.0000    242.1593     41.9214
  1509.5000    124.7302      0.0000    242.2355     41.6043
  1509.7500    116.6813      0.0000    242.4060     40.9279
  1510.0000    111.7187      0.0000    242.6702     39.8904
  1510.2500    109.3457      0.0000    243.1986     38.6332
  1510.5000    108.5704      0.0000    244.8332     37.1890
  1510.7500    108.4381      0.0000    249.3665     35.4478
  1511.0000    108.2027      0.0000    258.0102     33.3218
  1511.2500    107.4890      0.0000    268.7453     30.9290
  1511.5000    106.3079      0.0000    277.3475     28.5816
  1511.7500    104.7381      0.0000    281.8056     26.5344
  1512.0000    102.5425      0.0000    283.3410     24.7820
  1512.2500     99.4180      0.0000    283.7565     23.1716
  1512.5000     95.8519      0.0000    283.9233     21.6682
  1512.7500     93.3967      0.0000    284.0624     20.4253
  1513.0000     93.6510      0.0000    284.1840     19.5865
  1513.2500     96.8347      0.0000    284.2375     19.1257
  1513.5000    101.4830      0.0000    284.1805     18.9302
  1513.7500    105.5123      0.0000    284.0219     18.8960
  1514.0000    107.4197      0.0000    283.8208     18.8611
  1514.2500    106.6072      0.0000    283.6574     18.6255
  1514.5000    103.2584      0.0000    283.5729     18.1454
  1514.7500     98.4452      0.0000    283.5508     17.5353
  1515.0000     93.9840      0.0000    283.5996     16.8806
  1515.2500     91.4202      0.0000    284.0258     16.1665
  1515.5000     90.8992      0.0000    286.1493     15.2874
  1515.7500     91.1640      0.0000    293.7097     14.1501
  1516.0000     90.6128      0.0000    314.6714     12.8619
  1516.2500     88.4055      0.0000    360.8564     11.7158
  1516.5000     84.9827      0.0000    437.7611     10.9507
  1516.7500     81.6755      0.0000    528.4993     10.5744
  1517.0000     79.6170      0.0000    601.5930     10.4266
  1517.2500     79.2289      0.0000    641.2609     10.3665
  1517.5000     80.8730      0.0000    653.9525     10.3497
  1517.7500     85.2337      0.0000    647.1489     10.4368
  1518.0000     92.4707      0.0000    617.0464     10.7832
  1518.2500    101.4708      0.0000    562.7596     11.4856
  1518.5000    110.4513      0.0000    499.5388     12.5150
  1518.7500    118.1391      0.0000    438.6595     13.9070
  1519.0000    124.3282      0.0000    378.4865     15.7567
  1519.2500    129.6539      0.0000    327.0458     18.0164
  1519.5000    134.8996      0.0000    296.0443     20.6762
  1519.7500    140.3707      0.0000    280.9953     24.0631
  1520.0000    145.8609      0.0000    270.1484     28.5331
  1520.2500    150.8546      0.0000    259.1367     33.8565
  1520.5000    154.2406      0.0000    250.3466     39.1917
  1520.7500    154.1367      0.0000    245.6656     43.6892
  1521.0000    148.9736      0.0000    243.9995     47.0139
  1521.2500    139.0863      0.0000    243.5623     49.4014
  1521.5000    126.7545      0.0000    243.4449     51.3300
  1521.7500    114.6853      0.0000    243.4138     53.1393
  1522.0000    104.9425      0.0000    243.4310     54.9152
  1522.2500     98.8731      0.0000    243.4692     56.5794
  1522.5000     96.9342      0.0000    243.5000     57.9640
  1522.7500     98.6145      0.0000    243.5099     58.8755
  1523.0000    103.3288      0.0000    243.5013     59.1991
  1523.2500    111.1643      0.0000    243.4871     58.9619
  1523.5000    121.8908      0.0000    243.4744     58.3322
  1523.7500    133.5440      0.0000    243.4461     57.5722
  1524.0000    143.1327      0.0000    243.3870     56.8720
  1524.2500    148.8606      0.0000    243.3253     56.2051
  1524.5000    151.0442      0.0000    243.3033     55.4321
  1524.7500    151.2374      0.0000    243.3196     54.4430
  1525.0000    151.1990      0.0000    243.3382     53.1690
  1525.2500    152.2000      0.0000    243.3319     51.6337
  1525.5000    154.2840      0.0000    243.2982     49.9929
  1525.7500    156.2933      0.0000    243.2561     48.3728
  1526.0000    157.2065      0.0000    243.2392     46.6792
  1526.2500    157.3192      0.0000    243.2898     44.6853
  1526.5000    157.7278      0.0000    243.4438     42.4128
  1526.7500    158.9779      0.0000    243.6797     40.3892
  1527.0000    160.7362      0.0000    243.9080     39.1696
  1527.2500    162.5555      0.0000    244.1061     38.5066
  1527.5000    164.3220      0.0000    244.4306     37.5983
  1527.7500    165.8673      0.0000    245.2127     36.1793
  1528.0000    166.5098      0.0000    247.2245     34.6514
  1528.2500    165.3940      0.0000    251.9641     33.3439
  1528.5000    162.4712      0.0000    260.3678     32.2575
  1528.7500    158.9890      0.0000    270.4817     31.3445
  1529.0000    156.7221      0.0000    278.4395     30.6755
  1529.2500    156.6050      0.0000    282.4656     30.2269
  1529.5000    158.0446      0.0000    283.7634     29.7081
  1529.7500    159.5241      0.0000    284.0438     28.9313
  1530.0000    159.8973      0.0000    284.0772     28.0268
  1530.2500    159.2515      0.0000    284.0078     27.0012
  1530.5000    158.6673      0.0000    283.9018     25.6890
  1530.7500    159.1523      0.0000    283.8747     24.1879
  1531.0000    160.7088      0.0000    283.9877     22.7222
  1531.2500    162.3211      0.0000    284.2056     21.3145
  1531.5000    162.7762      0.0000    284.4378     19.9679
  1531.7500    161.4636      0.0000    284.6114     18.8493
  1532.0000    158.4589      0.0000    284.7307     18.0806
  1532.2500    154.2279      0.0000    284.8339     17.5728
  1532.5000    149.6304      0.0000    284.8994     17.2024
  1532.7500    146.0454      0.0000    284.8653     17.0165
  1533.0000    144.7518      0.0000    284.7437     17.1066
  1533.2500    145.7161      0.0000    284.6529     17.3913
  1533.5000    147.2188      0.0000    284.6902     17.7609
  1533.7500    147.1444      0.0000    284.8039     18.3442
  1534.0000    144.7519      0.0000    284.8516     19.4042
  1534.2500    140.9702      0.0000    284.7367     21.0279
  1534.5000    136.9607      0.0000    284.4477     23.0276
  1534.7500    132.8255      0.0000    283.8702     25.1149
  1535.0000    128.0285      0.0000    282.2585     27.1597
  1535.2500    122.7501      0.0000    277.9301     29.2611
  1535.5000    118.3279      0.0000    269.8931     31.4685
  1535.7500    116.3025      0.0000    260.9914     33.4020
  1536.0000    117.2207      0.0000    257.4097     34.1940
  1536.2500    120.3956      0.0000    262.8321     33.0230
  1536.5000    124.5035      0.0000    274.1800     30.0056
  1536.7500    128.1453      0.0000    284.7056     26.1892
  1537.0000    130.0130      0.0000    290.5953     22.5059
  1537.2500    129.2394      0.0000    292.7085     19.4923
  1537.5000    126.2708      0.0000    293.2670     17.5275
  1537.7500    123.2263      0.0000    293.4891     16.4808
  1538.0000    122.6152     -2.0000    293.6989     15.8268
  1538.2500    125.2708     -2.0000    294.0044     15.2118
  1538.5000    129.7011      0.0000    294.6077     14.5339
  1538.7500    133.4101      0.0000    296.0033     13.8632
  1539.0000    134.7130      0.0000    298.8790     13.5143
  1539.2500    133.6278      0.0000    302.3646     14.0353
  1539.5000    131.5052      0.0000    302.8923     15.7465
  1539.7500    129.9119      0.0000    298.3145     18.1324
  1540.0000    129.8201      0.0000    291.5888     20.1956
  1540.2500    131.6783      0.0000    286.7583     21.3715
  1540.5000    135.6684      0.0000    284.6333     21.6990
  1540.7500    141.3836      0.0000    284.0352     21.5806
  1541.0000    147.3755      0.0000    284.0092     21.5451
  1541.2500    151.5283      0.0000    284.1675     21.9262
  1541.5000    152.3097      0.0000    284.3268     22.7211
  1541.7500    149.8718      0.0000    284.3659     23.6662
  1542.0000    145.9715      0.0000    284.2719     24.3746
  1542.2500    142.7457      0.0000    284.1349     24.5413
