~Version Information
VERS.                      2.0: CWLS Log ASCII Standard - VERSION 2.0
WRAP.                       NO: One line per depth step
~Well Information Block
STRT.FT               754.6000: 
STOP.FT              2329.0000: 
STEP.FT                 0.1000: 
NULL.                -999.2500: 
COMP.          Petrogulf Corporation: COMPANY
WELL.           Anderson 18-42: WELL
FLD.           Purgatoire River: FIELD
LOC.           1668' FNL & 1110' FEL: LOCATION
CNTY.               Las Animas: COUNTY
SRVC.                         : SERVICE COMPANY
DATE.          Tue Dec 16 12:18:55 2003: LOG DATE
UWI.                          : UNIQUE WELL ID
STAT.                 Colorado: STATE
~Curve Information Block
DEPT.FT            0 000 00 00: Depth
DCAL.in                       : CDL Caliper
RHOB.g/cc                     : CDL Bulk Density
RHOC.g/cc                     : CDL Density Correction
DPOR.pu                       : CDL Density Porosity
NPOR.pu                       : Neutron Porosity
GR.GAPI                       : Gamma Ray
~Parameter Information Block
~A  Depth       DCAL        RHOB        RHOC        DPOR        NPOR         GR     
# ...
  1292.2000      8.1555      2.4943      0.0547      9.4341     26.4753    166.8831
  1292.3000      8.1527      2.5117      0.0672      8.3847     26.7215    166.4592
  1292.4000      8.1527      2.5339      0.0402      7.0378     26.6886    160.0334
  1292.5000      8.1497      2.5535      0.0843      5.8484     26.7199    156.8795
  1292.6000      8.1497      2.5641      0.0674      5.2052     26.8897    160.4144
  1292.7000      8.1497      2.5656      0.0739      5.1163     26.9542    167.8751
  1292.8000      8.1459      2.5611      0.0305      5.3890     27.0391    170.7339
  1292.9000      8.1459      2.5574      0.0628      5.6143     27.2883    166.7110
  1293.0000      8.1464      2.5568      0.0544      5.6470     27.4081    162.5209
  1293.1000      8.1464      2.5567      0.0370      5.6529     27.3994    162.2824
  1293.2000      8.1464      2.5518      0.0698      5.9537     27.3909    164.6041
  1293.3000      8.1433      2.5375     -0.0157      6.8211     27.0350    164.9990
  1293.4000      8.1433      2.5234     -0.0127      7.6707     26.1314    158.9678
  1293.5000      8.1472      2.5182      0.0011      7.9892     25.2963    148.4570
  1293.6000      8.1472      2.5162      0.0029      8.1096     25.4381    138.2686
  1293.7000      8.1472      2.5139      0.0050      8.2488     26.4615    129.7705
  1293.8000      8.1580      2.5173      0.0176      8.0447     27.3218    122.0943
  1293.9000      8.1580      2.5273      0.0308      7.4385     27.3789    116.6483
  1294.0000      8.1571      2.5371      0.0071      6.8433     26.9117    118.5509
  1294.1000      8.1571      2.5460      0.0109      6.3046     26.6040    126.8079
  1294.2000      8.1571      2.5540      0.0371      5.8207     26.6871    135.1305
  1294.3000      8.1698      2.5537      0.0294      5.8345     26.7477    140.7291
  1294.4000      8.1698      2.5439     -0.0061      6.4331     26.3776    139.7456
  1294.5000      8.1614      2.5292     -0.0099      7.3220     25.7819    130.4732
  1294.6000      8.1614      2.5072      0.0026      8.6517     25.5143    120.3412
  1294.7000      8.1614      2.4832     -0.0208     10.1108     25.5795    119.7581
  1294.8000      8.1537      2.4774     -0.0392     10.4583     25.6735    129.1453
  1294.9000      8.1537      2.4937     -0.0044      9.4710     25.7784    141.1540
  1295.0000      8.1544      2.5134      0.0189      8.2784     25.8411    145.0351
  1295.1000      8.1544      2.5265      0.0151      7.4835     26.0627    134.3422
  1295.2000      8.1544      2.5377     -0.0039      6.8071     26.3615    117.2742
  1295.3000      8.1540      2.5524      0.0038      5.9175     25.9962    107.6513
  1295.4000      8.1540      2.5676      0.0573      4.9943     25.1153    109.3586
  1295.5000      8.1445      2.5726      0.0654      4.6931     24.5767    112.6199
  1295.6000      8.1445      2.5699      0.0366      4.8556     24.5299    110.7634
  1295.7000      8.1445      2.5731      0.0476      4.6622     24.6216    106.1425
  1295.8000      8.1425      2.5795      0.0670      4.2726     24.6434     99.9730
  1295.9000      8.1425      2.5783      0.0524      4.3458     24.4444     93.0638
  1296.0000      8.1477      2.5700     -0.0137      4.8479     24.1447     88.5999
  1296.1000      8.1477      2.5623     -0.0267      5.3168     24.1968     88.1565
  1296.2000      8.1477      2.5594     -0.0214      5.4887     24.4730     89.6448
  1296.3000      8.1464      2.5652     -0.0069      5.1405     24.4724     88.1015
  1296.4000      8.1464      2.5848      0.0088      3.9493     24.2828     82.4747
  1296.5000      8.1510      2.6136      0.0307      2.2068     24.3430     78.2801
  1296.6000      8.1510      2.6298      0.0504      1.2224     24.7277     76.4733
  1296.7000      8.1510      2.6184      0.0155      1.9134     24.8473     75.3069
  1296.8000      8.1465      2.5939      0.0002      3.3992     24.4463     77.2655
  1296.9000      8.1465      2.5815     -0.0279      4.1504     24.2462     81.9638
  1297.0000      8.1536      2.5849     -0.0129      3.9459     24.5964     83.5610
  1297.1000      8.1536      2.5901     -0.0113      3.6294     24.9245     79.6714
  1297.2000      8.1536      2.5888     -0.0218      3.7113     24.8701     75.0880
  1297.3000      8.1442      2.5865     -0.0318      3.8483     24.6649     72.2995
  1297.4000      8.1442      2.5932      0.0305      3.4452     24.4256     69.0007
  1297.5000      8.1446      2.6029      0.0564      2.8555     24.1340     67.4391
  1297.6000      8.1446      2.6055      0.0045      2.6950     23.9763     69.1023
  1297.7000      8.1446      2.6049      0.0097      2.7309     23.9819     69.7212
  1297.8000      8.1428      2.6054      0.0269      2.7012     23.9806     68.9849
  1297.9000      8.1428      2.6015      0.0227      2.9421     23.8935     71.0403
  1298.0000      8.1430      2.5923      0.0291      3.4947     23.9034     75.6352
  1298.1000      8.1430      2.5867      0.0091      3.8358     24.0882     79.8853
  1298.2000      8.1430      2.5857     -0.0024      3.8960     24.2339     81.3088
  1298.3000      8.1416      2.5830      0.0257      4.0626     24.3315     80.1531
  1298.4000      8.1416      2.5801      0.0388      4.2375     24.4110     80.7789
  1298.5000      8.1468      2.5814      0.0296      4.1598     24.1945     83.7433
  1298.6000      8.1468      2.5853      0.0267      3.9225     23.6690     84.9125
  1298.7000      8.1468      2.5832      0.0471      4.0459     23.2001     85.0057
  1298.8000      8.1500      2.5674      0.0100      5.0040     23.1813     86.3608
  1298.9000      8.1500      2.5477      0.0125      6.1998     23.8143     87.2202
  1299.0000      8.1475      2.5398      0.0200      6.6760     24.5876     88.9074
  1299.1000      8.1475      2.5474      0.0128      6.2179     24.6956     92.7259
  1299.2000      8.1475      2.5663      0.0087      5.0722     24.2255     93.9805
  1299.3000      8.1470      2.5877      0.0415      3.7740     23.9138     88.4784
  1299.4000      8.1470      2.6026      0.0359      2.8741     23.7727     78.7548
  1299.5000      8.1459      2.6119      0.0439      2.3065     23.4697     73.3436
  1299.6000      8.1459      2.6182      0.0560      1.9291     23.1890     76.7054
  1299.7000      8.1459      2.6146      0.0818      2.1464     23.2125     84.1505
  1299.8000      8.1428      2.5973      0.0091      3.1912     23.6955     89.7455
  1299.9000      8.1428      2.5752     -0.0181      4.5326     24.3258     93.0516
  1300.0000      8.1425      2.5569     -0.0394      5.6435     24.7107     95.3505
  1300.1000      8.1425      2.5418      0.0095      6.5559     24.9925     96.0031
  1300.2000      8.1425      2.5235      0.0270      7.6687     25.3521     93.7979
  1300.3000      8.1434      2.5010     -0.0205      9.0325     25.8516     90.2893
  1300.4000      8.1434      2.4788     -0.0298     10.3770     26.5339     91.0452
  1300.5000      8.1416      2.4595     -0.0434     11.5436     27.1624     98.1403
  1300.6000      8.1416      2.4478     -0.0306     12.2562     27.2661    108.0887
  1300.7000      8.1416      2.4500     -0.0316     12.1194     26.6623    117.4783
  1300.8000      8.1250      2.4639      0.0441     11.2787     25.9090    125.0033
  1300.9000      8.1250      2.4754      0.0408     10.5796     25.6364    127.4057
  1301.0000      8.1395      2.4750      0.0765     10.6072     25.6346    125.0274
  1301.1000      8.1395      2.4659      0.0655     11.1593     25.4302    124.1050
  1301.2000      8.1395      2.4577      0.1234     11.6561     24.9231    125.3090
  1301.3000      8.1459      2.4619      0.1063     11.3983     24.2872    124.7695
  1301.4000      8.1459      2.4871      0.1303      9.8721     23.8620    124.5098
  1301.5000      8.1616      2.5212      0.1476      7.8073     23.8767    130.8715
  1301.6000      8.1616      2.5384      0.1248      6.7630     24.1977    139.7584
  1301.7000      8.1616      2.5264      0.1071      7.4916     24.4657    144.3649
