~Version Information
VERS.                      2.0: CWLS Log ASCII Standard - VERSION 2.0
WRAP.                       NO: One line per depth step
~Well Information Block
STRT.FT                39.7500: 
STOP.FT              1484.0000: 
STEP.FT                 0.2500: 
NULL.                -999.2500: 
COMP.          Evergreen Operating Corporation: COMPANY
WELL.              Chase 21-10: WELL
FLD.           Purgatoire River: FIELD
LOC.           1122' FNL & 1544' FWL: LOCATION
PROV.                       CO: PROVINCE
CNTY.               Las Animas: COUNTRY
SRVC.                         : SERVICE COMPANY
DATE.          Fri May 28 15:54:16 2004: LOG DATE
UWI.           05 071 08006 00: UNIQUE WELL ID
~Curve Information Block
DEPT.FT            0 000 00 00: Depth
TT3.usec                      : CBL 3' Travel Time
AMP3.mV                       : CBL 3' Amplitude
GR.GAPI                       : Gamma Ray
CCL.                          : Casing Collar Locator
~Parameter Information Block
~A  Depth       TT3         AMP3         GR         CCL     
# ...
   609.2500    754.8749     10.7859    106.1105      3.0000
   609.5000    755.1799     10.3704    107.3488      0.0000
   609.7500    755.1948      9.9350    108.7613      0.0000
   610.0000    757.0925      9.4941    109.8401      0.0000
   610.2500    760.5738      9.1119    110.7005      0.0000
   610.5000    764.0354      8.8833    111.4580      0.0000
   610.7500    766.3489      8.8532    111.6975      0.0000
   611.0000    767.4640      8.9511    110.8652      0.0000
   611.2500    767.8644      9.0406    109.0719      0.0000
   611.5000    767.9733      9.0350    107.2664      0.0000
   611.7500    767.9959      8.9420    106.4884      0.0000
   612.0000    768.0000      8.8175    106.9627      0.0000
   612.2500    768.0000      8.7113    107.9357      0.0000
   612.5000    768.0000      8.6500    108.3176      0.0000
   612.7500    768.0000      8.6427    107.4227      0.0000
   613.0000    768.0000      8.6885    105.3333      0.0000
   613.2500    768.0000      8.7776    102.8867      0.0000
   613.5000    768.0000      8.8918    101.1656      0.0000
   613.7500    768.0000      9.0097    100.4390      0.0000
   614.0000    768.0000      9.1210     99.5945      0.0000
   614.2500    768.0000      9.2313     97.2353      0.0000
   614.5000    768.0000      9.3503     93.4408      0.0000
   614.7500    768.0000      9.4732     89.8178      0.0000
   615.0000    768.0000      9.5774     87.7237      0.0000
   615.2500    768.0000      9.6382     87.1230      0.0000
   615.5000    767.9994      9.6432     87.1714      0.0000
   615.7500    767.9962      9.5936     87.0317      0.0000
   616.0000    767.9798      9.4952     85.9724      0.0000
   616.2500    767.9180      9.3532     83.5749      0.0000
   616.5000    767.7374      9.1783     80.3457      0.0000
   616.7500    767.3279      8.9909     77.6934      0.0000
   617.0000    766.6052      8.8153     77.0285      0.0000
   617.2500    765.6084      8.6656     78.9203      0.0000
   617.5000    764.5457      8.5385     82.8113      0.0000
   617.7500    763.7422      8.4234     87.0509      0.0000
   618.0000    763.5193      8.3169     89.4171      0.0000
   618.2500    764.0215      8.2265     88.4179      0.0000
   618.5000    765.0715      8.1609     84.6565      0.0000
   618.7500    766.2430      8.1190     80.7661      0.0000
   619.0000    767.1520      8.0892     79.4544      0.0000
   619.2500    767.6737      8.0575     81.2222      0.0000
   619.5000    767.9005      8.0173     83.9787      0.0000
   619.7500    767.9761      7.9716     84.9024      0.0000
   620.0000    767.9955      7.9281     82.7053      0.0000
   620.2500    767.9994      7.8931     78.3397      0.0000
   620.5000    768.0000      7.8693     73.8126      0.0000
   620.7500    768.0000      7.8554     70.5039      0.0000
   621.0000    768.0000      7.8473     68.6430      0.0000
   621.2500    768.0000      7.8452     67.9426      0.0000
   621.5000    768.0000      7.8588     68.1424      0.0000
   621.7500    768.0000      7.9032     68.9370      0.0000
   622.0000    768.0000      7.9872     69.9111      0.0000
   622.2500    767.9995      8.1076     70.8329      0.0000
   622.5000    767.9963      8.2575     72.0588      0.0000
   622.7500    767.9812      8.4360     74.5715      0.0000
   623.0000    767.9256      8.6512     79.1783      0.0000
   623.2500    767.7708      8.9111     85.1773      0.0000
   623.5000    767.4501      9.2098     90.1784      0.0000
   623.7500    766.9727      9.5167     92.0047      0.0000
   624.0000    766.5052      9.7848     90.6366      0.0000
   624.2500    766.3062      9.9791     87.7156      0.0000
   624.5000    766.5052     10.0996     84.5069      0.0000
   624.7500    766.9727     10.1764     81.0655      0.0000
   625.0000    767.4501     10.2474     77.1224      0.0000
   625.2500    767.7708     10.3418     72.9586      0.0000
   625.5000    767.9256     10.4726     69.2142      0.0000
   625.7500    767.9812     10.6340     66.3343      0.0000
   626.0000    767.9963     10.8036     64.4896      0.0000
   626.2500    767.9988     10.9516     63.6715      0.0000
   626.5000    767.9957     11.0506     63.5528      0.0000
   626.7500    767.9783     11.0796     63.4504      0.0000
   627.0000    767.9135     11.0278     62.7890      0.0000
   627.2500    767.7302     10.9025     61.6391      0.0000
   627.5000    767.3369     10.7312     60.6709      0.0000
   627.7500    766.6957     10.5502     60.4838      0.0000
   628.0000    765.8885     10.3835     60.9660      0.0000
   628.2500    765.0563     10.2295     61.3613      0.0000
   628.5000    764.2741     10.0641     61.0221      0.0000
   628.7500    763.5812      9.8617     60.0377      0.0000
   629.0000    763.1035      9.6169     59.1112      0.0000
   629.2500    762.9323      9.3482     59.0198      0.0000
   629.5000    762.8649      9.0883     60.1616      0.0000
   629.7500    762.5159      8.8764     62.2363      0.0000
   630.0000    761.7788      8.7468     64.2534      0.0000
   630.2500    761.0239      8.7107     65.2609      0.0000
   630.5000    760.7985      8.7430     65.2216      0.0000
   630.7500    761.4122      8.7947     64.8410      0.0000
   631.0000    762.7504      8.8252     64.5285      0.0000
   631.2500    764.3422      8.8270     64.0201      0.0000
   631.5000    765.6255      8.8233     63.0705      0.0000
   631.7500    766.2819      8.8423     61.9117      0.0000
   632.0000    766.3828      8.8923     60.8917      0.0000
   632.2500    766.2101      8.9569     60.2062      0.0000
   632.5000    765.9320      9.0096     60.1508      0.0000
   632.7500    765.4562      9.0280     61.1481      0.0000
   633.0000    764.5704      8.9971     63.2056      0.0000
   633.2500    763.1787      8.9091     65.5606      0.0000
   633.5000    761.4138      8.7681     67.1531      0.0000
   633.7500    759.5678      8.5953     67.4548      0.0000
   634.0000    757.9247      8.4267     66.7175      0.0000
   634.2500    756.6383      8.2999     65.5097      0.0000
   634.5000    755.7337      8.2335     64.1814      0.0000
   634.7500    755.1745      8.2127     62.7861      0.0000
   635.0000    754.9006      8.1952     61.2780      0.0000
   635.2500    754.8214      8.1386     59.6119      0.0000
   635.5000    754.8328      8.0269     57.8110      0.0000
   635.7500    754.8816      7.8716     56.1736      0.0000
   636.0000    754.9899      7.6935     55.2560      0.0000
   636.2500    755.1714      7.5092     55.4242      0.0000
   636.5000    755.3259      7.3309     56.5173      0.0000
   636.7500    755.2543      7.1672     58.0393      0.0000
   637.0000    754.7936      7.0207     59.4985      0.0000
   637.2500    753.9342      6.8901     60.5051      0.0000
   637.5000    752.8216      6.7752     60.7671      0.0000
   637.7500    751.6674      6.6752     60.1685      0.0000
   638.0000    750.6481      6.5874     58.8846      0.0000
   638.2500    749.8256      6.5099     57.3754      0.0000
   638.5000    749.1093      6.4435     56.2176      0.0000
   638.7500    748.2574      6.3905     55.9504      0.0000
   639.0000    746.9780      6.3532     56.9135      0.0000
   639.2500    745.2171      6.3336     58.8832      0.0000
   639.5000    743.4601      6.3325     60.8590      0.0000
   639.7500    742.5630      6.3507     61.6851      0.0000
   640.0000    743.0186      6.3892     61.0500      0.0000
   640.2500    744.4308      6.4457     59.6220      0.0000
   640.5000    745.8698      6.5099     58.2051      0.0000
   640.7500    746.6507      6.5680     57.0601      0.0000
   641.0000    746.6948      6.6129     55.9686      0.0000
   641.2500    746.3208      6.6471     54.5655      0.0000
   641.5000    745.8684      6.6737     52.6559      0.0000
   641.7500    745.4730      6.6886     50.5890      0.0000
   642.0000    745.0842      6.6823     49.3530      0.0000
   642.2500    744.6420      6.6490     50.0410      0.0000
   642.5000    744.2042      6.5897     53.0944      0.0000
