~Version Information
VERS.                      2.0: CWLS Log ASCII Standard - VERSION 2.0
WRAP.                       NO: One line per depth step
~Well Information Block
STRT.FT                -7.6500: 
STOP.FT              3097.2500: 
STEP.FT                 0.0500: 
NULL.                -999.2500: 
COMP.          Pioneer Natural Resources: COMPANY
WELL.            Paradise 13-8: WELL
FLD.           Purgatoire River: FIELD
LOC.           1896' FSL & 1120' FWL--: LOCATION
PROV.                 Colorado: PROVINCE
CNTY.               Las Animas: COUNTRY
SRVC.                Patterson: SERVICE COMPANY
DATE.          Fri Feb 04 16:52:25 2005: LOG DATE
UWI.           05 071 07946 00: UNIQUE WELL ID
~Curve Information Block
DEPT.FT            0 000 00 00: Depth
CCL.                          : Casing Collar Locator
TT3.usec                      : CBL 3' Travel Time
AMP3.mV                       : CBL 3' Amplitude
GR.GAPI                       : Gamma Ray
~Parameter Information Block
~A  Depth       CCL         TT3         AMP3         GR     
# ...
   206.7500      0.0000    872.0711      2.6709     55.5392
   206.8000      0.0000    872.0711      2.6709     55.5392
   206.8500      0.0000    872.0711      2.6709     55.5392
   206.9000      0.0000    872.0711      2.6709     55.5392
   206.9500      0.0000    872.0711      2.6709     55.5392
   207.0000      0.0000    842.5639      2.7065     57.4981
   207.0500      0.0000    842.5639      2.7065     57.4981
   207.1000      0.0000    842.5639      2.7065     57.4981
   207.1500      0.0000    842.5639      2.7065     57.4981
   207.2000      0.0000    842.5639      2.7065     57.4981
   207.2500      0.0000    805.5652      2.8166     59.4513
   207.3000      0.0000    805.5652      2.8166     59.4513
   207.3500      0.0000    805.5652      2.8166     59.4513
   207.4000      0.0000    805.5652      2.8166     59.4513
   207.4500      0.0000    805.5652      2.8166     59.4513
   207.5000      0.0000    771.5013      2.9674     60.4799
   207.5500      0.0000    771.5013      2.9674     60.4799
   207.6000      0.0000    771.5013      2.9674     60.4799
   207.6500      0.0000    771.5013      2.9674     60.4799
   207.7000      0.0000    771.5013      2.9674     60.4799
   207.7500      0.0000    747.1555      3.1050     59.6751
   207.8000      0.0000    747.1555      3.1050     59.6751
   207.8500      0.0000    747.1555      3.1050     59.6751
   207.9000      0.0000    747.1555      3.1050     59.6751
   207.9500      0.0000    747.1555      3.1050     59.6751
   208.0000      0.0000    735.1867      3.1976     56.7088
   208.0500      0.0000    735.1867      3.1976     56.7088
   208.1000      0.0000    735.1867      3.1976     56.7088
   208.1500      0.0000    735.1867      3.1976     56.7088
   208.2000      0.0000    735.1867      3.1976     56.7088
   208.2500      0.0000    735.4742      3.2569     52.4246
   208.3000      0.0000    735.4742      3.2569     52.4246
   208.3500      0.0000    735.4742      3.2569     52.4246
   208.4000      0.0000    735.4742      3.2569     52.4246
   208.4500      0.0000    735.4742      3.2569     52.4246
   208.5000      0.0000    746.6165      3.3098     48.6774
   208.5500      0.0000    746.6165      3.3098     48.6774
   208.6000      0.0000    746.6165      3.3098     48.6774
   208.6500      0.0000    746.6165      3.3098     48.6774
   208.7000      0.0000    746.6165      3.3098     48.6774
   208.7500      0.0000    766.3443      3.3621     47.0920
   208.8000      0.0000    766.3443      3.3621     47.0920
   208.8500      0.0000    766.3443      3.3621     47.0920
   208.9000      0.0000    766.3443      3.3621     47.0920
   208.9500      2.0000    766.3443      3.3621     47.0920
   209.0000      2.0000    789.9815      3.4007     47.7799
   209.0500      2.0000    789.9815      3.4007     47.7799
   209.1000     -2.0000    789.9815      3.4007     47.7799
   209.1500     -2.0000    789.9815      3.4007     47.7799
   209.2000     -2.0000    789.9815      3.4007     47.7799
   209.2500      0.0000    808.8424      3.4200     49.5235
   209.3000      2.0000    808.8424      3.4200     49.5235
   209.3500      2.0000    808.8424      3.4200     49.5235
   209.4000      2.0000    808.8424      3.4200     49.5235
   209.4500      0.0000    808.8424      3.4200     49.5235
   209.5000     -2.0000    813.3519      3.4427     51.2287
   209.5500      0.0000    813.3519      3.4427     51.2287
   209.6000      0.0000    813.3519      3.4427     51.2287
   209.6500      0.0000    813.3519      3.4427     51.2287
   209.7000      0.0000    813.3519      3.4427     51.2287
   209.7500      0.0000    800.9296      3.5161     52.7857
   209.8000      0.0000    800.9296      3.5161     52.7857
   209.8500      0.0000    800.9296      3.5161     52.7857
   209.9000      0.0000    800.9296      3.5161     52.7857
   209.9500      0.0000    800.9296      3.5161     52.7857
   210.0000      0.0000    780.1074      3.6776     54.5311
   210.0500      0.0000    780.1074      3.6776     54.5311
   210.1000      0.0000    780.1074      3.6776     54.5311
   210.1500      0.0000    780.1074      3.6776     54.5311
   210.2000      0.0000    780.1074      3.6776     54.5311
   210.2500      0.0000    764.8038      3.9029     56.4972
   210.3000      0.0000    764.8038      3.9029     56.4972
   210.3500      0.0000    764.8038      3.9029     56.4972
   210.4000      0.0000    764.8038      3.9029     56.4972
   210.4500      0.0000    764.8038      3.9029     56.4972
   210.5000      0.0000    764.4726      4.0946     58.4198
   210.5500      0.0000    764.4726      4.0946     58.4198
   210.6000      0.0000    764.4726      4.0946     58.4198
   210.6500      0.0000    764.4726      4.0946     58.4198
   210.7000      0.0000    764.4726      4.0946     58.4198
   210.7500      0.0000    779.2540      4.1532     60.1368
   210.8000      0.0000    779.2540      4.1532     60.1368
   210.8500      0.0000    779.2540      4.1532     60.1368
   210.9000      0.0000    779.2540      4.1532     60.1368
   210.9500      0.0000    779.2540      4.1532     60.1368
   211.0000      0.0000    801.5094      4.0623     61.8352
   211.0500      0.0000    801.5094      4.0623     61.8352
   211.1000      0.0000    801.5094      4.0623     61.8352
   211.1500      0.0000    801.5094      4.0623     61.8352
   211.2000      0.0000    801.5094      4.0623     61.8352
   211.2500      0.0000    820.2574      3.8890     64.0245
   211.3000      0.0000    820.2574      3.8890     64.0245
   211.3500      0.0000    820.2574      3.8890     64.0245
   211.4000      0.0000    820.2574      3.8890     64.0245
   211.4500      0.0000    820.2574      3.8890     64.0245
   211.5000      0.0000    826.1255      3.7116     67.2370
   211.5500      0.0000    826.1255      3.7116     67.2370
   211.6000      0.0000    826.1255      3.7116     67.2370
   211.6500      0.0000    826.1255      3.7116     67.2370
   211.7000      0.0000    826.1255      3.7116     67.2370
   211.7500      0.0000    815.3911      3.5684     71.6698
   211.8000      0.0000    815.3911      3.5684     71.6698
   211.8500      0.0000    815.3911      3.5684     71.6698
   211.9000      0.0000    815.3911      3.5684     71.6698
   211.9500      0.0000    815.3911      3.5684     71.6698
   212.0000      0.0000    791.7014      3.4628     77.1293
   212.0500      0.0000    791.7014      3.4628     77.1293
   212.1000      0.0000    791.7014      3.4628     77.1293
   212.1500      0.0000    791.7014      3.4628     77.1293
   212.2000      0.0000    791.7014      3.4628     77.1293
   212.2500      0.0000    764.7051      3.3891     83.3007
   212.3000      0.0000    764.7051      3.3891     83.3007
   212.3500      0.0000    764.7051      3.3891     83.3007
   212.4000      0.0000    764.7051      3.3891     83.3007
   212.4500      0.0000    764.7051      3.3891     83.3007
   212.5000      0.0000    745.9879      3.3434     89.9286
   212.5500      0.0000    745.9879      3.3434     89.9286
   212.6000      0.0000    745.9879      3.3434     89.9286
   212.6500      0.0000    745.9879      3.3434     89.9286
   212.7000      0.0000    745.9879      3.3434     89.9286
   212.7500      0.0000    743.4907      3.3235     96.5622
   212.8000      0.0000    743.4907      3.3235     96.5622
   212.8500      0.0000    743.4907      3.3235     96.5622
   212.9000      0.0000    743.4907      3.3235     96.5622
   212.9500      0.0000    743.4907      3.3235     96.5622
   213.0000      0.0000    756.9852      3.3279    102.2786
   213.0500      0.0000    756.9852      3.3279    102.2786
   213.1000      0.0000    756.9852      3.3279    102.2786
   213.1500      0.0000    756.9852      3.3279    102.2786
   213.2000      0.0000    756.9852      3.3279    102.2786
   213.2500      0.0000    777.7462      3.3542    106.1395
   213.3000      0.0000    777.7462      3.3542    106.1395
   213.3500      0.0000    777.7462      3.3542    106.1395
   213.4000      0.0000    777.7462      3.3542    106.1395
