~Version Information
VERS.                      2.0: CWLS Log ASCII Standard - VERSION 2.0
WRAP.                       NO: One line per depth step
~Well Information Block
STRT.FT               298.0000: 
STOP.FT              1302.0000: 
STEP.FT                 0.1000: 
NULL.                -999.2500: 
COMP.          Pioneer Natural Resources: COMPANY
WELL.          Bouncer 41-27 Tr: WELL
FLD.           Purgatoire River: FIELD
LOC.           292' FNL & 222' FEL: LOCATION
PROV.                 Colorado: PROVINCE
CNTY.               Las Animas: COUNTRY
SRVC.                Patterson: SERVICE COMPANY
DATE.          Mon Feb 07 12:55:19 2005: LOG DATE
UWI.           05 071 08291 00: UNIQUE WELL ID
~Curve Information Block
DEPT.FT            0 000 00 00: Depth
DCAL.in                       : CDL Caliper
RHOB.g/cc                     : CDL Bulk Density
RHOC.g/cc                     : CDL Density Correction
DPOR.pu                       : CDL Density Porosity
GR.GAPI                       : Gamma Ray
NPOR.pu                       : Neutron Porosity
~Parameter Information Block
~A  Depth       DCAL        RHOB        RHOC        DPOR         GR         NPOR    
# ...
  1152.4000      7.9239      2.4301      0.0307     13.3290     50.2545     19.8772
  1152.5000      7.8874      2.4392      0.0470     12.7757     58.3121     19.4476
  1152.6000      7.8874      2.4580      0.0707     11.6380     60.8478     19.2200
  1152.7000      7.8874      2.4886      0.1337      9.7834     57.2529     19.4481
  1152.8000      7.9042      2.5207      0.1277      7.8388     54.6648     19.7298
  1152.9000      7.9042      2.5466      0.1467      6.2638     56.1189     20.2786
  1153.0000      7.8744      2.5657      0.1384      5.1072     57.5589     21.1979
  1153.1000      7.8744      2.5655      0.1611      5.1236     56.2335     21.7748
  1153.2000      7.8744      2.5365      0.0907      6.8771     54.7174     21.6799
  1153.3000      7.8722      2.4957      0.0407      9.3535     55.2816     21.4701
  1153.4000      7.8722      2.4693      0.0499     10.9536     59.6096     21.3578
  1153.5000      7.8652      2.4693      0.0680     10.9535     68.9438     21.1946
  1153.6000      7.8652      2.4873      0.1176      9.8616     79.1573     21.0465
  1153.7000      7.8652      2.5013      0.0887      9.0145     84.2232     20.9615
  1153.8000      7.8800      2.4935      0.1086      9.4855     85.1206     21.1600
  1153.9000      7.8800      2.4659      0.1063     11.1547     86.9812     21.7508
  1154.0000      7.8742      2.4378      0.0730     12.8578     91.1674     22.1174
  1154.1000      7.8742      2.4354      0.0341     13.0082     94.6085     21.9202
  1154.2000      7.8742      2.4675      0.0505     11.0577     95.4977     21.5949
  1154.3000      7.8759      2.5085      0.0891      8.5750     95.8827     21.4768
  1154.4000      7.8759      2.5328      0.0763      7.1001     93.7033     21.5585
  1154.5000      7.8834      2.5472      0.0740      6.2301     84.2578     21.3050
  1154.6000      7.8834      2.5616      0.1050      5.3599     70.8585     20.4730
  1154.7000      7.8834      2.5746      0.1222      4.5708     61.1964     19.6375
  1154.8000      7.8853      2.5946      0.1075      3.3565     57.7889     18.8962
  1154.9000      7.8853      2.6253      0.1137      1.4995     57.2122     18.1533
  1155.0000      7.8816      2.6410      0.1269      0.5474     55.7813     17.6805
  1155.1000      7.8816      2.6147      0.1291      2.1402     54.4557     17.3744
  1155.2000      7.8816      2.5642      0.0032      5.2005     56.8180     16.9586
  1155.3000      7.8973      2.5338      0.0221      7.0416     63.9080     16.8206
  1155.4000      7.8973      2.5315      0.0474      7.1832     73.5073     17.6247
  1155.5000      7.9065      2.5356      0.0279      6.9350     81.8442     19.0686
  1155.6000      7.9065      2.5376      0.0457      6.8122     88.5469     20.2619
  1155.7000      7.9065      2.5434      0.0502      6.4585     98.0708     20.5159
  1155.8000      7.9010      2.5579      0.0641      5.5801    110.6196     20.1998
  1155.9000      7.9010      2.5748      0.0863      4.5550    118.7550     20.6338
  1156.0000      7.9201      2.5739      0.1095      4.6127    116.6025     21.8115
  1156.1000      7.9201      2.5422      0.0677      6.5328    107.9510     22.3180
  1156.2000      7.9201      2.4954      0.0519      9.3720    102.6354     21.8630
  1156.3000      7.9285      2.4656      0.0138     11.1756    104.9447     21.3725
  1156.4000      7.9285      2.4749     -0.0308     10.6109    111.6487     21.5379
  1156.5000      7.9508      2.5052      0.0889      8.7728    117.8437     22.2749
  1156.6000      7.9508      2.5182      0.1107      7.9889    118.0600     23.0361
  1156.7000      7.9508      2.5085      0.0855      8.5739    112.2362     23.6664
  1156.8000      7.9291      2.5048      0.0779      8.7970    109.9662     24.1355
  1156.9000      7.9291      2.5252      0.1031      7.5645    114.8498     24.1497
  1157.0000      7.8856      2.5515      0.1046      5.9721    118.0316     23.7057
  1157.1000      7.8856      2.5566      0.1192      5.6597    115.9712     23.2959
  1157.2000      7.8856      2.5395      0.0885      6.6974    116.0991     23.0865
  1157.3000      7.8803      2.5119      0.0893      8.3690    120.6096     23.0538
  1157.4000      7.8803      2.4859      0.0106      9.9455    121.6588     23.3250
  1157.5000      7.9063      2.4628      0.0386     11.3467    116.1250     23.6135
  1157.6000      7.9063      2.4103      0.0466     14.5278    109.5339     23.7796
  1157.7000      7.9063      2.2997      0.0194     21.2324    107.0722     24.1122
  1157.8000      7.9441      2.1559     -0.0369     29.9453    108.2472     24.7251
  1157.9000      7.9441      2.0333     -0.0772     37.3738    107.6307     25.3499
  1158.0000      7.9595      1.9563     -0.1151     42.0412    101.2653     25.8705
  1158.1000      7.9595      1.9028     -0.0876     45.2845     93.8921     26.4225
  1158.2000      7.9595      1.8463     -0.1248     48.7077     91.2611     27.0290
  1158.3000      7.9682      1.8011     -0.1246     51.4473     90.8131     27.8606
  1158.4000      7.9682      1.7903     -0.0231     52.1044     87.0855     29.0013
  1158.5000      7.9896      1.7921      0.1362     51.9932     80.6829     29.8760
  1158.6000      7.9896      1.7664      0.1427     53.5525     77.3349     30.0815
  1158.7000      7.9896      1.7089      0.0725     57.0345     76.0920     30.1412
  1158.8000      8.2023      1.6442     -0.0448     60.9546     73.1318     30.4048
  1158.9000      8.2023      1.5819     -0.0564     64.7308     67.8255     30.5847
  1159.0000      8.4343      1.5107     -0.0381     69.0469     61.2026     30.6625
  1159.1000      8.4343      1.4383     -0.0799     73.4357     56.3869     30.8363
  1159.2000      8.4343      1.3922     -0.0562     76.2312     54.2523     30.9112
  1159.3000      8.3680      1.3712      0.0481     77.5040     52.9253     30.7640
  1159.4000      8.3680      1.3589      0.0028     78.2478     49.5215     30.7082
  1159.5000      8.2993      1.3638      0.0161     77.9489     43.8982     30.9771
  1159.6000      8.2993      1.3918      0.0963     76.2518     40.2287     31.4647
  1159.7000      8.2993      1.4363      0.0477     73.5564     41.4862     32.0255
  1159.8000      8.3776      1.5012      0.0445     69.6224     46.4269     32.5377
  1159.9000      8.3776      1.5818      0.1004     64.7422     53.5041     32.5626
  1160.0000      8.1785      1.6582      0.1057     60.1072     61.0446     32.1790
  1160.1000      8.1785      1.7288      0.1001     55.8314     66.2597     32.1902
  1160.2000      8.1785      1.8037      0.1272     51.2930     69.2569     32.5310
  1160.3000      8.2138      1.8704      0.1736     47.2471     72.1381     32.2094
  1160.4000      8.2138      1.9026      0.1471     45.2990     76.6361     31.2314
  1160.5000      8.3587      1.8934      0.1047     45.8564     82.8112     30.7727
  1160.6000      8.3587      1.8536      0.0615     48.2679     87.1072     31.1490
  1160.7000      8.3587      1.7911     -0.0284     52.0527     86.9633     31.4015
  1160.8000      8.3985      1.7082     -0.0233     57.0781     84.5174     31.1120
  1160.9000      8.3985      1.6135     -0.1554     62.8197     80.6862     30.9096
  1161.0000      8.1615      1.5253     -0.1415     68.1637     73.0613     31.0459
  1161.1000      8.1615      1.4551     -0.1291     72.4166     62.0115     31.1319
  1161.2000      8.1615      1.4045     -0.0888     75.4829     53.2721     31.0759
  1161.3000      8.0942      1.3689     -0.0772     77.6431     50.1655     31.0996
  1161.4000      8.0942      1.3438     -0.0435     79.1647     50.2738     31.1841
  1161.5000      8.1255      1.3337     -0.0624     79.7758     50.0167     30.9232
  1161.6000      8.1255      1.3522     -0.0470     78.6567     48.7117     30.2740
  1161.7000      8.1255      1.4085      0.0119     75.2401     49.2532     29.9650
  1161.8000      8.1913      1.4931      0.0283     70.1149     51.4487     30.3576
  1161.9000      8.1913      1.5842      0.0645     64.5957     53.4644     31.1279
