~Version Information
VERS.                      2.0: CWLS Log ASCII Standard - VERSION 2.0
WRAP.                       NO: One line per depth step
~Well Information Block
STRT.FT               250.0000: 
STOP.FT              1687.7000: 
STEP.FT                 0.1000: 
NULL.                -999.2500: 
COMP.          Pioneer Natural Resources: COMPANY
WELL.          Moneypenny 31-36: WELL
FLD.           Purgatoire River: FIELD
LOC.           280' FNL & 1976' FEL: LOCATION
PROV.                 Colorado: PROVINCE
CNTY.               Las Animas: COUNTRY
SRVC.                Patterson: SERVICE COMPANY
DATE.          Fri Oct 01 13:54:40 2004: LOG DATE
UWI.           05 071 08183 00: UNIQUE WELL ID
~Curve Information Block
DEPT.FT            0 000 00 00: Depth
DCAL.in                       : CDL Caliper
RHOB.g/cc                     : CDL Bulk Density
RHOC.g/cc                     : CDL Density Correction
DPOR.pu                       : CDL Density Porosity
NPOR.pu                       : Neutron Porosity
GR.GAPI                       : Gamma Ray
~Parameter Information Block
~A  Depth       DCAL        RHOB        RHOC        DPOR        NPOR         GR     
# ...
   998.8000      8.1769      2.4575      0.1143     11.6685     20.8618    134.3469
   998.9000      8.1769      2.4499      0.1185     12.1276     21.1914    133.1828
   999.0000      8.1681      2.4271      0.0785     13.5104     20.9278    131.4862
   999.1000      8.1681      2.3919      0.1162     15.6441     20.5246    130.8289
   999.2000      8.1681      2.3603      0.0295     17.5583     20.4382    133.1246
   999.3000      8.1689      2.3593      0.0256     17.6187     20.7433    138.7194
   999.4000      8.1689      2.3960      0.0819     15.3915     21.1509    145.7424
   999.5000      8.1703      2.4439      0.1459     12.4907     21.3619    150.5344
   999.6000      8.1703      2.4658      0.1712     11.1609     21.3472    150.4588
   999.7000      8.1703      2.4510      0.1259     12.0605     21.2280    148.2946
   999.8000      8.1699      2.4191      0.1364     13.9962     21.0315    146.9650
   999.9000      8.1699      2.3845      0.1039     16.0885     20.6780    146.2722
  1000.0000      8.1673      2.3528      0.0893     18.0151     20.3719    146.2301
  1000.1000      8.1673      2.3380      0.0406     18.9118     20.3693    145.9057
  1000.2000      8.1673      2.3484      0.0856     18.2771     20.4482    146.0630
  1000.3000      8.1627      2.3678      0.1198     17.1060     20.2591    147.2666
  1000.4000      8.1627      2.3754      0.1318     16.6407     19.6200    148.9081
  1000.5000      8.1588      2.3684      0.1323     17.0678     18.7606    150.8620
  1000.6000      8.1588      2.3608      0.0675     17.5289     18.3695    151.4279
  1000.7000      8.1588      2.3678      0.0769     17.1018     18.6250    148.1070
  1000.8000      8.1614      2.3881      0.0976     15.8710     18.8556    141.0807
  1000.9000      8.1614      2.4099      0.1035     14.5488     18.6412    135.0918
  1001.0000      8.1653      2.4250      0.0964     13.6338     18.2837    135.8718
  1001.1000      8.1653      2.4325      0.0712     13.1827     18.3170    141.1649
  1001.2000      8.1653      2.4345      0.0740     13.0596     18.8072    143.6014
  1001.3000      8.1668      2.4304      0.0906     13.3092     19.1908    141.6776
  1001.4000      8.1668      2.4191      0.0461     13.9948     19.0820    141.5655
  1001.5000      8.1677      2.4062      0.0209     14.7760     18.7082    147.2878
  1001.6000      8.1677      2.3975      0.0371     15.3052     18.5089    153.1277
  1001.7000      8.1677      2.3912      0.0292     15.6843     18.6977    153.4180
  1001.8000      8.1676      2.3847      0.0404     16.0778     19.1341    150.2610
  1001.9000      8.1676      2.3829     -0.0026     16.1856     19.4605    149.3716
  1002.0000      8.1679      2.3935      0.0477     15.5454     19.4342    153.9649
  1002.1000      8.1679      2.4166      0.0394     14.1463     19.1307    160.1435
  1002.2000      8.1679      2.4464      0.0861     12.3374     18.9340    162.6552
  1002.3000      8.1693      2.4680      0.0972     11.0317     19.0694    161.5661
  1002.4000      8.1693      2.4703      0.0782     10.8891     19.4299    157.0999
  1002.5000      8.1727      2.4663      0.0751     11.1353     19.7885    149.6265
  1002.6000      8.1727      2.4690      0.1080     10.9701     19.9056    143.5325
  1002.7000      8.1727      2.4696      0.0886     10.9353     19.9208    140.6465
  1002.8000      8.1761      2.4675      0.0624     11.0617     19.9993    139.4210
  1002.9000      8.1761      2.4789      0.0750     10.3669     20.0828    139.3376
  1003.0000      8.1738      2.4973      0.1527      9.2575     20.2485    138.2384
  1003.1000      8.1738      2.4977      0.0923      9.2278     20.3736    134.9322
  1003.2000      8.1738      2.4786      0.1088     10.3849     20.3506    131.5435
  1003.3000      8.1702      2.4623      0.0350     11.3730     20.4474    131.1463
  1003.4000      8.1702      2.4717      0.0350     10.8090     20.7141    132.8706
  1003.5000      8.1690      2.4990      0.1168      9.1512     20.8262    131.4729
  1003.6000      8.1690      2.5133      0.1251      8.2869     20.6260    125.1817
  1003.7000      8.1690      2.5108      0.0833      8.4371     20.3433    117.9229
  1003.8000      8.1768      2.5167      0.0446      8.0802     20.1185    112.7692
  1003.9000      8.1768      2.5358      0.1065      6.9204     19.9503    112.8349
  1004.0000      8.1978      2.5521      0.0492      5.9343     19.9680    120.0402
  1004.1000      8.1978      2.5568      0.0797      5.6510     20.2904    128.1524
  1004.2000      8.1978      2.5425      0.0807      6.5167     20.6450    132.4794
  1004.3000      8.2151      2.5124      0.0117      8.3407     20.6318    134.1661
  1004.4000      8.2151      2.4921     -0.0002      9.5683     20.4217    131.8655
  1004.5000      8.2205      2.4945      0.0322      9.4225     20.4717    126.3836
  1004.6000      8.2205      2.5031      0.0016      8.9058     20.8582    122.1441
  1004.7000      8.2205      2.5056      0.0105      8.7506     21.2403    121.3834
  1004.8000      8.2207      2.5112     -0.0351      8.4149     21.6799    124.8588
  1004.9000      8.2207      2.5279      0.0401      7.3996     22.4879    131.8052
  1005.0000      8.2203      2.5463      0.0360      6.2834     23.2712    136.0950
  1005.1000      8.2203      2.5509      0.0460      6.0073     23.5769    135.1295
  1005.2000      8.2203      2.5317      0.0581      7.1715     23.3421    135.9716
  1005.3000      8.2205      2.5009      0.0041      9.0362     22.8202    138.4314
  1005.4000      8.2205      2.4916     -0.0054      9.5997     22.5689    134.7705
  1005.5000      8.2211      2.5124      0.0509      8.3411     22.4922    127.5111
  1005.6000      8.2211      2.5355      0.0417      6.9387     22.2972    124.0008
  1005.7000      8.2211      2.5399      0.0378      6.6722     22.2624    125.0192
  1005.8000      8.2214      2.5311      0.0276      7.2057     22.5533    126.9367
  1005.9000      8.2214      2.5248      0.0302      7.5878     22.8886    129.1826
  1006.0000      8.2223      2.5270      0.0415      7.4551     22.9477    134.0167
  1006.1000      8.2223      2.5310      0.0419      7.2114     22.7087    137.0404
  1006.2000      8.2223      2.5332      0.0067      7.0784     22.4936    131.1416
  1006.3000      8.2234      2.5344      0.0811      7.0075     22.4955    121.6162
  1006.4000      8.2234      2.5269      0.0686      7.4587     22.3547    118.8341
  1006.5000      8.2240      2.5071      0.0173      8.6604     22.1132    121.1605
  1006.6000      8.2240      2.4813      0.0211     10.2253     22.3774    121.1163
  1006.7000      8.2240      2.4622     -0.0123     11.3848     22.7245    118.2437
  1006.8000      8.2248      2.4665      0.0035     11.1222     22.4244    117.0095
  1006.9000      8.2248      2.4926      0.0134      9.5380     22.0376    119.3689
  1007.0000      8.2253      2.5241      0.0723      7.6306     22.0167    123.6858
  1007.1000      8.2253      2.5533      0.0205      5.8629     22.0249    127.2100
  1007.2000      8.2253      2.5781      0.0388      4.3553     22.0405    129.3897
  1007.3000      8.2243      2.5885      0.1099      3.7253     22.2075    130.6813
  1007.4000      8.2243      2.5752      0.1075      4.5356     22.5341    129.5405
  1007.5000      8.2226      2.5472      0.0828      6.2286     22.8384    125.4431
  1007.6000      8.2226      2.5272      0.0407      7.4454     22.7655    119.8753
  1007.7000      8.2226      2.5259      0.0558      7.5220     22.3016    113.4484
  1007.8000      8.2223      2.5356      0.0763      6.9310     21.8310    108.9648
  1007.9000      8.2223      2.5367      0.1270      6.8671     21.7407    109.1464
  1008.0000      8.2226      2.5099      0.0604      8.4884     22.0841    110.0858
  1008.1000      8.2226      2.4654     -0.0106     11.1872     22.3994    109.3268
  1008.2000      8.2226      2.4281      0.0113     13.4486     22.3934    109.5768
  1008.3000      8.2220      2.4042     -0.0312     14.8983     22.1837    111.4728
