~Version Information
VERS.                      2.0: CWLS Log ASCII Standard - VERSION 2.0
WRAP.                       NO: One line per depth step
~Well Information Block
STRT.FT               595.0000: 
STOP.FT              1508.7500: 
STEP.FT                 0.2500: 
NULL.                -999.2500: 
COMP.          Pioneer Natural Resources: COMPANY
WELL.          Sumatra 34-22 Tr: WELL
FLD.           Purgatoire River: FIELD
LOC.           443' FSL & 2424' FEL--: LOCATION
PROV.                 Colorado: PROVINCE
CNTY.               Las Animas: COUNTRY
SRVC.                Patterson: SERVICE COMPANY
DATE.          Wed Jun 08 23:53:01 2005: LOG DATE
UWI.           05 071 08383 00: UNIQUE WELL ID
~Curve Information Block
DEPT.FT            0 000 00 00: Depth
SN.Ohm-m                      : IEL Short Normal
SP.mV                         : IEL Spontaneous Potential
DIR.Ohm-m                     : IEL Induction Resistivity
GR.GAPI                       : Gamma Ray
~Parameter Information Block
~A  Depth        SN          SP         DIR          GR     
# ...
   695.5000    682.8896   -529.4693     38.3269    102.1606
   695.7500    682.8896   -529.4681     36.1921    105.3918
   696.0000    682.8896   -529.4669     34.2132    110.2642
   696.2500    682.8896   -529.4656     32.5565    113.3088
   696.5000    682.8896   -529.4643     31.3174    116.9005
   696.7500    682.8896   -529.4629     30.5143    118.1090
   697.0000    682.8896   -529.4614     30.0993    117.1373
   697.2500    682.8896   -529.4600     29.9772    114.1799
   697.5000    682.8896   -529.4586     30.0298    106.0536
   697.7500    682.8896   -529.4576     30.1476     98.4160
   698.0000    682.8896   -529.4572     30.2636     84.6671
   698.2500    682.8896   -529.4572     30.3606     74.9332
   698.5000    682.8896   -529.4577     30.4326     61.5127
   698.7500    682.8896   -529.4586     30.4222     54.5038
   699.0000    682.8896   -529.4596     30.1917     48.3247
   699.2500    682.8896   -529.4605     29.5682     47.4052
   699.5000    682.8896   -529.4613     28.4459     50.4126
   699.7500    682.8896   -529.4618     26.8608     54.8253
   700.0000    682.8896   -529.4621     24.9741     64.3538
   700.2500    682.8896   -529.4623     22.9882     72.3355
   700.5000    682.8896   -529.4623     21.0692     85.8039
   700.7500    682.8896   -529.4623     19.3175     94.8717
   701.0000    682.8896   -529.4620     17.7780    107.0143
   701.2500    682.8896   -529.4615     16.4626    113.5534
   701.5000    682.8896   -529.4606     15.3673    120.8262
   701.7500    682.8896   -529.4594     14.4778    124.1883
   702.0000    682.8896   -529.4578     13.7709    127.4060
   702.2500    682.8896   -529.4561     13.2158    128.4003
   702.5000    682.8896   -529.4545     12.7780    128.1487
   702.7500    682.8896   -529.4531     12.4250    127.0247
   703.0000    682.8896   -529.4520     12.1316    124.7442
   703.2500    682.8896   -529.4512     11.8819    123.2823
   703.5000    682.8896   -529.4506     11.6685    121.3363
   703.7500    682.8896   -529.4501     11.4882    120.0390
   704.0000    682.8896   -529.4495     11.3376    118.0215
   704.2500    682.8896   -529.4489     11.2118    116.8902
   704.5000    682.8896   -529.4479     11.1063    116.1405
   704.7500    682.8896   -529.4468     11.0203    116.4540
   705.0000    682.8896   -529.4455     10.9576    117.9976
   705.2500    682.8896   -529.4439     10.9242    119.5251
   705.5000    682.8896   -529.4420     10.9249    122.0357
   705.7500    682.8896   -529.4399     10.9616    123.3593
   706.0000    682.8896   -529.4376     11.0329    123.8168
   706.2500    682.8896   -529.4352     11.1339    122.7682
   706.5000    682.8896   -529.4332     11.2533    119.3246
   706.7500    682.8896   -529.4315     11.3702    116.1179
   707.0000    682.8896   -529.4307     11.4578    110.6227
   707.2500    682.8896   -529.4310     11.4942    107.0671
   707.5000    682.8896   -529.4322     11.4747    103.3238
   707.7500    682.8896   -529.4343     11.4142    102.7531
   708.0000    682.8896   -529.4370     11.3379    105.5095
   708.2500    682.8896   -529.4398     11.2680    109.4907
   708.5000    682.8896   -529.4424     11.2155    117.2399
   708.7500    682.8896   -529.4445     11.1778    122.4969
   709.0000    682.8896   -529.4461     11.1422    128.8372
   709.2500    682.8896   -529.4473     11.0913    131.3988
   709.5000    682.8896   -529.4482     11.0106    132.3804
   709.7500    682.8896   -529.4492     10.8960    131.3005
   710.0000    682.8896   -529.4504     10.7579    127.8804
   710.2500    682.8896   -529.4520     10.6177    125.0610
   710.5000    682.8896   -529.4537     10.4986    121.3493
   710.7500    682.8896   -529.4553     10.4148    120.0093
   711.0000    682.8896   -529.4565     10.3655    120.6796
   711.2500    682.8896   -529.4572     10.3360    122.9914
   711.5000    682.8896   -529.4572     10.3038    128.3586
   711.7500    682.8896   -529.4563     10.2485    132.2679
   712.0000    682.8896   -529.4548     10.1602    137.1165
   712.2500    682.8896   -529.4528     10.0434    139.2941
   712.5000    682.8896   -529.4505      9.9153    141.3183
   712.7500    682.8896   -529.4482      9.7984    142.1798
   713.0000    682.8896   -529.4463      9.7147    142.8977
   713.2500    682.8896   -529.4448      9.6801    142.9761
   713.5000    682.8896   -529.4438      9.7030    142.7387
   713.7500    682.8896   -529.4435      9.7834    142.4849
   714.0000    682.8896   -529.4438      9.9139    141.7186
   714.2500    682.8896   -529.4445     10.0823    140.8134
   714.5000    682.8896   -529.4453     10.2763    139.4055
   714.7500    682.8896   -529.4461     10.4882    138.9021
   715.0000    682.8896   -529.4467     10.7197    138.4864
   715.2500    682.8896   -529.4468     10.9827    137.5680
   715.5000    682.8896   -529.4465     11.2961    134.1368
   715.7500    682.8896   -529.4457     11.6806    130.7192
   716.0000    682.8896   -529.4445     12.1535    125.2291
   716.2500    682.8896   -529.4427     12.7249    121.8605
   716.5000    682.8896   -529.4405     13.3955    117.0784
   716.7500    682.8896   -529.4380     14.1576    113.6377
   717.0000    682.8896   -529.4355     15.0011    107.6787
   717.2500    682.8896   -529.4330     15.9224    103.3223
   717.5000    682.8896   -529.4307     16.9288     96.7469
   717.7500    682.8896   -529.4290     18.0308     92.5463
   718.0000    682.8896   -529.4279     19.2227     86.8542
   718.2500    682.8896   -529.4276     20.4650     83.8397
   718.5000    682.8896   -529.4277     21.6798     81.1878
   718.7500    682.8896   -529.4282     22.7685     80.7779
   719.0000    682.8896   -529.4289     23.6414     81.7794
   719.2500    682.8896   -529.4296     24.2452     83.1304
   719.5000    682.8896   -529.4299     24.5683     85.4929
   719.7500    682.8896   -529.4301     24.6243     86.9392
   720.0000    682.8896   -529.4297     24.4309     88.6490
   720.2500    682.8896   -529.4291     24.0039     89.6828
   720.5000    682.8896   -529.4282     23.3709     91.9450
   720.7500    682.8896   -529.4272     22.5846     94.4040
   721.0000    682.8896   -529.4261     21.7154     99.5703
   721.2500    682.8896   -529.4255     20.8273    103.4613
   721.5000    682.8896   -529.4254     19.9576    108.6094
   721.7500    682.8896   -529.4263     19.1159    111.0180
   722.0000    682.8896   -529.4280     18.2975    113.0274
   722.2500    682.8896   -529.4306     17.4995    113.6962
   722.5000    682.8896   -529.4337     16.7271    114.6121
   722.7500    682.8896   -529.4370     15.9928    115.6037
   723.0000    682.8896   -529.4399     15.3120    117.9708
   723.2500    682.8896   -529.4424     14.6982    120.0070
   723.5000    682.8896   -529.4441     14.1578    123.2176
   723.7500    682.8896   -529.4451     13.6876    125.1525
   724.0000    682.8896   -529.4456     13.2759    127.3015
   724.2500    682.8896   -529.4457     12.9093    127.9476
   724.5000    682.8896   -529.4456     12.5797    127.3333
   724.7500    682.8896   -529.4454     12.2868    125.9274
   725.0000    682.8896   -529.4451     12.0345    123.0162
   725.2500    682.8896   -529.4448     11.8260    121.0247
   725.5000    682.8896   -529.4445     11.6605    118.4570
   725.7500    682.8896   -529.4440     11.5321    117.1147
   726.0000    682.8896   -529.4434     11.4314    115.7007
   726.2500    682.8896   -529.4429     11.3479    115.2505
   726.5000    682.8896   -529.4423     11.2728    115.6899
   726.7500    682.8896   -529.4420     11.2010    116.8992
   727.0000    682.8896   -529.4420     11.1302    119.7312
   727.2500    682.8896   -529.4421     11.0596    121.6566
   727.5000    682.8896   -529.4424     10.9891    123.4649
   727.7500    682.8896   -529.4427     10.9197    123.7279
   728.0000    682.8896   -529.4429     10.8539    123.2005
   728.2500    682.8896   -529.4427     10.7951    122.6605
   728.5000    682.8896   -529.4420     10.7472    121.8614
   728.7500    682.8896   -529.4407     10.7152    121.2560
