~Version Information
VERS.                      2.0: CWLS Log ASCII Standard - VERSION 2.0
WRAP.                       NO: One line per depth step
~Well Information Block
STRT.FT               605.6000: 
STOP.FT              1938.0000: 
STEP.FT                 0.1000: 
NULL.                -999.2500: 
COMP.          Petrogulf Corporation: COMPANY
WELL.              Graff 9-31R: WELL
FLD.           Purgatorie River: FIELD
LOC.           707' FNL & 1713' FEL: LOCATION
CNTY.               Las Animas: COUNTY
SRVC.                         : SERVICE COMPANY
DATE.          Mon Oct 25 06:13:30 2004: LOG DATE
UWI.           05 071 08037 00: UNIQUE WELL ID
STAT.                 Colorado: STATE
~Curve Information Block
DEPT.FT            0 000 00 00: Depth
DCAL.in                       : CDL Caliper
RHOB.g/cc                     : CDL Bulk Density
RHOC.g/cc                     : CDL Density Correction
DPOR.pu                       : CDL Density Porosity
GR.GAPI                       : Gamma Ray
NPOR.pu                       : Neutron Porosity
~Parameter Information Block
~A  Depth       DCAL        RHOB        RHOC        DPOR         GR         NPOR    
# ...
  1229.6000      8.0580      2.3610      0.0855     17.5179    123.4923     21.5119
  1229.7000      8.0580      2.3977      0.1220     15.2909    127.6911     21.7229
  1229.8000      8.0741      2.4334      0.1055     13.1283    130.4064     22.1800
  1229.9000      8.0741      2.4590      0.1399     11.5741    133.2911     22.9940
  1230.0000      8.0970      2.4622      0.1633     11.3789    137.2951     23.6986
  1230.1000      8.0970      2.4453      0.1921     12.4032    134.9679     23.7178
  1230.2000      8.0970      2.4239      0.1548     13.7045    129.9141     23.1549
  1230.3000      8.1099      2.4120      0.1598     14.4260    133.3528     22.5301
  1230.4000      8.1099      2.4154      0.1614     14.2159    143.0388     21.9711
  1230.5000      8.1099      2.4345      0.1779     13.0622    150.6388     21.4482
  1230.6000      8.1099      2.4665      0.1306     11.1239    154.7693     20.9818
  1230.7000      8.1099      2.5003      0.1768      9.0725    155.8763     20.6180
  1230.8000      8.1462      2.5171      0.2443      8.0562    151.7499     20.6034
  1230.9000      8.1462      2.5194      0.2171      7.9133    143.0566     21.2411
  1231.0000      8.1390      2.5220      0.2543      7.7580    134.9224     22.2609
  1231.1000      8.1390      2.5143      0.2986      8.2215    129.3193     22.9291
  1231.2000      8.1390      2.4880      0.1880      9.8154    126.7330     23.0814
  1231.3000      8.1403      2.4638      0.1344     11.2841    127.9688     23.1664
  1231.4000      8.1403      2.4609      0.0708     11.4591    131.4507     23.1584
  1231.5000      8.1330      2.4725      0.1013     10.7565    137.4819     22.5637
  1231.6000      8.1330      2.4770      0.0922     10.4848    143.2418     21.7156
  1231.7000      8.1330      2.4698      0.0888     10.9203    143.9689     21.5755
  1231.8000      8.1488      2.4658      0.0898     11.1663    142.3152     22.2248
  1231.9000      8.1488      2.4679      0.1195     11.0361    140.4021     22.9059
  1232.0000      8.1497      2.4670      0.0914     11.0915    138.5657     23.2094
  1232.1000      8.1497      2.4636      0.1065     11.2948    139.1289     23.2439
  1232.2000      8.1497      2.4598      0.1349     11.5260    139.2994     23.2227
  1232.3000      8.1249      2.4516      0.1066     12.0244    137.5900     23.2977
  1232.4000      8.1249      2.4454      0.0603     12.4028    136.8616     23.3331
  1232.5000      8.1413      2.4574      0.0520     11.6716    136.5405     23.5011
  1232.6000      8.1413      2.4929      0.0957      9.5210    138.4658     24.2555
  1232.7000      8.1413      2.5419      0.0704      6.5539    145.2972     25.2433
  1232.8000      8.1418      2.5821      0.1758      4.1164    151.6967     25.6202
  1232.9000      8.1418      2.5880      0.1591      3.7562    152.8467     25.0800
  1233.0000      8.1255      2.5595      0.1109      5.4855    151.8530     24.2542
  1233.1000      8.1255      2.5164      0.1164      8.0952    152.1736     23.7485
  1233.2000      8.1255      2.4750      0.0959     10.6064    150.2379     23.6029
  1233.3000      8.1221      2.4454      0.0565     12.4000    141.7615     23.8777
  1233.4000      8.1221      2.4308      0.0656     13.2876    134.0616     24.3664
  1233.5000      8.1152      2.4236      0.0470     13.7206    136.7879     24.2984
  1233.6000      8.1152      2.4112      0.0792     14.4722    146.1643     23.4563
  1233.7000      8.1152      2.3905      0.0747     15.7246    152.0423     22.6249
  1233.8000      8.1252      2.3806      0.0310     16.3250    151.1839     22.2731
  1233.9000      8.1252      2.3925      0.0847     15.6059    145.8552     21.9204
  1234.0000      8.1207      2.3997      0.1785     15.1687    140.1821     21.0869
  1234.1000      8.1207      2.3887      0.1351     15.8344    138.9981     20.0473
  1234.2000      8.1207      2.3941      0.1058     15.5076    144.2909     19.3835
  1234.3000      8.1411      2.4328      0.1897     13.1639    150.3747     19.2495
  1234.4000      8.1411      2.4690      0.2892     10.9690    149.8248     19.4791
  1234.5000      8.1492      2.4749      0.2530     10.6130    143.8659     19.8683
  1234.6000      8.1492      2.4557      0.2569     11.7730    139.3066     20.2996
  1234.7000      8.1492      2.4176      0.1860     14.0857    137.8111     20.7930
  1234.8000      8.1725      2.3703      0.1004     16.9485    139.9869     21.3271
  1234.9000      8.1725      2.3323      0.0889     19.2519    146.3687     21.7699
  1235.0000      8.2720      2.3148      0.0717     20.3137    151.0172     22.0453
  1235.1000      8.2720      2.3163      0.1517     20.2226    151.6301     22.1610
  1235.2000      8.2720      2.3337      0.0442     19.1689    151.3589     22.0847
  1235.3000      8.2946      2.3694      0.1064     17.0053    150.9043     21.9169
  1235.4000      8.2946      2.4135      0.1224     14.3348    149.4586     21.9207
  1235.5000      8.1212      2.4596      0.1528     11.5411    146.5701     22.2487
  1235.6000      8.1212      2.5103      0.2549      8.4666    142.7975     22.7705
  1235.7000      8.1212      2.5509      0.3699      6.0032    139.3762     23.1115
  1235.8000      8.1364      2.5582      0.4061      5.5650    138.5072     22.8899
  1235.9000      8.1364      2.5294      0.3267      7.3094    140.3410     22.2957
  1236.0000      8.1912      2.4833      0.2562     10.1030    140.0732     21.8870
  1236.1000      8.1912      2.4443      0.1219     12.4679    135.6318     21.9572
  1236.2000      8.1912      2.4246      0.1277     13.6582    131.5149     22.4210
  1236.3000      8.1278      2.4113      0.1134     14.4639    134.1812     22.7064
  1236.4000      8.1278      2.3962      0.0272     15.3843    145.7808     22.5549
  1236.5000      8.1289      2.3953      0.0365     15.4351    156.3072     22.1799
  1236.6000      8.1289      2.4155      0.0764     14.2139    155.9961     21.6324
  1236.7000      8.1289      2.4366      0.1111     12.9327    149.7540     21.1878
  1236.8000      8.1390      2.4334      0.1083     13.1298    145.6825     21.0990
  1236.9000      8.1390      2.3964      0.0947     15.3687    143.0950     21.0632
  1237.0000      8.1570      2.3381      0.0491     18.9045    139.8021     20.7587
  1237.1000      8.1570      2.2735      0.0563     22.8174    140.4477     20.1555
  1237.2000      8.1570      2.2059      0.0031     26.9132    144.9848     19.4112
  1237.3000      8.1447      2.1479     -0.0417     30.4318    143.3923     19.0303
  1237.4000      8.1447      2.1212     -0.0462     32.0470    133.1227     19.2756
  1237.5000      8.1193      2.1250     -0.0018     31.8178    125.6082     19.9488
  1237.6000      8.1193      2.1387      0.0072     30.9868    128.5126     20.6508
  1237.7000      8.1193      2.1518      0.0410     30.1960    136.3073     21.0599
  1237.8000      8.1239      2.1700      0.0705     29.0936    139.5553     21.3115
  1237.9000      8.1239      2.2024      0.0747     27.1292    135.4809     21.5358
  1238.0000      8.1501      2.2491      0.1337     24.2946    130.2629     21.6743
  1238.1000      8.1501      2.2978      0.1796     21.3459    127.5401     21.8315
  1238.2000      8.1501      2.3388      0.1109     18.8620    127.3599     21.9635
  1238.3000      8.1712      2.3680      0.1002     17.0885    132.5069     21.9678
  1238.4000      8.1712      2.3691      0.0938     17.0259    139.9539     22.1280
  1238.5000      8.1702      2.3261      0.0605     19.6297    141.8867     22.6106
  1238.6000      8.1702      2.2507     -0.0132     24.1981    136.5218     22.9152
  1238.7000      8.1702      2.1768     -0.0735     28.6762    129.5957     22.4470
  1238.8000      8.1540      2.1252     -0.0341     31.8054    126.4836     21.3209
  1238.9000      8.1540      2.0851     -0.0250     34.2343    127.8741     20.0473
  1239.0000      8.1201      2.0457     -0.0495     36.6216    130.7812     18.8586
  1239.1000      8.1201      2.0154     -0.0231     38.4609    134.2487     17.8704
