~Version Information
VERS.                      2.0: CWLS Log ASCII Standard - VERSION 2.0
WRAP.                       NO: One line per depth step
~Well Information Block
STRT.FT               318.1000: 
STOP.FT              2688.0000: 
STEP.FT                 0.1000: 
NULL.                -999.2500: 
COMP.          Petrogulf Corporation: COMPANY
WELL.            Montoya 1-24V: WELL
FLD.           Purgatorie River: FIELD
LOC.           605' FSL & 2557' FWL: LOCATION
CNTY.               Las Animas: COUNTY
SRVC.                         : SERVICE COMPANY
DATE.          Wed Oct 20 14:56:37 2004: LOG DATE
UWI.           05 071 08194 00: UNIQUE WELL ID
STAT.                 Colorado: STATE
~Curve Information Block
DEPT.FT            0 000 00 00: Depth
DCAL.in                       : CDL Caliper
RHOB.g/cc                     : CDL Bulk Density
RHOC.g/cc                     : CDL Density Correction
DPOR.pu                       : CDL Density Porosity
GR.GAPI                       : Gamma Ray
NPOR.pu                       : Neutron Porosity
~Parameter Information Block
~A  Depth       DCAL        RHOB        RHOC        DPOR         GR         NPOR    
# ...
   807.7000      7.8996      2.6252      0.0694      1.5025    104.8497     23.4088
   807.8000      7.9258      2.5925     -0.0232      3.4827    104.8313     23.3207
   807.9000      7.9258      2.5723     -0.0516      4.7074    102.5660     23.2291
   808.0000      7.8898      2.5804      0.0529      4.2179    103.2504     23.4407
   808.1000      7.8898      2.5841      0.0851      3.9959    109.6916     24.1001
   808.2000      7.8898      2.5668     -0.0149      5.0407    116.3372     24.9542
   808.3000      7.9339      2.5538     -0.0080      5.8293    119.5502     25.5741
   808.4000      7.9339      2.5614      0.0083      5.3726    120.2838     25.8517
   808.5000      7.9283      2.5818     -0.0052      4.1348    118.0851     26.0799
   808.6000      7.9283      2.6071      0.0521      2.6015    111.8600     26.4282
   808.7000      7.9283      2.6338      0.0940      0.9804    104.4235     26.8326
   808.8000      7.9527      2.6553      0.1023     -0.3189    102.7168     27.1316
   808.9000      7.9527      2.6614      0.1291     -0.6919    105.3100     27.1922
   809.0000      7.9314      2.6548      0.0813     -0.2921    103.4277     26.8955
   809.1000      7.9314      2.6516      0.0856     -0.0998     96.6864     26.2013
   809.2000      7.9314      2.6490      0.1197      0.0625     91.0881     25.5547
   809.3000      7.9073      2.6343      0.0637      0.9503     86.5344     25.4361
   809.4000      7.9073      2.6112      0.0518      2.3499     83.2847     25.2408
   809.5000      7.8947      2.5815      0.0841      4.1525     85.1950     24.2342
   809.6000      7.8947      2.5537      0.0085      5.8368     89.5868     22.7878
   809.7000      7.8947      2.5490      0.0018      6.1229     90.1752     21.6441
   809.8000      7.8743      2.5663      0.0537      5.0748     87.7416     20.9142
   809.9000      7.8743      2.5836      0.0619      4.0246     85.2327     20.1637
   810.0000      7.8788      2.5818      0.1098      4.1347     82.7731     19.2342
   810.1000      7.8788      2.5438      0.1172      6.4360     83.7030     18.5877
   810.2000      7.8788      2.4767      0.0072     10.5035     89.7870     18.4526
   810.3000      7.9162      2.4188      0.0074     14.0145     95.2310     18.5321
   810.4000      7.9162      2.3929      0.0017     15.5791     95.8633     18.8070
   810.5000      7.9399      2.3845      0.0462     16.0906     95.2685     19.6901
   810.6000      7.9399      2.3739      0.0101     16.7314     98.4754     21.2917
   810.7000      7.9399      2.3693      0.0170     17.0115    106.0543     23.0573
   810.8000      7.9443      2.3927      0.0458     15.5964    112.7875     24.4831
   810.9000      7.9443      2.4492      0.1418     12.1705    116.9511     25.6177
   811.0000      7.9383      2.5169      0.2268      8.0646    120.6077     26.7282
   811.1000      7.9383      2.5706      0.2126      4.8130    123.2009     27.7941
   811.2000      7.9383      2.6081      0.1385      2.5379    124.2372     28.7232
   811.3000      7.9480      2.6403      0.1499      0.5875    123.5112     29.5664
   811.4000      7.9480      2.6685      0.1280     -1.1219    123.9083     30.1706
   811.5000      7.9596      2.6835      0.1334     -2.0311    129.4669     30.1941
   811.6000      7.9596      2.6687      0.1246     -1.1337    138.1740     29.8713
   811.7000      7.9596      2.6245      0.0210      1.5452    146.3528     29.6598
   811.8000      7.9764      2.5732      0.0533      4.6531    148.7755     29.4084
   811.9000      7.9764      2.5309      0.0048      7.2209    140.8785     28.8456
   812.0000      7.9738      2.5114     -0.0231      8.3974    128.6351     28.0999
   812.1000      7.9738      2.5195      0.0136      7.9102    122.4344     27.5851
   812.2000      7.9738      2.5400      0.0055      6.6683    124.2592     27.4797
   812.3000      7.9446      2.5635      0.0192      5.2398    126.5966     27.5420
   812.4000      7.9446      2.5877      0.0673      3.7768    124.9035     27.4025
   812.5000      7.9350      2.6054      0.0768      2.7024    119.5654     26.9072
   812.6000      7.9350      2.6157      0.1025      2.0774    112.4735     26.2220
   812.7000      7.9350      2.6325      0.0907      1.0581    107.1019     25.6439
   812.8000      7.9291      2.6665      0.1115     -0.9989    107.2063     25.5444
   812.9000      7.9291      2.7028      0.1619     -3.2017    110.5181     25.9407
   813.0000      7.8868      2.7193      0.0973     -4.1983    108.5712     26.2351
   813.1000      7.8868      2.7171      0.1003     -4.0652     99.8568     26.0577
   813.2000      7.8868      2.7121      0.1224     -3.7632     92.7820     25.7576
   813.3000      7.8805      2.7077      0.1317     -3.4993     93.7713     25.7289
   813.4000      7.8805      2.6935      0.1233     -2.6345    101.0978     26.0139
   813.5000      7.9015      2.6697      0.0943     -1.1962    107.6428     26.2512
   813.6000      7.9015      2.6513      0.0471     -0.0785    107.7347     26.0487
   813.7000      7.9015      2.6483      0.0693      0.1002    103.6288     25.5299
   813.8000      7.8649      2.6562      0.0428     -0.3757    102.6351     24.7001
   813.9000      7.8649      2.6574      0.0734     -0.4491    104.0439     23.5497
   814.0000      7.8786      2.6414      0.0171      0.5204    104.1917     22.6140
   814.1000      7.8786      2.6166      0.0074      2.0216    107.3902     22.1134
   814.2000      7.8786      2.5922      0.0033      3.5022    115.2744     21.7176
   814.3000      7.9155      2.5614      0.0294      5.3706    120.0063     21.3858
   814.4000      7.9155      2.5243     -0.0313      7.6173    118.1089     21.3667
   814.5000      8.0771      2.4933      0.0084      9.4948    116.4470     21.6200
   814.6000      8.0771      2.4655      0.0226     11.1820    121.9794     22.0598
   814.7000      8.0771      2.4414     -0.0473     12.6417    131.0356     23.0729
   814.8000      8.0466      2.4328     -0.0104     13.1644    136.7013     24.8271
   814.9000      8.0466      2.4359     -0.0260     12.9777    139.6315     26.4782
   815.0000      8.0391      2.4433      0.0361     12.5279    141.2682     27.0274
   815.1000      8.0391      2.4607      0.0260     11.4707    137.8423     27.0163
   815.2000      8.0391      2.4946      0.1090      9.4204    129.5497     27.3902
   815.3000      8.0818      2.5318      0.1483      7.1624    122.1109     27.6581
   815.4000      8.0818      2.5527      0.1063      5.8959    120.0540     27.3866
   815.5000      8.1007      2.5509      0.0924      6.0078    122.5749     27.0100
   815.6000      8.1007      2.5404      0.0026      6.6421    125.7566     26.6741
   815.7000      8.1007      2.5400      0.0605      6.6644    125.6735     26.2313
   815.8000      7.9421      2.5428      0.0373      6.4970    119.9876     25.5647
   815.9000      7.9421      2.5285      0.0081      7.3649    111.1182     24.5132
   816.0000      7.8820      2.4936      0.0112      9.4789    105.5341     23.1792
   816.1000      7.8820      2.4564     -0.0228     11.7328    102.9072     21.9690
   816.2000      7.8820      2.4454     -0.0520     12.3997     95.3895     21.3670
   816.3000      7.8696      2.4702      0.0338     10.8998     83.1538     21.3069
   816.4000      7.8696      2.5071      0.0501      8.6624     74.7013     21.1436
   816.5000      7.9013      2.5291      0.0638      7.3271     75.4507     20.4882
   816.6000      7.9013      2.5236      0.0971      7.6624     81.6412     19.4670
   816.7000      7.9013      2.4990      0.0635      9.1517     83.6748     18.6372
   816.8000      7.8775      2.4820      0.0510     10.1836     79.6713     18.4147
   816.9000      7.8775      2.4874      0.0230      9.8543     77.3597     18.4354
   817.0000      7.8827      2.5048      0.0668      8.8016     79.3957     18.4141
   817.1000      7.8827      2.5161      0.0918      8.1155     78.9446     18.6813
   817.2000      7.8827      2.5059      0.1032      8.7328     73.1341     19.2482
