~Version Information
 VERS.                                  2.0 : CWLS LAS VERSION
 WRAP.                                   NO : WRAPING MODE
 SWARE .                 MController 2.5.0J : SOFTWARE VERSION
~Well Information
 WELL.                        MOO MOO 31-36 : WELL
 COMP.    PIONEER NATURAL RESOURCES USA INC : COMPANY
 FLD.                      PURGATOIRE RIVER : FIELD
 LOC.                NW/NE SEC 36 T32S R67W : LOCATION
 DATE.                             06/16/05 : DATE(S) LOGGED
 SRVC.       BLANCO GEOLOGICAL SERVICES LLC : SERVICE COMPANY
 STAT.                             COLORADO : STATE
 CNTY.                           LAS ANIMAS : COUNTY
 CTRY.                                  USA : COUNTRY
 API.                       05-071-08395-00 : API NUMBER
 STRT.FT                             303.00 : START DEPTH
 STOP.FT                            2275.00 : STOP DEPTH
 STEP.FT                               1.00 : DEPTH INCREMENT
 NULL.                                -9999 : NULL VALUE
~Curve information
 DEPTH.FT                                   :
 ROP.MIN/FT                                 :
 GAS.UNITS                                  :
~ASCII Log data
# ...
       503.0         0.17         56.2 
       504.0         0.20         55.4 
       505.0         0.23         55.4 
       506.0         0.90         41.9 
       507.0         0.13         41.8 
       508.0         0.13         47.5 
       509.0         0.23         61.0 
       510.0         0.40         83.4 
       511.0         0.27        164.4 
       512.0         0.07        185.5 
       513.0         0.17        203.7 
       514.0         0.25        178.9 
       515.0         0.17        151.3 
       516.0         0.20        121.8 
       517.0         0.30         91.1 
       518.0         0.20         78.6 
       519.0         0.20         70.1 
       520.0         0.20         64.9 
       521.0         0.17         61.0 
       522.0         0.10         59.6 
       523.0         0.20         56.9 
       524.0         0.30         54.7 
       525.0         0.20         53.3 
       526.0         0.23         52.4 
       527.0         0.20         52.0 
       528.0         0.13         52.2 
       529.0         0.10         52.3 
       530.0         0.10         51.9 
       531.0         0.10         50.7 
       532.0         0.10         51.4 
       533.0         0.12         51.3 
       534.0         0.17         51.7 
       535.0         0.20         51.7 
       536.0         0.60         47.4 
       537.0         0.10         47.3 
       538.0         0.17         46.2 
       539.0         0.17         47.3 
       540.0         0.20         53.4 
       541.0         0.33         67.0 
       542.0         0.17         85.4 
       543.0         0.33        186.2 
       544.0         0.33        173.6 
       545.0         0.20        145.6 
       546.0         0.23        116.6 
       547.0         0.22         97.2 
       548.0         0.23         81.2 
       549.0         0.23         69.8 
       550.0         0.17         64.3 
       551.0         0.23         59.2 
       552.0         0.23         55.7 
       553.0         0.13         54.6 
       554.0         0.13         53.8 
       555.0         0.20         53.1 
       556.0         0.17         52.1 
       557.0         0.20         51.4 
       558.0         0.20         51.5 
       559.0         0.17         50.9 
       560.0         0.20         50.4 
       561.0         0.20         50.5 
       562.0         0.20         52.4 
       563.0         0.13         51.8 
       564.0         0.22         51.4 
       565.0         0.20         51.6 
       566.0         1.33         50.8 
       567.0         0.37         68.3 
       568.0         0.27        118.2 
       569.0         0.27        200.0 
       570.0         0.23        195.2 
       571.0         0.27        158.8 
       572.0         0.23        124.7 
       573.0         0.22        101.6 
       574.0         0.20         84.7 
       575.0         0.23         71.9 
       576.0         0.23         64.2 
       577.0         0.20         60.3 
       578.0         0.23         57.5 
       579.0         0.37         52.9 
       580.0         0.27         51.2 
       581.0         0.20         51.5 
       582.0         0.17         51.1 
       583.0         0.23         52.0 
       584.0         0.17         50.9 
       585.0         0.20         51.1 
       586.0         0.20         50.8 
       587.0         0.17         50.6 
       588.0         0.18         50.5 
       589.0         0.20         50.3 
       590.0         0.20         50.9 
       591.0         0.13         50.7 
       592.0         0.23         49.9 
       593.0         0.23         49.8 
       594.0         0.13         49.6 
       595.0         0.17         47.9 
       596.0         3.35         71.6 
       597.0         0.13         65.5 
       598.0         0.23         59.5 
       599.0         0.27         56.0 
       600.0         0.27         53.2 
       601.0         0.23         51.6 
       602.0         0.23         55.3 
       603.0         0.23         60.4 
       604.0         0.20         62.3 
       605.0         0.28         60.7 
       606.0         0.23         57.4 
       607.0         0.30         53.4 
       608.0         0.20         52.0 
       609.0         0.27         49.8 
       610.0         0.20         48.6 
       611.0         0.23         46.8 
       612.0         0.23         45.4 
       613.0         0.20         43.7 
       614.0         0.23         44.1 
       615.0         0.23         42.5 
       616.0         0.23         42.7 
       617.0         0.20         42.5 
       618.0         0.27         42.3 
       619.0         0.22         42.0 
       620.0         0.17         41.5 
       621.0         0.20         41.4 
       622.0         0.23         40.7 
       623.0         0.20         42.0 
       624.0         0.20         42.4 
       625.0         0.23         41.8 
       626.0         1.17         35.6 
       627.0         0.20         35.8 
       628.0         0.17         41.9 
       629.0         0.37         82.1 
       630.0         0.28        130.0 
       631.0         0.30        208.4 
       632.0         0.53        177.8 
       633.0         0.57         97.2 
       634.0         0.27         76.7 
       635.0         0.23         65.5 
       636.0         0.27         58.1 
       637.0         0.27         51.4 
       638.0         0.30         48.2 
       639.0         0.13         48.1 
       640.0         0.35         48.3 
       641.0         0.30         48.0 
       642.0         0.27         47.2 
       643.0         0.30         48.6 
       644.0         0.27         49.9 
       645.0         0.30         51.4 
       646.0         0.27         51.6 
       647.0         0.30         51.4 
       648.0         0.20         52.5 
       649.0         0.13         51.0 
       650.0         0.47         51.1 
       651.0         0.37         48.2 
       652.0         0.28         46.8 
       653.0         0.30         47.7 
       654.0         0.37         50.4 
       655.0         0.53         42.8 
       656.0         1.10        162.6 
       657.0         0.33        219.7 
       658.0         0.17        216.4 
       659.0         0.20        194.5 
       660.0         0.17        169.2 
       661.0         0.22        141.3 
       662.0         0.23        110.9 
       663.0         0.10        100.1 
       664.0         0.17         87.0 
       665.0         0.30         72.0 
       666.0         0.27         63.3 
       667.0         0.23         56.8 
       668.0         0.27         51.0 
       669.0         0.27         49.0 
       670.0         0.27         47.3 
       671.0         0.27         49.1 
       672.0         0.23         49.6 
       673.0         0.33         48.7 
       674.0         0.42         46.9 
       675.0         0.27         47.8 
       676.0         0.10         47.0 
       677.0         0.30         46.7 
       678.0         0.20         46.9 
       679.0         0.20         46.8 
       680.0         0.20         48.1 
       681.0         0.30         47.7 
       682.0         0.33         44.9 
       683.0         0.50         44.7 
       684.0         0.20         45.8 
       685.0         0.23         46.6 
       686.0         0.65         39.8 
       687.0         0.13         43.2 
       688.0         0.27         67.2 
       689.0         0.40        133.4 
       690.0         0.23        205.8 
       691.0         0.23        251.5 
       692.0         0.27        231.0 
       693.0         0.20        196.2 
       694.0         0.23        152.5 
       695.0         0.27        113.2 
       696.0         0.23         91.9 
       697.0         0.33         80.1 
       698.0         0.38         75.0 
       699.0         0.33         69.9 
       700.0         0.27         65.3 
       701.0         0.27         61.3 
       702.0         0.33         57.1 
