~Version Information
VERS.                      2.0: CWLS Log ASCII Standard - VERSION 2.0
WRAP.                       NO: One line per depth step
~Well Information Block
STRT.FT               664.0000: 
STOP.FT              1113.5000: 
STEP.FT                 0.1000: 
NULL.                -999.2500: 
COMP.          Petrogulf Corporation: COMPANY
WELL.          Great Plains 22-21R: WELL
FLD.           Purgatorie River: FIELD
LOC.           73' FNL & 1992' FWL: LOCATION
PROV.                 Colorado: PROVINCE
CNTY.               Las Animas: COUNTRY
SRVC.                Patterson: SERVICE COMPANY
DATE.          Thu Sep 08 08:02:28 2005: LOG DATE
UWI.                          : UNIQUE WELL ID
~Curve Information Block
DEPT.FT            0 000 00 00: Depth
DCAL.in                       : CDL Caliper
RHOB.g/cc                     : CDL Bulk Density
RHOC.g/cc                     : CDL Density Correction
DPOR.pu                       : CDL Density Porosity
GR.GAPI                       : Gamma Ray
NPOR.pu                       : Neutron Porosity
~Parameter Information Block
~A  Depth       DCAL        RHOB        RHOC        DPOR         GR         NPOR    
# ...
  1067.2000      7.9274      2.5523      0.0294      5.9238     98.0480     18.5813
  1067.3000      7.9468      2.5455      0.0584      6.3350     95.6437     18.0741
  1067.4000      7.9468      2.5547      0.0343      5.7748     93.0360     17.8863
  1067.5000      7.9393      2.5833      0.0881      4.0446     91.7090     18.0051
  1067.6000      7.9393      2.6156      0.1188      2.0827     92.1161     18.1179
  1067.7000      7.9393      2.6279      0.1496      1.3389     91.3339     18.1480
  1067.8000      7.9227      2.6146      0.1373      2.1469     90.7537     18.4463
  1067.9000      7.9227      2.5915      0.0875      3.5429     91.8673     19.0744
  1068.0000      7.8696      2.5733      0.0842      4.6493     92.2549     19.7273
  1068.1000      7.8696      2.5601      0.0853      5.4466     92.4129     19.9304
  1068.2000      7.8696      2.5501      0.0540      6.0554     93.3515     19.4276
  1068.3000      7.8584      2.5399      0.0746      6.6741     94.1857     18.5410
  1068.4000      7.8584      2.5277      0.0233      7.4148     96.7345     17.8592
  1068.5000      7.8423      2.5252      0.0340      7.5609    101.0031     17.7753
  1068.6000      7.8423      2.5431      0.0469      6.4801    103.2247     18.0796
  1068.7000      7.8423      2.5738      0.0661      4.6184    103.6321     18.2579
  1068.8000      7.8376      2.5982      0.0841      3.1389    105.2830     18.1573
  1068.9000      7.8376      2.6080      0.1056      2.5472    106.5415     17.6377
  1069.0000      7.8326      2.6120      0.0974      2.3034    104.5012     16.8775
  1069.1000      7.8326      2.6152      0.1104      2.1063    102.5778     16.5097
  1069.2000      7.8326      2.6193      0.1318      1.8576    103.8629     16.5472
  1069.3000      7.8313      2.6315      0.0591      1.1238    106.1656     16.5151
  1069.4000      7.8313      2.6467      0.1245      0.2005    106.1850     16.3501
  1069.5000      7.8655      2.6413      0.1182      0.5273    101.6258     16.2952
  1069.6000      7.8655      2.6082      0.0573      2.5330     94.9608     16.5035
  1069.7000      7.8655      2.5681      0.0007      4.9617     91.2983     16.9117
  1069.8000      7.9415      2.5388      0.0023      6.7391     93.2954     17.3073
  1069.9000      7.9415      2.5314     -0.0864      7.1877    100.0588     17.5446
  1070.0000      7.9459      2.5460      0.0536      6.3006    106.3265     17.4985
  1070.1000      7.9459      2.5569      0.0513      5.6406    107.6737     17.2871
  1070.2000      7.9459      2.5586     -0.0363      5.5407    105.5396     17.1098
  1070.3000      7.9517      2.5727      0.0296      4.6870    103.2694     16.9210
  1070.4000      7.9517      2.5892      0.0543      3.6839    102.2425     16.8526
  1070.5000      7.9599      2.5866      0.0537      3.8439    101.9721     17.0993
  1070.6000      7.9599      2.5812      0.0477      4.1705    101.1001     17.6087
  1070.7000      7.9599      2.5911      0.0621      3.5707     98.6962     18.1765
  1070.8000      7.9391      2.6003      0.0754      3.0148     97.3239     18.4405
  1070.9000      7.9391      2.5968      0.0329      3.2225     99.2252     18.0906
  1071.0000      7.9259      2.5937      0.0079      3.4117    102.5938     17.1682
  1071.1000      7.9259      2.5953      0.0784      3.3161    104.9087     15.9944
  1071.2000      7.9259      2.5947      0.0377      3.3534    105.6307     15.1363
  1071.3000      7.9322      2.5925      0.0281      3.4853    108.2883     14.8762
  1071.4000      7.9322      2.5890      0.0449      3.6988    115.1755     15.1540
  1071.5000      7.9368      2.5845      0.0454      3.9692    119.8826     16.0473
  1071.6000      7.9368      2.5862      0.0215      3.8670    116.6317     17.5106
  1071.7000      7.9368      2.5914      0.0690      3.5516    112.6288     19.2367
  1071.8000      7.9360      2.5831      0.0588      4.0536    116.8326     20.9441
  1071.9000      7.9360      2.5611      0.0094      5.3866    125.7745     22.1713
  1072.0000      7.9495      2.5406      0.0324      6.6284    131.8477     22.5971
  1072.1000      7.9495      2.5274     -0.0014      7.4331    133.4695     22.5950
  1072.2000      7.9495      2.5222      0.0134      7.7436    131.4856     22.5137
  1072.3000      7.9612      2.5235      0.0335      7.6692    129.3663     22.1035
  1072.4000      7.9612      2.5274      0.0233      7.4273    130.8596     21.1497
  1072.5000      7.9508      2.5344      0.0278      7.0072    135.6168     20.1968
  1072.6000      7.9508      2.5433      0.0608      6.4679    141.8770     19.8091
  1072.7000      7.9508      2.5517      0.0906      5.9548    146.3386     19.7209
  1072.8000      7.9389      2.5648      0.0960      5.1616    146.4886     19.8377
  1072.9000      7.9389      2.5914      0.0944      3.5545    144.5357     20.5632
  1073.0000      7.9433      2.6221      0.1635      1.6911    145.2794     21.6062
  1073.1000      7.9433      2.6325      0.1949      1.0581    150.0131     22.1977
  1073.2000      7.9433      2.6216      0.1624      1.7209    154.6381     22.2265
  1073.3000      7.9454      2.6150      0.1191      2.1206    154.3226     22.1974
  1073.4000      7.9454      2.6234      0.1221      1.6124    149.9861     22.5803
  1073.5000      7.9712      2.6323      0.1503      1.0712    147.1279     23.2518
  1073.6000      7.9712      2.6359      0.1179      0.8571    147.3124     23.4729
  1073.7000      7.9712      2.6464      0.0987      0.2189    147.4196     23.0746
  1073.8000      7.9831      2.6655      0.1443     -0.9418    145.8862     22.7593
  1073.9000      7.9831      2.6781      0.1499     -1.7019    143.3946     22.8034
  1074.0000      7.9780      2.6818      0.1080     -1.9277    139.6736     22.7289
  1074.1000      7.9780      2.6853      0.1643     -2.1423    135.9571     22.2352
  1074.2000      7.9780      2.6769      0.1211     -1.6291    134.8072     21.7092
  1074.3000      7.9755      2.6430      0.0776      0.4237    133.8549     21.4749
  1074.4000      7.9755      2.5971      0.0370      3.2078    130.6317     21.2559
  1074.5000      7.9708      2.5664      0.0150      5.0683    126.4689     20.7658
  1074.6000      7.9708      2.5637      0.0336      5.2310    123.1800     19.9763
  1074.7000      7.9708      2.5727      0.0667      4.6876    121.5567     18.9286
  1074.8000      7.9675      2.5697      0.0464      4.8640    122.9682     17.8196
  1074.9000      7.9675      2.5555      0.0264      5.7258    129.4384     17.1369
  1075.0000      7.9679      2.5433      0.0409      6.4689    137.6445     17.1593
  1075.1000      7.9679      2.5410      0.0311      6.6089    143.3335     17.5327
  1075.2000      7.9679      2.5480      0.0582      6.1808    146.5207     17.9041
  1075.3000      7.9599      2.5497      0.0555      6.0802    147.1166     18.2436
  1075.4000      7.9599      2.5325      0.0652      7.1235    144.4618     18.7819
  1075.5000      7.9679      2.4985      0.0550      9.1820    141.0877     19.5918
  1075.6000      7.9679      2.4677     -0.0330     11.0501    143.4720     20.3031
  1075.7000      7.9679      2.4561      0.0188     11.7501    151.4620     20.7051
  1075.8000      7.9766      2.4517      0.0257     12.0162    159.2456     20.9420
  1075.9000      7.9766      2.4419      0.0181     12.6112    164.0305     21.1786
  1076.0000      7.9796      2.4382     -0.0024     12.8348    165.2833     21.4642
  1076.1000      7.9796      2.4646      0.0357     11.2359    163.9042     21.8228
  1076.2000      7.9796      2.5282      0.0990      7.3841    161.2144     22.3933
  1076.3000      7.9793      2.6041      0.1238      2.7801    158.2700     23.1432
  1076.4000      7.9793      2.6628      0.1552     -0.7728    155.4979     23.7633
  1076.5000      7.9717      2.7081      0.0921     -3.5216    150.2577     23.9095
  1076.6000      7.9717      2.7537      0.2353     -6.2853    141.4313     23.5675
  1076.7000      7.9717      2.7840      0.2200     -8.1213    133.4299     23.1963
