~Version Information
 VERS.                                  2.0 : CWLS LAS VERSION
 WRAP.                                   NO : WRAPING MODE
 SWARE .                 MController 2.5.0J : SOFTWARE VERSION
~Well Information
 WELL.                          Graff 9-31R : WELL
 COMP.                       Petrogulf Corp : COMPANY
 FLD.                      Purgatorie River : FIELD
 LOC.                 NW/NE Sec 9 T32S R67W : LOCATION
 DATE.                           10/24/2004 : DATE(S) LOGGED
 SRVC.       Blanco Geological Services LLC : SERVICE COMPANY
 STAT.                                   CO : STATE
 CNTY.                           Las Animas : COUNTY
 CTRY.                                  USA : COUNTRY
 API.                       05-071-080370-00 : API NUMBER
 STRT.FT                             712.0 : START DEPTH
 STOP.FT                            1940.00 : STOP DEPTH
 STEP.FT                               1.00 : DEPTH INCREMENT
 NULL.                                -9999 : NULL VALUE
~Curve information
 DEPTH.FT                                   :
 ROP.MIN/FT                                 :
 GAS.UNITS                                  :
~ASCII Log data
# ...
      1713.0         0.20         17.4 
      1714.0         0.23         13.6 
      1715.0         0.20         12.4 
      1716.0         0.20         10.1 
      1717.0         0.17          9.3 
      1718.0         0.17          9.0 
      1719.0         0.20          7.9 
      1720.0         0.13          8.2 
      1721.0         0.20          8.4 
      1722.0         0.20          8.7 
      1723.0         0.20          8.9 
      1724.0         0.23          8.2 
      1725.0         0.17          8.2 
      1726.0         0.13          8.4 
      1727.0         0.13          8.4 
      1728.0         0.13          7.7 
      1729.0         0.13          7.7 
      1730.0         0.23          7.8 
      1731.0         0.22          7.7 
      1732.0         0.20          8.2 
      1733.0         0.20          7.3 
      1734.0         0.30          7.2 
      1735.0         0.27          6.9 
      1736.0         0.27         14.1 
      1737.0         0.23         20.2 
      1738.0         0.27         29.1 
      1739.0         0.13         33.0 
      1740.0         0.20         38.5 
      1741.0         0.27         40.0 
      1742.0         0.30         32.1 
      1743.0         0.30         24.9 
      1744.0         0.37         20.2 
      1745.0         0.33         16.2 
      1746.0         0.33         13.3 
      1747.0         0.32         10.8 
      1748.0         0.27         10.4 
      1749.0         0.30          8.8 
      1750.0         0.27          9.0 
      1751.0         0.27          9.4 
      1752.0         0.27          9.8 
      1753.0         0.30         10.0 
      1754.0         0.27          8.7 
      1755.0         0.27          7.7 
      1756.0         0.27          7.7 
      1757.0         0.23          7.6 
      1758.0         0.27          7.2 
      1759.0         0.27          7.1 
      1760.0         0.25          6.7 
      1761.0         0.27          6.6 
      1762.0         0.27          6.5 
      1763.0         0.23          6.2 
      1764.0         0.27          6.0 
      1765.0         0.37          6.2 
      1766.0         0.27          5.5 
      1767.0         0.37          8.4 
      1768.0         0.17         11.3 
      1769.0         0.37         20.6 
      1770.0         0.37         30.1 
      1771.0         0.30         36.9 
      1772.0         0.33         39.9 
      1773.0         0.33         34.6 
      1774.0         0.38         25.2 
      1775.0         0.23         19.8 
      1776.0         0.27         15.9 
      1777.0         0.23         13.7 
      1778.0         0.23         12.0 
      1779.0         0.27         10.9 
      1780.0         0.27          9.2 
      1781.0         0.23          9.0 
      1782.0         0.27          8.8 
      1783.0         0.23          9.7 
      1784.0         0.17          9.4 
      1785.0         0.10          8.6 
      1786.0         0.20          8.3 
      1787.0         0.23          8.3 
      1788.0         0.28          7.8 
      1789.0         0.30          7.4 
      1790.0         0.23          7.6 
      1791.0         0.13          7.4 
      1792.0         0.17          7.3 
      1793.0         0.23          8.1 
      1794.0         0.20         10.2 
      1795.0         0.23         12.9 
      1796.0         0.20          6.3 
      1797.0         0.27          6.6 
      1798.0         0.30          9.6 
      1799.0         0.33         15.5 
      1800.0         0.23         21.4 
      1801.0         0.23         29.9 
      1802.0         0.27         37.6 
      1803.0         0.27         38.5 
      1804.0         0.38         32.9 
      1805.0         0.37         26.4 
      1806.0         0.30         22.5 
      1807.0         0.33         17.3 
      1808.0         0.30         14.2 
      1809.0         0.40         11.5 
      1810.0         0.20         10.4 
      1811.0         0.20         10.6 
      1812.0         0.30         10.5 
      1813.0         0.27         10.2 
      1814.0         0.27          9.9 
      1815.0         0.32          9.8 
      1816.0         0.30         10.5 
      1817.0         0.27          9.1 
      1818.0         0.30          9.1 
      1819.0         0.27          9.7 
      1820.0         0.27          9.4 
      1821.0         0.23          8.8 
      1822.0         0.23          8.8 
      1823.0         0.27          8.6 
      1824.0         0.20          8.6 
      1825.0         0.23          8.2 
      1826.0         0.27         21.5 
      1827.0         0.38         36.4 
      1828.0         0.37         51.6 
      1829.0         0.30         58.6 
      1830.0         0.30         51.3 
      1831.0         0.27         41.1 
      1832.0         0.27         33.0 
      1833.0         0.27         27.2 
      1834.0         0.30         22.9 
      1835.0         0.20         19.2 
      1836.0         0.23         16.3 
      1837.0         0.27         14.7 
      1838.0         0.27         13.7 
      1839.0         0.25         13.6 
      1840.0         0.27         14.0 
      1841.0         0.30         14.5 
      1842.0         0.27         15.4 
      1843.0         0.27         15.0 
      1844.0         0.20         14.4 
      1845.0         0.20         13.8 
      1846.0         0.20         14.0 
      1847.0         0.27         13.5 
      1848.0         0.23         13.0 
      1849.0         0.23         13.5 
      1850.0         0.20         13.3 
      1851.0         0.23         14.6 
      1852.0         0.23         13.9 
      1853.0         0.25         14.0 
      1854.0         0.23         13.0 
      1855.0         0.20         12.4 
      1856.0         0.20          6.6 
      1857.0         0.30          6.2 
      1858.0         0.43          9.0 
      1859.0         0.37         15.2 
      1860.0         0.23         21.3 
      1861.0         0.23         24.9 
      1862.0         0.20         27.1 
      1863.0         0.20         28.9 
      1864.0         0.20         30.1 
      1865.0         0.30         26.6 
      1866.0         0.30         22.5 
      1867.0         0.30         18.8 
      1868.0         0.28         16.2 
      1869.0         0.30         14.3 
      1870.0         0.27         13.2 
      1871.0         0.27         12.6 
      1872.0         0.23         13.1 
      1873.0         0.23         12.6 
      1874.0         0.20         12.5 
      1875.0         0.27         11.8 
      1876.0         0.20         12.4 
      1877.0         0.27         11.7 
      1878.0         0.20         11.3 
      1879.0         0.23         10.9 
      1880.0         0.23         10.9 
      1881.0         0.20         11.2 
      1882.0         0.22         10.3 
      1883.0         0.17          9.7 
      1884.0         0.20          9.8 
      1885.0         0.27          9.2 
      1886.0         0.27          6.5 
      1887.0         0.43          7.9 
      1888.0         0.37         12.9 
      1889.0         0.33         19.9 
      1890.0         0.27         26.1 
      1891.0         0.33         28.4 
      1892.0         0.40         27.9 
      1893.0         0.43         26.2 
      1894.0         0.37         23.0 
      1895.0         0.35         19.1 
      1896.0         0.33         16.4 
      1897.0         0.37         14.4 
      1898.0         0.30          7.5 
      1899.0         0.37          7.0 
      1900.0         0.37          6.3 
      1901.0         0.33          6.8 
      1902.0         0.33          6.4 
      1903.0         0.30          8.5 
      1904.0         0.30         11.7 
      1905.0         0.33         14.2 
      1906.0         0.27         16.2 
      1907.0         0.30         14.9 
      1908.0         0.20         14.3 
      1909.0         0.25         13.8 
      1910.0         0.23         12.5 
      1911.0         0.27         11.8 
      1912.0         0.20         11.0 
