~Version Information
VERS.                      2.0: CWLS Log ASCII Standard - VERSION 2.0
WRAP.                       NO: One line per depth step
~Well Information Block
STRT.FT               802.1000: 
STOP.FT              1915.0000: 
STEP.FT                 0.1000: 
NULL.                -999.2500: 
COMP.          Petrogulf Corporation: COMPANY
WELL.             State 16-32R: WELL
FLD.           Purgatorie River: FIELD
LOC.           1849' FNL & 1677' FEL: LOCATION
CNTY.               Las Animas: COUNTY
SRVC.                         : SERVICE COMPANY
DATE.          Thu May 13 18:17:16 2004: LOG DATE
UWI.           05 071 08033 00: UNIQUE WELL ID
STAT.                 Colorado: STATE
~Curve Information Block
DEPT.FT            0 000 00 00: Depth
DCAL.in                       : CDL Caliper
RHOB.g/cc                     : CDL Bulk Density
RHOC.g/cc                     : CDL Density Correction
DPOR.pu                       : CDL Density Porosity
GR.GAPI                       : Gamma Ray
NPOR.pu                       : Neutron Porosity
~Parameter Information Block
~A  Depth       DCAL        RHOB        RHOC        DPOR         GR         NPOR    
# ...
   850.1000      2.0932      1.8176     -0.0333     50.4502     50.3569     44.0155
   850.2000      2.0932      1.8680     -0.0816     47.3942     46.4856     43.8115
   850.3000      2.0873      1.9022      0.0166     45.3233     41.7236     43.4401
   850.4000      2.0873      1.9419      0.0269     42.9159     36.6066     42.9104
   850.5000      2.0284      1.9797      0.1356     40.6247     32.4598     42.4639
   850.6000      2.0284      1.9971      0.0948     39.5670     31.0731     42.3613
   850.7000      2.0284      1.9938      0.1472     39.7679     37.3049     42.3839
   850.8000     -0.9992      1.9896      0.0724     40.0265     50.0747     42.3655
   850.9000     -0.9992      1.9976      0.1175     39.5414     62.4151     42.4858
   851.0000    -21.2352      2.0083      0.1091     38.8889     65.9514     42.7512
   851.1000    -21.2352      2.0096      0.2044     38.8107     60.0848     43.0149
   851.2000    -21.2352      2.0091      0.1628     38.8394     52.7719     43.1364
   851.3000    -24.0479      2.0279      0.1487     37.7059     46.6191     42.9631
   851.4000    -24.0479      2.0566      0.2888     35.9611     42.5044     42.6484
   851.5000    -24.1521      2.0698      0.2010     35.1659     42.3698     42.2713
   851.6000    -24.1521      2.0758      0.2573     34.7979     43.2711     41.7891
   851.7000    -24.1521      2.0954      0.2471     33.6139     40.3269     41.5252
   851.8000    -24.2460      2.1315      0.2630     31.4245     34.9809     41.7369
   851.9000    -24.2460      2.1724      0.3546     28.9476     35.6328     42.1706
   852.0000    -24.3362      2.1982      0.3281     27.3821     44.2949     42.4115
   852.1000    -24.3362      2.1926      0.3489     27.7199     52.3770     42.4268
   852.2000    -24.3362      2.1612      0.2752     29.6230     56.5106     42.5416
   852.3000    -24.4372      2.1363      0.2115     31.1362     60.6192     42.8842
   852.4000    -24.4372      2.1384      0.3146     31.0038     60.6026     43.2317
   852.5000    -24.5310      2.1569      0.2894     29.8877     54.5221     43.3534
   852.6000    -24.5310      2.1753      0.3363     28.7682     51.4660     43.2076
   852.7000    -24.5310      2.1843      0.3566     28.2263     54.2412     42.9918
   852.8000    -24.6303      2.1837      0.3167     28.2578     59.0264     42.8805
   852.9000    -24.6303      2.1868      0.3369     28.0715     63.9538     42.8827
   853.0000    -24.7298      2.2015      0.3327     27.1824     66.4839     43.0295
   853.1000    -24.7298      2.2147      0.3895     26.3815     65.8998     43.3169
   853.2000    -24.7298      2.2125      0.3386     26.5155     62.3499     43.5706
   853.3000    -24.8309      2.2076      0.3366     26.8148     53.5941     43.6458
   853.4000    -24.8309      2.2123      0.3939     26.5299     40.5779     43.5917
   853.5000    -24.9318      2.2091      0.3841     26.7227     30.1866     43.5624
   853.6000    -24.9318      2.1803      0.3335     28.4695     28.4385     43.6007
   853.7000    -24.9318      2.1405      0.2839     30.8783     36.3091     43.7000
   853.8000    -25.0348      2.1050      0.3573     33.0286     48.6949     43.8791
   853.9000    -25.0348      2.0464      0.3101     36.5818     58.6829     43.9692
   854.0000    -25.1341      1.9122      0.2827     44.7135     65.0882     43.7959
   854.1000    -25.1341      1.6796      0.1894     58.8108     68.1742     43.5112
   854.2000    -25.1341      1.3899      0.1803     76.3669     67.5124     43.3126
   854.3000    -25.2385      1.1132      0.1099     93.1367     67.0800     43.2971
   854.4000    -25.2385      0.9009      0.1173    106.0037     71.1466     43.4824
   854.5000    -25.3426      0.7828      0.0227    113.1664     72.3644     43.7534
   854.6000    -25.3426      0.7598      0.1327    114.5593     63.4948     43.9536
   854.7000    -25.3426      0.7745      0.3071    113.6662     55.6025     43.9632
   854.8000    -25.4466      0.7463      0.2919    115.3753     55.4516     43.8145
   854.9000    -25.4466      0.6548      0.0975    120.9189     57.0944     43.7311
   855.0000    -25.5582      0.5536     -0.1360    127.0572     59.4911     43.7939
   855.1000    -25.5582      0.5000     -0.1718    130.3026     64.7249     43.7965
   855.2000    -25.5582      0.5059     -0.2226    129.9463     67.8546     43.7156
   855.3000    -25.6706      0.5574     -0.2480    126.8267     63.6807     43.6084
   855.4000    -25.6706      0.6374     -0.1610    121.9773     54.9251     43.4162
   855.5000    -25.9443      0.7407     -0.2238    115.7130     47.5443     43.2237
   855.6000    -25.9443      0.8777     -0.1277    107.4099     46.6403     43.1955
   855.7000    -25.9443      1.0438     -0.0742     97.3466     47.7153     43.2341
   855.8000    -26.9879      1.2154      0.1409     86.9479     43.6874     43.0681
   855.9000    -26.9879      1.3910      0.1951     76.3011     39.0498     42.7159
   856.0000    -25.7683      1.5974      0.3577     63.7960     39.9195     42.3904
   856.1000    -25.7683      1.8076      0.6972     51.0569     43.1241     42.1782
   856.2000    -25.7683      1.9376      0.7982     43.1749     44.3900     42.1602
   856.3000    -25.5806      1.9757      0.6840     40.8644     46.7769     42.4856
   856.4000    -25.5806      1.9940      0.7672     39.7575     53.3864     43.0116
   856.5000    -25.7495      2.0256      0.8269     37.8416     59.0647     43.2887
   856.6000    -25.7495      2.0535      0.8152     36.1506     60.2841     43.2699
   856.7000    -25.7495      2.0734      0.7829     34.9471     58.6203     43.2805
   856.8000    -25.7477      2.0972      0.8335     33.5009     54.9522     43.3124
   856.9000    -25.7477      2.1320      0.8483     31.3951     50.8759     43.3398
   857.0000    -25.9932      2.1698      0.8382     29.1029     46.7352     43.5840
   857.1000    -25.9932      2.1896      0.8280     27.9023     40.5387     43.9810
   857.2000    -25.9932      2.1779      0.8900     28.6099     34.6473     44.2753
   857.3000    -26.1941      2.1524      0.7194     30.1570     33.9726     44.3944
   857.4000    -26.1941      2.1318      0.7816     31.4089     38.1453     44.1294
   857.5000    -26.1908      2.0946      0.7588     33.6600     41.4874     43.4693
   857.6000    -26.1908      2.0263      0.7069     37.7982     39.6967     43.0031
   857.7000    -26.1908      1.9724      0.5230     41.0689     37.5500     43.0633
   857.8000    -26.4957      1.9796      0.6242     40.6299     42.7715     43.2230
   857.9000    -26.4957      2.0068      0.6950     38.9811     52.2191     43.0820
   858.0000    -26.5421      1.9854      0.6312     40.2796     55.3294     42.8332
   858.1000    -26.5421      1.9232      0.5523     44.0455     49.0676     42.8065
   858.2000    -26.5421      1.8653      0.4967     47.5553     41.2480     43.0528
   858.3000    -26.8878      1.8221      0.4826     50.1732     39.5147     43.5474
   858.4000    -26.8878      1.7818      0.4271     52.6169     42.8368     44.0665
   858.5000    -26.8348      1.7420      0.3980     55.0327     44.9386     44.1556
   858.6000    -26.8348      1.7059      0.3820     57.2187     41.4246     43.7538
   858.7000    -26.8348      1.6694      0.4599     59.4295     34.3824     43.4740
   858.8000    -26.7915      1.6147      0.4359     62.7430     29.3383     43.6167
   858.9000    -26.7915      1.5321      0.3361     67.7544     30.1148     43.7523
   859.0000    -26.8574      1.4311      0.3687     73.8702     34.7936     43.7199
   859.1000    -26.8574      1.3180      0.2928     80.7271     38.8641     43.5538
   859.2000    -26.8574      1.2014      0.2647     87.7940     39.8181     43.2592
   859.3000    -26.7514      1.1026      0.2063     93.7820     38.2688     43.0933
   859.4000    -26.7514      1.0415      0.1939     97.4839     35.8483     43.1658
   859.5000    -26.9406      1.0202      0.1603     98.7785     33.1943     43.2758
   859.6000    -26.9406      1.0228      0.2872     98.6158     29.0448     43.3856
