~Version Information
VERS.                      2.0: CWLS Log ASCII Standard - VERSION 2.0
WRAP.                       NO: One line per depth step
~Well Information Block
STRT.FT                -9.7500: 
STOP.FT              2158.2500: 
STEP.FT                 0.2500: 
NULL.                -999.2500: 
COMP.          Petrogulf Corporation: COMPANY
WELL.             State 16-41V: WELL
FLD.           Purgatoire River: FIELD
LOC.           335' FNL & 823' FEL--: LOCATION
PROV.                 Colorado: PROVINCE
CNTY.               Las Animas: COUNTRY
SRVC.                Patterson: SERVICE COMPANY
DATE.          Wed Aug 17 12:15:10 2005: LOG DATE
UWI.           05 071 08344 00: UNIQUE WELL ID
~Curve Information Block
DEPT.FT            0 000 00 00: Depth
CCL.                          : Casing Collar Locator
TT3.usec                      : CBL 3' Travel Time
AMP3.mV                       : CBL 3' Amplitude
GR.GAPI                       : Gamma Ray
~Parameter Information Block
~A  Depth       CCL         TT3         AMP3         GR     
# ...
  1832.7500      0.0000    616.4688      3.4360     65.5292
  1833.0000      0.0000    607.2569      3.3789     67.0153
  1833.2500      0.0000    610.7581      3.3177     68.0207
  1833.5000      0.0000    628.1397      3.2457     68.3824
  1833.7500      0.0000    653.6102      3.1603     68.8958
  1834.0000      0.0000    676.6058      3.0656     70.2514
  1834.2500      0.0000    687.6129      2.9677     72.2651
  1834.5000      0.0000    683.4750      2.8704     74.0216
  1834.7500      0.0000    668.6943      2.7777     74.7250
  1835.0000      0.0000    651.5609      2.6962     74.3709
  1835.2500      0.0000    638.3580      2.6322     73.4186
  1835.5000      0.0000    630.7301      2.5849     71.9832
  1835.7500      0.0000    627.1953      2.5456     69.8148
  1836.0000      0.0000    625.7440      2.5035     67.0875
  1836.2500      0.0000    624.9175      2.4542     64.6691
  1836.5000      0.0000    623.5292      2.4029     63.4072
  1836.7500      0.0000    620.0753      2.3585     63.4386
  1837.0000      0.0000    613.0121      2.3262     64.3342
  1837.2500      0.0000    602.5659      2.3045     65.6587
  1837.5000      0.0000    592.6136      2.2880     67.2335
  1837.7500      0.0000    589.2587      2.2709     68.9638
  1838.0000      0.0000    595.7416      2.2484     70.6462
  1838.2500      0.0000    609.0250      2.2169     72.1200
  1838.5000      0.0000    622.2982      2.1760     73.4650
  1838.7500      0.0000    630.3416      2.1317     74.8304
  1839.0000      0.0000    632.2464      2.0947     76.1060
  1839.2500      0.0000    630.2924      2.0741     76.8898
  1839.5000      0.0000    627.3450      2.0706     76.7398
  1839.7500      0.0000    625.0931      2.0775     75.5344
  1840.0000      0.0000    623.8582      2.0880     73.7737
  1840.2500      0.0000    623.2943      2.0981     72.4770
  1840.5000      0.0000    623.1164      2.1064     72.5729
  1840.7500      0.0000    623.5029      2.1117     74.2176
  1841.0000      0.0000    625.2880      2.1134     76.5715
  1841.2500      0.0000    629.7825      2.1127     78.2395
  1841.5000      0.0000    637.7905      2.1124     78.1387
  1841.7500      0.0000    648.2398      2.1144     76.1756
  1842.0000      0.0000    658.1506      2.1175     73.1860
  1842.2500      0.0000    664.8469      2.1177     70.2585
  1842.5000      0.0000    668.1646      2.1133     68.1425
  1842.7500      0.0000    669.8325      2.1101     67.2021
  1843.0000      0.0000    671.1011      2.1188     67.5087
  1843.2500      0.0000    671.9327      2.1436     68.6125
  1843.5000      0.0000    672.1979      2.1758     69.4428
  1843.7500      0.0000    672.1909      2.2000     69.0567
  1844.0000      0.0000    671.2614      2.2061     67.7168
  1844.2500      0.0000    667.0598      2.1956     66.8250
  1844.5000      0.0000    657.5441      2.1770     67.4205
  1844.7500      0.0000    643.6124      2.1569     68.9618
  1845.0000      0.0000    629.0818      2.1350     69.8592
  1845.2500      0.0000    618.3333      2.1067     69.1355
  1845.5000      0.0000    614.2617      2.0694     67.3228
  1845.7500      0.0000    617.6240      2.0280     65.7333
  1846.0000      0.0000    627.2340      1.9917     65.1760
  1846.2500      0.0000    640.5575      1.9711     65.6604
  1846.5000      0.0000    654.5757      1.9754     67.1070
  1846.7500      0.0000    666.6042      2.0098     69.9757
  1847.0000      0.0000    674.8722      2.0685     75.1092
  1847.2500      0.0000    679.0585      2.1339     82.9433
  1847.5000      0.0000    680.7448      2.1884     92.7064
  1847.7500      0.0000    682.5790      2.2334    102.3901
  1848.0000      0.0000    685.8754      2.2964    109.7419
  1848.2500      0.0000    689.2709      2.4223    113.6138
  1848.5000      0.0000    690.5620      2.6575    114.5748
  1848.7500      0.0000    689.5234      3.0369    114.2449
  1849.0000      0.0000    688.1827      3.5822    113.8721
  1849.2500      0.0000    688.5721      4.3047    113.5329
  1849.5000      0.0000    690.7059      5.2066    112.8154
  1849.7500      0.0000    692.2255      6.2798    112.0752
  1850.0000      0.0000    689.3431      7.5084    112.4180
  1850.2500      0.0000    677.9055      8.8775    114.2568
  1850.5000      0.0000    653.8222     10.3743    116.4177
  1850.7500      0.0000    614.0017     11.9682    117.2021
  1851.0000      0.0000    559.6797     13.5776    116.1702
  1851.2500      0.0000    499.5249     15.0641    114.4252
  1851.5000      0.0000    446.8659     16.2765    113.1711
  1851.7500      0.0000    412.0557     17.1123    112.4976
  1852.0000      0.0000    398.4545     17.5417    111.7094
  1852.2500      0.0000    405.3153     17.5914    110.3690
  1852.5000      0.0000    431.1254     17.3326    108.6577
  1852.7500      0.0000    472.0433     16.8842    107.0841
  1853.0000      0.0000    519.1544     16.3927    106.2161
  1853.2500      0.0000    560.7523     15.9737    106.3558
  1853.5000      0.0000    588.0976     15.6663    107.0117
  1853.7500      0.0000    597.5598     15.4603    106.9606
  1854.0000      0.0000    587.8905     15.3642    105.2707
  1854.2500      0.0000    558.7602     15.4377    102.0254
  1854.5000      0.0000    513.6918     15.7556     97.8192
  1854.7500      0.0000    462.0923     16.3443     93.0493
  1855.0000      0.0000    415.2968     17.1489     88.0589
  1855.2500      0.0000    380.2304     18.0568     83.4467
  1855.5000      0.0000    357.5012     18.9616     79.7755
  1855.7500      0.0000    344.2639     19.8098     77.1504
  1856.0000      0.0000    337.3255     20.5929     75.2374
  1856.2500      0.0000    334.2078     21.2998     73.6473
  1856.5000      0.0000    333.1443     21.8857     72.3302
  1856.7500      0.0000    333.0080     22.2844     71.6083
  1857.0000      0.0000    333.2292     22.4460     71.7575
  1857.2500      0.0000    333.6967     22.3683     72.6862
  1857.5000      0.0000    334.9734     22.0971     74.1645
  1857.7500      0.0000    339.1281     21.6938     76.1483
  1858.0000      0.0000    350.9567     21.1746     78.6332
  1858.2500      0.0000    377.8770     20.4481     81.2918
  1858.5000      0.0000    426.0182     19.3217     83.3430
  1858.7500      0.0000    493.4185     17.6475     83.7786
  1859.0000      0.0000    567.1759     15.5225     82.0392
  1859.2500      0.0000    630.3001     13.3011     78.7512
  1859.5000      0.0000    672.9962     11.3521     75.5642
  1859.7500      0.0000    696.7193      9.8232     73.8697
  1860.0000      2.0000    708.0892      8.6421     73.6346
  1860.2500      2.0000    711.3486      7.6645     73.6438
  1860.5000      0.0000    707.1906      6.7859     72.8877
  1860.7500      0.0000    696.6192      5.9653     71.5081
  1861.0000      0.0000    683.5639      5.2036     70.3140
  1861.2500      0.0000    673.3428      4.5146     69.6507
  1861.5000      0.0000    669.4489      3.9141     69.0412
  1861.7500      0.0000    672.1238      3.4271     67.8430
  1862.0000      0.0000    679.5782      3.0796     65.9149
  1862.2500      0.0000    690.1434      2.8697     63.6007
  1862.5000      0.0000    703.0524      2.7578     61.3182
  1862.7500      0.0000    717.2109      2.6937     59.3641
  1863.0000      0.0000    729.8135      2.6468     58.1200
  1863.2500      0.0000    737.0146      2.6136     58.2622
  1863.5000      0.0000    736.5508      2.6083     60.5210
  1863.7500      0.0000    729.6758      2.6481     65.0233
  1864.0000      0.0000    720.2681      2.7443     70.8621
  1864.2500      0.0000    712.2865      2.8989     76.5256
  1864.5000      0.0000    708.2971      3.1116     80.8896
  1864.7500      0.0000    709.8652      3.3929     83.7248
  1865.0000      0.0000    717.8071      3.7743     85.3275
  1865.2500      0.0000    730.8029      4.2959     86.0223
  1865.5000      0.0000    744.0795      4.9723     86.1366
  1865.7500      0.0000    751.1914      5.7636     86.0045
  1866.0000      0.0000    748.3453      6.5785     85.5382
