~Version Information
VERS.                      2.0: CWLS Log ASCII Standard - VERSION 2.0
WRAP.                       NO: One line per depth step
~Well Information Block
STRT.FT                -3.7500: 
STOP.FT               930.7500: 
STEP.FT                 0.2500: 
NULL.                -999.2500: 
COMP.          Pioneer Natural Resources: COMPANY
WELL.                Pug 33-19: WELL
FLD.           Purgatorie River: FIELD
LOC.           1381' FSL & 2140' FEL--: LOCATION
PROV.                       CO: PROVINCE
CNTY.               Las Animas: COUNTRY
SRVC.                         : SERVICE COMPANY
DATE.          Mon Dec 20 15:44:45 2004: LOG DATE
UWI.                          : UNIQUE WELL ID
~Curve Information Block
DEPT.FT            0 000 00 00: Depth
GR.GAPI                       : Gamma Ray
CCL.                          : Casing Collar Locator
TT3.usec                      : CBL 3' Travel Time
AMP3.mV                       : CBL 3' Amplitude
~Parameter Information Block
~A  Depth        GR         CCL         TT3         AMP3    
# ...
   900.7500    117.5846      0.0000    765.5175      8.1332
   901.0000    119.2406      0.0000    764.3665      8.1320
   901.2500    122.4893      0.0000    761.8865      8.1482
   901.5000    126.8567      0.0000    759.3066      8.1558
   901.7500    129.6783      0.0000    757.4026      8.1419
   902.0000    128.2568      0.0000    756.2102      8.1098
   902.2500    122.3524      0.0000    755.4548      8.0742
   902.5000    114.1553      0.0000    754.9399      8.0597
   902.7500    106.1433      0.0000    754.6211      8.0938
   903.0000     99.5439      0.0000    754.5381      8.1875
   903.2500     94.6036      0.0000    754.7227      8.3183
   903.5000     91.3512      0.0000    755.1077      8.4363
   903.7500     89.5941      0.0000    755.5340      8.4944
   904.0000     88.8088      0.0000    755.8605      8.4827
   904.2500     88.7999      0.0000    756.0535      8.4356
   904.5000     90.3322      0.0000    756.1438      8.4039
   904.7500     94.4745      0.0000    756.1413      8.4161
   905.0000    101.1376      0.0000    756.0456      8.4627
   905.2500    108.6260      0.0000    755.9199      8.5110
   905.5000    114.9458      0.0000    755.8750      8.5331
   905.7500    119.3317      0.0000    755.9592      8.5203
   906.0000    122.1012      0.0000    756.1075      8.4794
   906.2500    123.1015      0.0000    756.2091      8.4210
   906.5000    121.0766      0.0000    756.1945      8.3557
   906.7500    115.2862      0.0000    756.0306      8.2927
   907.0000    107.4381      0.0000    755.6293      8.2304
   907.2500    101.0734      0.0000    754.7434      8.1546
   907.5000     98.7529      0.0000    753.0419      8.0590
   907.7500    100.1582      0.0000    750.4932      7.9686
   908.0000    102.9861      0.0000    747.7205      7.9240
   908.2500    105.4085      0.0000    745.6094      7.9401
   908.5000    107.5003      0.0000    744.2759      7.9902
   908.7500    110.3991      0.0000    742.8599      8.0338
   909.0000    114.4729      0.0000    740.8821      8.0484
   909.2500    118.6309      0.0000    739.4379      8.0328
   909.5000    121.3094      0.0000    740.2825      7.9964
   909.7500    121.8026      0.0000    743.8046      7.9543
   910.0000    120.7152      0.0000    748.5137      7.9237
   910.2500    119.4086      0.0000    752.5052      7.9154
   910.5000    118.9464      0.0000    754.9131      7.9296
   910.7500    119.2463      0.0000    755.9608      7.9630
   911.0000    119.2478      0.0000    756.1971      8.0073
   911.2500    118.1405      0.0000    755.9490      8.0392
   911.5000    116.3183      0.0000    755.2466      8.0313
   911.7500    114.9457      0.0000    753.8948      7.9825
   912.0000    114.8971      0.0000    751.5820      7.9224
   912.2500    116.3904      0.0000    748.1329      7.8700
   912.5000    119.2808      0.0000    743.8386      7.7993
   912.7500    123.2481      0.0000    739.4221      7.6713
   913.0000    127.7257      0.0000    735.5053      7.5019
   913.2500    131.8246      0.0000    732.2134      7.3775
   913.5000    134.4921      0.0000    729.5475      7.3928
   913.7500    134.9508      0.0000    728.0989      7.5764
   914.0000    133.0062      0.0000    728.9860      7.8782
   914.2500    128.9793      0.0000    732.7535      8.2158
   914.5000    123.7203      0.0000    738.4958      8.5245
   914.7500    118.7021      0.0000    744.4171      8.7748
   915.0000    115.5299      0.0000    749.3349      8.9630
   915.2500    114.9990      0.0000    753.6973      9.0953
   915.5000    116.6460      0.0000    759.6344      9.1787
   915.7500    119.1475      0.0000    770.1541      9.2194
   916.0000    121.1418      0.0000    786.9354      9.2277
   916.2500    121.8996      0.0000    807.0911      9.2164
   916.5000    121.4308      0.0000    822.5044      9.1938
   916.7500    120.0522      0.0000    824.9305      9.1564
   917.0000    117.9628      0.0000    812.4137      9.0789
   917.2500    115.2758      0.0000    788.2917      8.8954
   917.5000    112.2513      0.0000    751.9358      8.4756
   917.7500    109.2830      0.0000    692.1494      7.6315
   918.0000    106.7127      0.0000    594.1638      6.2068
   918.2500    104.9033      0.0000    457.1219      4.2491
   918.5000    104.5048      0.0000    304.0126      2.1010
   918.7500    106.2303      0.0000    169.8421      0.2407
   919.0000    109.9706      0.0000     78.0353     -1.0230
   919.2500    114.2807      0.0000     29.0410     -1.6941
   919.5000    117.2818      0.0000      8.6576     -1.9724
   919.7500    118.2700      0.0000      2.0486     -2.0624
   920.0000    118.2562      0.0000      0.3786     -2.0850
   920.2500    118.8343      0.0000      0.0504     -2.0895
   920.5000    120.7152      0.0000   -999.2500   -999.2500
   920.7500    123.3234      0.0000   -999.2500   -999.2500
   921.0000    125.4865      0.0000   -999.2500   -999.2500
   921.2500    126.3000      0.0000   -999.2500   -999.2500
   921.5000    125.4911      0.0000   -999.2500   -999.2500
   921.7500    123.3125      0.0000   -999.2500   -999.2500
   922.0000    120.1657      0.0000   -999.2500   -999.2500
   922.2500    116.1908      0.0000   -999.2500   -999.2500
   922.5000    111.2692      0.0000   -999.2500   -999.2500
   922.7500    105.6662      0.0000   -999.2500   -999.2500
   923.0000    100.5605      0.0000   -999.2500   -999.2500
   923.2500     97.4626      0.0000   -999.2500   -999.2500
   923.5000     96.8553      0.0000   -999.2500   -999.2500
   923.7500     97.5204      0.0000   -999.2500   -999.2500
   924.0000     97.4149      0.0000   -999.2500   -999.2500
   924.2500     95.3434      0.0000   -999.2500   -999.2500
   924.5000     91.9712      0.0000   -999.2500   -999.2500
   924.7500     89.3555      0.0000   -999.2500   -999.2500
   925.0000     89.4179      0.0000   -999.2500   -999.2500
   925.2500     92.5288      0.0000   -999.2500   -999.2500
   925.5000     97.3186      0.0000   -999.2500   -999.2500
   925.7500    101.7785      0.0000   -999.2500   -999.2500
   926.0000    104.6277   -999.2500   -999.2500   -999.2500
   926.2500    105.8337   -999.2500   -999.2500   -999.2500
   926.5000    105.9420   -999.2500   -999.2500   -999.2500
   926.7500    104.9720   -999.2500   -999.2500   -999.2500
   927.0000    102.1654   -999.2500   -999.2500   -999.2500
   927.2500     96.9006   -999.2500   -999.2500   -999.2500
   927.5000     89.5424   -999.2500   -999.2500   -999.2500
   927.7500     80.8877   -999.2500   -999.2500   -999.2500
   928.0000     70.8434   -999.2500   -999.2500   -999.2500
   928.2500     58.4229   -999.2500   -999.2500   -999.2500
   928.5000     43.5166   -999.2500   -999.2500   -999.2500
   928.7500     28.1430   -999.2500   -999.2500   -999.2500
   929.0000     15.3316   -999.2500   -999.2500   -999.2500
   929.2500      6.8869   -999.2500   -999.2500   -999.2500
   929.5000      2.5128   -999.2500   -999.2500   -999.2500
   929.7500      0.7367   -999.2500   -999.2500   -999.2500
   930.0000      0.1720   -999.2500   -999.2500   -999.2500
   930.2500      0.0313   -999.2500   -999.2500   -999.2500
   930.5000      0.0040   -999.2500   -999.2500   -999.2500
   930.7500      0.0000   -999.2500   -999.2500   -999.2500
