~Version Information
VERS.                      2.0: CWLS Log ASCII Standard - VERSION 2.0
WRAP.                       NO: One line per depth step
~Well Information Block
STRT.FT                -8.2500: 
STOP.FT              1175.7500: 
STEP.FT                 0.2500: 
NULL.                -999.2500: 
COMP.          Evergreen Operating Corporation: COMPANY
WELL.             Justin 32-10: WELL
FLD.           Purgatorie River: FIELD
LOC.           2994' FNL & 1449' FEL: LOCATION
PROV.                 Colorado: PROVINCE
CNTY.               Las Animas: COUNTRY
SRVC.                         : SERVICE COMPANY
DATE.          Wed Sep 29 10:00:10 2004: LOG DATE
UWI.           05 071 08053 00: UNIQUE WELL ID
~Curve Information Block
DEPT.FT            0 000 00 00: Depth
GR.GAPI                       : Gamma Ray
CCL.                          : Casing Collar Locator
TT3.usec                      : CBL 3' Travel Time
AMP3.mV                       : CBL 3' Amplitude
~Parameter Information Block
~A  Depth        GR         CCL         TT3         AMP3    
# ...
   360.2500     98.2915      0.0000    896.5457      5.4100
   360.5000     93.3801      0.0000    896.8091      5.2518
   360.7500     87.4880      0.0000    906.9949      5.1350
   361.0000     81.3754      0.0000    919.6310      5.0710
   361.2500     76.4056      0.0000    924.8015      5.0578
   361.5000     73.5875      0.0000    915.0994      5.0882
   361.7500     73.0115      0.0000    890.0870      5.1407
   362.0000     74.1064      0.0000    856.7069      5.1814
   362.2500     76.1378      0.0000    824.7304      5.1874
   362.5000     78.3589      0.0000    800.9075      5.1626
   362.7500     80.0440      0.0000    786.9038      5.1247
   363.0000     80.8272      0.0000    781.4799      5.0824
   363.2500     81.0085      0.0000    783.3040      5.0297
   363.5000     81.2255      0.0000    792.6275      4.9541
   363.7500     81.7371      0.0000    811.7756      4.8460
   364.0000     82.2999      0.0000    843.2619      4.7029
   364.2500     82.7218      0.0000    885.4663      4.5295
   364.5000     83.0590      0.0000    929.5156      4.3317
   364.7500     83.1590      0.0000    960.5583      4.1120
   365.0000     82.5218      0.0000    963.1050      3.8727
   365.2500     80.9368      0.0000    929.4911      3.6247
   365.5000     78.9258      0.0000    867.4883      3.3900
   365.7500     77.2048      0.0000    798.0972      3.1910
   366.0000     75.9103      0.0000    742.0519      3.0376
   366.2500     74.6600      0.0000    707.8552      2.9271
   366.5000     73.1708      0.0000    691.9179      2.8574
   366.7500     71.4165      0.0000    686.4962      2.8347
   367.0000     69.2750      0.0000    686.0570      2.8638
   367.2500     66.5394      0.0000    689.1168      2.9370
   367.5000     63.4343      0.0000    698.0346      3.0432
   367.7500     60.8299      0.0000    717.9075      3.1875
   368.0000     59.7516      0.0000    753.9242      3.3900
   368.2500     60.6528      0.0000    807.5373      3.6599
   368.5000     63.0134      0.0000    873.9617      3.9754
   368.7500     65.4916      0.0000    942.4865      4.2909
   369.0000     66.6307      0.0000    998.9020      4.5654
   369.2500     65.7031      0.0000   1030.1891      4.7810
   369.5000     63.0625      0.0000   1030.8436      4.9384
   369.7500     59.8747      0.0000   1006.0591      5.0454
   370.0000     57.5416      0.0000    968.3586      5.1117
   370.2500     57.0518      0.0000    931.5134      5.1495
   370.5000     58.4678      0.0000    906.3696      5.1700
   370.7500     60.9262      0.0000    897.8657      5.1802
   371.0000     63.1795      0.0000    902.7935      5.1841
   371.2500     64.1812      0.0000    911.5160      5.1864
   371.5000     63.4161      0.0000    914.1439      5.1905
   371.7500     61.1241      0.0000    906.7205      5.1963
   372.0000     58.4275      0.0000    893.5106      5.2008
   372.2500     56.9423      0.0000    883.6330      5.2018
   372.5000     57.6989      0.0000    882.7194      5.2012
   372.7500     60.2172      0.0000    886.0748      5.2075
   373.0000     62.8232      0.0000    881.9313      5.2346
   373.2500     64.0040      0.0000    863.3679      5.2923
   373.5000     63.4436      0.0000    836.1576      5.3716
   373.7500     61.7944      0.0000    814.0779      5.4440
   374.0000     59.8149      0.0000    807.6448      5.4816
   374.2500     58.0556      0.0000    817.4495      5.4788
   374.5000     57.0843      0.0000    835.4587      5.4487
   374.7500     57.3201      0.0000    851.1514      5.4056
   375.0000     58.6331      0.0000    858.9726      5.3566
   375.2500     60.6015      0.0000    862.1771      5.3062
   375.5000     63.0765      0.0000    868.4354      5.2561
   375.7500     65.9935      0.0000    881.0083      5.1945
   376.0000     68.7519      0.0000    894.7755      5.0867
   376.2500     70.3438      0.0000    900.2280      4.8929
   376.5000     70.2532      0.0000    890.8889      4.6090
   376.7500     68.9805      0.0000    869.3151      4.2827
   377.0000     67.5727      0.0000    847.5388      3.9702
   377.2500     66.8008      0.0000    840.0793      3.6859
   377.5000     66.8419      0.0000    854.3937      3.4161
   377.7500     67.4543      0.0000    887.1529      3.1714
   378.0000     68.2678      0.0000    927.9063      2.9883
   378.2500     69.0825     -0.8194    965.4583      2.8876
   378.5000     70.0696     -3.1805    991.3426      2.8609
   378.7500     71.5778     -1.1536    998.7020      2.9013
   379.0000     73.7458      0.0000    980.8022      3.0352
   379.2500     76.5217      0.0000    935.4659      3.3103
   379.5000     80.0685      0.0000    873.0685      3.7301
   379.7500     84.8718      0.0000    817.3719      4.1881
   380.0000     91.1409      0.0000    792.6164      4.5022
   380.2500     98.0258      0.0000    805.3843      4.5534
   380.5000    103.6131      0.0000    839.1386      4.3769
   380.7500    105.9171      0.0000    868.5445      4.0996
   381.0000    103.9746      0.0000    879.2183      3.8226
   381.2500     98.2623      0.0000    874.0200      3.5808
   381.5000     90.4870      0.0000    863.8590      3.3717
   381.7500     82.8751      0.0000    856.1070      3.1859
   382.0000     77.0334      0.0000    850.7809      3.0172
   382.2500     73.1440      0.0000    843.9532      2.8616
   382.5000     70.2783      0.0000    832.3868      2.7137
   382.7500     67.4771      0.0000    815.7357      2.5669
   383.0000     64.6051      0.0000    795.6738      2.4170
   383.2500     62.3458      0.0000    773.8979      2.2650
   383.5000     61.3633      0.0000    751.4456      2.1157
   383.7500     61.4156      0.0000    730.0247      1.9759
   384.0000     61.4077      0.0000    712.8782      1.8520
   384.2500     60.4715      0.0000    703.2582      1.7468
   384.5000     58.9244      0.0000    702.2744      1.6555
   384.7500     57.9747      0.0000    708.5864      1.5682
   385.0000     58.3735      0.0000    719.0920      1.4764
   385.2500     59.4909      0.0000    728.9803      1.3790
   385.5000     59.9431      0.0000    732.8157      1.2822
   385.7500     59.1147      0.0000    728.2239      1.1947
   386.0000     57.7814      0.0000    718.5377      1.1236
   386.2500     57.1674      0.0000    710.4537      1.0726
   386.5000     57.6841      0.0000    709.0909      1.0420
   386.7500     58.8519      0.0000    715.1112      1.0286
   387.0000     60.1880      0.0000    724.5875      1.0282
   387.2500     61.6598      0.0000    730.9425      1.0364
   387.5000     63.1823      0.0000    729.1044      1.0502
   387.7500     64.2722      0.0000    719.2579      1.0680
   388.0000     64.6899      0.0000    706.2011      1.0887
   388.2500     65.1383      0.0000    695.0911      1.1101
   388.5000     66.7442      0.0000    688.2455      1.1291
   388.7500     69.8500      0.0000    685.1924      1.1448
   389.0000     73.6222      0.0000    684.4021      1.1605
   389.2500     76.8373      0.0000    684.5739      1.1824
   389.5000     78.8029      0.0000    684.9271      1.2160
   389.7500     79.5048      0.0000    685.0378      1.2590
   390.0000     79.0826      0.0000    684.7173      1.2963
   390.2500     77.4969      0.0000    683.9972      1.3066
   390.5000     74.8669      0.0000    683.0209      1.2817
   390.7500     71.8181      0.0000    681.9000      1.2357
   391.0000     69.1351      0.0000    680.7003      1.1921
   391.2500     67.2678      0.0000    679.5627      1.1630
   391.5000     66.3157      0.0000    678.7468      1.1455
   391.7500     66.2018      0.0000    678.5335      1.1320
   392.0000     66.7838      0.0000    679.2185      1.1201
   392.2500     68.0092      0.0000    681.3262      1.1134
   392.5000     69.8789      0.0000    685.7162      1.1152
   392.7500     72.1865      0.0000    692.9543      1.1242
   393.0000     74.4676      0.0000    702.0232      1.1351
   393.2500     76.2511      0.0000    709.9885      1.1437
   393.5000     77.2420      0.0000    714.2490      1.1483
