~Version Information
VERS.                      2.0: CWLS Log ASCII Standard - VERSION 2.0
WRAP.                       NO: One line per depth step
~Well Information Block
STRT.FT               533.0000: 
STOP.FT              1578.0000: 
STEP.FT                 0.2500: 
NULL.                -999.2500: 
COMP.          Pioneer Natural Resources: COMPANY
WELL.           Telna 24-22 Tr: WELL
FLD.           Purgatoire River: FIELD
LOC.           748' FSL & 1931' FWL: LOCATION
PROV.                 Colorado: PROVINCE
CNTY.               Las Animas: COUNTRY
SRVC.                Patterson: SERVICE COMPANY
DATE.          Sun May 01 14:14:42 2005: LOG DATE
UWI.           05 071 08304 00: UNIQUE WELL ID
~Curve Information Block
DEPT.FT            0 000 00 00: Depth
SN.Ohm-m                      : IEL Short Normal
SP.mV                         : IEL Spontaneous Potential
DIR.Ohm-m                     : IEL Induction Resistivity
GR.GAPI                       : Gamma Ray
~Parameter Information Block
~A  Depth        SN          SP         DIR          GR     
# ...
   734.0000   2000.0000   2000.0000     23.1987    120.3634
   734.2500   2000.0000   2000.0000     23.9529    120.2972
   734.5000   2000.0000   2000.0000     24.7274    118.4953
   734.7500   2000.0000   2000.0000     25.5049    116.2171
   735.0000   2000.0000   2000.0000     26.2726    112.4153
   735.2500   2000.0000   2000.0000     27.0179    110.4350
   735.5000   2000.0000   2000.0000     27.7281    108.9100
   735.7500   2000.0000   2000.0000     28.3980    108.8080
   736.0000   2000.0000   2000.0000     29.0466    109.7956
   736.2500   2000.0000   2000.0000     29.7218    111.0078
   736.5000   2000.0000   2000.0000     30.4780    112.7892
   736.7500   2000.0000   2000.0000     31.3324    113.2179
   737.0000   2000.0000   2000.0000     32.2346    111.6977
   737.2500   2000.0000   2000.0000     33.0826    108.9442
   737.5000   2000.0000   2000.0000     33.7943    102.1012
   737.7500   2000.0000   2000.0000     34.3957     95.9344
   738.0000   2000.0000   2000.0000     35.0475     85.3323
   738.2500   2000.0000   2000.0000     35.9723     78.3441
   738.5000   2000.0000   2000.0000     37.3355     69.6141
   738.7500   2000.0000   2000.0000     39.1595     65.4625
   739.0000   2000.0000   2000.0000     41.3134     61.6152
   739.2500   2000.0000   2000.0000     43.5811     60.2255
   739.5000   2000.0000   2000.0000     45.7671     59.1077
   739.7500   2000.0000   2000.0000     47.7746     58.6003
   740.0000   2000.0000   2000.0000     49.6044     57.6845
   740.2500   2000.0000   2000.0000     51.2760     56.8402
   740.5000   2000.0000   2000.0000     52.7266     55.3311
   740.7500   2000.0000   2000.0000     53.7716     54.3381
   741.0000   2000.0000   2000.0000     54.1895     53.1335
   741.2500   2000.0000   2000.0000     53.8831     52.6093
   741.5000   2000.0000   2000.0000     52.9539     52.3040
   741.7500   2000.0000   2000.0000     51.6281     52.4272
   742.0000   2000.0000   2000.0000     50.1265     53.2356
   742.2500   2000.0000   2000.0000     48.6083     54.5046
   742.5000   2000.0000   2000.0000     47.1855     58.3976
   742.7500   2000.0000   2000.0000     45.9351     62.7441
   743.0000   2000.0000   2000.0000     44.8559     71.9459
   743.2500   2000.0000   2000.0000     43.7992     79.5281
   743.5000   2000.0000   2000.0000     42.4806     92.1582
   743.7500   2000.0000   2000.0000     40.6493    100.7852
   744.0000   2000.0000   2000.0000     38.3117    112.8275
   744.2500   2000.0000   2000.0000     35.7596    119.5358
   744.5000   2000.0000   2000.0000     33.3674    126.5283
   744.7500   2000.0000   2000.0000     31.3909    128.7229
   745.0000   2000.0000   2000.0000     29.9196    128.3744
   745.2500   2000.0000   2000.0000     28.9250    126.3948
   745.5000   2000.0000   2000.0000     28.3204    122.7296
   745.7500   2000.0000   2000.0000     28.0023    120.7781
   746.0000   2000.0000   2000.0000     27.8674    119.0968
   746.2500   2000.0000   2000.0000     27.8128    118.5324
   746.5000   2000.0000   2000.0000     27.7282    117.6660
   746.7500   2000.0000   2000.0000     27.5121    116.4565
   747.0000   2000.0000   2000.0000     27.1129    112.4283
   747.2500   2000.0000   2000.0000     26.5637    107.7443
   747.5000   2000.0000   2000.0000     25.9678     98.3059
   747.7500   2000.0000   2000.0000     25.4443     91.8809
   748.0000   2000.0000   2000.0000     25.0819     85.5752
   748.2500   2000.0000   2000.0000     24.9258     85.1852
   748.5000   2000.0000   2000.0000     24.9889     90.7102
   748.7500   2000.0000   2000.0000     25.2608     97.2984
   749.0000   2000.0000   2000.0000     25.7007    108.4146
   749.2500   2000.0000   2000.0000     26.2225    114.9328
   749.5000   2000.0000   2000.0000     26.6965    121.2193
   749.7500   2000.0000   2000.0000     26.9888    122.3068
   750.0000   2000.0000   2000.0000     27.0224    118.8878
   750.2500   2000.0000   2000.0000     26.8145    113.6606
   750.5000   2000.0000   2000.0000     26.4544    102.9918
   750.7500   2000.0000   2000.0000     26.0456     95.1687
   751.0000   2000.0000   2000.0000     25.6618     84.5919
   751.2500   2000.0000   2000.0000     25.3397     79.6200
   751.5000   2000.0000   2000.0000     25.0956     76.7049
   751.7500   2000.0000   2000.0000     24.9378     77.6487
   752.0000   2000.0000   2000.0000     24.8621     81.7933
   752.2500   2000.0000   2000.0000     24.8384     85.4583
   752.5000   2000.0000   2000.0000     24.8060     91.8121
   752.7500   2000.0000   2000.0000     24.6911     96.6867
   753.0000   2000.0000   2000.0000     24.4377    104.4492
   753.2500   2000.0000   2000.0000     24.0289    109.0195
   753.5000   2000.0000   2000.0000     23.4832    113.2256
   753.7500   2000.0000   2000.0000     22.8359    113.9501
   754.0000   2000.0000   2000.0000     22.1278    113.4934
   754.2500   2000.0000   2000.0000     21.4063    113.8435
   754.5000   2000.0000   2000.0000     20.7238    117.2430
   754.7500   2000.0000   2000.0000     20.1267    121.1244
   755.0000   2000.0000   2000.0000     19.6389    127.3493
   755.2500   2000.0000   2000.0000     19.2541    130.8619
   755.5000   2000.0000   2000.0000     18.9393    134.7990
   755.7500   2000.0000   2000.0000     18.6463    136.3112
   756.0000   2000.0000   2000.0000     18.3251    135.5041
   756.2500   2000.0000   2000.0000     17.9376    132.0601
   756.5000   2000.0000   2000.0000     17.4668    123.0656
   756.7500   2000.0000   2000.0000     16.9205    116.3161
   757.0000   2000.0000   2000.0000     16.3271    108.9651
   757.2500   2000.0000   2000.0000     15.7266    107.3321
   757.5000   2000.0000   2000.0000     15.1602    109.6585
   757.7500   2000.0000   2000.0000     14.6617    113.2128
   758.0000   2000.0000   2000.0000     14.2526    119.0715
   758.2500   2000.0000   2000.0000     13.9388    122.3271
   758.5000   2000.0000   2000.0000     13.7107    125.9686
   758.7500   2000.0000   2000.0000     13.5465    127.9814
   759.0000   2000.0000   2000.0000     13.4186    130.6578
   759.2500   2000.0000   2000.0000     13.3016    131.7326
   759.5000   2000.0000   2000.0000     13.1789    131.0498
   759.7500   2000.0000   2000.0000     13.0484    128.6524
   760.0000   2000.0000   2000.0000     12.9228    122.1367
   760.2500   2000.0000   2000.0000     12.8270    116.1352
   760.5000   2000.0000   2000.0000     12.7898    105.8579
   760.7500   2000.0000   2000.0000     12.8377     99.4890
   761.0000   2000.0000   2000.0000     12.9901     93.5849
   761.2500   2000.0000   2000.0000     13.2575     93.3736
   761.5000   2000.0000   2000.0000     13.6412     98.6267
   761.7500   2000.0000   2000.0000     14.1338    104.3029
   762.0000   2000.0000   2000.0000     14.7199    112.1005
   762.2500   2000.0000   2000.0000     15.3779    114.9529
   762.5000   2000.0000   2000.0000     16.0805    114.9446
   762.7500   2000.0000   2000.0000     16.7999    113.0714
   763.0000   2000.0000   2000.0000     17.5156    110.4269
   763.2500   2000.0000   2000.0000     18.2235    110.2845
   763.5000   2000.0000   2000.0000     18.9379    113.1383
   763.7500   2000.0000   2000.0000     19.6845    116.2544
   764.0000   2000.0000   2000.0000     20.4890    120.8738
   764.2500   2000.0000   2000.0000     21.3657    123.3979
   764.5000   2000.0000   2000.0000     22.3113    126.5153
   764.7500   2000.0000   2000.0000     23.3071    128.4416
   765.0000   2000.0000   2000.0000     24.3278    131.3005
   765.2500   2000.0000   2000.0000     25.3548    132.9667
   765.5000   2000.0000   2000.0000     26.3796    134.3500
   765.7500   2000.0000   2000.0000     27.3933    134.1525
   766.0000   2000.0000   2000.0000     28.3675    132.0732
   766.2500   2000.0000   2000.0000     29.2426    129.7904
   766.5000   2000.0000   2000.0000     29.9385    125.7086
   766.7500   2000.0000   2000.0000     30.3852    122.6264
   767.0000   2000.0000   2000.0000     30.5525    116.8868
   767.2500   2000.0000   2000.0000     30.4551    112.2142
