~Version Information
VERS.                      2.0: CWLS Log ASCII Standard - VERSION 2.0
WRAP.                       NO: One line per depth step
~Well Information Block
STRT.FT               390.0000: 
STOP.FT              2770.2500: 
STEP.FT                 0.2500: 
NULL.                -999.2500: 
COMP.          Pioneer Natural Resources: COMPANY
WELL.              Lynch 43-30: WELL
FLD.           Purgatoire River: FIELD
LOC.           1438' FSL & 429' FEL: LOCATION
PROV.                 Colorado: PROVINCE
CNTY.               Las Animas: COUNTRY
SRVC.                Patterson: SERVICE COMPANY
DATE.          Wed Oct 27 08:06:51 2004: LOG DATE
UWI.           05 071 08170 00: UNIQUE WELL ID
~Curve Information Block
DEPT.FT            0 000 00 00: Depth
DIR.Ohm-m                     : IEL Induction Resistivity
SN.Ohm-m                      : IEL Short Normal
SP.mV                         : IEL Spontaneous Potential
GR.GAPI                       : Gamma Ray
~Parameter Information Block
~A  Depth       DIR          SN          SP          GR     
# ...
  1797.0000     21.9309     26.7867    151.2307     56.8439
  1797.2500     22.0913     27.0020    151.1980     58.1077
  1797.5000     22.1964     27.2468    151.1487     61.1037
  1797.7500     22.2651     27.5202    151.0888     63.4851
  1798.0000     22.3288     27.8205    151.0271     67.0756
  1798.2500     22.4154     28.1425    150.9712     69.5003
  1798.5000     22.5401     28.4779    150.9237     73.5748
  1798.7500     22.7090     28.8208    150.8817     76.5459
  1799.0000     22.9283     29.1703    150.8382     80.4005
  1799.2500     23.2122     29.5249    150.7862     81.7744
  1799.5000     23.5792     29.8738    150.7222     81.4973
  1799.7500     24.0369     30.1945    150.6488     80.2408
  1800.0000     24.5615     30.4555    150.5731     78.2378
  1800.2500     25.0853     30.6244    150.5037     77.3627
  1800.5000     25.5090     30.6784    150.4467     76.6495
  1800.7500     25.7405     30.6142    150.4029     76.3053
  1801.0000     25.7384     30.4514    150.3683     75.9057
  1801.2500     25.5291     30.2260    150.3358     75.8887
  1801.5000     25.1831     29.9761    150.2973     76.5945
  1801.7500     24.7745     29.7261    150.2450     77.7770
  1802.0000     24.3508     29.4763    150.1713     81.0615
  1802.2500     23.9290     29.2020    150.0694     84.3457
  1802.5000     23.5101     28.8668    149.9357     90.1874
  1802.7500     23.0968     28.4492    149.7724     93.8257
  1803.0000     22.7003     27.9691    149.5894     97.7466
  1803.2500     22.3366     27.4835    149.4027     99.3194
  1803.5000     22.0196     27.0470    149.2307    100.7841
  1803.7500     21.7580     26.6769    149.0891    101.4001
  1804.0000     21.5541     26.3578    148.9869    101.4467
  1804.2500     21.4011     26.0694    148.9259    100.3952
  1804.5000     21.2826     25.8042    148.9029     96.5130
  1804.7500     21.1793     25.5741    148.9127     92.5213
  1805.0000     21.0817     25.4124    148.9516     85.7871
  1805.2500     20.9945     25.3629    149.0182     81.8533
  1805.5000     20.9280     25.4529    149.1133     77.9433
  1805.7500     20.8860     25.6669    149.2374     76.6550
  1806.0000     20.8640     25.9448    149.3881     75.8084
  1806.2500     20.8592     26.2121    149.5578     75.3832
  1806.5000     20.8786     26.4192    149.7330     74.6137
  1806.7500     20.9352     26.5614    149.8951     74.3195
  1807.0000     21.0371     26.6677    150.0236     75.0492
  1807.2500     21.1819     26.7747    150.1008     76.5058
  1807.5000     21.3619     26.9095    150.1153     79.5735
  1807.7500     21.5760     27.0887    150.0649     81.6501
  1808.0000     21.8344     27.3273    149.9546     84.2528
  1808.2500     22.1538     27.6484    149.7955     85.5950
  1808.5000     22.5454     28.0810    149.6022     86.8311
  1808.7500     23.0096     28.6381    149.3918     86.7874
  1809.0000     23.5364     29.2914    149.1834     84.7283
  1809.2500     24.1090     29.9755    148.9970     81.9274
  1809.5000     24.7051     30.6235    148.8507     76.3329
  1809.7500     25.2973     31.1962    148.7581     72.4904
  1810.0000     25.8535     31.6792    148.7260     67.8426
  1810.2500     26.3379     32.0628    148.7536     65.8841
  1810.5000     26.7106     32.3357    148.8342     64.7010
  1810.7500     26.9316     32.4923    148.9580     64.7564
  1811.0000     26.9706     32.5388    149.1150     65.0511
  1811.2500     26.8183     32.4908    149.2969     64.7764
  1811.5000     26.4944     32.3675    149.4971     63.2131
  1811.7500     26.0489     32.1897    149.7099     61.4918
  1812.0000     25.5546     31.9780    149.9283     58.2635
  1812.2500     25.0856     31.7489    150.1435     55.9644
  1812.5000     24.6908     31.5103    150.3453     52.9723
  1812.7500     24.3761     31.2625    150.5252     51.6909
  1813.0000     24.1091     31.0024    150.6806     51.1985
  1813.2500     23.8463     30.7250    150.8183     51.7389
  1813.5000     23.5670     30.4240    150.9525     53.4160
  1813.7500     23.2882     30.0971    151.0997     54.8932
  1814.0000     23.0477     29.7499    151.2709     57.4812
  1814.2500     22.8722     29.3945    151.4655     59.3523
  1814.5000     22.7587     29.0458    151.6722     61.9234
  1814.7500     22.6791     28.7207    151.8732     63.1288
  1815.0000     22.6030     28.4402    152.0508     63.8558
  1815.2500     22.5172     28.2332    152.1933     63.7676
  1815.5000     22.4292     28.1316    152.2969     63.5228
  1815.7500     22.3572     28.1552    152.3650     63.7712
  1816.0000     22.3184     28.2882    152.4051     65.1054
  1816.2500     22.3245     28.4722    152.4247     66.4237
  1816.5000     22.3791     28.6372    152.4286     68.3301
  1816.7500     22.4747     28.7518    152.4170     69.2176
  1817.0000     22.5895     28.8423    152.3869     69.6726
  1817.2500     22.6927     28.9611    152.3338     69.3329
  1817.5000     22.7598     29.1445    152.2545     68.0843
  1817.7500     22.7914     29.4040    152.1491     67.1283
  1818.0000     22.8170     29.7317    152.0212     66.1483
  1818.2500     22.8788     30.1012    151.8777     65.8852
  1818.5000     23.0064     30.4757    151.7277     65.7328
  1818.7500     23.2051     30.8372    151.5818     65.5378
  1819.0000     23.4639     31.2033    151.4499     64.9453
  1819.2500     23.7682     31.6022    151.3383     64.4981
  1819.5000     24.1019     32.0309    151.2464     64.3683
  1819.7500     24.4433     32.4457    151.1645     65.0334
  1820.0000     24.7695     32.7941    151.0756     67.4067
  1820.2500     25.0696     33.0583    150.9618     69.7071
  1820.5000     25.3542     33.2728    150.8134     73.6547
  1820.7500     25.6472     33.5002    150.6371     76.3939
  1821.0000     25.9594     33.7771    150.4596     80.5047
  1821.2500     26.2562     34.0620    150.3235     83.0612
  1821.5000     26.4395     34.2173    150.2778     85.9013
  1821.7500     26.3625     34.0443    150.3635     86.6897
  1822.0000     25.8881     33.3648    150.6005     86.2725
  1822.2500     24.9630     32.1125    150.9797     85.7736
  1822.5000     23.6540     30.3769    151.4641     87.2499
  1822.7500     22.1169     28.3684    151.9983     91.2212
  1823.0000     20.5264     26.3240    152.5227    102.9241
  1823.2500     19.0194     24.4171    152.9880    114.0937
  1823.5000     17.6745     22.7216    153.3642    132.9412
  1823.7500     16.5208     21.2331    153.6432    144.2860
  1824.0000     15.5556     19.9152    153.8348    155.1247
  1824.2500     14.7607     18.7371    153.9604    156.9271
  1824.5000     14.1124     17.6898    154.0449    152.5557
  1824.7500     13.5878     16.7832    154.1114    147.0037
  1825.0000     13.1676     16.0289    154.1782    138.5532
  1825.2500     12.8363     15.4182    154.2566    134.2707
  1825.5000     12.5795     14.9164    154.3506    130.6197
  1825.7500     12.3811     14.4842    154.4565    129.7878
  1826.0000     12.2203     14.1048    154.5644    130.0993
  1826.2500     12.0724     13.7882    154.6603    131.0464
  1826.5000     11.9139     13.5491    154.7297    133.7901
  1826.7500     11.7332     13.3932    154.7612    136.6655
  1827.0000     11.5399     13.3271    154.7485    141.7613
  1827.2500     11.3662     13.3681    154.6918    144.6798
  1827.5000     11.2551     13.5256    154.5970    147.2145
  1827.7500     11.2428     13.7721    154.4746    147.7713
  1828.0000     11.3443     14.0363    154.3377    147.1001
  1828.2500     11.5486     14.2279    154.2004    145.0389
  1828.5000     11.8231     14.2720    154.0764    138.0035
  1828.7500     12.1254     14.1330    153.9781    130.6813
  1829.0000     12.4174     13.8369    153.9161    118.3273
  1829.2500     12.6735     13.4856    153.8986    111.6299
  1829.5000     12.8812     13.2343    153.9312    107.6381
  1829.7500     13.0339     13.2198    154.0155    109.9837
  1830.0000     13.1233     13.4791    154.1479    119.8902
  1830.2500     13.1384     13.9173    154.3199    128.7475
