~Version Information
VERS.                      2.0: CWLS Log ASCII Standard - VERSION 2.0
WRAP.                       NO: One line per depth step
~Well Information Block
STRT.FT               -19.5000: 
STOP.FT              2456.0000: 
STEP.FT                 0.2500: 
NULL.                -999.2500: 
COMP.          Petrogulf Corporation: COMPANY
WELL.           Montoya 12-44V: WELL
FLD.           Purgatorie River: FIELD
LOC.           698' FSL & 599' FEL: LOCATION
CNTY.               Las Animas: COUNTY
SRVC.                         : SERVICE COMPANY
DATE.          Mon Sep 13 13:44:10 2004: LOG DATE
UWI.           05-071-08094-00: UNIQUE WELL ID
STAT.                 Colorado: STATE
~Curve Information Block
DEPT.FT            0 000 00 00: Depth
TT3.usec                      : CBL 3' Travel Time
AMP3.mV                       : CBL 3' Amplitude
GR.GAPI                       : Gamma Ray
CCL.                          : Casing Collar Locator
~Parameter Information Block
~A  Depth       TT3         AMP3         GR         CCL     
# ...
   148.0000    290.0000     83.3709    116.4641      0.0000
   148.2500    290.0000     83.6350    127.7842      0.0000
   148.5000    290.0000     83.8965    137.8443      0.0000
   148.7500    290.0000     84.0710    144.6540      0.0000
   149.0000    290.0000     84.1203    147.5639      0.0000
   149.2500    290.0001     84.0412    146.8015      0.0000
   149.5000    290.0010     83.8578    143.0477      0.0000
   149.7500    290.0077     83.6338    137.5164      0.0000
   150.0000    290.0371     83.4574    131.8101      0.0000
   150.2500    290.1180     83.4021    127.2817      0.0000
   150.5000    290.2576     83.4859    124.5714      0.0000
   150.7500    290.4190     83.6480    123.7374      0.0000
   151.0000    290.5723     83.7900    124.5250      0.0000
   151.2500    290.7052     83.8471    126.3661      0.0000
   151.5000    290.7639     83.8165    128.3894      0.0000
   151.7500    290.7052     83.7277    129.6833      0.0000
   152.0000    290.5723     83.6077    129.5910      0.0000
   152.2500    290.4190     83.4885    127.9085      0.0000
   152.5000    290.2576     83.4155    125.0152      0.0000
   152.7500    290.1180     83.4201    121.7993      0.0000
   153.0000    290.0371     83.5062    119.3566      0.0000
   153.2500    290.0077     83.6564    118.6065      0.0000
   153.5000    290.0010     83.8178    119.7456      0.0000
   153.7500    290.0001     83.9265    121.7255      0.0000
   154.0000    290.0000     83.9547    122.7757      0.0000
   154.2500    290.0000     83.8941    121.9700      0.0000
   154.5000    290.0000     83.7422    119.9761      0.0000
   154.7500    290.0000     83.5368    118.1165      0.0000
   155.0000    290.0002     83.3382    117.2692      0.0000
   155.2500    290.0025     83.1612    117.7622      0.0000
   155.5000    290.0211     82.9203    119.4802      0.0000
   155.7500    290.1190     82.2204    121.5816      0.0000
   156.0000    290.4695     80.0797    122.6462      0.0000
   156.2500    291.3389     75.5991    121.6751      0.0000
   156.5000    292.8728     69.7367    118.9185      0.0000
   156.7500    294.8372     65.0123    115.5640      0.0000
   157.0000    296.6697     62.2868    112.5797      0.0000
   157.2500    297.8652     60.4364    109.7668      0.0000
   157.5000    298.3164     59.0946    105.9278      0.0000
   157.7500    298.2926     58.5387    100.0392      0.0000
   158.0000    298.1421     58.4636     92.3548     -3.1189
   158.2500    298.0473     58.5047     84.4353      3.8559
   158.5000    298.0364     58.6274     78.0628      1.9974
   158.7500    298.1231     58.8299     73.9805      0.0000
   159.0000    298.3120     59.1652     71.5118      0.0000
   159.2500    298.3551     60.1954     69.2849      0.0000
   159.5000    297.6602     62.5355     66.3426      0.0000
   159.7500    295.9191     65.7099     62.7046      0.0000
   160.0000    293.6926     69.2089     59.0274      0.0000
   160.2500    291.8507     73.4795     55.8886      0.0000
   160.5000    290.7564     77.9700     53.5170      0.0000
   160.7500    290.2847     81.1337     52.0313      0.0000
   161.0000    290.2125     82.6069     51.5306      0.0000
   161.2500    290.3772     83.1549     51.8151      0.0000
   161.5000    290.6342     83.4176     52.3772      0.0000
   161.7500    290.8460     83.5980     52.8338      0.0000
   162.0000    290.9553     83.7200     53.0221      0.0000
   162.2500    290.9913     83.7865     52.6571      0.0000
   162.5000    290.9989     83.7903     51.4747      0.0000
   162.7500    290.9999     83.7368     49.8824      0.0000
   163.0000    291.0000     83.6622     48.8711      0.0000
   163.2500    291.0000     83.6085     48.9986      0.0000
   163.5000    291.0000     83.6145     49.8321      0.0000
   163.7500    291.0000     83.7030     50.6799      0.0000
   164.0000    291.0000     83.8377     51.7290      0.0000
   164.2500    290.9999     83.9396     54.2489      0.0000
   164.5000    290.9990     83.9668     59.5788      0.0000
   164.7500    290.9924     83.9424     67.8118      0.0000
   165.0000    290.9639     83.8988     77.4457      0.0000
   165.2500    290.8895     83.8353     86.3128      0.0000
   165.5000    290.7783     83.7628     92.8420      0.0000
   165.7500    290.6893     83.7390     96.5261      0.0000
   166.0000    290.6330     83.8058     97.6224      0.0000
   166.2500    290.5237     83.9239     96.9207      0.0000
   166.5000    290.3310     84.0142     95.8591      0.0000
   166.7500    290.1465     84.0375     96.3440      0.0000
   167.0000    290.0437     84.0075     99.8046      0.0000
   167.2500    290.0086     83.9593    106.1585      0.0000
   167.5000    290.0011     83.9117    113.8290      0.0000
   167.7500    290.0001     83.8514    120.8580      0.0000
   168.0000    290.0000     83.7683    126.0831      0.0000
   168.2500    290.0000     83.6938    129.5381      0.0000
   168.5000    290.0000     83.6757    131.9728      0.0000
   168.7500    290.0000     83.7060    133.9939      0.0000
   169.0000    290.0000     83.7239    135.6972      0.0000
   169.2500    290.0000     83.7025    137.0178      0.0000
   169.5000    290.0000     83.6648    138.0524      0.0000
   169.7500    290.0000     83.6294    138.8215      0.0000
   170.0000    290.0001     83.5986    139.0438      0.0000
   170.2500    290.0010     83.5709    138.5269      0.0000
   170.5000    290.0077     83.5270    137.5410      0.0000
   170.7500    290.0371     83.4332    136.2971      0.0000
   171.0000    290.1180     83.2935    134.3123      0.0000
   171.2500    290.2577     83.1778    130.9322      0.0000
   171.5000    290.4200     83.1519    126.3301      0.0000
   171.7500    290.5800     83.2067    121.3662      0.0000
   172.0000    290.7423     83.2979    116.6863      0.0000
   172.2500    290.8820     83.3978    112.7541      0.0000
   172.5000    290.9629     83.4641    110.6250      0.0000
   172.7500    290.9923     83.4265    111.6024      0.0000
   173.0000    290.9990     83.2687    115.6487      0.0000
   173.2500    290.9999     83.0813    120.6900      0.0000
   173.5000    291.0000     82.9744    124.0165      0.0000
   173.7500    291.0000     82.9789    124.3171      0.0000
   174.0000    291.0000     83.0487    122.3062      0.0000
   174.2500    291.0000     83.1171    119.8199      0.0000
   174.5000    291.0000     83.1335    118.6130      0.0000
   174.7500    291.0000     83.0779    119.6613      0.0000
   175.0000    291.0000     82.9794    122.9493      0.0000
   175.2500    291.0000     82.8937    127.5951      0.0000
   175.5000    291.0000     82.8359    132.3804      0.0000
   175.7500    291.0000     82.7789    136.5674      0.0000
   176.0000    291.0000     82.7173    140.3123      0.0000
   176.2500    291.0000     82.6771    144.1612      0.0000
   176.5000    291.0000     82.6744    148.0924      0.0000
   176.7500    291.0000     82.6948    151.1163      0.0000
   177.0000    291.0000     82.7202    151.9218      0.0000
   177.2500    291.0000     82.7427    150.0707      0.0000
   177.5000    291.0000     82.7367    146.4879      0.0000
   177.7500    291.0000     82.6748    142.5992      0.0000
   178.0000    291.0000     82.5781    139.1742      0.0000
   178.2500    291.0000     82.5049    136.1698      0.0000
   178.5000    291.0000     82.4992    133.2761      0.0000
   178.7500    291.0000     82.5713    130.3259      0.0000
   179.0000    291.0000     82.7108    127.6235      0.0000
   179.2500    291.0000     82.8926    126.0859      0.0000
   179.5000    291.0000     83.0656    126.5007      0.0000
   179.7500    291.0000     83.1728    128.4626      0.0000
   180.0000    291.0000     83.1993    130.6921      0.0000
   180.2500    291.0000     83.1704    132.5122      0.0000
   180.5000    291.0000     83.1172    134.2271      0.0000
   180.7500    291.0000     83.0764    135.8491      0.0000
   181.0000    291.0000     83.0812    136.2737      0.0000
   181.2500    291.0000     83.1319    134.2332      0.0000
