~Version Information
VERS.                      2.0: CWLS Log ASCII Standard - VERSION 2.0
WRAP.                       NO: One line per depth step
~Well Information Block
STRT.FT               -11.0000: 
STOP.FT              1896.2500: 
STEP.FT                 0.2500: 
NULL.                -999.2500: 
COMP.          Pioneer Natural Resources: COMPANY
WELL.            Summers 21-19: WELL
FLD.           Purgatoire River: FIELD
LOC.           900' FNL & 1950' FWL--: LOCATION
PROV.                 Colorado: PROVINCE
CNTY.               Las Animas: COUNTRY
SRVC.                Patterson: SERVICE COMPANY
DATE.          Thu Oct 20 15:06:00 2005: LOG DATE
UWI.           05 071 08315 00: UNIQUE WELL ID
~Curve Information Block
DEPT.FT            0 000 00 00: Depth
GR.GAPI                       : Gamma Ray
CCL.                          : Casing Collar Locator
TT3.usec                      : CBL 3' Travel Time
AMP3.mV                       : CBL 3' Amplitude
~Parameter Information Block
~A  Depth        GR         CCL         TT3         AMP3    
# ...
  1865.0000    130.8260      0.0000    674.8990      8.4089
  1865.2500    128.7089      0.0000    681.4561      8.4482
  1865.5000    126.3134      0.0000    687.9042      8.5145
  1865.7500    124.7543      0.0000    694.6842      8.6010
  1866.0000    124.3134      0.0000    701.7226      8.6913
  1866.2500    124.4666      0.0000    708.0976      8.7694
  1866.5000    124.5120      0.0000    712.4897      8.8284
  1866.7500    124.3443      0.0000    713.6450      8.8699
  1867.0000    124.5629      0.0000    710.5944      8.8954
  1867.2500    125.6576      0.0000    703.3353      8.8973
  1867.5000    127.1264      0.0000    693.5250      8.8649
  1867.7500    127.5431      0.0000    683.7531      8.8003
  1868.0000    125.5613      0.0000    675.8328      8.7257
  1868.2500    120.8631      0.0000    670.1635      8.6715
  1868.5000    114.1277      0.0000    666.6268      8.6549
  1868.7500    106.1557      0.0000    665.2585      8.6705
  1869.0000     97.3605      0.0000    665.7181      8.6958
  1869.2500     88.2417      0.0000    666.7836      8.7052
  1869.5000     79.9121      0.0000    667.1068      8.6813
  1869.7500     73.7661      0.0000    666.4194      8.6150
  1870.0000     70.6425      0.0000    665.5372      8.4969
  1870.2500     70.2777      0.0000    665.1961      8.3074
  1870.5000     71.4752      0.0000    665.4255      8.0202
  1870.7500     72.8898      0.0000    666.3271      7.6232
  1871.0000     73.7506      0.0000    668.9927      7.1323
  1871.2500     73.9101      0.0000    675.1535      6.5808
  1871.5000     73.4973      0.0000    685.8532      5.9975
  1871.7500     72.7629      0.0000    700.0671      5.4009
  1872.0000     72.1029      0.0000    714.0001      4.8145
  1872.2500     71.9477      0.0000    722.2216      4.2770
  1872.5000     72.6064      0.0000    721.0025      3.8353
  1872.7500     74.2133      0.0000    711.4354      3.5282
  1873.0000     76.6755      0.0000    699.0123      3.3706
  1873.2500     79.6755      0.0000    689.6179      3.3506
  1873.5000     82.8179      0.0000    685.5824      3.4420
  1873.7500     85.6718      0.0000    685.3264      3.6286
  1874.0000     87.6360      0.0000    686.3449      3.9245
  1874.2500     88.0017      0.0000    687.8611      4.3800
  1874.5000     86.3970      0.0000    690.1575      5.0669
  1874.7500     83.2051      0.0000    692.1777      6.0579
  1875.0000     79.5015      0.0000    691.1521      7.4091
  1875.2500     76.5150      0.0000    684.5204      9.1302
  1875.5000     74.9813      0.0000    670.2030     11.1425
  1875.7500     74.9097      0.0000    643.9877     13.2656
  1876.0000     75.9971      0.0000    599.4291     15.2757
  1876.2500     78.1037      0.0000    534.5734     16.9948
  1876.5000     81.0745      0.0000    458.9657     18.3380
  1876.7500     84.2995      0.0000    390.1889     19.2998
  1877.0000     86.9215      0.0000    341.6923     19.9191
  1877.2500     88.4376      0.0000    315.2043     20.2584
  1877.5000     88.8381      0.0000    304.0458     20.3897
  1877.7500     88.3322      0.0000    300.6367     20.3738
  1878.0000     87.2397      0.0000    300.7844     20.2371
  1878.2500     86.0547      0.0000    304.4036     19.9718
  1878.5000     85.4301      0.0000    315.4707     19.5593
  1878.7500     85.9348      0.0000    340.9303     18.9840
  1879.0000     87.6142      0.0000    385.1618     18.2043
  1879.2500     89.6762      0.0000    439.6710     17.0924
  1879.5000     90.7670      0.0000    477.5286     15.4154
  1879.7500     89.8269      0.0000    465.5762     12.9615
  1880.0000     86.9058      0.0000    390.6204      9.8025
  1880.2500     83.2023      0.0000    274.3251      6.4391
  1880.5000     80.2243      0.0000    158.3203      3.5677
  1880.7500     78.7995      0.0000     74.1215      1.6303
  1881.0000     78.6053      0.0000     27.8812      0.6045
  1881.2500     78.3097      0.0000      8.3640      0.1798
  1881.5000     76.3904      0.0000      1.9886      0.0424
  1881.7500     72.3748      0.0000      0.3685      0.0078
  1882.0000     67.4783      0.0000      0.0490      0.0010
  1882.2500     63.8436      0.0000   -999.2500   -999.2500
  1882.5000     63.0157      0.0000   -999.2500   -999.2500
  1882.7500     64.9696      0.0000   -999.2500   -999.2500
  1883.0000     68.3497      0.0000   -999.2500   -999.2500
  1883.2500     71.5760      0.0000   -999.2500   -999.2500
  1883.5000     73.8670      0.0000   -999.2500   -999.2500
  1883.7500     75.3264      0.0000   -999.2500   -999.2500
  1884.0000     76.2793      0.0000   -999.2500   -999.2500
  1884.2500     76.8092      0.0000   -999.2500   -999.2500
  1884.5000     76.8819      0.0000   -999.2500   -999.2500
  1884.7500     76.5763      0.0000   -999.2500   -999.2500
  1885.0000     76.0200   -999.2500   -999.2500   -999.2500
  1885.2500     75.1727   -999.2500   -999.2500   -999.2500
  1885.5000     73.9129   -999.2500   -999.2500   -999.2500
  1885.7500     72.5110   -999.2500   -999.2500   -999.2500
  1886.0000     71.8341   -999.2500   -999.2500   -999.2500
  1886.2500     72.7359   -999.2500   -999.2500   -999.2500
  1886.5000     75.1524   -999.2500   -999.2500   -999.2500
  1886.7500     77.8756   -999.2500   -999.2500   -999.2500
  1887.0000     79.2036   -999.2500   -999.2500   -999.2500
  1887.2500     77.6447   -999.2500   -999.2500   -999.2500
  1887.5000     72.0880   -999.2500   -999.2500   -999.2500
  1887.7500     61.9222   -999.2500   -999.2500   -999.2500
  1888.0000     47.7398   -999.2500   -999.2500   -999.2500
  1888.2500     31.9722   -999.2500   -999.2500   -999.2500
  1888.5000     18.0612   -999.2500   -999.2500   -999.2500
  1888.7500      8.4074   -999.2500   -999.2500   -999.2500
  1889.0000      3.1703   -999.2500   -999.2500   -999.2500
  1889.2500      0.9567   -999.2500   -999.2500   -999.2500
  1889.5000      0.2288   -999.2500   -999.2500   -999.2500
  1889.7500      0.0427   -999.2500   -999.2500   -999.2500
  1890.0000      0.0059   -999.2500   -999.2500   -999.2500
  1890.2500      0.0000   -999.2500   -999.2500   -999.2500
  1890.5000   -999.2500   -999.2500   -999.2500   -999.2500
  1890.7500   -999.2500   -999.2500   -999.2500   -999.2500
  1891.0000   -999.2500   -999.2500   -999.2500   -999.2500
  1891.2500   -999.2500   -999.2500   -999.2500   -999.2500
  1891.5000   -999.2500   -999.2500   -999.2500   -999.2500
  1891.7500   -999.2500   -999.2500   -999.2500   -999.2500
  1892.0000   -999.2500   -999.2500   -999.2500   -999.2500
  1892.2500   -999.2500   -999.2500   -999.2500   -999.2500
  1892.5000   -999.2500   -999.2500   -999.2500   -999.2500
  1892.7500   -999.2500   -999.2500   -999.2500   -999.2500
  1893.0000   -999.2500   -999.2500   -999.2500   -999.2500
  1893.2500   -999.2500   -999.2500   -999.2500   -999.2500
  1893.5000   -999.2500   -999.2500   -999.2500   -999.2500
  1893.7500   -999.2500   -999.2500   -999.2500   -999.2500
  1894.0000   -999.2500   -999.2500   -999.2500   -999.2500
  1894.2500   -999.2500   -999.2500   -999.2500   -999.2500
  1894.5000   -999.2500   -999.2500   -999.2500   -999.2500
  1894.7500   -999.2500   -999.2500   -999.2500   -999.2500
  1895.0000   -999.2500   -999.2500   -999.2500   -999.2500
  1895.2500   -999.2500   -999.2500   -999.2500   -999.2500
  1895.5000   -999.2500   -999.2500   -999.2500   -999.2500
  1895.7500   -999.2500   -999.2500   -999.2500   -999.2500
  1896.0000   -999.2500   -999.2500   -999.2500   -999.2500
  1896.2500   -999.2500   -999.2500   -999.2500   -999.2500
