~Version Information
VERS.                      2.0: CWLS Log ASCII Standard - VERSION 2.0
WRAP.                       NO: One line per depth step
~Well Information Block
STRT.FT               698.9000: 
STOP.FT              2460.4000: 
STEP.FT                 0.1000: 
NULL.                -999.2500: 
COMP.          Petrogulf Corporation: COMPANY
WELL.             State 16-23V: WELL
FLD.           Purgatorie River: FIELD
LOC.           2414' FSL & 2215' FWL: LOCATION
PROV.                 Colorado: PROVINCE
CNTY.               Las Animas: COUNTRY
SRVC.                         : SERVICE COMPANY
DATE.          Mon Jun 09 14:24:56 2003: LOG DATE
UWI.           05 071 07865 00: UNIQUE WELL ID
~Curve Information Block
DEPT.FT            0 000 00 00: Depth
DCAL.in                       : CDL Caliper
RHOB.g/cc                     : CDL Bulk Density
RHOC.g/cc                     : CDL Density Correction
DPOR.pu                       : CDL Density Porosity
GR.GAPI                       : Gamma Ray
NPOR.pu                       : Neutron Porosity
~Parameter Information Block
~A  Depth       DCAL        RHOB        RHOC        DPOR         GR         NPOR    
# ...
  1073.3000      8.3510      2.6508      0.0268     -0.0478    108.9024     24.1078
  1073.4000      8.3510      2.6476      0.0253      0.1482    108.9027     23.8789
  1073.5000      8.3577      2.6435      0.0240      0.3939    109.1387     23.6648
  1073.6000      8.3577      2.6387      0.0230      0.6835    109.6383     23.4674
  1073.7000      8.3577      2.6333      0.0222      1.0101    110.4196     23.2897
  1073.8000      8.3599      2.6275      0.0216      1.3663    111.4857     23.1357
  1073.9000      8.3599      2.6212      0.0212      1.7441    112.8287     23.0104
  1074.0000      8.3498      2.6148      0.0211      2.1354    114.4223     22.9200
  1074.1000      8.3498      2.6082      0.0211      2.5324    116.2294     22.8712
  1074.2000      8.3498      2.6017      0.0213      2.9276    118.1999     22.8702
  1074.3000      8.3301      2.5953      0.0217      3.3147    120.2739     22.9225
  1074.4000      8.3301      2.5891      0.0223      3.6880    122.3874     23.0317
  1074.5000      8.3120      2.5833      0.0231      4.0433    124.4820     23.1989
  1074.6000      8.3120      2.5778      0.0241      4.3774    126.5088     23.4226
  1074.7000      8.3120      2.5726      0.0254      4.6884    128.4329     23.6981
  1074.8000      8.2949      2.5679      0.0270      4.9757    130.2393     24.0183
  1074.9000      8.2949      2.5636      0.0289      5.2391    131.9257     24.3738
  1075.0000      8.2877      2.5596      0.0311      5.4796    133.4989     24.7534
  1075.1000      8.2877      2.5560      0.0335      5.6982    134.9592     25.1457
  1075.2000      8.2877      2.5527      0.0362      5.8963    136.2983     25.5389
  1075.3000      8.3041      2.5498      0.0390      6.0749    137.4858     25.9221
  1075.4000      8.3041      2.5471      0.0419      6.2350    138.4741     26.2857
  1075.5000      8.3305      2.5448      0.0446      6.3774    139.2023     26.6212
  1075.6000      8.3305      2.5427      0.0472      6.5021    139.6073     26.9215
  1075.7000      8.3305      2.5409      0.0494      6.6092    139.6355     27.1805
  1075.8000      8.3409      2.5395      0.0512      6.6985    139.2619     27.3935
  1075.9000      8.3409      2.5383      0.0524      6.7696    138.4943     27.5562
  1076.0000      8.3260      2.5374      0.0530      6.8223    137.3779     27.6661
  1076.1000      8.3260      2.5369      0.0530      6.8565    135.9916     27.7221
  1076.2000      8.3260      2.5366      0.0525      6.8724    134.4379     27.7251
  1076.3000      8.2964      2.5366      0.0514      6.8705    132.8269     27.6790
  1076.4000      8.2964      2.5369      0.0499      6.8520    131.2663     27.5899
  1076.5000      8.2756      2.5375      0.0482      6.8180    129.8503     27.4665
  1076.6000      8.2756      2.5383      0.0464      6.7705    128.6550     27.3190
  1076.7000      8.2756      2.5393      0.0447      6.7117    127.7357     27.1583
  1076.8000      8.2606      2.5404      0.0433      6.6440    127.1233     26.9951
  1076.9000      8.2606      2.5416      0.0421      6.5702    126.8323     26.8384
  1077.0000      8.2520      2.5429      0.0413      6.4932    126.8546     26.6958
  1077.1000      8.2520      2.5441      0.0407      6.4157    127.1621     26.5724
  1077.2000      8.2520      2.5454      0.0403      6.3404    127.7096     26.4718
  1077.3000      8.2531      2.5466      0.0399      6.2695    128.4325     26.3954
  1077.4000      8.2531      2.5476      0.0392      6.2043    129.2599     26.3436
  1077.5000      8.2574      2.5486      0.0383      6.1456    130.1159     26.3154
  1077.6000      8.2574      2.5495      0.0369      6.0932    130.9346     26.3088
  1077.7000      8.2574      2.5502      0.0351      6.0460    131.6595     26.3202
  1077.8000      8.2555      2.5510      0.0329      6.0020    132.2523     26.3448
  1077.9000      8.2555      2.5517      0.0306      5.9585    132.6919     26.3763
  1078.0000      8.2527      2.5524      0.0284      5.9124    132.9694     26.4073
  1078.1000      8.2527      2.5533      0.0264      5.8608    133.0809     26.4296
  1078.2000      8.2527      2.5543      0.0250      5.8007    133.0181     26.4348
  1078.3000      8.2580      2.5555      0.0243      5.7303    132.7691     26.4154
  1078.4000      8.2580      2.5568      0.0243      5.6485    132.3148     26.3657
  1078.5000      8.2707      2.5583      0.0250      5.5555    131.6318     26.2824
  1078.6000      8.2707      2.5600      0.0263      5.4528    130.6964     26.1651
  1078.7000      8.2707      2.5618      0.0279      5.3429    129.4945     26.0162
  1078.8000      8.2801      2.5637      0.0296      5.2294    128.0283     25.8407
  1078.9000      8.2801      2.5656      0.0313      5.1165    126.3219     25.6460
  1079.0000      8.2783      2.5674      0.0328      5.0082    124.4282     25.4406
  1079.1000      8.2783      2.5690      0.0340      4.9085    122.4290     25.2343
  1079.2000      8.2783      2.5705      0.0349      4.8203    120.4326     25.0367
  1079.3000      8.2723      2.5717      0.0354      4.7453    118.5613     24.8576
  1079.4000      8.2723      2.5727      0.0356      4.6833    116.9404     24.7058
  1079.5000      8.2670      2.5736      0.0355      4.6326    115.6778     24.5891
  1079.6000      8.2670      2.5743      0.0352      4.5893    114.8476     24.5139
  1079.7000      8.2670      2.5750      0.0349      4.5479    114.4769     24.4844
  1079.8000      8.2607      2.5757      0.0345      4.5013    114.5429     24.5027
  1079.9000      8.2607      2.5767      0.0342      4.4416    114.9694     24.5682
  1080.0000      8.2584      2.5781      0.0341      4.3605    115.6468     24.6780
  1080.1000      8.2584      2.5799      0.0345      4.2505    116.4454     24.8267
  1080.2000      8.2584      2.5823      0.0354      4.1049    117.2370     25.0074
  1080.3000      8.2586      2.5853      0.0370      3.9194    117.9140     25.2118
  1080.4000      8.2586      2.5891      0.0394      3.6922    118.4028     25.4307
  1080.5000      8.2569      2.5935      0.0426      3.4246    118.6674     25.6549
  1080.6000      8.2569      2.5985      0.0465      3.1212    118.7089     25.8757
  1080.7000      8.2569      2.6040      0.0508      2.7900    118.5580     26.0847
  1080.8000      8.2452      2.6097      0.0553      2.4418    118.2675     26.2750
  1080.9000      8.2452      2.6155      0.0596      2.0897    117.9020     26.4408
  1081.0000      8.2245      2.6212      0.0634      1.7484    117.5287     26.5779
  1081.1000      8.2245      2.6264      0.0662      1.4333    117.2123     26.6838
  1081.2000      8.2245      2.6309      0.0677      1.1592    117.0081     26.7579
  1081.3000      8.2133      2.6345      0.0678      0.9396    116.9607     26.8015
  1081.4000      8.2133      2.6370      0.0661      0.7857    117.1012     26.8179
  1081.5000      8.2181      2.6384      0.0629      0.7059    117.4496     26.8121
  1081.6000      8.2181      2.6384      0.0581      0.7050    118.0149     26.7907
  1081.7000      8.2181      2.6371      0.0523      0.7844    118.8017     26.7618
  1081.8000      8.2292      2.6345      0.0457      0.9421    119.8126     26.7344
  1081.9000      8.2292      2.6307      0.0389      1.1724    121.0504     26.7176
  1082.0000      8.2374      2.6258      0.0323      1.4672    122.5160     26.7200
  1082.1000      8.2374      2.6200      0.0263      1.8159    124.2075     26.7488
  1082.2000      8.2374      2.6136      0.0212      2.2062    126.1147     26.8098
  1082.3000      8.2417      2.6067      0.0173      2.6249    128.2100     26.9063
  1082.4000      8.2417      2.5995      0.0146      3.0584    130.4454     27.0394
  1082.5000      8.2429      2.5924      0.0134      3.4932    132.7506     27.2076
  1082.6000      8.2429      2.5854      0.0136      3.9167    135.0381     27.4071
  1082.7000      8.2429      2.5788      0.0152      4.3175    137.2074     27.6320
  1082.8000      8.2426      2.5727      0.0183      4.6854    139.1574     27.8747
