~Version Information
VERS.                      2.0: CWLS Log ASCII Standard - VERSION 2.0
WRAP.                       NO: One line per depth step
~Well Information Block
STRT.FT               375.0000: 
STOP.FT              2637.0000: 
STEP.FT                 0.1000: 
NULL.                -999.2500: 
COMP.          Pioneer Natural Resources: COMPANY
WELL.            Cortina 23-25: WELL
FLD.           Purgatoire River: FIELD
LOC.           2344' FWL & 2526' FSL----: LOCATION
PROV.                 Colorado: PROVINCE
CNTY.               Las Animas: COUNTRY
SRVC.                Patterson: SERVICE COMPANY
DATE.          Thu Mar 24 07:44:45 2005: LOG DATE
UWI.           05 071 08340 00: UNIQUE WELL ID
~Curve Information Block
DEPT.FT            0 000 00 00: Depth
DCAL.in                       : CDL Caliper
DPOR.pu                       : CDL Density Porosity
NPOR.pu                       : Neutron Porosity
RHOB.g/cc                     : CDL Bulk Density
RHOC.g/cc                     : CDL Density Correction
GR.GAPI                       : Gamma Ray
~Parameter Information Block
~A  Depth       DCAL        DPOR        NPOR        RHOB        RHOC         GR     
# ...
  2170.2000      7.9393      2.2185     21.2522      2.6134      0.0693    197.1961
  2170.3000      7.9407      2.0800     22.0454      2.6157      0.0719    194.1906
  2170.4000      7.9407      2.5640     23.0951      2.6077      0.0900    187.4862
  2170.5000      7.9407      3.6394     23.3975      2.5899      0.0626    185.2405
  2170.6000      7.9407      4.3362     22.5042      2.5785      0.0070    177.0103
  2170.7000      7.9407      4.1382     21.8939      2.5817      0.0666    166.8320
  2170.8000      7.9401      4.4322     22.4912      2.5769      0.0394    165.9529
  2170.9000      7.9401      5.7149     23.1257      2.5557      0.0234    173.9347
  2171.0000      7.9405      6.7462     22.8779      2.5387      0.0335    188.4305
  2171.1000      7.9405      6.7995     22.4610      2.5378      0.0249    200.6466
  2171.2000      7.9405      6.0880     22.4428      2.5495      0.0104    199.0887
  2171.3000      7.9415      5.0661     22.5551      2.5664      0.0380    187.1917
  2171.4000      7.9415      4.4874     22.7020      2.5760      0.0790    185.1221
  2171.5000      7.9408      4.6920     23.0159      2.5726      0.0561    210.9745
  2171.6000      7.9408      5.0287     23.3071      2.5670      0.0282    248.9651
  2171.7000      7.9408      4.6793     23.2732      2.5728      0.0300    267.0863
  2171.8000      7.9394      3.4307     22.9042      2.5934      0.0143    254.7496
  2171.9000      7.9394      2.1411     22.5548      2.6147      0.0880    219.9407
  2172.0000      7.9381      2.1238     22.2990      2.6150      0.0736    186.7994
  2172.1000      7.9381      3.4071     21.8665      2.5938      0.0459    171.6216
  2172.2000      7.9381      4.4817     21.4106      2.5761      0.0177    164.5697
  2172.3000      7.9366      4.3804     21.5828      2.5777      0.0864    157.0468
  2172.4000      7.9366      3.7628     22.6231      2.5879      0.0796    152.9354
  2172.5000      7.9369      3.3016     23.8027      2.5955      0.0697    157.8372
  2172.6000      7.9369      3.0605     24.1280      2.5995      0.0885    165.7822
  2172.7000      7.9369      3.0530     23.4391      2.5996      0.0736    169.1654
  2172.8000      7.9377      3.5269     22.7369      2.5918      0.0765    167.1351
  2172.9000      7.9377      4.6983     23.0276      2.5725      0.0682    155.9906
  2173.0000      7.9381      5.7170     23.8033      2.5557      0.0098    144.1232
  2173.1000      7.9381      5.3800     23.9326      2.5612      0.0319    147.8384
  2173.2000      7.9381      4.7466     23.7429      2.5717      0.0780    164.1540
  2173.3000      7.9391      5.7641     23.8787      2.5549      0.0392    172.9170
  2173.4000      7.9391      7.8954     24.0119      2.5197     -0.0219    167.2301
  2173.5000      7.9406      9.3394     24.3191      2.4959     -0.0431    160.3825
  2173.6000      7.9406      9.9671     25.2077      2.4855     -0.0061    156.5115
  2173.7000      7.9406     11.0585     26.2197      2.4675      0.0106    157.8249
  2173.8000      7.9402     13.6065     27.0084      2.4255      0.0420    174.2878
  2173.9000      7.9402     18.0609     27.7443      2.3520      0.0057    195.2479
  2174.0000      7.9369     24.1432     28.4702      2.2516     -0.0357    197.7674
  2174.1000      7.9369     30.2553     29.0544      2.1508     -0.0789    177.7014
  2174.2000      7.9369     34.2479     29.4570      2.0849     -0.0732    146.3874
  2174.3000      7.9338     35.6352     29.7365      2.0620     -0.0452    118.9938
  2174.4000      7.9338     35.4926     29.7068      2.0644     -0.0087    106.1573
  2174.5000      7.9335     34.3094     29.0860      2.0839      0.0142    107.2007
  2174.6000      7.9335     32.0123     28.1773      2.1218      0.0930    116.4918
  2174.7000      7.9335     29.1709     27.5983      2.1687      0.1657    130.6388
  2174.8000      7.9336     26.2845     27.3185      2.2163      0.1768    144.7574
  2174.9000      7.9336     23.2598     26.9336      2.2662      0.2037    149.5277
  2175.0000      7.9328     20.4614     26.0556      2.3124      0.2109    146.2912
  2175.1000      7.9328     18.3764     24.8386      2.3468      0.1458    149.5655
  2175.2000      7.9328     16.0662     24.1946      2.3849      0.0376    157.2643
  2175.3000      7.9341     12.5758     24.2294      2.4425      0.0972    157.1269
  2175.4000      7.9341      8.9757     23.9748      2.5019      0.0582    148.8315
  2175.5000      7.9367      6.7321     22.9836      2.5389      0.0741    133.6634
  2175.6000      7.9367      6.1087     21.8907      2.5492      0.0324    123.0270
  2175.7000      7.9367      6.2644     21.3870      2.5466      0.0207    133.9879
  2175.8000      7.9371      6.8645     21.1724      2.5367      0.0981    165.2939
  2175.9000      7.9371      8.1065     20.8073      2.5162      0.0421    196.9235
  2176.0000      7.9346      9.0664     20.5418      2.5004      0.0192    204.9355
  2176.1000      7.9346      8.6559     20.7389      2.5072      0.0277    193.8252
  2176.2000      7.9346      7.1086     21.1067      2.5327      0.0304    184.3093
  2176.3000      7.9287      5.0143     21.2555      2.5673      0.0511    182.8584
  2176.4000      7.9287      2.6085     21.7277      2.6070      0.0746    187.3391
  2176.5000      7.9242      0.9157     22.8324      2.6349      0.1286    193.8943
  2176.6000      7.9242      1.0867     23.6525      2.6321      0.1076    196.7116
  2176.7000      7.9242      2.7069     23.4481      2.6053      0.1009    198.7198
  2176.8000      7.9232      4.5648     22.6715      2.5747      0.0752    201.1469
  2176.9000      7.9232      5.3876     22.0434      2.5611      0.0595    199.8739
  2177.0000      7.9231      4.5732     21.8976      2.5745      0.0790    193.6903
  2177.1000      7.9231      3.2337     22.4279      2.5966      0.1294    180.7157
  2177.2000      7.9231      2.6164     23.1677      2.6068      0.0852    169.1958
  2177.3000      7.9223      3.0809     23.3983      2.5992      0.1120    175.4140
  2177.4000      7.9223      4.7554     23.1940      2.5715      0.0800    196.4963
  2177.5000      7.9220      6.3368     22.9439      2.5454      0.0509    211.6628
  2177.6000      7.9220      6.1611     22.7314      2.5483      0.0406    210.6265
  2177.7000      7.9220      4.7383     22.5639      2.5718      0.0758    200.8668
  2177.8000      7.9223      3.6055     22.5077      2.5905      0.1110    195.0176
  2177.9000      7.9223      3.3288     22.4158      2.5951      0.1177    196.7083
  2178.0000      7.9229      3.7506     22.2266      2.5881      0.1115    192.0719
  2178.1000      7.9229      4.1814     22.2110      2.5810      0.0265    180.5243
  2178.2000      7.9229      3.8836     22.3491      2.5859      0.0690    179.3001
  2178.3000      7.9240      3.4978     22.5342      2.5923      0.0860    185.0835
  2178.4000      7.9240      4.0504     22.7792      2.5832      0.0561    183.5650
  2178.5000      7.9234      5.2926     22.8168      2.5627      0.0639    179.9841
  2178.6000      7.9234      6.3218     22.8864      2.5457      0.0450    179.0446
  2178.7000      7.9234      6.5828     23.3778      2.5414      0.0524    179.5894
  2178.8000      7.9224      6.1861     23.7139      2.5479      0.0497    184.4928
  2178.9000      7.9224      5.3336     23.2725      2.5620      0.0569    192.1517
  2179.0000      7.9229      4.3370     22.4937      2.5784      0.1163    199.5551
  2179.1000      7.9229      3.9630     22.0675      2.5846      0.0807    201.7342
  2179.2000      7.9229      4.4102     22.1670      2.5772      0.0596    195.2723
  2179.3000      7.9230      5.3909     22.5648      2.5611      0.0600    193.3089
  2179.4000      7.9230      6.8943     22.9304      2.5362      0.0646    197.8320
  2179.5000      7.9214      7.9794     23.2840      2.5183     -0.0108    190.2481
  2179.6000      7.9214      7.0923     23.7735      2.5330      0.0061    175.9755
  2179.7000      7.9214      4.8093     24.0999      2.5706      0.0796    174.4208
