~Version Information
VERS.                      2.0: CWLS Log ASCII Standard - VERSION 2.0
WRAP.                       NO: One line per depth step
~Well Information Block
STRT.FT               454.0000: 
STOP.FT              1389.0000: 
STEP.FT                 0.1000: 
NULL.                -999.2500: 
COMP.          Pioneer Natural Resources: COMPANY
WELL.          Lorencito 6-3-34-66: WELL
FLD.           Purgatoire River: FIELD
LOC.           2545' FNL & 1914' FWL: LOCATION
STAT.                 Colorado: State
CNTY.               Las Animas: COUNTY
CTRY. USA : Country
SECT. 3 : Section
TOWN. 34S : Township
RANG. 66W : Range
SRVC.                Patterson: SERVICE COMPANY
DATE.          Mon Sep 12 07:20:37 2005: LOG DATE
API.        05 071 08369 00: UNIQUE WELL ID
~Curve Information Block
DEPT.FT            0 000 00 00: Depth
DCAL.in                       : CDL Caliper
RHOB.g/cc                     : CDL Bulk Density
RHOC.g/cc                     : CDL Density Correction
DPOR.pu                       : CDL Density Porosity
GR.GAPI                       : Gamma Ray
NPOR.pu                       : Neutron Porosity
~Parameter Information Block
~A  Depth       DCAL        RHOB        RHOC        DPOR         GR         NPOR    
# ...
   761.2000      8.0736      2.5759      0.1323      4.4938    145.9471     27.1243
   761.3000      8.0165      2.5501      0.0567      6.0564    137.2463     27.3804
   761.4000      8.0165      2.5300      0.0382      7.2740    123.5475     27.8305
   761.5000      7.9956      2.5386      0.0386      6.7544    113.8247     27.7821
   761.6000      7.9956      2.5722      0.0813      4.7178    110.3932     26.9397
   761.7000      7.9956      2.5973      0.1242      3.1933    112.2809     26.0347
   761.8000      8.0516      2.5882      0.1214      3.7443    120.5091     25.7757
   761.9000      8.0516      2.5636      0.0644      5.2337    131.6037     25.7157
   762.0000      8.0969      2.5501      0.1021      6.0537    137.1801     25.3558
   762.1000      8.0969      2.5410      0.0760      6.6047    133.6499     25.1234
   762.2000      8.0969      2.5296     -0.0011      7.2949    129.0229     25.7665
   762.3000      8.0818      2.5272     -0.0005      7.4429    127.8675     27.3901
   762.4000      8.0818      2.5370      0.0485      6.8463    127.0780     28.8204
   762.5000      8.0643      2.5531      0.0471      5.8714    131.3036     28.9031
   762.6000      8.0643      2.5698      0.0535      4.8607    142.3395     28.0567
   762.7000      8.0643      2.5760      0.0886      4.4849    150.1730     27.2814
   762.8000      8.1150      2.5662      0.0693      5.0788    147.5035     26.7393
   762.9000      8.1150      2.5522      0.0424      5.9274    142.5716     26.3181
   763.0000      8.0672      2.5467      0.0332      6.2584    143.5783     26.2584
   763.1000      8.0672      2.5501     -0.0029      6.0533    145.1622     26.7247
   763.2000      8.0672      2.5518      0.0447      5.9493    145.4800     27.0252
   763.3000      8.0417      2.5410     -0.0002      6.6054    147.4181     26.5223
   763.4000      8.0417      2.5210      0.0502      7.8185    146.6730     25.8436
   763.5000      8.1183      2.5090      0.0016      8.5468    143.5899     25.6096
   763.6000      8.1183      2.5123     -0.0113      8.3455    146.1004     25.7780
   763.7000      8.1183      2.5131      0.0512      8.2945    150.7728     26.4011
   763.8000      8.0999      2.5050     -0.0418      8.7894    150.8925     26.8252
   763.9000      8.0999      2.5060     -0.0235      8.7283    149.6122     26.3977
   764.0000      8.1104      2.5161      0.0129      8.1162    149.0754     26.0232
   764.1000      8.1104      2.5171      0.0289      8.0523    149.8427     26.4794
   764.2000      8.1104      2.5080     -0.0255      8.6079    150.8028     26.7269
   764.3000      8.0143      2.5014      0.0076      9.0053    146.4034     26.2034
   764.4000      8.0143      2.4959      0.0098      9.3376    138.3346     26.2319
   764.5000      8.1484      2.4858      0.0249      9.9540    133.0827     27.2332
   764.6000      8.1484      2.4810     -0.0111     10.2441    133.5951     27.8338
   764.7000      8.1484      2.4941      0.0079      9.4477    136.5043     27.3587
   764.8000      8.1792      2.5216      0.0070      7.7841    135.1608     26.6182
   764.9000      8.1792      2.5449      0.0599      6.3715    128.9558     26.3745
   765.0000      8.1970      2.5490      0.0690      6.1229    122.5556     26.4654
   765.1000      8.1970      2.5409      0.0015      6.6134    121.9560     26.0948
   765.2000      8.1970      2.5408      0.0143      6.6162    129.7072     25.1204
   765.3000      8.2074      2.5564      0.0305      5.6751    136.8493     24.3565
   765.4000      8.2074      2.5773      0.0688      4.4049    134.7263     24.5161
   765.5000      8.0877      2.5861      0.0768      3.8721    126.4059     25.1307
   765.6000      8.0877      2.5760      0.0613      4.4861    117.7776     25.2742
   765.7000      8.0877      2.5588      0.0721      5.5280    113.3262     24.6419
   765.8000      8.0738      2.5513      0.0296      5.9838    112.5125     23.4459
   765.9000      8.0738      2.5577      0.0569      5.5950    111.0991     22.6831
   766.0000      8.0776      2.5701      0.0416      4.8415    108.8695     22.9467
   766.1000      8.0776      2.5800      0.0775      4.2452    108.4469     23.8948
   766.2000      8.0776      2.5822      0.0407      4.1118    109.8485     25.0915
   766.3000      8.0290      2.5861      0.0602      3.8711    112.3315     22.8407
   766.4000      8.0290      2.6011      0.1084      2.9654    116.5401     22.4171
   766.5000      8.0172      2.6176      0.1142      1.9627    122.3117     21.4787
   766.6000      8.0172      2.6263      0.1095      1.4349    125.0962     21.1994
   766.7000      8.0172      2.6272      0.0887      1.3837    122.4472     21.3878
   766.8000      8.0085      2.6258      0.0733      1.4696    118.3144     21.4379
   766.9000      8.0085      2.6276      0.0805      1.3573    113.5291     21.6382
   767.0000      7.9548      2.6249      0.0850      1.5190    108.1421     21.8692
   767.1000      7.9548      2.6086      0.0589      2.5120    106.2510     21.6294
   767.2000      7.9548      2.5851     -0.0081      3.9343    107.1981     21.2969
   767.3000      8.0193      2.5653      0.0366      5.1339    109.7079     21.0976
   767.4000      8.0193      2.5551      0.0125      5.7543    116.8940     20.7620
   767.5000      8.0932      2.5569      0.0147      5.6417    124.0734     20.6074
   767.6000      8.0932      2.5621      0.0165      5.3300    121.2441     20.9493
   767.7000      8.0932      2.5560      0.0392      5.6945    110.4432     21.4786
   767.8000      8.0627      2.5388      0.0491      6.7413    103.6717     21.6276
   767.9000      8.0627      2.5203      0.0509      7.8596    105.7803     21.0845
   768.0000      8.0791      2.5019      0.0790      8.9757    112.4252     20.3782
   768.1000      8.0791      2.4776      0.0792     10.4498    118.9515     20.5672
   768.2000      8.0791      2.4528      0.0063     11.9508    120.7019     22.1287
   768.3000      8.0294      2.4447      0.0224     12.4416    115.6327     24.0932
   768.4000      8.0294      2.4575      0.0545     11.6652    110.8157     24.9040
   768.5000      8.0082      2.4830      0.0473     10.1219    114.2750     24.2703
   768.6000      8.0082      2.5108      0.1052      8.4368    122.4614     23.2334
   768.7000      8.0082      2.5289      0.1514      7.3416    129.8515     22.8722
   768.8000      8.0941      2.5381      0.1208      6.7802    134.5819     23.2022
   768.9000      8.0941      2.5468      0.1625      6.2521    133.5079     23.3721
   769.0000      8.1887      2.5526      0.0953      5.9059    130.4057     23.0224
   769.1000      8.1887      2.5578      0.0903      5.5856    130.2733     23.0131
   769.2000      8.1887      2.5629      0.1343      5.2785    128.9107     23.5010
   769.3000      8.1221      2.5536      0.1028      5.8435    124.1329     23.2819
   769.4000      8.1221      2.5332      0.0422      7.0767    122.6175     22.2808
   769.5000      8.1233      2.5229      0.0636      7.7014    127.8488     21.5707
   769.6000      8.1233      2.5246      0.0635      7.5976    134.3911     21.4703
   769.7000      8.1233      2.5275      0.0341      7.4258    136.2226     21.4413
   769.8000      8.1274      2.5260      0.0779      7.5155    133.6377     21.1258
   769.9000      8.1274      2.5164      0.0195      8.0950    127.6549     20.9172
   770.0000      8.1497      2.5111     -0.0003      8.4176    120.1792     21.0882
   770.1000      8.1497      2.5253      0.0181      7.5569    116.9239     21.0133
   770.2000      8.1497      2.5429      0.0610      6.4919    117.6699     20.1687
   770.3000      8.1562      2.5428      0.0410      6.4983    117.0820     19.5088
   770.4000      8.1562      2.5391     -0.0038      6.7211    116.2825     20.4436
   770.5000      8.1498      2.5495     -0.0061      6.0882    118.6702     22.3943
   770.6000      8.1498      2.5577      0.0786      5.5938    122.7118     23.2578
   770.7000      8.1498      2.5510      0.0119      6.0003    124.5860     22.8503
