~Version Information
 VERS.                                  2.0 : CWLS LAS VERSION
 WRAP.                                   NO : WRAPING MODE
 SWARE .                 MController 2.5.0J : SOFTWARE VERSION
~Well Information
 WELL.                  Great Plains 22-22R : WELL
 COMP.                Petrogulf Corporation : COMPANY
 FLD.                      Purgatoire River : FIELD
 LOC.                SE/NW Sec 22 T33S R67W : LOCATION
 DATE.                        09/08-09/2005 : DATE(S) LOGGED
 SRVC.       BLANCO Geological Services LLC : SERVICE COMPANY
 STAT.                                   CO : STATE
 CNTY.                           Las Animas : COUNTY
 CTRY.                                  USA : COUNTRY
 API.                       05-071-08028-00 : API NUMBER
 STRT.FT                              23.00 : START DEPTH
 STOP.FT                            1400.00 : STOP DEPTH
 STEP.FT                               1.00 : DEPTH INCREMENT
 NULL.                                -9999 : NULL VALUE
~Curve information
 DEPTH.FT                                   :
 ROP.MIN/FT                                 :
 GAS.UNITS                                  :
~ASCII Log data
# ...
      1223.0         0.30         23.8 
      1224.0         0.28         21.1 
      1225.0         0.23         28.2 
      1226.0         0.13         33.6 
      1227.0         0.20         42.8 
      1228.0         1.37         65.7 
      1229.0         0.43         60.3 
      1230.0         0.42         50.4 
      1231.0         0.27         43.3 
      1232.0         0.23         40.5 
      1233.0         0.20         37.9 
      1234.0         0.47         36.0 
      1235.0         0.13         32.0 
      1236.0         0.17         31.4 
      1237.0         0.13         30.4 
      1238.0         0.17         29.6 
      1239.0         0.17         29.6 
      1240.0         0.17         29.7 
      1241.0         0.18         30.4 
      1242.0         0.17         30.9 
      1243.0         0.10         31.1 
      1244.0         0.17         32.2 
      1245.0         0.23         34.4 
      1246.0         0.30         40.1 
      1247.0         0.27         41.9 
      1248.0         0.17         41.0 
      1249.0         0.17         38.1 
      1250.0         0.17         34.5 
      1251.0         0.13         30.8 
      1252.0         0.13         28.0 
      1253.0         0.17         27.0 
      1254.0         0.17         30.2 
      1255.0         0.17         36.2 
      1256.0         0.23         49.1 
      1257.0         0.15         57.0 
      1258.0         1.67         84.8 
      1259.0         0.33         65.2 
      1260.0         0.30         57.8 
      1261.0         0.23         52.5 
      1262.0         0.25         49.5 
      1263.0         0.23         47.3 
      1264.0         0.20         46.4 
      1265.0         0.20         45.8 
      1266.0         0.20         45.7 
      1267.0         0.23         45.6 
      1268.0         0.20         46.1 
      1269.0         0.20         46.5 
      1270.0         0.20         46.3 
      1271.0         0.20         46.4 
      1272.0         0.20         46.8 
      1273.0         0.20         47.9 
      1274.0         0.20         48.4 
      1275.0         0.20         48.8 
      1276.0         0.22         49.5 
      1277.0         0.17         49.5 
      1278.0         0.20         48.5 
      1279.0         0.20         45.8 
      1280.0         0.20         40.6 
      1281.0         0.17         34.3 
      1282.0         0.20         29.9 
      1283.0         0.17         31.8 
      1284.0         0.20         39.7 
      1285.0         0.17         50.2 
      1286.0         0.20         65.3 
      1287.0         0.23         81.4 
      1288.0         1.48         97.8 
      1289.0         0.30         73.3 
      1290.0         0.27         65.5 
      1291.0         0.27         59.3 
      1292.0         0.23         54.7 
      1293.0         0.23         51.5 
      1294.0         0.27         48.6 
      1295.0         0.17         46.9 
      1296.0         0.27         46.0 
      1297.0         0.17         44.8 
      1298.0         0.23         44.6 
      1299.0         0.18         43.7 
      1300.0         0.33         43.1 
      1301.0         0.20         42.6 
      1302.0         0.33         42.2 
      1303.0         0.17         40.6 
      1304.0         0.20         39.3 
      1305.0         0.23         37.6 
      1306.0         0.27         36.8 
      1307.0         0.17         36.8 
      1308.0         0.20         36.9 
      1309.0         0.17         36.6 
      1310.0         0.23         35.2 
      1311.0         0.27         31.0 
      1312.0         0.27         23.8 
      1313.0         0.18         18.9 
      1314.0         0.17         18.5 
      1315.0         0.13         21.1 
      1316.0         0.20         27.3 
      1317.0         0.10         31.4 
      1318.0         1.53         69.8 
      1319.0         0.20         61.1 
      1320.0         0.17         56.8 
      1321.0         0.20         53.2 
      1322.0         0.17         49.8 
      1323.0         0.17         47.6 
      1324.0         0.18         46.1 
      1325.0         0.17         43.4 
      1326.0         0.17         41.9 
      1327.0         0.20         40.7 
      1328.0         0.23         38.5 
      1329.0         0.17         37.4 
      1330.0         0.17         36.8 
      1331.0         0.17         36.5 
      1332.0         0.27         36.1 
      1333.0         0.23         36.2 
      1334.0         0.20         36.6 
      1335.0         0.20         38.4 
      1336.0         0.17         38.5 
      1337.0         0.13         37.6 
      1338.0         0.23         36.1 
      1339.0         0.13         30.2 
      1340.0         0.17         27.0 
      1341.0         0.18         23.6 
      1342.0         0.17         21.8 
      1343.0         0.13         24.0 
      1344.0         0.17         30.4 
      1345.0         0.17         37.4 
      1346.0         0.17         46.8 
      1347.0         0.13         52.1 
      1348.0         4.05         62.5 
      1349.0         0.37         45.3 
      1350.0         0.33         39.2 
      1351.0         0.30         33.3 
      1352.0         0.30         29.5 
      1353.0         0.32         26.2 
      1354.0         0.27         22.9 
      1355.0         0.27         20.0 
      1356.0         0.27         16.8 
      1357.0         0.40         12.1 
      1358.0         0.10          8.9 
      1359.0         0.23          8.5 
      1360.0         0.23          7.7 
      1361.0         0.33          7.7 
      1362.0         0.33          8.6 
      1363.0         0.37          9.1 
      1364.0         0.30          8.0 
      1365.0         0.32          7.1 
      1366.0         0.27          6.2 
      1367.0         0.33          5.5 
      1368.0         0.30         11.4 
      1369.0         0.27         18.2 
      1370.0         0.33         20.9 
      1371.0         0.30         23.1 
      1372.0         0.27         20.1 
      1373.0         0.33         22.4 
      1374.0         0.27         24.2 
      1375.0         0.27         25.9 
      1376.0         0.25         30.2 
      1377.0         0.23         51.7 
      1378.0         2.33        290.9 
      1379.0         0.27         99.6 
      1380.0         0.28         74.4 
      1381.0         0.37         60.8 
      1382.0         0.30         57.9 
      1383.0         0.27         55.0 
      1384.0         0.27         51.8 
      1385.0         0.23         54.2 
      1386.0         0.30         56.8 
      1387.0         0.27         58.3 
      1388.0         0.30         59.6 
      1389.0         0.27         59.7 
      1390.0         0.27         54.7 
      1391.0         0.33         45.1 
      1392.0         0.28         40.8 
      1393.0         0.27         25.8 
      1394.0         0.27         14.0 
      1395.0         0.20          3.5 
      1396.0         0.27          1.1 
      1397.0         0.23          0.5 
      1398.0         0.23          0.0 
      1399.0         0.27          0.1 
      1400.0         0.20          0.1 
