~Version Information
VERS.                      2.0: CWLS Log ASCII Standard - VERSION 2.0
WRAP.                       NO: One line per depth step
~Well Information Block
STRT.FT               185.5000: 
STOP.FT              2039.2500: 
STEP.FT                 0.2500: 
NULL.                -999.2500: 
COMP.          Petrogulf Corporation: COMPANY
WELL.            Montoya 7-12R: WELL
FLD.           Purgatorie River: FIELD
LOC.           1769' FNL & 658' FWL--: LOCATION
PROV.                       CO: PROVINCE
CNTY.               Las Animas: COUNTRY
SRVC.                         : SERVICE COMPANY
DATE.          Wed Feb 09 09:05:42 2005: LOG DATE
UWI.         005 071 08240  : UNIQUE WELL ID
~Curve Information Block
DEPT.FT            0 000 00 00: Depth
CCL.                          : Casing Collar Locator
CCLRT.                        : CCLRT
TT3.usec                      : CBL 3' Travel Time
AMP3.mV                       : CBL 3' Amplitude
GR.GAPI                       : Gamma Ray
~Parameter Information Block
~A  Depth       CCL        CCLRT        TT3         AMP3         GR     
# ...
   437.5000      0.0000   -999.2500    366.7648     14.5805    112.2164
   437.7500      0.0000   -999.2500    342.8974     14.4572    114.2297
   438.0000      0.0000   -999.2500    327.1301     14.3504    117.3185
   438.2500      0.0000   -999.2500    320.5894     14.2643    119.7113
   438.5000      0.0000   -999.2500    321.6036     14.1961    118.9686
   438.7500      0.0000   -999.2500    330.0081     14.1245    113.4066
   439.0000      0.0000   -999.2500    346.9502     14.0241    103.8170
   439.2500      0.0000   -999.2500    371.7413     13.8800     93.5920
   439.5000      0.0000   -999.2500    399.8395     13.6943     86.4781
   439.7500      0.0000   -999.2500    424.7657     13.4850     84.0174
   440.0000      0.0000   -999.2500    442.4173     13.2698     85.4791
   440.2500      0.0000   -999.2500    453.1931     13.0475     89.8425
   440.5000      0.0000   -999.2500    460.2991     12.8064     96.5515
   440.7500      0.0000   -999.2500    466.5261     12.5543    104.2584
   441.0000      0.0000   -999.2500    472.2216     12.3303    110.4533
   441.2500      0.0000   -999.2500    475.5292     12.1787    113.2292
   441.5000      0.0000   -999.2500    474.4998     12.1110    112.8755
   441.7500      0.0000   -999.2500    469.1544     12.0847    111.4850
   442.0000      0.0000   -999.2500    461.5222     12.0178    111.2436
   442.2500      0.0000   -999.2500    454.0849     11.8391    112.7853
   442.5000      0.0000   -999.2500    448.7089     11.5367    114.7722
   442.7500      0.0000   -999.2500    446.5270     11.1580    115.1773
   443.0000      0.0000   -999.2500    447.8203     10.7686    113.0811
   443.2500      0.0000   -999.2500    451.8216     10.4255    109.0853
   443.5000      0.0000   -999.2500    456.9927     10.1866    104.2572
   443.7500      0.0000   -999.2500    461.5834     10.1137     99.4452
   444.0000      0.0000   -999.2500    464.4870     10.2330     95.9540
   444.2500      0.0000   -999.2500    466.7055     10.4865     95.9144
   444.5000      0.0000   -999.2500    472.7012     10.7448    100.5069
   444.7500      0.0000   -999.2500    489.6149     10.8888    107.5452
   445.0000      0.0000   -999.2500    523.1733     10.8888    112.0246
   445.2500      0.0000   -999.2500    572.4185     10.8101    110.2087
   445.5000      0.0000   -999.2500    628.6036     10.7498    103.0768
   445.7500      0.0000   -999.2500    680.7416     10.7656     95.1260
   446.0000      0.0000   -999.2500    722.1801     10.8483     90.1619
   446.2500      0.0000   -999.2500    751.5579     10.9545     89.0141
   446.5000      0.0000   -999.2500    769.9578     11.0646     90.6392
   446.7500      0.0000   -999.2500    779.3923     11.2021     93.8421
   447.0000      0.0000   -999.2500    782.6115     11.3886     97.6566
   447.2500      0.0000   -999.2500    782.0395     11.5957    100.9861
   447.5000      0.0000   -999.2500    778.7847     11.7631    102.3991
   447.7500      0.0000   -999.2500    773.3782     11.8556    100.4349
   448.0000      0.0000   -999.2500    767.1127     11.8817     94.4391
   448.2500      0.0000   -999.2500    761.9487     11.8599     85.2452
   448.5000      0.0000   -999.2500    758.9075     11.7924     74.8569
   448.7500      0.0000   -999.2500    756.5509     11.6824     65.3567
   449.0000      0.0000   -999.2500    750.3726     11.5591     57.9881
   449.2500      0.0000   -999.2500    733.2555     11.4733     52.9926
   449.5000      0.0000   -999.2500    698.6667     11.4620     50.0001
   449.7500      0.0000   -999.2500    647.6167     11.5134     48.3671
   450.0000      0.0000   -999.2500    593.5332     11.5593     47.2459
   450.2500      0.0000   -999.2500    555.6935     11.5170     45.7904
   450.5000      0.0000   -999.2500    543.4586     11.3625     43.7351
   450.7500      0.0000   -999.2500    548.9834     11.1558     41.6281
   451.0000      0.0000   -999.2500    559.6606     10.9620     40.1135
   451.2500      0.0000   -999.2500    574.6816     10.7688     39.1641
   451.5000      0.0000   -999.2500    602.3429     10.5327     38.3298
   451.7500      0.0000   -999.2500    642.7505     10.2755     37.4612
   452.0000      0.0000   -999.2500    681.6363     10.0685     36.7149
   452.2500      0.0000   -999.2500    702.8159      9.9439     35.9977
   452.5000      0.0000   -999.2500    701.7396      9.8793     34.9589
   452.7500      0.0000   -999.2500    685.1258      9.8580     33.6701
   453.0000      0.0000   -999.2500    659.7897      9.9189     32.9034
   453.2500      0.0000   -999.2500    624.9147     10.1497     33.5037
   453.5000      0.0000   -999.2500    578.4069     10.6127     35.5770
   453.7500      0.0000   -999.2500    529.5327     11.2375     38.4287
   454.0000      0.0000   -999.2500    498.1124     11.8062     41.3443
   454.2500      0.0000   -999.2500    497.7216     12.1114     44.3759
   454.5000      0.0000   -999.2500    523.7135     12.1296     48.3031
   454.7500      0.0000   -999.2500    559.2592     12.0028     53.8598
   455.0000      0.0000   -999.2500    588.1714     11.8835     60.9166
   455.2500      0.0000   -999.2500    600.8446     11.8428     68.2828
   455.5000      0.0000   -999.2500    594.4174     11.8839     74.3690
   455.7500      0.0000   -999.2500    572.8365     11.9719     78.1552
   456.0000      0.0000   -999.2500    547.2582     12.0482     79.5642
   456.2500      0.0000   -999.2500    533.5444     12.0621     79.1292
   456.5000      0.0000   -999.2500    544.8065     12.0141     77.5332
   456.7500      0.0000   -999.2500    582.4330     11.9575     75.3536
   457.0000      0.0000   -999.2500    633.6829     11.9541     73.1747
   457.2500      0.0000   -999.2500    679.3338     12.0329     71.8282
   457.5000      0.0000   -999.2500    705.4175     12.1824     71.9880
   457.7500      0.0000   -999.2500    709.3090     12.3617     73.5086
   458.0000      0.0000   -999.2500    696.4161     12.5189     75.8270
   458.2500      0.0000   -999.2500    671.6511     12.6240     78.8962
   458.5000      0.0000   -999.2500    635.1097     12.6934     82.8779
   458.7500      0.0000   -999.2500    589.1581     12.7605     86.9890
   459.0000      0.0000   -999.2500    548.4019     12.8153     89.6396
   459.2500      0.0000   -999.2500    534.0432     12.8007     89.9687
   459.5000      0.0000   -999.2500    552.6763     12.6877     88.6821
   459.7500      0.0000   -999.2500    584.2675     12.5277     87.3132
   460.0000      0.0000   -999.2500    595.8709     12.4093     86.9770
   460.2500      0.0000   -999.2500    567.6078     12.3819     87.6395
   460.5000      0.0000   -999.2500    505.9566     12.4350     88.3520
   460.7500      0.0000   -999.2500    435.0364     12.5355     88.2709
   461.0000      0.0000   -999.2500    377.4591     12.6608     87.4869
   461.2500      0.0000   -999.2500    342.1466     12.7988     86.8205
   461.5000      0.0000   -999.2500    326.0497     12.9364     86.9966
   461.7500      0.0000   -999.2500    323.3304     13.0587     88.0965
   462.0000      0.0000   -999.2500    332.8666     13.1507     89.6723
   462.2500      0.0000   -999.2500    359.8505     13.1888     91.3630
   462.5000      0.0000   -999.2500    410.5368     13.1384     93.2663
   462.7500      0.0000   -999.2500    482.3232     12.9831     95.4841
   463.0000      0.0000   -999.2500    557.3127     12.7647     97.5643
   463.2500      0.0000   -999.2500    608.2385     12.5788     98.9832
   463.5000      0.0000   -999.2500    614.4152     12.5159    100.1507
   463.7500      0.0000   -999.2500    574.7869     12.6060    102.1223
   464.0000      0.0000   -999.2500    508.3428     12.8085    105.0183
   464.2500      0.0000   -999.2500    442.3389     13.0340    107.4300
   464.5000      0.0000   -999.2500    396.3026     13.1868    107.7713
   464.7500      0.0000   -999.2500    372.9691     13.2276    105.6323
   465.0000      0.0000   -999.2500    362.7831     13.2022    101.6317
   465.2500      0.0000   -999.2500    356.6755     13.1884     96.6839
