~Version Information
 VERS.                                  2.0 : CWLS LAS VERSION
 WRAP.                                   NO : WRAPING MODE
 SWARE .                 MController 2.5.0J : SOFTWARE VERSION
~Well Information
 WELL.                        Rancher 12-35 : WELL
 COMP.        Pioneer Natural Resources Inc : COMPANY
 FLD.                      PURGATOIRE RIVER : FIELD
 LOC.                    SW/NW 35 T32S R67W : LOCATION
 DATE.                             10/11/04 : DATE(S) LOGGED
 SRVC.       BLANCO GEOLOGICAL SERVICES LLC : SERVICE COMPANY
 STAT.                             COLORADO : STATE
 CNTY.                           LAS ANIMAS : COUNTY
 CTRY.                                  USA : COUNTRY
 API.                       05-071-08179-00 : API NUMBER
 STRT.FT                             449.00 : START DEPTH
 STOP.FT                            2520.00 : STOP DEPTH
 STEP.FT                               1.00 : DEPTH INCREMENT
 NULL.                                -9999 : NULL VALUE
~Curve information
 DEPTH.FT                                   :
 ROP.MIN/FT                                 :
 GAS.UNITS                                  :
~ASCII Log data
# ...
       649.0         0.33        111.1 
       650.0         0.27        106.9 
       651.0         0.37        102.4 
       652.0         0.27        100.4 
       653.0         0.15        100.0 
       654.0         0.17        100.1 
       655.0         0.27        102.1 
       656.0         0.17        103.3 
       657.0         0.17        103.7 
       658.0         0.13        103.8 
       659.0         0.17        103.7 
       660.0         0.13       1256.2 
       661.0         0.10       1144.7 
       662.0         0.10       1016.3 
       663.0         0.17        832.0 
       664.0         0.13        701.3 
       665.0         0.13        604.6 
       666.0         0.10        548.7 
       667.0         0.13        488.0 
       668.0         0.17        440.0 
       669.0         0.17        440.0 
       670.0         0.17        138.0 
       671.0         0.18        126.0 
       672.0         0.13        118.0 
       673.0         0.17        109.4 
       674.0         0.13        105.0 
       675.0         0.10        103.2 
       676.0         0.10        102.8 
       677.0         0.07        103.0 
       678.0         0.10        103.9 
       679.0         0.10        104.9 
       680.0         0.07        105.4 
       681.0         0.10        106.0 
       682.0         0.10        105.9 
       683.0         0.10        105.5 
       684.0         0.13        104.5 
       685.0         0.10        102.9 
       686.0         0.07        101.5 
       687.0         0.10         99.2 
       688.0         0.10         98.2 
       689.0         0.07         99.1 
       690.0         0.30        254.4 
       691.0         0.27        384.7 
       692.0         0.30       1494.0 
       693.0         0.23       1594.4 
       694.0         0.20       1408.1 
       695.0         0.20       1113.7 
       696.0         0.17        889.3 
       697.0         0.17        723.9 
       698.0         0.13        620.4 
       699.0         0.17        524.7 
       700.0         0.17        463.4 
       701.0         0.13        440.0 
       702.0         0.15        440.0 
       703.0         0.10        148.4 
       704.0         0.10        140.9 
       705.0         0.13        132.6 
       706.0         0.17        125.2 
       707.0         0.13        121.1 
       708.0         0.10        118.7 
       709.0         0.13        115.5 
       710.0         0.10        112.6 
       711.0         0.10        108.6 
       712.0         0.13        102.5 
       713.0         0.10         99.9 
       714.0         0.13        101.7 
       715.0         0.17        107.5 
       716.0         0.17        112.2 
       717.0         0.37        109.0 
       718.0         0.30        105.9 
       719.0         0.27        113.0 
       720.0         0.07        231.7 
       721.0         0.30        361.6 
       722.0         0.23       1297.3 
       723.0         0.20       1496.4 
       724.0         0.23       1395.0 
       725.0         0.28       1030.8 
       726.0         0.27        745.4 
       727.0         0.23        580.7 
       728.0         0.27        456.3 
       729.0         0.27        440.0 
       730.0         0.23        130.8 
       731.0         0.23        118.2 
       732.0         0.23        111.2 
       733.0         0.20        108.1 
       734.0         0.18        106.6 
       735.0         0.17        105.6 
       736.0         0.20        104.6 
       737.0         0.27        104.2 
       738.0         0.23        105.7 
       739.0         0.13        106.9 
       740.0         0.17        109.0 
       741.0         0.17        110.8 
       742.0         0.17        111.5 
       743.0         0.17        111.4 
       744.0         0.20        110.6 
       745.0         0.17        109.0 
       746.0         0.10        107.8 
       747.0         0.13        106.6 
       748.0         0.17        105.9 
       749.0         0.27       1198.9 
       750.0         0.13       1475.8 
       751.0         0.20       1707.3 
       752.0         0.25       1600.2 
       753.0         0.20       1250.8 
       754.0         0.30        772.4 
       755.0         0.17        614.0 
       756.0         0.13        545.0 
       757.0         0.23        479.9 
       758.0         0.20        442.2 
       759.0         0.20        440.0 
       760.0         0.17        151.4 
       761.0         0.20        136.4 
       762.0         0.17        128.9 
       763.0         0.17        124.4 
       764.0         0.17        120.5 
       765.0         0.17        116.2 
       766.0         0.13        112.9 
       767.0         0.17        109.8 
       768.0         0.17        107.2 
       769.0         0.18        104.4 
       770.0         0.23        102.6 
       771.0         0.17        103.6 
       772.0         0.17        105.5 
       773.0         0.07        106.1 
       774.0         0.17        106.9 
       775.0         0.17        106.6 
       776.0         0.17        105.5 
       777.0         0.17        104.5 
       778.0         0.27        102.9 
       779.0         0.27        100.3 
       780.0         0.27        126.5 
       781.0         0.17        122.7 
       782.0         0.13        122.5 
       783.0         0.27        122.7 
       784.0         0.17        121.4 
       785.0         0.20        118.7 
       786.0         0.17        119.0 
       787.0         0.13        123.3 
       788.0         0.20        132.3 
       789.0         0.20        139.1 
       790.0         0.20        139.0 
       791.0         0.20        133.6 
       792.0         0.22        125.5 
       793.0         0.23        118.1 
       794.0         0.20        114.9 
       795.0         0.23        112.4 
       796.0         0.20        110.1 
       797.0         0.23        108.5 
       798.0         0.20        106.0 
       799.0         0.17        103.1 
       800.0         0.20        100.1 
       801.0         0.17         98.7 
       802.0         0.22         97.8 
       803.0         0.17         96.4 
       804.0         0.13         94.3 
       805.0         0.17         91.1 
       806.0         0.17         88.5 
       807.0         0.20         86.9 
       808.0         0.17         86.0 
       809.0         0.13         85.6 
       810.0         0.10       2261.5 
       811.0         0.13       2217.7 
       812.0         0.13       2002.1 
       813.0         0.13       1665.2 
       814.0         0.13       1307.4 
       815.0         0.17        960.7 
       816.0         0.20        700.9 
       817.0         0.13        603.9 
       818.0         0.20        521.4 
       819.0         0.20        478.9 
       820.0         0.20        452.3 
       821.0         0.20        440.0 
       822.0         0.17        166.2 
       823.0         0.20        153.6 
       824.0         0.13        144.7 
       825.0         0.23        132.2 
       826.0         0.25        121.8 
       827.0         0.20        113.7 
       828.0         0.13        108.8 
       829.0         0.17        103.5 
       830.0         0.17         99.2 
       831.0         0.20         95.2 
       832.0         0.17         93.1 
       833.0         0.17         92.1 
       834.0         0.20         91.4 
       835.0         0.23         90.3 
       836.0         0.20         89.2 
       837.0         0.17         88.9 
       838.0         0.17         89.6 
       839.0         0.13         90.0 
       840.0         0.17       4045.2 
       841.0         0.23       5198.1 
       842.0         0.30       6685.9 
       843.0         0.25       7295.0 
       844.0         0.23       7341.5 
       845.0         0.17       6641.4 
       846.0         0.27       4566.4 
       847.0         0.27       3385.8 
       848.0         0.20       2875.4 
