~Version Information
VERS.                      2.0: CWLS Log ASCII Standard - VERSION 2.0
WRAP.                       NO: One line per depth step
~Well Information Block
STRT.FT               530.0000: 
STOP.FT              1825.0000: 
STEP.FT                 0.1000: 
NULL.                -999.2500: 
COMP.          Pioneer Natural Resources: COMPANY
WELL.          Vision 31-11 Tr: WELL
FLD.           Purgatoire River: FIELD
LOC.           742' FNL & 1593' FEL: LOCATION
STAT.                 Colorado: State
CNTY.               Las Animas: COUNTY
CTRY. USA : Country
SECT. 11 : Section
TOWN. 32S : Township
RANG. 66W : Range
SRVC.                Patterson: SERVICE COMPANY
DATE.          Mon Oct 10 07:17:32 2005: LOG DATE
API.           05 071 08305 00: UNIQUE WELL ID
~Curve Information Block
DEPT.FT            0 000 00 00: Depth
DCAL.in                       : CDL Caliper
RHOB.g/cc                     : CDL Bulk Density
RHOC.g/cc                     : CDL Density Correction
DPOR.pu                       : CDL Density Porosity
GR.GAPI                       : Gamma Ray
NPOR.pu                       : Neutron Porosity
~Parameter Information Block
~A  Depth       DCAL        RHOB        RHOC        DPOR         GR         NPOR    
# ...
  1384.4000      7.9331      2.6348      0.1202      0.9183    112.6681     20.0403
  1384.5000      7.9379      2.6459      0.0507      0.2472    108.6780     20.0665
  1384.6000      7.9379      2.6806      0.0869     -1.8532     98.4750     19.6360
  1384.7000      7.9379      2.7130      0.1159     -3.8161     89.1239     18.2834
  1384.8000      8.0296      2.7055      0.1155     -3.3647     84.9724     15.9101
  1384.9000      8.0296      2.6616      0.0521     -0.7024     84.5270     13.5641
  1385.0000      8.0668      2.6138      0.0052      2.1966     85.3708     12.5801
  1385.1000      8.0668      2.5755     -0.0331      4.5131     85.3957     12.7477
  1385.2000      8.0668      2.5428     -0.0587      6.4994     83.3631     12.7536
  1385.3000      8.0601      2.5147     -0.0352      8.2013     82.3256     12.3661
  1385.4000      8.0601      2.4841      0.0037     10.0520     82.4625     12.3903
  1385.5000      8.0625      2.4359     -0.0357     12.9759     80.4621     12.8741
  1385.6000      8.0625      2.3642      0.0173     17.3210     80.1817     13.0576
  1385.7000      8.0625      2.2824     -0.0264     22.2794     84.1330     12.8440
  1385.8000      8.0725      2.2098     -0.0663     26.6805     86.4402     12.9719
  1385.9000      8.0725      2.1433     -0.0007     30.7075     84.1794     13.3065
  1386.0000      8.1150      2.0801     -0.0653     34.5424     78.8979     13.8381
  1386.1000      8.1150      2.0432     -0.0072     36.7738     72.3990     15.3962
  1386.2000      8.1150      2.0430      0.0534     36.7853     69.7199     17.7947
  1386.3000      8.1433      2.0747      0.0312     34.8650     72.3852     19.6333
  1386.4000      8.1433      2.1408      0.0586     30.8584     77.3798     20.5314
  1386.5000      8.1502      2.2307      0.1355     25.4140     82.1451     21.1633
  1386.6000      8.1502      2.3256      0.1689     19.6605     82.0635     21.6918
  1386.7000      8.1502      2.4244      0.2027     13.6734     78.3394     22.5202
  1386.8000      8.1504      2.5229      0.2155      7.7009     77.8157     23.7200
  1386.9000      8.1504      2.5985      0.2155      3.1212     80.4100     23.6990
  1387.0000      8.1194      2.6381      0.1643      0.7195     81.5610     22.1219
  1387.1000      8.1194      2.6548      0.1547     -0.2898     82.2231     20.8868
  1387.2000      8.1194      2.6608      0.2056     -0.6533     87.9408     20.8185
  1387.3000      8.1460      2.6556      0.1777     -0.3372     99.8211     20.7151
  1387.4000      8.1460      2.6448      0.1169      0.3132    112.8617     20.0776
  1387.5000      8.0907      2.6301      0.1036      1.2033    123.2404     19.8920
  1387.6000      8.0907      2.6011      0.0735      2.9606    130.8734     20.2654
  1387.7000      8.0907      2.5693      0.0387      4.8905    139.8234     20.8656
  1387.8000      8.1192      2.5605      0.0555      5.4255    152.3647     21.6270
  1387.9000      8.1192      2.5734      0.0995      4.6417    163.1377     21.6575
  1388.0000      8.2231      2.5847      0.1026      3.9565    168.0525     21.1145
  1388.1000      8.2231      2.5775      0.1127      4.3932    164.8165     21.0461
  1388.2000      8.2231      2.5393      0.1685      6.7116    155.8672     20.7279
  1388.3000      8.3337      2.4663      0.1296     11.1353    150.6405     19.4015
  1388.4000      8.3337      2.3790      0.0706     16.4254    153.1438     18.5859
  1388.5000      8.3876      2.2916      0.0901     21.7191    162.7756     19.6615
  1388.6000      8.3876      2.2012      0.0526     27.1975    175.9702     21.6315
  1388.7000      8.3876      2.1204     -0.0114     32.0992    183.6830     22.6529
  1388.8000      8.4824      2.0641      0.0019     35.5085    183.0703     22.5416
  1388.9000      8.4824      2.0103      0.0923     38.7716    178.1045     22.6372
  1389.0000      8.6822      1.9251      0.1069     43.9356    166.4445     23.1613
  1389.1000      8.6822      1.8188      0.1099     50.3744    149.2566     22.8285
  1389.2000      8.6822      1.7233      0.1528     56.1618    135.9602     22.3938
  1389.3000      8.8581      1.6441      0.1010     60.9626    127.5451     23.4356
  1389.4000      8.8581      1.5873      0.0537     64.4071    115.0007     24.8507
  1389.5000      8.6125      1.5750      0.1091     65.1519     99.6581     24.9662
  1389.6000      8.6125      1.6054      0.1480     63.3101     89.9284     24.5718
  1389.7000      8.6125      1.6546      0.1714     60.3248     85.3167     24.9630
  1389.8000      8.4308      1.7172      0.1534     56.5363     80.3625     25.6636
  1389.9000      8.4308      1.7953      0.1951     51.8017     73.8562     25.9847
  1390.0000      8.1811      1.8677      0.2588     47.4101     67.9975     25.9608
  1390.1000      8.1811      1.9167      0.2307     44.4454     64.0127     25.3223
  1390.2000      8.1811      1.9519      0.2492     42.3069     62.5432     24.3085
  1390.3000      8.4721      1.9758      0.2530     40.8580     64.0951     23.9352
  1390.4000      8.4721      1.9576      0.2458     41.9614     66.7466     24.4325
  1390.5000      9.8859      1.8592      0.2730     47.9289     68.4498     24.9884
  1390.6000      9.8859      1.6975      0.1353     57.7252     68.2875     25.0833
  1390.7000      9.8859      1.5532      0.0838     66.4708     65.4998     24.6904
  1390.8000     11.0938      1.4839      0.0210     70.6742     61.7462     23.7988
  1390.9000     11.0938      1.4872     -0.0207     70.4755     61.5470     23.1584
  1391.0000     10.2952      1.5427     -0.0199     67.1084     65.6377     23.3796
  1391.1000     10.2952      1.6441      0.0158     60.9655     69.7156     23.7867
  1391.2000     10.2952      1.7784      0.2506     52.8264     71.4413     24.2809
  1391.3000      9.6041      1.9051      0.3031     45.1471     71.9105     24.7662
  1391.4000      9.6041      1.9892      0.3095     40.0503     71.9014     25.0052
  1391.5000      9.6342      2.0339      0.2278     37.3417     72.1910     25.7433
  1391.6000      9.6342      2.0619      0.2675     35.6421     71.7639     27.0355
  1391.7000      9.6342      2.0767      0.2711     34.7449     68.3831     27.2117
  1391.8000      9.6948      2.0628      0.2693     35.5875     65.5414     25.9822
  1391.9000      9.6948      2.0145      0.1944     38.5162     67.1528     25.0410
  1392.0000      9.7143      1.9483      0.0889     42.5303     70.0308     24.8372
  1392.1000      9.7143      1.8859     -0.0268     46.3093     70.0197     24.5186
  1392.2000      9.7143      1.8364     -0.0352     49.3063     67.6689     24.3039
  1392.3000      9.6897      1.7979     -0.0007     51.6441     66.0205     25.0888
  1392.4000      9.6897      1.7741      0.0293     53.0865     67.2969     26.1594
  1392.5000      9.4669      1.7657      0.1060     53.5928     71.3600     26.2151
  1392.6000      9.4669      1.7483      0.2080     54.6458     75.5945     25.3856
  1392.7000      9.4669      1.6984      0.2007     57.6744     79.3086     24.1593
  1392.8000      9.5750      1.6281      0.1618     61.9331     83.4900     23.2748
  1392.9000      9.5750      1.5698      0.1244     65.4656     84.7461     23.5535
  1393.0000      9.7193      1.5428      0.1565     67.1055     79.5757     24.3511
  1393.1000      9.7193      1.5437      0.1689     67.0466     71.4265     24.5773
  1393.2000      9.7193      1.5637      0.1425     65.8372     65.2357     24.3737
  1393.3000      9.4402      1.6038      0.1755     63.4049     60.5085     24.3594
  1393.4000      9.4402      1.6746      0.1698     59.1162     58.8316     24.4862
  1393.5000      9.2230      1.7916      0.1785     52.0252     61.6677     24.5247
  1393.6000      9.2230      1.9475      0.3086     42.5761     65.1697     24.5052
  1393.7000      9.2230      2.0964      0.3563     33.5505     69.1558     23.6617
  1393.8000      9.1292      2.2114      0.3611     26.5808     75.6752     21.5824
  1393.9000      9.1292      2.3192      0.3529     20.0458     81.8057     20.2251
