~Version Information
VERS.                      2.0: CWLS Log ASCII Standard - VERSION 2.0
WRAP.                       NO: One line per depth step
~Well Information Block
STRT.FT                -4.2500: 
STOP.FT              2218.5000: 
STEP.FT                 0.2500: 
NULL.                -999.2500: 
COMP.          Pioneer Natural Resources: COMPANY
WELL.             Warrior 32-1: WELL
FLD.           Purgatorie River: FIELD
LOC.           2624' FNL & 2392' FEL--: LOCATION
PROV.                       CO: PROVINCE
CNTY.               Las Animas: COUNTRY
SRVC.                         : SERVICE COMPANY
DATE.          Tue Oct 12 10:54:12 2004: LOG DATE
UWI.           005 071 08176 : UNIQUE WELL ID
~Curve Information Block
DEPT.FT            0 000 00 00: Depth
GR.GAPI                       : Gamma Ray
CCL.                          : Casing Collar Locator
TT3.usec                      : CBL 3' Travel Time
AMP3.mV                       : CBL 3' Amplitude
~Parameter Information Block
~A  Depth        GR         CCL         TT3         AMP3    
# ...
   866.7500    117.4145      0.0000    766.5582      6.2076
   867.0000    118.4248      0.0000    772.4731      5.9950
   867.2500    119.5380      0.0000    778.2730      5.7814
   867.5000    119.4680      0.0000    782.8214      5.5791
   867.7500    117.8473      0.0000    785.8350      5.4045
   868.0000    115.3528      0.0000    788.6483      5.2884
   868.2500    112.9539      0.0000    793.2084      5.2409
   868.5000    111.4475      0.0000    799.2404      5.2291
   868.7500    111.3870      2.0000    803.1564      5.2097
   869.0000    112.7307      0.0000    801.3686      5.1706
   869.2500    114.7050      0.0000    794.4808      5.1386
   869.5000    116.7260      0.0000    786.9289      5.1579
   869.7500    119.1076      0.0000    782.6408      5.2480
   870.0000    121.9507      0.0000    782.0571      5.3648
   870.2500    123.8332      0.0000    783.0654      5.4337
   870.5000    122.8650      0.0000    783.4431      5.4532
   870.7500    118.8487      0.0000    781.9373      5.5201
   871.0000    113.3346      0.0000    778.1949      5.7120
   871.2500    107.6865      0.0000    772.8151      5.9939
   871.5000    102.1166      0.0000    767.2029      6.2716
   871.7500     96.5784      0.0000    762.7106      6.4887
   872.0000     91.6253      0.0000    759.8229      6.6383
   872.2500     88.0313      0.0000    758.2172      6.7207
   872.5000     86.0319      0.0000    757.3341      6.7266
   872.7500     85.2640      0.0000    756.7791      6.6515
   873.0000     85.2394      0.0000    756.3925      6.5046
   873.2500     85.7598      0.0000    756.1524      6.3082
   873.5000     87.0330      0.0000    756.0438      6.1017
   873.7500     89.4294      0.0000    755.9803      5.9396
   874.0000     92.9310      0.0000    755.8311      5.8650
   874.2500     96.7868      0.0000    755.5145      5.8787
   874.5000     99.8805      0.0000    755.0542      5.9366
   874.7500    101.5692      0.0000    754.5479      5.9790
   875.0000    102.1058      0.0000    754.1180      5.9641
   875.2500    102.2033      0.0000    753.8797      5.8851
   875.5000    102.6205      0.0000    753.9020      5.7623
   875.7500    104.4567      0.0000    754.1644      5.6211
   876.0000    109.0062      0.0000    754.5538      5.4774
   876.2500    116.2392      0.0000    754.9350      5.3419
   876.5000    123.7122      0.0000    755.2474      5.2326
   876.7500    127.9699      0.0000    755.5292      5.1694
   877.0000    127.1627      0.0000    755.8345      5.1584
   877.2500    122.0916      0.0000    756.1435      5.1849
   877.5000    115.2416      0.0000    756.3815      5.2229
   877.7500    109.4218      0.0000    756.5174      5.2491
   878.0000    106.8254      0.0000    756.6145      5.2534
   878.2500    108.3010      0.0000    756.7736      5.2416
   878.5000    113.0832      0.0000    757.0342      5.2287
   878.7500    119.4592      0.0000    757.3322      5.2257
   879.0000    125.7574      0.0000    757.5427      5.2309
   879.2500    130.7190      0.0000    757.5671      5.2300
   879.5000    133.5500      0.0000    757.3860      5.2076
   879.7500    134.3362      0.0000    757.0510      5.1604
   880.0000    134.3274      0.0000    756.6409      5.1061
   880.2500    135.0521      0.0000    756.2250      5.0752
   880.5000    136.6787      0.0000    755.8439      5.0876
   880.7500    137.4248      0.0000    755.5052      5.1359
   881.0000    134.8349      0.0000    755.1783      5.1923
   881.2500    127.7190      0.0000    754.8046      5.2300
   881.5000    117.1990      0.0000    754.3426      5.2383
   881.7500    106.3081      0.0000    753.8226      5.2246
   882.0000     98.4300      0.0000    753.3504      5.2067
   882.2500     95.6693      0.0000    753.0419      5.2025
   882.5000     98.3164      0.0000    752.9507      5.2233
   882.7500    105.2993      0.0000    753.0627      5.2668
   883.0000    114.6933      0.0000    753.3571      5.3172
   883.2500    124.2131      0.0000    753.8827      5.3530
   883.5000    131.9438      0.0000    754.8011      5.3619
   883.7500    136.7379      0.0000    756.4063      5.3466
   884.0000    138.0794      0.0000    759.0734      5.3171
   884.2500    136.2021      0.0000    762.9111      5.2810
   884.5000    132.4303      0.0000    767.1479      5.2388
   884.7500    128.6139      0.0000    770.0421      5.1861
   885.0000    125.7693      0.0000    770.0372      5.1176
   885.2500    123.7147      0.0000    767.2265      5.0348
   885.5000    122.3293      0.0000    763.3084      4.9429
   885.7500    122.5020      0.0000    759.9958      4.8402
   886.0000    125.2034      0.0000    757.7646      4.7130
   886.2500    130.0966      0.0000    756.0090      4.5539
   886.5000    135.6280      0.0000    753.9578      4.3828
   886.7500    140.0774      0.0000    751.4733      4.2421
   887.0000    142.1009      0.0000    749.3328      4.1636
   887.2500    140.9936      0.0000    748.6985      4.1418
   887.5000    137.1788      0.0000    749.9854      4.1419
   887.7500    132.1701      0.0000    752.2363      4.1267
   888.0000    127.4570      0.0000    753.7292      4.0689
   888.2500    123.3738      0.0000    753.1641      3.9497
   888.5000    119.0765      0.0000    750.5997      3.7620
   888.7500    113.4440      0.0000    747.8868      3.5236
   889.0000    105.9311      0.0000    747.9815      3.2859
   889.2500     96.7299      0.0000    752.7572      3.1259
   889.5000     86.4614      0.0000    761.1124      3.1181
   889.7500     76.0187      0.0000    769.8668      3.2968
   890.0000     66.6892      0.0000    776.6198      3.6386
   890.2500     60.1144      0.0000    781.4457      4.0880
   890.5000     57.6889      0.0000    786.2096      4.6046
   890.7500     59.7064      0.0000    792.3528      5.1827
   891.0000     65.1685      0.0000    798.4965      5.8265
   891.2500     72.6529      0.0000    800.4615      6.5246
   891.5000     81.4628      0.0000    795.1055      7.2676
   891.7500     91.8919      0.0000    784.0165      8.0875
   892.0000    104.0708      0.0000    772.2169      9.0493
   892.2500    116.5396      0.0000    763.6920     10.1731
   892.5000    126.5697      0.0000    759.1529     11.3585
   892.7500    132.2970      0.0000    757.2637     12.4014
   893.0000    134.0355      0.0000    756.5788     13.1073
   893.2500    133.2825      0.0000    756.3004     13.4024
   893.5000    131.1064      0.0000    756.1302     13.3488
   893.7500    127.9584      0.0000    755.9911     13.0613
   894.0000    124.6460      0.0000    755.8786     12.6166
   894.2500    122.8079      0.0000    755.8264     12.0361
   894.5000    123.9507      0.0000    755.8741     11.3303
   894.7500    127.9762      0.0000    756.0242     10.5317
   895.0000    133.0521      0.0000    756.2210      9.6793
   895.2500    136.9829      0.0000    756.3909      8.7951
   895.5000    138.3470      0.0000    756.5106      7.8927
   895.7500    136.5079      0.0000    756.6162      6.9996
   896.0000    131.3115      0.0000    756.7554      6.1562
   896.2500    122.9939      0.0000    756.9549      5.3976
   896.5000    112.1106      0.0000    757.2234      4.7460
   896.7500     99.6227      0.0000    757.5568      4.2082
   897.0000     87.1173      0.0000    757.9614      3.7713
   897.2500     76.4912      0.0000    758.5198      3.4110
   897.5000     68.8826      0.0000    759.4919      3.1161
   897.7500     63.9732      0.0000    761.2903      2.9007
   898.0000     60.6048      0.0000    764.1507      2.7848
   898.2500     58.0339      0.0000    767.6407      2.7710
   898.5000     56.3688      0.0000    770.5617      2.8476
   898.7500     56.0291      0.0000    771.5790      3.0052
   899.0000     57.3267      0.0000    770.1259      3.2359
   899.2500     60.5880      0.0000    766.8171      3.5186
   899.5000     66.3531      0.0000    763.0382      3.8163
   899.7500     75.3259      0.0000    760.0383      4.0985
   900.0000     87.8241      0.0000    758.3102      4.3646
