~Version Information
VERS.                      2.0: CWLS Log ASCII Standard - VERSION 2.0
WRAP.                       NO: One line per depth step
~Well Information Block
STRT.FT               -14.0000: 
STOP.FT              2565.5000: 
STEP.FT                 0.5000: 
NULL.                -999.2500: 
COMP.          Pioneer Natural Resources: COMPANY
WELL.             Carbon 34-21: WELL
FLD.           Purgatorie River: FIELD
LOC.           56' FSL & 2304' FEL: LOCATION
PROV.                 Colorado: PROVINCE
CNTY.               Las Animas: COUNTRY
SRVC.          Patterson Wireline: SERVICE COMPANY
DATE.          Mon Nov 08 08:55:10 2004: LOG DATE
UWI.           05-071-08117-00: UNIQUE WELL ID
~Curve Information Block
DEPT.FT            0 000 00 00: Depth
TT3.usec                      : CBL 3' Travel Time
AMP3.mV                       : CBL 3' Amplitude
GR.GAPI                       : Gamma Ray
CCL.                          : Casing Collar Locator
~Parameter Information Block
~A  Depth       TT3         AMP3         GR         CCL     
# ...
   321.0000    281.7114     71.8699     48.9589      0.0000
   321.5000    281.6330     72.7971     55.0184      0.0000
   322.0000    281.6945     72.8250     59.2827      0.0000
   322.5000    281.7846     72.2496     58.2173      0.0000
   323.0000    281.8271     72.0569     57.7123      0.0000
   323.5000    281.8166     72.2611     59.3956      0.0000
   324.0000    281.8510     72.3887     59.7012      0.0000
   324.5000    281.9446     72.1918     59.5825      0.0000
   325.0000    281.9771     72.2639     58.6526      0.0000
   325.5000    281.9586     72.3895     58.2172      0.0000
   326.0000    281.9142     72.5584     58.6938      0.0000
   326.5000    281.8468     73.1229     55.4308      0.0000
   327.0000    281.8285     73.6890     46.7527      0.0000
   327.5000    281.8787     73.8603     43.5163      0.0000
   328.0000    281.9196     73.9029     46.1250      0.0000
   328.5000    281.9452     74.4042     54.1480      0.0000
   329.0000    282.0378     74.8395     73.8469      0.0000
   329.5000    282.1572     74.7438     98.7815      0.0000
   330.0000    282.2179     74.5005    115.5783      0.0000
   330.5000    282.2866     74.3597    116.6218      0.0000
   331.0000    282.3284     74.7804    108.8288      0.0000
   331.5000    282.3531     75.2878    108.6421      0.0000
   332.0000    282.4036     75.3776    118.4565      0.0000
   332.5000    282.4212     75.5443    126.1240      0.0000
   333.0000    282.4074     76.0564    130.1332      0.0000
   333.5000    282.3878     76.5691    127.6979      0.0000
   334.0000    282.4189     76.4844    124.1297      0.0000
   334.5000    282.4752     76.4572    123.0145      0.0000
   335.0000    282.4742     76.9647    120.2514      0.0000
   335.5000    282.4379     77.3091    120.9132      0.0000
   336.0000    282.3714     77.9084    122.5936      0.0000
   336.5000    282.3738     78.6703    118.1762      0.0000
   337.0000    282.4918     78.8769    116.2117      0.0000
   337.5000    282.5727     78.9467    124.4641      0.0000
   338.0000    282.5948     79.5200    134.2584      0.0000
   338.5000    282.6442     80.1570    133.9541      0.0000
   339.0000    282.6833     80.4636    126.8727      0.0000
   339.5000    282.6573     80.6942    121.8703      0.0000
   340.0000    282.6346     80.8739    122.6166      0.0000
   340.5000    282.6920     80.9634    124.5398      0.0000
   341.0000    282.7723     80.6994    120.1769      0.0000
   341.5000    282.8005     80.4708    111.6041      0.0000
   342.0000    282.8090     80.7634    104.1840      0.0000
   342.5000    282.7734     81.2502    103.8365      0.0000
   343.0000    282.6681     81.7109    105.4979      0.0000
   343.5000    282.5760     81.8554    107.8465      0.0000
   344.0000    282.5541     81.7947    113.0170      0.0000
   344.5000    282.5413     82.0062    111.7653      0.0000
   345.0000    282.5484     81.8995    102.9927      0.0000
   345.5000    282.6882     80.3657     94.1593      0.0000
   346.0000    283.4510     75.7841     89.6850      0.0000
   346.5000    285.7346     68.2773     90.6725      0.0000
   347.0000    288.6846     61.6508     92.1122      0.0000
   347.5000    290.1499     59.0362     87.5395      0.0000
   348.0000    290.3471     59.2350     80.7106     -4.1583
   348.5000    290.2220     59.1498     74.2305      0.0000
   349.0000    289.5959     58.7367     68.1291      0.0000
   349.5000    287.3462     62.0103     64.4843      0.0000
   350.0000    284.4596     69.2110     63.8947      0.0000
   350.5000    283.0197     75.9591     63.4560      0.0000
   351.0000    282.7410     79.0302     59.5622      0.0000
   351.5000    282.7387     79.3143     57.3821      0.0000
   352.0000    282.6702     79.7179     57.4888      0.0000
   352.5000    282.6547     80.3016     54.6249      0.0000
   353.0000    282.6938     80.3468     50.8139      0.0000
   353.5000    282.6735     80.4193     51.3277      0.0000
   354.0000    282.6730     80.4507     54.6378      0.0000
   354.5000    282.7331     80.5569     54.2237      0.0000
   355.0000    282.8346     80.3190     52.1214      0.0000
   355.5000    282.8440     80.2631     51.9075      0.0000
   356.0000    282.7800     80.9428     51.4247      0.0000
   356.5000    282.7591     80.9805     50.6083      0.0000
   357.0000    282.6995     80.9081     49.3379      0.0000
   357.5000    282.6575     81.7094     49.3510      0.0000
   358.0000    282.7862     81.2472     51.7519      0.0000
   358.5000    282.8894     79.1079     51.9990      0.0000
   359.0000    282.7306     79.0464     50.5571      0.0000
   359.5000    282.5640     80.9074     52.4769      0.0000
   360.0000    282.5604     81.4557     55.6177      0.0000
   360.5000    282.6143     80.7128     58.2749      0.0000
   361.0000    282.6415     80.5287     61.8396      0.0000
   361.5000    282.5856     81.0504     66.3339      0.0000
   362.0000    282.5315     80.7555     72.6868      0.0000
   362.5000    282.5555     79.4473     82.9224      0.0000
   363.0000    282.5945     78.4445     93.2356      0.0000
   363.5000    282.5220     78.6648     88.2459      0.0000
   364.0000    282.4029     79.8421     71.7982      0.0000
   364.5000    282.3817     80.7790     61.3273      0.0000
   365.0000    282.4137     80.4911     60.7790      0.0000
   365.5000    282.5059     78.9873     60.5523      0.0000
   366.0000    282.6165     77.6624     57.8334      0.0000
   366.5000    282.6474     77.9782     54.6493      0.0000
   367.0000    282.6446     78.8330     52.0593      0.0000
   367.5000    282.6308     78.9230     51.4247      0.0000
   368.0000    282.5765     78.4046     52.0307      0.0000
   368.5000    282.4930     78.2106     50.1485      0.0000
   369.0000    282.4257     78.3469     48.4958      0.0000
   369.5000    282.4149     78.0573     53.8700      0.0000
   370.0000    282.4477     77.3507     59.9352      0.0000
   370.5000    282.4587     76.9170     60.5252      0.0000
   371.0000    282.4464     76.6773     60.2723      0.0000
   371.5000    282.3857     76.9919     62.8075      0.0000
   372.0000    282.2660     77.7614     63.5722      0.0000
   372.5000    282.2249     77.3670     58.8800      0.0000
   373.0000    282.3010     76.1181     56.7116      0.0000
   373.5000    282.3179     75.3438     60.3329      0.0000
   374.0000    282.2234     75.2547     63.0208      0.0000
   374.5000    282.1695     75.7437     61.5222      0.0000
   375.0000    282.1797     76.0500     58.6183      0.0000
   375.5000    282.1527     75.9941     53.8946      0.0000
   376.0000    282.1330     75.6759     51.0819      0.0000
   376.5000    282.1366     75.2602     54.7679      0.0000
   377.0000    282.1465     74.7152     57.2369      0.0000
   377.5000    282.1915     74.1271     53.5772      0.0000
   378.0000    282.1912     73.8656     53.8632      0.0000
   378.5000    282.1944     73.9003     58.8948      0.0000
   379.0000    282.2333     73.9349     60.1954      0.0000
   379.5000    282.2474     73.8935     56.6778      0.0000
   380.0000    282.1948     74.0644     54.7418      0.0000
   380.5000    282.1201     74.1040     56.0787      0.0000
   381.0000    282.0913     74.0098     61.3941      0.0000
   381.5000    282.0748     73.8113     74.1453      0.0000
   382.0000    282.0094     73.4620     87.2921      0.0000
   382.5000    281.9802     73.4129     89.8867      0.0000
   383.0000    282.0000     73.1840     85.2574      0.0000
   383.5000    281.9521     72.5060     81.3992      0.0000
   384.0000    281.9175     72.2075     77.1478      0.0000
   384.5000    281.9319     72.3686     74.0462      0.0000
   385.0000    281.9054     72.2680     70.8553      0.0000
   385.5000    281.8257     71.8348     67.2879      0.0000
   386.0000    281.7717     71.2704     64.5505      0.0000
   386.5000    281.7318     70.8387     62.4853      0.0000
   387.0000    281.6461     70.6800     61.5971      0.0000
   387.5000    281.5987     70.4064     61.8117      0.0000
