~Version Information
VERS.                      2.0: CWLS Log ASCII Standard - VERSION 2.0
WRAP.                       NO: One line per depth step
~Well Information Block
STRT.FT               630.0000: 
STOP.FT              1156.0000: 
STEP.FT                 0.2500: 
NULL.                -999.2500: 
COMP.          Pioneer Natural Resources: COMPANY
WELL.          Drewmeister 34-34: WELL
FLD.           Purgatoire River: FIELD
LOC.           958' FSL & 1857' FEL: LOCATION
STAT.                 Colorado: State
CNTY.               Las Animas: COUNTY
CTRY. USA : Country
SECT. 34 : Section
TOWN. 32S : Township
RANG. 65W : Range
SRVC.                Patterson: SERVICE COMPANY
DATE.          Mon Oct 03 23:24:37 2005: LOG DATE
API.           05 071 08131 00: UNIQUE WELL ID
~Curve Information Block
DEPT.FT            0 000 00 00: Depth
SN.Ohm-m                      : IEL Short Normal
SP.mV                         : IEL Spontaneous Potential
DIR.Ohm-m                     : IEL Induction Resistivity
GR.GAPI                       : Gamma Ray
~Parameter Information Block
~A  Depth        SN          SP         DIR          GR     
# ...
  1132.5000     19.3000    799.9761     15.7028    124.9897
  1132.7500     19.1802    799.9761     15.5208    126.6551
  1133.0000     18.9772    799.9761     15.3998    130.7227
  1133.2500     18.8322    799.9761     15.3375    132.5760
  1133.5000     19.1275    799.9751     15.3166    131.9397
  1133.7500     20.0030    799.9683     15.3008    129.3968
  1134.0000     21.3255    799.9343     15.2440    124.2138
  1134.2500     23.2825    799.8021     15.1101    120.9211
  1134.5000     29.1069    799.4066     14.8873    117.2664
  1134.7500     50.4490    798.5065     14.5895    115.8724
  1135.0000    111.3565    796.9825     14.2487    115.2529
  1135.2500    238.2740    795.1572     13.9062    115.5827
  1135.5000    427.1611    793.8415     13.6028    116.2539
  1135.7500    622.9706    793.7986     13.3690    115.7530
  1136.0000    761.0344    795.0563     13.2153    110.5068
  1136.2500    824.8803    796.8795     13.1271    101.8504
  1136.5000    836.6082    798.4373     13.0688     79.5349
  1136.7500    805.1435    799.3732     12.9975     60.3679
  1137.0000    707.3334    799.7902     12.8813     32.5288
  1137.2500    527.6202    799.9310     12.7165     18.4836
  1137.5000    311.7627    799.9676     12.5293      6.1683
  1137.7500    142.2623    799.9750     12.3632      2.4919
  1138.0000     55.3715    799.9761     12.2590      0.4867
  1138.2500     26.1345    799.9761     12.2416      0.1348
  1138.5000     19.3575    799.9761     12.3151      0.0126
  1138.7500     17.7956    799.9761     12.4642      0.0000
  1139.0000     16.9657    799.9761     12.6614   -999.2500
  1139.2500     16.3382    799.9761     12.8749   -999.2500
  1139.5000     15.9467    799.9761     13.0775   -999.2500
  1139.7500     15.7868    799.9761     13.2509   -999.2500
  1140.0000     15.8530    799.9761     13.3865   -999.2500
  1140.2500     16.0966    799.9761     13.4851   -999.2500
  1140.5000     16.4054    799.9761     13.5583   -999.2500
  1140.7500     16.7460    799.9761     13.6305   -999.2500
  1141.0000     17.1431    799.9761     13.7358   -999.2500
  1141.2500     17.5625    799.9761     13.9109   -999.2500
  1141.5000     17.9397    799.9761     14.1836   -999.2500
  1141.7500     18.2418    799.9761     14.5628   -999.2500
  1142.0000     18.4628    799.9761     15.0347   -999.2500
  1142.2500     18.5909    799.9761     15.5649   -999.2500
  1142.5000     18.6213    799.9761     16.1061   -999.2500
  1142.7500     18.5902    799.9761     16.6086   -999.2500
  1143.0000     18.5441    799.9761     17.0630   -999.2500
  1143.2500     18.4936    799.9761     17.3869   -999.2500
  1143.5000     18.4602    799.9761     17.6094   -999.2500
  1143.7500     18.5600    799.9761     17.7415   -999.2500
  1144.0000     18.8892    799.9761     17.7946   -999.2500
  1144.2500     19.3304    799.9761     17.7807   -999.2500
  1144.5000     19.6310    799.9761     17.7203   -999.2500
  1144.7500     19.6278    799.9761     17.6441   -999.2500
  1145.0000     19.3360    799.9761     17.5880   -999.2500
  1145.2500     18.8926    799.9761     17.5905   -999.2500
  1145.5000     18.4556    799.9761     17.7111   -999.2500
  1145.7500     18.1050    799.9761     18.0732   -999.2500
  1146.0000     17.7965    799.9761     18.9194   -999.2500
  1146.2500     17.4715    799.9761     20.6787   -999.2500
  1146.5000     17.1756    799.9761     24.0305   -999.2500
  1146.7500     16.9533    799.9761     30.5178   -999.2500
  1147.0000     16.7517    799.9761     43.1838   -999.2500
  1147.2500     16.5215    799.9761     69.8227   -999.2500
  1147.5000     16.2748    799.9761    134.4818   -999.2500
  1147.7500     16.0365    799.9761    346.7904   -999.2500
  1148.0000     15.8374    799.9761   2933.3274   -999.2500
  1148.2500     15.7168    799.9761 100000.0000   -999.2500
  1148.5000     15.6793    799.9761 100000.0000   -999.2500
  1148.7500     15.6633    799.9761 100000.0000   -999.2500
  1149.0000     15.5894    799.9761 100000.0000   -999.2500
  1149.2500     15.4436    799.9761 100000.0000   -999.2500
  1149.5000     15.2756    799.9761 100000.0000   -999.2500
  1149.7500     15.1461    799.9761 100000.0000   -999.2500
  1150.0000     15.0866    799.9761 100000.0000   -999.2500
  1150.2500     15.0508    799.9761 100000.0000   -999.2500
  1150.5000     14.9468    799.9761 100000.0000   -999.2500
  1150.7500     14.7514    799.9226 100000.0000   -999.2500
  1151.0000     14.5601    799.5735 100000.0000   -999.2500
  1151.2500     14.5038    797.8008 100000.0000   -999.2500
  1151.5000     14.5933    790.7896 100000.0000   -999.2500
  1151.7500     14.7250    769.1935 100000.0000   -999.2500
  1152.0000     14.8113    717.3871 100000.0000   -999.2500
  1152.2500     14.7513    620.6000 100000.0000   -999.2500
  1152.5000     14.2640    479.7756 100000.0000   -999.2500
  1152.7500     12.7984    320.2006 100000.0000   -999.2500
  1153.0000      9.9729    179.3762 100000.0000   -999.2500
  1153.2500      6.4340     82.5891 100000.0000   -999.2500
  1153.5000      3.5808     30.7827 100000.0000   -999.2500
  1153.7500      2.1064      9.1866 100000.0000   -999.2500
  1154.0000      1.6186      2.1753 100000.0000   -999.2500
  1154.2500      1.5152      0.4026 100000.0000   -999.2500
  1154.5000      1.5012      0.0535 100000.0000   -999.2500
  1154.7500   -999.2500   -999.2500  17853.3750   -999.2500
  1155.0000   -999.2500   -999.2500  12026.6367   -999.2500
  1155.2500   -999.2500   -999.2500  10779.6406   -999.2500
  1155.5000   -999.2500   -999.2500  10452.4424   -999.2500
  1155.7500   -999.2500   -999.2500  10371.4678   -999.2500
  1156.0000   -999.2500   -999.2500 100000.0000   -999.2500
