~Version Information
VERS.                      2.0: CWLS Log ASCII Standard - VERSION 2.0
WRAP.                       NO: One line per depth step
~Well Information Block
STRT.FT               240.0000: 
STOP.FT              1453.0000: 
STEP.FT                 0.2500: 
NULL.                -999.2500: 
COMP.          Petrogulf Corporation: COMPANY
WELL.          Robinson 15-12R: WELL
FLD.           Purgatorie River: FIELD
LOC.           1752' FNL & 561' FWL: LOCATION
PROV.                 Colorado: PROVINCE
CNTY.               Las Animas: COUNTRY
SRVC.                Patterson: SERVICE COMPANY
DATE.          Tue Sep 13 15:11:42 2005: LOG DATE
UWI.                          : UNIQUE WELL ID
~Curve Information Block
DEPT.FT            0 000 00 00: Depth
SP.mV                         : DIL Spontaneous Potential
RILD.Ohm-m                    : DIL Deep Resistivity
RILM.Ohm-m                    : DIL Medium Resistivity
RLL3.Ohm-m                    : DIL Shallow Resistivity
GR.GAPI                       : Gamma Ray
~Parameter Information Block
~A  Depth        SP         RILD        RILM        RLL3         GR     
# ...
  1332.0000    213.8676     11.4448     13.2418     13.8785    113.9754
  1332.2500    213.8957     11.3888     13.6257     14.7166    125.3892
  1332.5000    213.8879     11.0670     13.4449     14.8008    121.1260
  1332.7500    214.0304     10.8804     13.2037     15.2235    114.2145
  1333.0000    214.2729     10.5186     13.3253     16.4070    121.4715
  1333.2500    214.2181     10.6080     13.2306     19.7171    111.7397
  1333.5000    214.1371     10.6857     12.2649     24.1439     98.2970
  1333.7500    214.0268     10.4104     11.4562     18.8693    107.2015
  1334.0000    213.9014     10.1232     11.1107     12.5944    122.4845
  1334.2500    213.4762      9.8852     10.8448      9.0522    113.8180
  1334.5000    212.9116      9.6341     10.6448      9.0572    106.7880
  1334.7500    212.4627      9.3272     10.4082     11.6448    117.9906
  1335.0000    212.2022      9.1053     10.2444     11.3303    113.2357
  1335.2500    212.0203      8.6414      9.8784      8.6383     98.5903
  1335.5000    212.2351      8.4131      9.3000      7.5983    101.6319
  1335.7500    212.8048      8.1568      8.7891      7.4084     95.7109
  1336.0000    213.3601      7.8112      8.4531      7.2137    118.4925
  1336.2500    213.9864      7.5310      8.1530      7.2020    128.3713
  1336.5000    214.4082      7.3777      7.8162      7.5766    124.3168
  1336.7500    214.7201      7.1580      7.6808      7.7350    124.3651
  1337.0000    215.4272      6.9475      7.2657      7.4147    127.9758
  1337.2500    216.6056      6.8256      6.8613      6.6691    132.9871
  1337.5000    217.2855      6.6373      6.5725      6.0742    142.5672
  1337.7500    217.6963      6.6615      6.3409      5.7227    152.4150
  1338.0000    218.3836      6.6301      6.2041      5.7274    185.0012
  1338.2500    218.7744      6.6192      6.1312      6.0564    194.9619
  1338.5000    218.8877      6.6390      6.1547      6.1753    174.7587
  1338.7500    218.7257      6.6512      6.1799      6.4975    150.8180
  1339.0000    218.4934      6.5985      6.3191      6.7331    155.1359
  1339.2500    218.1566      6.6428      6.4693      6.6478    160.2598
  1339.5000    217.9322      6.5379      6.6008      6.9080    149.8789
  1339.7500    217.8997      6.5061      6.8581      7.5081    147.6731
  1340.0000    217.7373      6.5395      7.2448      8.4990    138.1568
  1340.2500    217.6639      6.5115      7.4674     10.1787    135.2107
  1340.5000    217.5932      6.5064      7.5107     12.8059    124.9784
  1340.7500    217.5796      6.4426      7.5299     13.5967    117.3211
  1341.0000    217.5651      6.4521      7.3782     10.5705    132.4947
  1341.2500    217.7578      6.4642      7.1934      8.1246    135.0448
  1341.5000    218.1170      6.4546      6.8760      7.0225    164.6770
  1341.7500    218.5447      6.4546      6.7109      6.7986    168.8263
  1342.0000    218.7568      6.4082      6.6400      6.4567    135.4280
  1342.2500    218.7708      6.4344      6.5085      6.1084    130.3386
  1342.5000    218.4116      6.2872      6.3924      6.2213    155.3761
  1342.7500    217.5697      6.2367      6.3458      6.6201    162.6261
  1343.0000    216.6601      6.1378      6.2290      6.7952    153.3145
  1343.2500    215.5063      6.0560      6.1603      6.4090    159.0488
  1343.5000    214.4524      5.9926      6.1185      6.2524    172.7433
  1343.7500    213.4273      5.9370      6.0263      6.2933    172.8278
  1344.0000    212.5797      5.9270      6.0702      6.4908    167.2619
  1344.2500    212.1154      5.9227      6.0847      6.8655    157.1329
  1344.5000    211.6895      5.9835      6.1769      6.8784    138.8131
  1344.7500    210.8939      6.0494      6.2410      6.9225    144.2419
  1345.0000    210.1719      6.0844      6.3589      7.3216    136.5681
  1345.2500    209.3826      6.1886      6.5111      7.6876    146.1843
  1345.5000    209.2318      6.3616      6.6270      7.9233    149.3232
  1345.7500    209.0415      6.4753      6.7658      7.8524    147.7390
  1346.0000    209.0340      6.6242      6.8622      8.1181    141.9947
  1346.2500    209.0983      6.7337      7.0488      7.8982    136.9228
  1346.5000    208.9147      6.7459      7.2204      8.0200    114.5820
  1346.7500    208.2251      6.9560      7.4245      7.9392    116.2980
  1347.0000    207.4317      7.2229      7.6769      8.2128    146.4815
  1347.2500    207.0769      7.4456      7.8617      8.3219    146.5195
  1347.5000    207.5480      7.6539      8.1442      8.6230    131.2839
  1347.7500    207.6594      7.7446      8.4286      9.0591    113.9027
  1348.0000    206.8069      7.9135      8.7117      9.6792    129.7331
  1348.2500    205.6074      8.0887      8.9167      9.7572    130.8138
  1348.5000    204.8757      8.2430      9.0830      9.7429    132.5441
  1348.7500    205.1415      8.4760      9.3167      9.6787    138.0618
  1349.0000    206.1083      8.6299      9.6202      9.9835    132.5132
  1349.2500    206.9774      8.7879     10.0055     10.0697    113.7157
  1349.5000    207.2276      8.7988     10.4551     10.8267    114.7456
  1349.7500    207.1507      8.7506     10.8714     12.4774    117.1657
  1350.0000    206.8337      9.0254     10.9254     14.0721    124.5295
  1350.2500    206.7493      9.2076     11.0611     13.2867    148.2700
  1350.5000    206.8475      9.1032     10.8156     11.2712    135.3918
  1350.7500    207.3308      9.0397     10.4436      9.5909    115.1015
  1351.0000    207.9703      8.8892     10.3457      8.8636    124.8700
  1351.2500    208.3630      8.9725     10.3348      9.2030    145.6956
  1351.5000    208.2668      8.8912     10.2665     10.4999    121.8360
  1351.7500    207.7581      8.6878     10.1322     10.8610    130.9167
  1352.0000    206.9321      8.4323      9.9481     10.1773    122.5263
  1352.2500    206.1864      8.1154      9.5439      9.7772    125.5900
  1352.5000    205.6115      7.7814      8.9643      9.5743    104.2601
  1352.7500    205.1780      7.7300      8.6018      9.3518    102.7717
  1353.0000    204.5367      7.6788      8.1234      8.7441    145.9456
  1353.2500    203.7183      7.4608      7.7622      7.4651    155.9242
  1353.5000    202.8345      7.2363      7.6527      6.7806    140.4851
  1353.7500    201.8467      6.9585      7.4569      6.5568    134.2106
  1354.0000    200.7561      6.8142      7.4196      6.8879    128.4915
  1354.2500    200.5779      6.6774      7.3941      8.2811    125.0472
  1354.5000    201.5610      6.4474      7.3418      8.8310    146.9341
  1354.7500    202.6814      6.2477      7.2790      7.6904    130.5105
  1355.0000    202.8771      6.0534      7.0382      7.7287    108.6308
  1355.2500    202.8603      5.8509      6.7368      8.7778    115.3702
  1355.5000    202.8457      5.8058      6.4437      9.1745    116.7055
  1355.7500    202.5524      5.6793      6.2299      7.3763    146.2857
  1356.0000    202.0619      5.6266      6.0478      6.3523    149.7103
  1356.2500    201.8022      5.6017      5.9184      6.0138    146.3219
  1356.5000    201.7848      5.5557      5.7103      5.8257    137.1211
  1356.7500    202.2364      5.4892      5.6472      5.7225    143.4039
  1357.0000    202.3266      5.4176      5.6360      5.8976    140.0866
  1357.2500    201.3996      5.4208      5.5636      5.9989    153.4659
  1357.5000    200.4129      5.3583      5.5548      6.0496    143.3938
  1357.7500    199.8600      5.2944      5.5041      6.1198    137.4099
  1358.0000    199.3918      5.2660      5.4749      6.3749    135.7646
  1358.2500    199.1163      5.2753      5.4602      6.6610    127.6050
  1358.5000    198.8467      5.3325      5.4654      6.7164    138.4097
  1358.7500    198.5107      5.3914      5.4459      6.5402    152.8659
  1359.0000    197.9948      5.6039      5.5135      5.9564    146.9087
  1359.2500    197.4108      5.8516      5.5674      5.7305    146.1853
  1359.5000    197.3960      6.0617      5.7700      6.1548    129.5298
  1359.7500    198.0392      6.3449      6.1195      6.2079    141.4775
