~Version Information
VERS.                      2.0: CWLS Log ASCII Standard - VERSION 2.0
WRAP.                       NO: One line per depth step
~Well Information Block
STRT.FT               840.0000: 
STOP.FT              2266.0000: 
STEP.FT                 0.1000: 
NULL.                -999.2500: 
COMP.          Pioneer Natural Resources: COMPANY
WELL.              Tonto 42-23: WELL
FLD.           Purgatoire River: FIELD
LOC.           2217' FNL & 423' FEL: LOCATION
PROV.                 Colorado: PROVINCE
CNTY.               Las Animas: COUNTRY
SRVC.                Patterson: SERVICE COMPANY
DATE.          Mon Apr 18 07:15:48 2005: LOG DATE
UWI.           05 071 08335 00: UNIQUE WELL ID
~Curve Information Block
DEPT.FT            0 000 00 00: Depth
DCAL.in                       : CDL Caliper
RHOB.g/cc                     : CDL Bulk Density
RHOC.g/cc                     : CDL Density Correction
DPOR.pu                       : CDL Density Porosity
GR.GAPI                       : Gamma Ray
NPOR.pu                       : Neutron Porosity
~Parameter Information Block
~A  Depth       DCAL        RHOB        RHOC        DPOR         GR         NPOR    
# ...
  1876.8000      8.0017      2.4397      0.0086     12.7469     41.9507     12.4351
  1876.9000      8.0017      2.4611      0.0081     11.4492     43.6798     12.9540
  1877.0000      7.9893      2.4787      0.0422     10.3819     41.4948     13.9136
  1877.1000      7.9893      2.4795      0.0786     10.3359     38.2638     15.0330
  1877.2000      7.9893      2.4571      0.0516     11.6880     37.1131     15.9504
  1877.3000      7.9893      2.4231      0.0435     13.7524     38.3614     16.2749
  1877.4000      7.9893      2.3989     -0.0090     15.2179     39.8184     15.8133
  1877.5000      7.9859      2.3941      0.0421     15.5120     39.7801     14.7563
  1877.6000      7.9859      2.3937      0.0462     15.5343     38.9893     13.2353
  1877.7000      7.9859      2.3891      0.0423     15.8140     38.3193     11.8118
  1877.8000      7.9913      2.3924     -0.0083     15.6139     37.0869     11.3287
  1877.9000      7.9913      2.4099      0.0811     14.5500     36.8390     11.8844
  1878.0000      8.0067      2.4324      0.0157     13.1898     39.3392     12.7471
  1878.1000      8.0067      2.4531      0.0496     11.9307     42.7574     13.3170
  1878.2000      8.0067      2.4625      0.0516     11.3612     45.3029     13.6916
  1878.3000      7.9999      2.4509      0.0711     12.0657     46.8606     14.0568
  1878.4000      7.9999      2.4306     -0.0365     13.2961     48.4231     14.2274
  1878.5000      8.0186      2.4218      0.0022     13.8329     49.6654     13.8361
  1878.6000      8.0186      2.4288      0.0164     13.4032     49.1021     13.3337
  1878.7000      8.0186      2.4549     -0.0025     11.8254     48.9567     13.7985
  1878.8000      8.0228      2.4973      0.0506      9.2571     51.8787     15.0529
  1878.9000      8.0228      2.5287      0.1042      7.3544     56.0718     15.4345
  1879.0000      8.0330      2.5273      0.0870      7.4358     59.2402     14.4251
  1879.1000      8.0330      2.5016      0.0520      8.9962     62.8210     13.5208
  1879.2000      8.0330      2.4701      0.0012     10.9003     66.9293     13.3561
  1879.3000      8.0509      2.4439      0.0530     12.4930     68.5453     13.1370
  1879.4000      8.0509      2.4224      0.0258     13.7923     68.2215     12.5979
  1879.5000      8.0580      2.4079     -0.0133     14.6757     65.5980     12.3839
  1879.6000      8.0580      2.4043     -0.0296     14.8881     59.1824     12.6937
  1879.7000      8.0580      2.4019     -0.0006     15.0353     51.2023     13.3298
  1879.8000      8.0206      2.3857      0.0077     16.0155     44.9526     14.4092
  1879.9000      8.0206      2.3563      0.0327     17.7991     44.4395     16.0443
  1880.0000      8.0185      2.3316     -0.0312     19.2945     49.1747     17.4067
  1880.1000      8.0185      2.3363     -0.0385     19.0128     50.8894     17.2585
  1880.2000      8.0185      2.3681      0.0360     17.0825     46.5874     16.0571
  1880.3000      8.0116      2.3966      0.0397     15.3606     42.5780     15.1916
  1880.4000      8.0116      2.4084      0.0606     14.6403     41.9749     14.9694
  1880.5000      8.0060      2.4123      0.0372     14.4034     43.2434     14.9776
  1880.6000      8.0060      2.4093      0.0754     14.5900     44.7664     14.9324
  1880.7000      8.0060      2.3986      0.0371     15.2343     44.3880     14.4664
  1880.8000      7.9956      2.3883      0.0624     15.8613     43.0034     13.7535
  1880.9000      7.9956      2.3802      0.0589     16.3498     42.3790     13.4376
  1881.0000      7.9913      2.3813      0.0196     16.2864     41.5009     13.2338
  1881.1000      7.9913      2.4007      0.0448     15.1096     42.4314     12.7846
  1881.2000      7.9913      2.4232      0.0619     13.7467     47.3487     12.3580
  1881.3000      7.9752      2.4279      0.0793     13.4621     51.8388     12.0824
  1881.4000      7.9752      2.4157      0.0647     14.2009     51.8723     12.4079
  1881.5000      7.9622      2.4031      0.0649     14.9617     49.2619     13.5569
  1881.6000      7.9622      2.4062      0.0300     14.7752     46.5296     14.5267
  1881.7000      7.9622      2.4226      0.1160     13.7848     43.5881     14.6014
  1881.8000      7.9588      2.4320      0.0671     13.2150     40.9944     14.2915
  1881.9000      7.9588      2.4270      0.0727     13.5133     40.4178     14.0938
  1882.0000      7.9562      2.4156      0.0859     14.2088     42.4758     14.1404
  1882.1000      7.9562      2.4021      0.0950     15.0270     45.3813     14.6543
  1882.2000      7.9562      2.3908      0.0348     15.7102     46.3005     15.1453
  1882.3000      7.9699      2.3911      0.0293     15.6884     45.5356     14.9248
  1882.4000      7.9699      2.4038      0.0540     14.9207     44.5391     13.9731
  1882.5000      7.9786      2.4144      0.0521     14.2805     44.4291     12.9332
  1882.6000      7.9786      2.4046      0.0782     14.8713     45.8601     12.3874
  1882.7000      7.9786      2.3779      0.0252     16.4914     46.7466     12.2287
  1882.8000      7.9705      2.3597      0.0160     17.5952     45.5870     12.3364
  1882.9000      7.9705      2.3560      0.0557     17.8180     42.0126     12.8289
  1883.0000      7.9835      2.3528      0.0409     18.0138     37.7884     13.4741
  1883.1000      7.9835      2.3476      0.0712     18.3259     36.9697     13.8426
  1883.2000      7.9835      2.3479      0.0089     18.3072     38.5693     14.0415
  1883.3000      7.9821      2.3512      0.0608     18.1108     39.6240     14.1966
  1883.4000      7.9821      2.3438      0.0445     18.5572     40.8191     14.0510
  1883.5000      7.9811      2.3324     -0.0417     19.2502     41.2129     13.3428
  1883.6000      7.9811      2.3343     -0.0037     19.1328     38.9185     12.3241
  1883.7000      7.9811      2.3397      0.0494     18.8086     34.3406     11.9339
  1883.8000      7.9886      2.3334     -0.0024     19.1899     29.6307     12.5028
  1883.9000      7.9886      2.3226     -0.0139     19.8447     28.2382     13.4769
  1884.0000      8.0011      2.3222     -0.0039     19.8667     29.8457     14.0237
  1884.1000      8.0011      2.3426      0.0308     18.6296     30.4448     13.6819
  1884.2000      8.0011      2.3787      0.0635     16.4454     29.3187     12.9004
  1884.3000      8.0007      2.4099      0.0878     14.5515     29.4186     12.6644
  1884.4000      8.0007      2.4239      0.0942     13.7060     31.7366     13.2904
  1884.5000      7.9853      2.4273      0.0798     13.4992     33.9048     14.2515
  1884.6000      7.9853      2.4217      0.1288     13.8372     34.4590     14.9165
  1884.7000      7.9853      2.3999      0.0860     15.1563     34.6565     15.3910
  1884.8000      7.9773      2.3778      0.0585     16.4997     35.7174     16.1212
  1884.9000      7.9773      2.3794      0.0251     16.3988     37.9473     16.8332
  1885.0000      7.9841      2.4054      0.0548     14.8223     40.4295     17.4841
  1885.1000      7.9841      2.4420      0.0600     12.6035     41.7079     18.5738
  1885.2000      7.9841      2.4775      0.0727     10.4537     42.7579     19.6519
  1885.3000      7.9876      2.4958      0.1081      9.3426     45.4593     20.0154
  1885.4000      7.9876      2.4883      0.0606      9.8014     50.5889     19.8837
  1885.5000      7.9891      2.4713      0.0651     10.8288     57.9216     19.9674
  1885.6000      7.9891      2.4675      0.0373     11.0586     65.1028     20.3368
  1885.7000      7.9891      2.4815      0.0788     10.2117     68.8588     20.5585
  1885.8000      7.9876      2.4953      0.0701      9.3780     70.1777     20.5374
  1885.9000      7.9876      2.4968      0.0931      9.2854     74.5726     20.1940
  1886.0000      7.9658      2.4970      0.0861      9.2708     82.3187     19.3958
  1886.1000      7.9658      2.5051      0.0950      8.7809     85.3488     18.4868
  1886.2000      7.9658      2.5142      0.0572      8.2315     80.7253     17.8910
  1886.3000      7.9623      2.5057      0.1598      8.7460     74.8797     17.8056
