~Version Information
VERS.                      2.0: CWLS Log ASCII Standard - VERSION 2.0
WRAP.                       NO: One line per depth step
~Well Information Block
STRT.FT               840.0000: 
STOP.FT              2448.5000: 
STEP.FT                 0.2500: 
NULL.                -999.2500: 
COMP.          Petrogulf Corporation: COMPANY
WELL.             Leier 17-42V: WELL
FLD.           Purgatorie River: FIELD
LOC.           2309' FNL & 1062' FEL SENE 17 33S 67W: LOCATION
PROV.                 Colorado: PROVINCE
CNTY.               Las Animas: COUNTRY
SRVC.                Patterson: SERVICE COMPANY
DATE.          Thu Sep 22 09:40:29 2005: LOG DATE
UWI.                 071 08409: UNIQUE WELL ID
~Curve Information Block
DEPT.FT            0 000 00 00: Depth
SP.mV                         : DIL Spontaneous Potential
RILD.Ohm-m                    : DIL Deep Resistivity
RILM.Ohm-m                    : DIL Medium Resistivity
RLL3.Ohm-m                    : DIL Shallow Resistivity
GR.GAPI                       : Gamma Ray
~Parameter Information Block
~A  Depth        SP         RILD        RILM        RLL3         GR     
# ...
   952.0000   2000.0000     18.4087     19.2219   2000.0000    145.7579
   952.2500   2000.0000     19.1780     20.8574   2000.0000    130.9939
   952.5000   2000.0000     20.4919     22.7294   2000.0000    115.3613
   952.7500   2000.0000     21.6344     24.4998   2000.0000    108.5408
   953.0000   2000.0000     23.1254     26.6570   2000.0000    107.3618
   953.2500   2000.0000     25.3945     30.2595   2000.0000     87.0381
   953.5000   2000.0000     27.8574     31.8227   2000.0000     82.3075
   953.7500   2000.0000     29.8114     35.3996   2000.0000     68.0474
   954.0000   2000.0000     31.6646     39.1210   2000.0000     78.6312
   954.2500   2000.0000     34.3776     39.6320   2000.0000     80.2122
   954.5000   2000.0000     35.5252     42.7679   2000.0000     69.5007
   954.7500   2000.0000     35.6371     46.6647   2000.0000     67.2114
   955.0000   2000.0000     36.4612     46.2622   2000.0000     58.9325
   955.2500   2000.0000     37.4557     45.9025   2000.0000     55.1646
   955.5000   2000.0000     38.0343     47.5421   2000.0000     67.6542
   955.7500   2000.0000     38.3280     48.2571   2000.0000     63.0023
   956.0000   2000.0000     39.0035     48.0346   2000.0000     44.6952
   956.2500   2000.0000     38.0537     47.9592   2000.0000     44.0026
   956.5000   2000.0000     38.2307     46.6230   2000.0000     49.0863
   956.7500   2000.0000     38.5539     47.1356   2000.0000     51.9409
   957.0000   2000.0000     40.0910     47.6884   2000.0000     47.7265
   957.2500   2000.0000     39.3730     47.4499   2000.0000     44.2410
   957.5000   2000.0000     39.8197     46.9542   2000.0000     52.9089
   957.7500   2000.0000     41.2485     45.7861   2000.0000     45.4538
   958.0000   2000.0000     41.7144     48.0101   2000.0000     50.0125
   958.2500   2000.0000     41.7811     47.4812   2000.0000     50.2302
   958.5000   2000.0000     40.6806     46.0246   2000.0000     51.2109
   958.7500   2000.0000     40.4437     47.1592   2000.0000     46.9732
   959.0000   2000.0000     41.1677     47.7157   2000.0000     41.6478
   959.2500   2000.0000     40.5275     49.4284   2000.0000     37.0874
   959.5000   2000.0000     42.5181     46.5891   2000.0000     42.7347
   959.7500   2000.0000     43.5771     47.6471   2000.0000     44.4165
   960.0000   2000.0000     42.9925     49.0911   2000.0000     51.1777
   960.2500   2000.0000     43.0302     49.1368   2000.0000     51.1205
   960.5000   2000.0000     43.7954     48.4324   2000.0000     48.4193
   960.7500   2000.0000     44.1725     49.4960   2000.0000     52.1548
   961.0000   2000.0000     42.9207     51.9955   2000.0000     54.5468
   961.2500   2000.0000     44.5060     52.1245   2000.0000     56.9532
   961.5000   2000.0000     42.7483     50.6819   2000.0000     55.4661
   961.7500   2000.0000     45.0217     51.0282   2000.0000     64.3812
   962.0000   2000.0000     44.9241     51.7243   2000.0000     48.9690
   962.2500   2000.0000     45.8835     52.5855   2000.0000     51.2690
   962.5000   2000.0000     45.9307     51.1978   2000.0000     49.9128
   962.7500   2000.0000     48.2384     51.1122   2000.0000     40.8992
   963.0000   2000.0000     53.2710     52.0108   2000.0000     38.0525
   963.2500   2000.0000     49.7740     51.1878   2000.0000     51.2983
   963.5000   2000.0000     48.0356     51.3222   2000.0000     45.6689
   963.7500   2000.0000     47.0920     49.7687   2000.0000     57.9065
   964.0000   2000.0000     49.0356     48.1723   2000.0000     59.4093
   964.2500   2000.0000     46.7407     48.2053   2000.0000     52.7668
   964.5000   2000.0000     46.6623     48.7891   2000.0000     51.1550
   964.7500   2000.0000     46.9457     48.5953   2000.0000     51.4988
   965.0000   2000.0000     46.9493     47.9191   2000.0000     64.0453
   965.2500   2000.0000     46.9625     49.1092   2000.0000     54.8100
   965.5000   2000.0000     47.9748     49.2493   2000.0000     47.2696
   965.7500   2000.0000     49.0187     49.1247   2000.0000     45.8699
   966.0000   2000.0000     49.6932     51.4697   2000.0000     48.9540
   966.2500   2000.0000     47.1443     52.1726   2000.0000     51.0937
   966.5000   2000.0000     45.7216     57.8649   2000.0000     62.1639
   966.7500   2000.0000     45.3172     90.6194   2000.0000     56.6048
   967.0000   2000.0000     46.6538    103.7060   2000.0000     54.6917
   967.2500   2000.0000     44.2141     58.4352   2000.0000     61.8771
   967.5000   2000.0000     42.6118     55.0662   2000.0000     72.1965
   967.7500   2000.0000     41.7109     54.9951   2000.0000     70.4438
   968.0000   2000.0000     40.5779     53.8174   2000.0000     65.6729
   968.2500   2000.0000     38.0506     48.9641   2000.0000     71.2048
   968.5000   2000.0000     37.6923     45.1915   2000.0000     89.7439
   968.7500   2000.0000     36.5576     39.7047   2000.0000     77.1413
   969.0000   2000.0000     37.7650     37.2563   2000.0000     70.7317
   969.2500   2000.0000     37.1748     35.2747   2000.0000     78.4761
   969.5000   2000.0000     33.0839     32.9036   2000.0000     88.3880
   969.7500   2000.0000     32.1347     32.1895   2000.0000     90.8244
   970.0000   2000.0000     31.6701     31.5992   2000.0000     92.1642
   970.2500   2000.0000     29.3664     30.5407   2000.0000     97.2389
   970.5000   2000.0000     26.6060     29.1103   2000.0000     81.6764
   970.7500   2000.0000     26.7873     27.4928   2000.0000     77.7117
   971.0000   2000.0000     26.8054     26.6636   2000.0000     82.4758
   971.2500   2000.0000     26.5732     26.3037   2000.0000     94.4531
   971.5000   2000.0000     25.8647     25.2331   2000.0000     86.9061
   971.7500   2000.0000     25.8826     25.1311   2000.0000     92.1309
   972.0000   2000.0000     25.9165     25.2061   2000.0000    102.5882
   972.2500   2000.0000     25.9554     25.5166   2000.0000    100.0045
   972.5000   2000.0000     26.3782     26.2883   2000.0000    123.5913
   972.7500   2000.0000     26.3006     29.5070   2000.0000    124.6635
   973.0000   2000.0000     27.2039     29.7864   2000.0000     99.3031
   973.2500   2000.0000     27.3903     27.6011   2000.0000     89.0817
   973.5000   2000.0000     27.1224     30.3718   2000.0000     86.8059
   973.7500   2000.0000     27.4255     31.3133   2000.0000     89.5988
   974.0000   2000.0000     28.6144     30.7980   2000.0000     96.3167
   974.2500   2000.0000     29.0987     27.5210   2000.0000     85.5676
   974.5000   2000.0000     29.7397     29.4846   2000.0000     82.2155
   974.7500   2000.0000     29.6851     30.3281   2000.0000     67.3222
   975.0000   2000.0000     30.9343     30.6647   2000.0000     52.6748
   975.2500   2000.0000     31.3383     31.5806   2000.0000     60.3963
   975.5000   2000.0000     32.6407     33.1420   2000.0000     57.5766
   975.7500   2000.0000     34.0284     33.0845   2000.0000     58.9378
   976.0000   2000.0000     34.0755     34.3773   2000.0000     68.5527
   976.2500   2000.0000     34.0786     35.4994   2000.0000     70.2437
   976.5000   2000.0000     33.9159     36.2291   2000.0000     73.8478
   976.7500   2000.0000     34.9516     37.6561   2000.0000     67.7808
   977.0000   2000.0000     34.1114     38.5088   2000.0000     61.2662
   977.2500   2000.0000     34.9419     37.8685   2000.0000     52.5952
   977.5000   2000.0000     34.5148     39.9938   2000.0000     54.2553
   977.7500   2000.0000     32.4542     40.2990   2000.0000     46.1030
   978.0000   2000.0000     31.7269     39.3325   2000.0000     43.9945
   978.2500   2000.0000     33.5369     38.0720   2000.0000     43.2771
   978.5000   2000.0000     29.9477     36.2213   2000.0000     53.2812
   978.7500   2000.0000     27.6902     33.8934   2000.0000     51.2997
   979.0000   2000.0000     25.8786     32.3166   2000.0000     54.3006
   979.2500   2000.0000     23.9241     29.9983   2000.0000     62.3652
   979.5000   2000.0000     23.2669     27.7659   2000.0000     56.3335
   979.7500   2000.0000     21.7731     25.1158   2000.0000     70.2709
