~Version Information
 VERS.                                  2.0 : CWLS LAS VERSION
 WRAP.                                   NO : WRAPING MODE
 SWARE .                 MController 2.5.0J : SOFTWARE VERSION
~Well Information
 WELL.                         Sebring42-29 : WELL
 COMP.    Pioneer Natural Resources USA Inc : COMPANY
 FLD.                      Purgatoire River : FIELD
 LOC.                SE/NE Sec 29 T32S R67W : LOCATION
 DATE.                             08/12/05 : DATE(S) LOGGED
 SRVC.       BLANCO Geological Services LLC : SERVICE COMPANY
 STAT.                                   CO : STATE
 CNTY.                           Las Animas : COUNTY
 CTRY.                                  USA : COUNTRY
 API.                       05-071-08293-00 : API NUMBER
 STRT.FT                             750.00 : START DEPTH
 STOP.FT                            2880.00 : STOP DEPTH
 STEP.FT                               1.00 : DEPTH INCREMENT
 NULL.                                -9999 : NULL VALUE
~Curve information
 DEPTH.FT                                   :
 ROP.MIN/FT                                 :
 GAS.UNITS                                  :
~ASCII Log data
# ...
      2550.0         0.45         61.4 
      2551.0         3.28        284.2 
      2552.0         0.10        288.9 
      2553.0         0.17        296.9 
      2554.0         0.40        311.1 
      2555.0         0.27        320.8 
      2556.0         0.50        363.8 
      2557.0         0.23        364.3 
      2558.0         0.40        340.5 
      2559.0         0.63        198.7 
      2560.0         0.52         69.7 
      2561.0         0.57         50.6 
      2562.0         0.60         73.9 
      2563.0         0.47         87.5 
      2564.0         0.37         95.7 
      2565.0         0.37        104.6 
      2566.0         0.37        113.1 
      2567.0         0.35        117.2 
      2568.0         0.43        117.5 
      2569.0         0.47        115.6 
      2570.0         0.47        118.3 
      2571.0         0.40        103.2 
      2572.0         0.30         54.2 
      2573.0         0.43         33.9 
      2574.0         0.47         24.2 
      2575.0         0.52         21.8 
      2576.0         0.57         24.9 
      2577.0         0.67         32.6 
      2578.0         0.53         33.0 
      2579.0         0.67         32.1 
      2580.0         0.63         35.2 
      2581.0        15.52        268.6 
      2582.0         0.67        160.9 
      2583.0         0.72        168.2 
      2584.0         0.53        168.6 
      2585.0         0.53        168.1 
      2586.0         0.53        163.6 
      2587.0         0.67        193.6 
      2588.0         0.70        193.6 
      2589.0         0.72         71.7 
      2590.0         0.73         21.1 
      2591.0         0.70         15.8 
      2592.0         0.77         15.3 
      2593.0         0.70         15.3 
      2594.0         0.82         15.3 
      2595.0         0.63         15.1 
      2596.0         0.57         14.8 
      2597.0         0.37         16.1 
      2598.0         0.43         27.0 
      2599.0         0.47         36.3 
      2600.0         0.55         41.7 
      2601.0         0.60         59.3 
      2602.0         0.47         69.6 
      2603.0         0.47         69.4 
      2604.0         0.53         62.4 
      2605.0         0.50         43.5 
      2606.0         0.48         33.4 
      2607.0         0.50         36.7 
      2608.0         0.47         42.3 
      2609.0         0.37         51.8 
      2610.0         0.17         57.7 
      2611.0         5.57        188.4 
      2612.0         0.23         73.0 
      2613.0         0.47         57.6 
      2614.0         0.57         55.8 
      2615.0         0.53         81.3 
      2616.0         0.27         93.5 
      2617.0         0.20        103.1 
      2618.0         0.27        114.5 
      2619.0         0.35        120.1 
      2620.0         0.43        120.9 
      2621.0         0.43        118.2 
      2622.0         0.37        111.9 
      2623.0         0.30         91.4 
      2624.0         0.30         78.3 
      2625.0         0.50         71.9 
      2626.0         0.43         89.4 
      2627.0         0.47        102.5 
      2628.0         0.55        102.2 
      2629.0         0.53         65.3 
      2630.0         0.50         32.5 
      2631.0         0.53         21.8 
      2632.0         0.47         16.8 
      2633.0         0.47         15.7 
      2634.0         0.27         15.8 
      2635.0         0.22         16.6 
      2636.0         0.20         15.9 
      2637.0         0.20         15.7 
      2638.0         0.27         14.9 
      2639.0         0.37         14.7 
      2640.0         0.30         14.4 
      2641.0         7.40         47.5 
      2642.0         0.53         15.1 
      2643.0         0.50         15.1 
      2644.0         0.15         15.0 
      2645.0         1.43         15.3 
      2646.0         1.40         15.1 
      2647.0         0.20         14.9 
      2648.0         0.58         15.1 
      2649.0         0.43         14.9 
      2650.0         0.33         14.9 
      2651.0         0.27         15.0 
      2652.0         0.33         14.9 
      2653.0         0.43         15.1 
      2654.0         0.50         14.8 
      2655.0         0.63         15.0 
      2656.0         0.65         15.1 
      2657.0         0.70         15.3 
      2658.0         0.73         14.5 
      2659.0         0.70         14.6 
      2660.0         0.78         14.4 
      2661.0         0.70         14.5 
      2662.0         0.90         14.6 
      2663.0         0.83         14.4 
      2664.0         0.63         14.7 
      2665.0         0.72         14.4 
      2666.0         0.70         14.1 
      2667.0         0.33         14.5 
      2668.0         0.27         19.2 
      2669.0         0.17         20.6 
      2670.0         0.17         19.4 
      2671.0         6.43         76.2 
      2672.0         0.37         58.9 
      2673.0         0.43         45.6 
      2674.0         0.33         38.7 
      2675.0         0.32         31.6 
      2676.0         0.43         25.4 
      2677.0         0.67         32.5 
      2678.0         0.67         19.1 
      2679.0         0.53         15.9 
      2680.0         0.47         14.8 
      2681.0         0.43         14.6 
      2682.0         0.38         14.7 
      2683.0         0.43         65.2 
      2684.0         0.40        100.0 
      2685.0         0.53        134.2 
      2686.0         0.47        164.9 
      2687.0         0.40        144.1 
      2688.0         0.33         65.8 
      2689.0         0.40         34.5 
      2690.0         0.38         22.4 
      2691.0         0.47         20.8 
      2692.0         0.57         20.2 
      2693.0         0.53         21.0 
      2694.0         0.30         26.3 
      2695.0         0.23         32.5 
      2696.0         0.20         35.9 
      2697.0         0.23         36.3 
      2698.0         0.30         35.1 
      2699.0         0.45         39.7 
      2700.0         0.43         81.0 
      2701.0         9.35        317.4 
      2702.0         1.00        217.7 
      2703.0         1.23        200.9 
      2704.0         0.67         52.3 
      2705.0         0.48         62.6 
      2706.0         0.87        112.1 
      2707.0         1.10        169.0 
      2708.0         0.73        196.1 
      2709.0         0.58        215.4 
      2710.0         0.37        232.3 
      2711.0         0.30        245.3 
      2712.0         0.53        249.3 
      2713.0         0.60        215.3 
      2714.0         0.67        102.7 
      2715.0         0.60         42.9 
      2716.0         0.48         27.8 
      2717.0         0.63         20.5 
      2718.0         0.67         19.9 
      2719.0         0.60         30.3 
      2720.0         0.57         45.5 
      2721.0         0.63         71.3 
      2722.0         0.62         85.2 
      2723.0         0.53         76.4 
      2724.0         0.43         37.7 
      2725.0         0.37         24.0 
      2726.0         0.40         20.7 
      2727.0         0.40         20.0 
      2728.0         0.47         21.0 
      2729.0         0.48         23.0 
      2730.0         0.53         25.4 
      2731.0         5.42        148.0 
      2732.0         1.88        126.4 
      2733.0         0.70         76.0 
      2734.0         0.47         80.0 
      2735.0         1.02        109.4 
      2736.0         0.70        119.0 
      2737.0         0.63        118.9 
      2738.0         0.53        112.8 
      2739.0         0.57        102.9 
      2740.0         0.62         94.9 
      2741.0         0.67         98.0 
      2742.0         0.53        107.1 
      2743.0         0.43         91.2 
      2744.0         0.47         47.7 
      2745.0         0.47         27.2 
      2746.0         0.50         21.0 
      2747.0         0.55         19.0 
      2748.0         0.57         24.0 
      2749.0         0.47         25.5 
