~Version Information
VERS.                                  2.0 : CWLS LAS VERSION
WRAP.                                   NO : WRAPING MODE
SWARE .                 MController 2.5.0E : SOFTWARE VERSION
~Well Information
WELL.                         Warrior 32-1 : WELL
COMP.             Evergreen Operating Corp : COMPANY
FLD.                      Purgatorie River : FIELD
LOC.                SW/NE Sec 11 T33S R67W : LOCATION
DATE.                    10/02/04-10/03/04 : DATE(S) LOGGED
SRVC.       Blanco Geological Services LLC : SERVICE COMPANY
STAT.                                   CO : STATE
CNTY.                           Las Animas : COUNTY
CTRY.                                  USA : COUNTRY
API.                       05-071-08176-00 : API NUMBER
STRT.FT                             386.00 : START DEPTH
STOP.FT                            2265.00 : STOP DEPTH
STEP.FT                               1.00 : DEPTH INCREMENT
NULL.                                -9999 : NULL VALUE
~Curve information
DEPTH.FT                                   :
ROP.MIN/FT                                 :
GAS.UNITS                                  :
~ASCII Log data
# ...
     1622.00        0.267         86.6
     1623.00        0.233         86.6
     1624.00        0.167         91.0
     1625.00        0.133         91.0
     1626.00        0.200         94.6
     1627.00        0.267         94.0
     1628.00        0.333         93.2
     1629.00        0.333         98.0
     1630.00        0.333        121.8
     1631.00        0.433        109.7
     1632.00        0.450        109.0
     1633.00        0.533         96.9
     1634.00        4.217        194.2
     1635.00        0.300        199.9
     1636.00        0.400        198.5
     1637.00        0.367        169.3
     1638.00        0.367        151.7
     1639.00        0.350        136.7
     1640.00        0.333        125.5
     1641.00        0.367        120.5
     1642.00        0.333        114.8
     1643.00        0.433        107.6
     1644.00        0.467         95.4
     1645.00        0.267         91.7
     1646.00        0.300         89.5
     1647.00        0.333         88.2
     1648.00        0.300         87.6
     1649.00        0.417         87.2
     1650.00        0.333         85.0
     1651.00        0.367         83.6
     1652.00        0.400         81.4
     1653.00        0.400         79.5
     1654.00        0.333         77.5
     1655.00        0.333         77.4
     1656.00        0.267         77.1
     1657.00        0.267         77.3
     1658.00        0.350         78.7
     1659.00        0.267         81.4
     1660.00        0.267         88.8
     1661.00        0.233        113.9
     1662.00        0.333        107.1
     1663.00        0.300        102.2
     1664.00        4.717        259.7
     1665.00        0.333        264.3
     1666.00        0.350        233.6
     1667.00        0.333        164.2
     1668.00        0.400        167.0
     1669.00        0.400        160.6
     1670.00        0.267        141.1
     1671.00        0.367        128.4
     1672.00        0.433        127.3
     1673.00        0.400        131.2
     1674.00        0.400        131.1
     1675.00        0.383        123.4
     1676.00        0.433         83.8
     1677.00        0.367         73.3
     1678.00        0.400         66.9
     1679.00        0.300         66.3
     1680.00        0.367         68.4
     1681.00        0.333         70.8
     1682.00        0.367         75.3
     1683.00        0.367         76.5
     1684.00        0.383         75.6
     1685.00        0.433         73.0
     1686.00        0.367         73.9
     1687.00        0.400         74.7
     1688.00        0.433         74.9
     1689.00        0.367         75.0
     1690.00        0.467         95.4
     1691.00        0.300         92.7
     1692.00        0.333         96.6
     1693.00        0.317         91.5
     1694.00        4.150        288.2
     1695.00        0.267        341.1
     1696.00        0.500        404.5
     1697.00        0.467        401.3
     1698.00        0.400        321.4
     1699.00        0.500        237.7
     1700.00        0.383        173.7
     1701.00        0.400        141.9
     1702.00        0.367        117.1
     1703.00        0.367        106.2
     1704.00        0.400        104.7
     1705.00        0.300        101.6
     1706.00        0.333        101.4
     1707.00        0.400         95.8
     1708.00        0.400         87.2
     1709.00        0.317         85.5
     1710.00        0.333         84.4
     1711.00        0.367         85.3
     1712.00        0.333         84.2
     1713.00        0.300         83.4
     1714.00        0.300         81.1
     1715.00        0.367         81.6
     1716.00        0.367         82.0
     1717.00        0.267         82.5
     1718.00        0.367         83.8
     1719.00        0.383         84.4
     1720.00        0.367         93.2
     1721.00        0.333         94.2
     1722.00        0.633         86.2
     1723.00        0.900         89.8
     1724.00        0.400         84.8
     1725.00        3.617        152.4
     1726.00        0.850        247.6
     1727.00        0.833        283.5
     1728.00        0.433        253.7
     1729.00        0.433        171.9
     1730.00        0.433        115.3
     1731.00        0.467         90.5
     1732.00        0.650         83.5
     1733.00        0.567         80.8
     1734.00        1.067         80.4
     1735.00        1.167         71.5
     1736.00        1.083         61.6
     1737.00        0.600         62.2
     1738.00        0.467         62.6
     1739.00        0.533         63.4
     1740.00        0.567         66.1
     1741.00        0.450         64.4
     1742.00        0.533         64.7
     1743.00        0.633         62.5
     1744.00        0.367         62.7
     1745.00        0.433         61.2
     1746.00        0.433         60.6
     1747.00        0.567         59.7
     1748.00        0.450         56.7
     1749.00        0.267          3.8
     1750.00        0.233          3.7
     1751.00        0.200          3.8
     1752.00        0.233          4.5
     1753.00        0.233          4.5
     1754.00        0.200          4.5
     1755.00        3.117          5.6
     1756.00        0.200          5.6
     1757.00        0.267          5.9
     1758.00        0.167          6.5
     1759.00        0.267          6.4
     1760.00        0.433          6.2
     1761.00        0.200         95.0
     1762.00        0.250        173.0
     1763.00        0.200        189.0
     1764.00        0.267        184.0
     1765.00        0.267        144.0
     1766.00        0.267        108.0
     1767.00        0.267         47.6
     1768.00        0.233         47.4
     1769.00        0.250         47.6
     1770.00        0.200         45.7
     1771.00        0.267         44.3
     1772.00        0.233         43.1
     1773.00        3.183         26.4
     1774.00        0.567         32.2
     1775.00        0.267         37.4
     1776.00        0.267         46.0
     1777.00        0.533         69.6
     1778.00        0.267         84.4
     1779.00        0.267         93.3
     1780.00        0.267         92.0
     1781.00        0.283         87.4
     1782.00        0.267         83.7
     1783.00        0.567         64.0
     1784.00        0.267         52.1
     1785.00        0.267         42.6
     1786.00        0.267         40.2
     1787.00        0.267         42.4
     1788.00        0.233         47.0
     1789.00        0.267         51.7
     1790.00        0.533         52.3
     1791.00        0.550         48.3
     1792.00        0.333         46.4
     1793.00        0.233         45.9
     1794.00        0.200         45.4
     1795.00        0.267         44.3
     1796.00        7.267         36.2
     1797.00        0.267         41.4
     1798.00        0.267         50.9
     1799.00        0.267         62.5
     1800.00        0.200         72.4
     1801.00        0.400         97.3
     1802.00        0.417        132.3
     1803.00        0.300        147.4
     1804.00        0.267        131.7
     1805.00        0.300         99.5
     1806.00        0.333         70.8
     1807.00        0.300         55.8
     1808.00        0.300         51.0
     1809.00        0.333         53.5
     1810.00        0.367         58.1
     1811.00        0.333         56.7
     1812.00        0.350         54.5
     1813.00        0.333         53.7
     1814.00        0.333         51.0
     1815.00        0.333         48.9
     1816.00        0.367         47.6
     1817.00        0.333         44.9
     1818.00        0.333         42.4
     1819.00        0.333         40.6
     1820.00        0.367         40.9
     1821.00        0.417         41.8
     1822.00        0.400         40.5
     1823.00        0.400         38.3
     1824.00        0.267         36.0
     1825.00        0.267         37.3
     1826.00        5.567         26.0
     1827.00        0.433         28.1
