~Version Information
VERS.                      2.0: CWLS Log ASCII Standard - VERSION 2.0
WRAP.                       NO: One line per depth step
~Well Information Block
STRT.FT               491.0000: 
STOP.FT              1056.0000: 
STEP.FT                 0.2500: 
NULL.                -999.2500: 
COMP.          Evergreen Operating Corporation: COMPANY
WELL.              Sunset 24-3: WELL
FLD.           Purgatorie River: FIELD
LOC.           467' FSL & 2262' FWL: LOCATION
PROV.                 Colorado: PROVINCE
CNTY.               Las Animas: COUNTRY
SRVC.                         : SERVICE COMPANY
DATE.          Wed Sep 22 11:23:45 2004: LOG DATE
UWI.           05 071 08158 00: UNIQUE WELL ID
~Curve Information Block
DEPT.FT            0 000 00 00: Depth
SN.Ohm-m                      : IEL Short Normal
SP.mV                         : IEL Spontaneous Potential
DIR.Ohm-m                     : IEL Induction Resistivity
GR.GAPI                       : Gamma Ray
~Parameter Information Block
~A  Depth        SN          SP         DIR          GR     
# ...
   792.5000     24.0434     -8.9251     19.6366     87.7498
   792.7500     23.5969     -8.9456     19.5601     92.3859
   793.0000     23.2867     -8.9926     19.5061     96.7056
   793.2500     23.1276     -9.0665     19.4719     97.3911
   793.5000     23.1342     -9.1656     19.4781     94.8959
   793.7500     23.3177     -9.2857     19.5579     91.2875
   794.0000     23.6812     -9.4206     19.7429     84.8245
   794.2500     24.2167     -9.5622     20.0506     81.0207
   794.5000     24.9019     -9.7015     20.4803     76.7549
   794.7500     25.7018     -9.8297     21.0181     74.3844
   795.0000     26.5750     -9.9395     21.6473     70.5980
   795.2500     27.4820    -10.0256     22.3574     67.8908
   795.5000     28.3919    -10.0854     23.1463     63.9500
   795.7500     29.2824    -10.1188     24.0128     61.4528
   796.0000     30.1348    -10.1277     24.9454     57.8460
   796.2500     30.9290    -10.1158     25.9139     55.7509
   796.5000     31.6423    -10.0882     26.8678     53.6857
   796.7500     32.2531    -10.0517     27.7487     53.0685
   797.0000     32.7463    -10.0146     28.5140     52.5100
   797.2500     33.1158     -9.9855     29.1555     51.8127
   797.5000     33.3645     -9.9734     29.6916     50.0366
   797.7500     33.5008     -9.9849     30.1327     48.7854
   798.0000     33.5369    -10.0238     30.4510     47.8385
   798.2500     33.4871    -10.0898     30.5857     48.1646
   798.5000     33.3676    -10.1782     30.4858     49.9566
   798.7500     33.1936    -10.2817     30.1540     51.6634
   799.0000     32.9754    -10.3917     29.6477     54.2854
   799.2500     32.7134    -10.5003     29.0365     55.7771
   799.5000     32.3953    -10.6018     28.3591     57.5028
   799.7500     31.9991    -10.6931     27.6180     58.4167
   800.0000     31.4996    -10.7731     26.8116     59.6279
   800.2500     30.8786    -10.8413     25.9624     60.3379
   800.5000     30.1330    -10.8975     25.1178     61.2053
   800.7500     29.2799    -10.9408     24.3265     61.8029
   801.0000     28.3559    -10.9703     23.6199     63.5181
   801.2500     27.4107    -10.9860     23.0098     65.7253
   801.5000     26.4977    -10.9902     22.4966     70.7473
   801.7500     25.6638    -10.9883     22.0731     74.6913
   802.0000     24.9426    -10.9884     21.7223     80.2805
   802.2500     24.3535    -11.0005     21.4149     83.3883
   802.5000     23.9061    -11.0342     21.1139     87.0367
   802.7500     23.6054    -11.0971     20.7898     88.8121
   803.0000     23.4527    -11.1929     20.4378     90.4000
   803.2500     23.4414    -11.3206     20.0844     90.7059
   803.5000     23.5525    -11.4753     19.7765     90.2207
   803.7500     23.7547    -11.6490     19.5598     89.6617
   804.0000     24.0088    -11.8330     19.4598     89.7144
   804.2500     24.2767    -12.0197     19.4718     91.0656
   804.5000     24.5266    -12.2038     19.5629     95.2907
   804.7500     24.7356    -12.3833     19.6819     99.0223
   805.0000     24.8884    -12.5593     19.7719    104.6806
   805.2500     24.9741    -12.7344     19.7819    107.8680
   805.5000     24.9826    -12.9114     19.6734    110.8913
   805.7500     24.8998    -13.0914     19.4258    111.3392
   806.0000     24.7064    -13.2721     19.0422    109.5260
   806.2500     24.3787    -13.4472     18.5528    107.0009
   806.5000     23.8958    -13.6066     18.0101    102.2893
   806.7500     23.2501    -13.7374     17.4749     99.2428
   807.0000     22.4568    -13.8254     16.9978     95.9876
   807.2500     21.5585    -13.8569     16.6060     95.2050
   807.5000     20.6218    -13.8206     16.2987     96.3068
   807.7500     19.7258    -13.7086     16.0529     98.1363
   808.0000     18.9423    -13.5165     15.8357    101.0419
   808.2500     18.3172    -13.2442     15.6182    102.1308
   808.5000     17.8595    -12.8945     15.3853    101.4990
   808.7500     17.5475    -12.4729     15.1379     99.5914
   809.0000     17.3482    -11.9875     14.8887     95.3458
   809.2500     17.2379    -11.4478     14.6561     92.2425
   809.5000     17.2113    -10.8663     14.4599     88.0972
   809.7500     17.2764    -10.2578     14.3208     85.9170
   810.0000     17.4417     -9.6400     14.2598     83.4029
   810.2500     17.7054     -9.0333     14.2949     82.0946
   810.5000     18.0538     -8.4595     14.4330     80.8948
   810.7500     18.4663     -7.9397     14.6613     80.9364
   811.0000     18.9216     -7.4922     14.9458     82.4092
   811.2500     19.4012     -7.1300     15.2424     83.8653
   811.5000     19.8901     -6.8584     15.5156     85.3477
   811.7500     20.3767     -6.6745     15.7543     85.2576
   812.0000     20.8510     -6.5670     15.9729     83.7302
   812.2500     21.3029     -6.5180     16.2012     82.5982
   812.5000     21.7192     -6.5053     16.4713     82.2291
   812.7500     22.0827     -6.5058     16.8069     83.2645
   813.0000     22.3777     -6.4984     17.2128     86.3311
   813.2500     22.6014     -6.4670     17.6647     88.6542
   813.5000     22.7724     -6.4023     18.1052     91.0018
   813.7500     22.9305     -6.3017     18.4583     91.1716
   814.0000     23.1203     -6.1682     18.6637     89.1381
   814.2500     23.3709     -6.0087     18.7139     86.4189
   814.5000     23.6804     -5.8311     18.6647     80.6099
   814.7500     24.0175     -5.6426     18.6081     76.0024
   815.0000     24.3367     -5.4478     18.6306     69.4849
   815.2500     24.5993     -5.2487     18.7837     66.3974
   815.5000     24.7889     -5.0452     19.0755     64.5870
   815.7500     24.9160     -4.8357     19.4793     65.1847
   816.0000     25.0117     -4.6185     19.9474     67.8769
   816.2500     25.1151     -4.3918     20.4229     70.1231
   816.5000     25.2604     -4.1545     20.8470     73.0421
   816.7500     25.4680     -3.9060     21.1642     74.3652
   817.0000     25.7417     -3.6462     21.3327     75.4341
   817.2500     26.0710     -3.3758     21.3397     75.6071
   817.5000     26.4358     -3.0958     21.2119     74.8834
   817.7500     26.8101     -2.8087     21.0090     73.5869
   818.0000     27.1643     -2.5176     20.8001     70.7104
   818.2500     27.4678     -2.2269     20.6367     68.8490
   818.5000     27.6935     -1.9414     20.5387     67.5627
   818.7500     27.8226     -1.6668     20.4953     68.0715
   819.0000     27.8467     -1.4094     20.4772     70.2295
   819.2500     27.7674     -1.1763     20.4525     71.8871
   819.5000     27.5932     -0.9752     20.3982     74.0103
   819.7500     27.3367     -0.8144     20.3057     75.2196
   820.0000     27.0143     -0.7019     20.1794     76.9962
   820.2500     26.6466     -0.6447     20.0304     78.2557
   820.5000     26.2576     -0.6469     19.8680     80.5554
   820.7500     25.8717     -0.7083     19.6952     82.6387
   821.0000     25.5101     -0.8240     19.5087     86.6071
   821.2500     25.1877     -0.9837     19.3064     89.2069
   821.5000     24.9137     -1.1728     19.0943     91.3305
   821.7500     24.6932     -1.3743     18.8886     90.9272
   822.0000     24.5292     -1.5706     18.7114     88.1873
   822.2500     24.4235     -1.7461     18.5846     86.0745
   822.5000     24.3760     -1.8882     18.5283     84.3222
   822.7500     24.3855     -1.9889     18.5626     84.4100
   823.0000     24.4494     -2.0445     18.7075     85.5816
   823.2500     24.5627     -2.0556     18.9759     86.3057
   823.5000     24.7181     -2.0260     19.3614     86.5871
   823.7500     24.9059     -1.9619     19.8285     86.2108
   824.0000     25.1159     -1.8716     20.3116     84.9146
   824.2500     25.3364     -1.7639     20.7285     83.5397
   824.5000     25.5530     -1.6477     21.0055     80.5578
   824.7500     25.7464     -1.5307     21.1027     77.8867
   825.0000     25.8937     -1.4184     21.0265     73.0334
   825.2500     25.9708     -1.3127     20.8222     69.7074
   825.5000     25.9560     -1.2117     20.5540     65.9070
   825.7500     25.8319     -1.1100     20.2851     64.7543
