~Version Information
VERS.                      2.0: CWLS Log ASCII Standard - VERSION 2.0
WRAP.                       NO: One line per depth step
~Well Information Block
STRT.FT               423.0000: 
STOP.FT              2306.0000: 
STEP.FT                 0.1000: 
NULL.                -999.2500: 
COMP.          Pioneer Natural Resources: COMPANY
WELL.             Culver 14-12: WELL
FLD.           Purgatoire River: FIELD
LOC.           913' FSL & 1140' FWL: LOCATION
PROV.                 Colorado: PROVINCE
CNTY.               Las Animas: COUNTRY
SRVC.                Patterson: SERVICE COMPANY
DATE.          Tue Jun 07 09:21:05 2005: LOG DATE
UWI.           05 071 08386 00: UNIQUE WELL ID
~Curve Information Block
DEPT.FT            0 000 00 00: Depth
DCAL.in                       : CDL Caliper
RHOB.g/cc                     : CDL Bulk Density
RHOC.g/cc                     : CDL Density Correction
DPOR.pu                       : CDL Density Porosity
GR.GAPI                       : Gamma Ray
NPOR.pu                       : Neutron Porosity
~Parameter Information Block
~A  Depth       DCAL        RHOB        RHOC        DPOR         GR         NPOR    
# ...
  1296.6000      8.1020      2.3245      0.0346     19.7277    119.4494     29.5530
  1296.7000      8.1020      2.3225      0.0894     19.8515    122.6084     29.2928
  1296.8000      8.2608      2.3015      0.0837     21.1225    119.3221     29.3376
  1296.9000      8.2608      2.2794      0.0755     22.4619    110.4828     29.2861
  1297.0000      8.2733      2.2692      0.0502     23.0804    103.3312     29.1905
  1297.1000      8.2733      2.2675      0.0343     23.1805    101.6799     29.2342
  1297.2000      8.2733      2.2598      0.0173     23.6488    101.8110     29.3280
  1297.3000      8.2401      2.2252      0.0542     25.7470     98.7638     29.6332
  1297.4000      8.2401      2.1607      0.0269     29.6560     95.4939     30.3184
  1297.5000      8.1184      2.1044     -0.0271     33.0694     96.4067     30.9647
  1297.6000      8.1184      2.0955      0.0391     33.6055     97.6319     31.2360
  1297.7000      8.1184      2.1184      0.1612     32.2205     95.4155     31.1532
  1297.8000      8.0521      2.1248      0.1378     31.8304     92.5964     30.9356
  1297.9000      8.0521      2.0935      0.1665     33.7273     90.9462     31.2084
  1298.0000      7.9920      2.0454      0.1059     36.6397     89.4445     32.1420
  1298.1000      7.9920      2.0169      0.1308     38.3713     86.5638     33.0041
  1298.2000      7.9920      2.0236      0.1044     37.9659     81.6071     33.4272
  1298.3000      7.9846      2.0546      0.1323     36.0848     76.2112     33.2034
  1298.4000      7.9846      2.0855      0.1854     34.2122     70.7036     32.2504
  1298.5000      7.9905      2.1127      0.0313     32.5648     64.8897     31.4921
  1298.6000      7.9905      2.1548      0.0975     30.0140     59.9126     31.4075
  1298.7000      7.9905      2.2008      0.1500     27.2219     57.7458     31.0957
  1298.8000      7.9918      2.2276      0.1524     25.6009     60.4765     30.2909
  1298.9000      7.9918      2.2377      0.1217     24.9875     63.7352     29.7196
  1299.0000      7.9982      2.2447      0.1271     24.5615     61.5126     29.3668
  1299.1000      7.9982      2.2547      0.0833     23.9570     56.9437     29.0903
  1299.2000      7.9982      2.2653      0.0804     23.3170     55.8216     28.7493
  1299.3000      7.9981      2.2743      0.0142     22.7686     56.2860     28.3408
  1299.4000      7.9981      2.2782      0.0501     22.5359     56.1165     28.7577
  1299.5000      8.0182      2.2693      0.0888     23.0712     61.1493     29.6984
  1299.6000      8.0182      2.2571      0.0724     23.8100     70.9593     30.0219
  1299.7000      8.0182      2.2537      0.0784     24.0209     75.8598     30.0545
  1299.8000      8.0044      2.2464      0.1088     24.4584     74.0922     30.1868
  1299.9000      8.0044      2.2311      0.0300     25.3890     72.4376     30.1317
  1300.0000      8.0014      2.2236      0.0512     25.8410     74.3312     30.0269
  1300.1000      8.0014      2.2294      0.0439     25.4918     76.4855     30.3750
  1300.2000      8.0014      2.2484      0.0738     24.3386     74.6108     31.0643
  1300.3000      7.9962      2.2763      0.1228     22.6499     70.2399     31.2430
  1300.4000      7.9962      2.2976      0.1119     21.3550     68.2715     30.7047
  1300.5000      7.9932      2.3164      0.0551     20.2204     70.1272     29.5632
  1300.6000      7.9932      2.3524      0.1065     18.0379     73.4388     27.9816
  1300.7000      7.9932      2.4019      0.1285     15.0345     75.0985     27.2012
  1300.8000      7.9783      2.4467      0.1790     12.3228     73.6324     27.6481
  1300.9000      7.9783      2.4880      0.1247      9.8180     70.2035     28.0194
  1301.0000      7.9636      2.5487      0.1076      6.1414     68.0801     27.5439
  1301.1000      7.9636      2.6344      0.1665      0.9451     67.5714     26.9415
  1301.2000      7.9636      2.7163      0.2063     -4.0180     67.7264     26.9412
  1301.3000      7.9325      2.7641      0.2235     -6.9125     70.5507     27.1606
  1301.4000      7.9325      2.7740      0.1656     -7.5170     75.7697     26.7826
  1301.5000      7.9219      2.7657      0.1445     -7.0100     78.4425     25.9589
  1301.6000      7.9219      2.7585      0.1258     -6.5786     76.4496     25.4510
  1301.7000      7.9219      2.7504      0.1314     -6.0851     73.1011     25.7642
  1301.8000      7.9165      2.7285      0.0604     -4.7552     70.2948     26.7164
  1301.9000      7.9165      2.6946     -0.0081     -2.7005     67.8901     27.4065
  1302.0000      7.9278      2.6704     -0.0218     -1.2381     68.0777     27.1907
  1302.1000      7.9278      2.6793     -0.0233     -1.7757     71.5893     26.1930
  1302.2000      7.9278      2.7090      0.0135     -3.5765     76.0201     25.2732
  1302.3000      8.0332      2.7175      0.0299     -4.0899     80.3360     25.2835
  1302.4000      8.0332      2.6946     -0.0156     -2.7023     86.3940     25.7064
  1302.5000      8.0516      2.6679      0.0002     -1.0824     93.5600     25.6584
  1302.6000      8.0516      2.6317      0.0908      1.1103     97.5099     25.7273
  1302.7000      8.0516      2.5589      0.0175      5.5198     95.8218     26.5641
  1302.8000      8.0483      2.4726     -0.0288     10.7491     89.9916     27.5691
  1302.9000      8.0483      2.4181     -0.0883     14.0546     83.4772     27.9676
  1303.0000      8.0500      2.4059     -0.1193     14.7953     78.6124     28.1862
  1303.1000      8.0500      2.4127     -0.0482     14.3802     76.3551     28.8985
  1303.2000      8.0500      2.4225     -0.0315     13.7894     77.0635     29.4882
  1303.3000      8.0564      2.4545     -0.0102     11.8464     79.7586     29.3223
  1303.4000      8.0564      2.5192      0.1120      7.9283     82.5216     29.1485
  1303.5000      8.0840      2.5891      0.1657      3.6906     85.5555     29.4125
  1303.6000      8.0840      2.6327      0.2006      1.0472     90.1075     29.3337
  1303.7000      8.0840      2.6392      0.1287      0.6575     95.4641     28.3771
  1303.8000      8.1095      2.6272      0.0699      1.3845     99.0491     27.1140
  1303.9000      8.1095      2.6145      0.0655      2.1490     98.7084     26.3133
  1304.0000      8.1096      2.6003      0.0620      3.0131     95.4646     26.1359
  1304.1000      8.1096      2.5857      0.0891      3.8980     95.1952     26.3945
  1304.2000      8.1096      2.5791      0.0811      4.2991    100.6178     26.9653
  1304.3000      8.0321      2.5816      0.1323      4.1428    106.0446     27.9113
  1304.4000      8.0321      2.5850      0.0626      3.9371    109.0993     29.3589
  1304.5000      8.0266      2.5892      0.0984      3.6845    114.2059     30.4800
  1304.6000      8.0266      2.5967      0.0871      3.2313    118.6837     30.1440
  1304.7000      8.0266      2.5954      0.1269      3.3065    119.7720     28.9277
  1304.8000      8.0277      2.5745      0.1166      4.5741    121.7560     28.2692
  1304.9000      8.0277      2.5531      0.0712      5.8736    126.6369     28.5660
  1305.0000      8.0280      2.5564      0.1275      5.6742    132.0025     28.9417
  1305.1000      8.0280      2.5733      0.1173      4.6491    134.2907     28.6673
  1305.2000      8.0280      2.5802      0.0935      4.2315    131.9221     28.1733
  1305.3000      8.0302      2.5853      0.0712      3.9240    129.9965     28.1062
  1305.4000      8.0302      2.6127      0.1172      2.2620    132.2327     28.4371
  1305.5000      8.0440      2.6574      0.1754     -0.4508    132.5810     28.7805
  1305.6000      8.0440      2.6961      0.1989     -2.7928    128.9148     29.0339
  1305.7000      8.0440      2.7174      0.2170     -4.0867    127.3287     29.0247
  1305.8000      8.0888      2.7195      0.2300     -4.2145    128.3488     28.4540
  1305.9000      8.0888      2.7025      0.1587     -3.1827    129.6722     27.6928
  1306.0000      8.0123      2.6755      0.1528     -1.5433    127.9660     27.3386
  1306.1000      8.0123      2.6498      0.0782      0.0105    120.9821     27.1190
