~Version Information
VERS.                      2.0: CWLS Log ASCII Standard - VERSION 2.0
WRAP.                       NO: One line per depth step
~Well Information Block
STRT.FT               340.0000: 
STOP.FT              1542.5000: 
STEP.FT                 0.2500: 
NULL.                -999.2500: 
COMP.          Petrogulf Corporation: COMPANY
WELL.            Montoya 7-21R: WELL
FLD.           Purgatorie River: FIELD
LOC.           445' FNL & 1942' FWL: LOCATION
PROV.                 Colorado: PROVINCE
CNTY.               Las Animas: COUNTRY
SRVC.                Patterson: SERVICE COMPANY
DATE.          Thu Sep 15 10:37:42 2005: LOG DATE
UWI.                          : UNIQUE WELL ID
~Curve Information Block
DEPT.FT            0 000 00 00: Depth
SP.mV                         : DIL Spontaneous Potential
RILD.Ohm-m                    : DIL Deep Resistivity
RILM.Ohm-m                    : DIL Medium Resistivity
RLL3.Ohm-m                    : DIL Shallow Resistivity
GR.GAPI                       : Gamma Ray
~Parameter Information Block
~A  Depth        SP         RILD        RILM        RLL3         GR     
# ...
   732.0000    154.8663     20.5261     20.4707     29.1394    129.3458
   732.2500    156.3272     22.2927     23.1209     49.5246    130.0401
   732.5000    157.4801     24.6707     27.3637    103.4518    135.3258
   732.7500    158.7144     27.4116     32.2010    208.5082    130.7391
   733.0000    159.8868     29.9395     36.4409    212.1351    115.0949
   733.2500    161.0248     32.6702     42.7916    166.3195     89.5246
   733.5000    162.0598     34.9259     48.7161    104.1167     55.0524
   733.7500    163.2168     35.1979     54.6231    115.1157     64.6588
   734.0000    164.2771     36.5673     59.4310    206.0044     91.5353
   734.2500    165.1336     37.8345     66.0120    417.1931     91.2277
   734.5000    165.8824     36.4339     71.4416    661.2438     89.9386
   734.7500    167.0015     36.0412     73.7494    433.3362     76.9565
   735.0000    168.1479     33.7582     70.7682    391.2219     52.6954
   735.2500    169.1219     31.7773     59.8264    345.8381     46.3937
   735.5000    170.2008     30.1168     48.8509    207.9651     58.0798
   735.7500    171.4296     28.3849     38.2755     81.7043     58.2268
   736.0000    172.3912     27.2735     31.7562     36.9525     58.5066
   736.2500    172.7901     26.7760     27.3029     22.1934     70.8585
   736.5000    172.7832     25.5040     24.6348     18.9157     96.0288
   736.7500    172.5433     23.8449     23.0662     17.8425    103.2552
   737.0000    172.0931     22.5643     22.0263     21.0338    142.7814
   737.2500    171.5638     21.3989     20.6315     20.0625    170.7245
   737.5000    171.0628     21.1045     19.7344     21.6607    147.7825
   737.7500    170.6797     20.0138     18.7910     22.7392    171.7924
   738.0000    170.3879     19.9267     18.0923     23.0713    180.4289
   738.2500    170.2866     19.5373     17.2119     17.8784    195.8599
   738.5000    170.1257     18.9646     16.9410     16.7721    178.2199
   738.7500    169.9135     18.8042     17.1313     20.6855    170.6251
   739.0000    169.7762     18.6949     17.1695     18.6299    186.2565
   739.2500    169.7294     18.8801     18.0245     21.7840    168.2753
   739.5000    169.7690     18.8437     18.1312     26.8447    158.1893
   739.7500    169.9174     18.3400     18.3294     27.8347    178.1711
   740.0000    170.1695     18.1440     18.0123     23.5051    133.4119
   740.2500    170.3636     18.1483     17.6565     20.4587    144.3497
   740.5000    170.4673     18.1034     17.5575     19.2014    153.4997
   740.7500    170.2780     18.1052     17.3429     19.9816    143.4560
   741.0000    169.6216     18.0692     17.6496     19.1960    138.9154
   741.2500    168.6550     17.6036     17.8464     19.0066    136.0764
   741.5000    167.1406     17.4474     17.5206     22.0871    158.1087
   741.7500    165.3649     16.7204     17.4270     23.6373    148.2914
   742.0000    163.5301     16.1204     16.7109     19.6338    138.8313
   742.2500    161.8772     15.7828     15.7526     17.0968    144.2429
   742.5000    160.7901     15.5975     14.9804     17.0226    127.3942
   742.7500    160.2289     15.1846     14.2099     17.4962    137.4546
   743.0000    159.8345     14.8073     13.7441     15.7817    156.2900
   743.2500    159.0783     14.2250     13.5537     14.5444    140.3360
   743.5000    157.8745     13.8781     13.2986     15.3346    166.6087
   743.7500    156.8424     13.3879     13.0128     17.0146    163.1348
   744.0000    155.9822     13.2130     12.8776     18.8550    161.2809
   744.2500    155.0355     12.8774     12.3369     19.6564    155.1366
   744.5000    154.0968     12.5791     11.9228     17.9133    134.5338
   744.7500    153.3353     12.1902     11.5155     15.2042    138.9254
   745.0000    152.6865     12.0210     11.1753     16.6848    132.4838
   745.2500    152.0646     11.9144     10.9234     16.1676    135.4180
   745.5000    151.3135     11.9448     10.8474     15.2150    145.9184
   745.7500    150.2888     11.8846     10.8129     15.6615    170.9553
   746.0000    149.0858     11.7309     10.7928     14.3936    149.3556
   746.2500    147.9964     11.4959     10.7879     15.7094    145.7880
   746.5000    146.8582     11.6704     10.7505     16.2621    155.0640
   746.7500    145.6497     11.6405     10.6348     20.0273    150.7155
   747.0000    144.5695     11.9069     10.4093     21.2153    133.0221
   747.2500    143.6555     12.0665     10.3425     16.5178    125.5379
   747.5000    142.9657     12.3317     10.2624     16.3074    127.9659
   747.7500    142.3669     12.5498     10.3540     16.7478    132.1631
   748.0000    141.9381     12.9720     10.8157     14.3069    158.8298
   748.2500    141.6779     13.6220     11.4573     13.3233    173.4740
   748.5000    141.8474     14.5268     12.4608     15.6435    154.6644
   748.7500    142.1704     15.3557     13.3419     19.1114    154.8626
   749.0000    142.4722     15.9433     14.5056     21.9437    147.8127
   749.2500    142.6268     16.7626     16.2104     25.9012    133.2946
   749.5000    142.8138     17.5902     17.8137     31.5899    120.8617
   749.7500    143.0562     18.9321     19.4906     40.3075    128.9655
   750.0000    143.1251     20.6772     21.7737     50.2952    134.4207
   750.2500    143.0410     22.9698     24.2299     55.5475    125.9227
   750.5000    142.9215     25.4640     27.7770     54.9330    110.8141
   750.7500    142.7226     28.2347     31.2053     57.1527     93.4147
   751.0000    142.5212     30.3914     36.8435     71.1227     89.1985
   751.2500    142.3064     32.6083     39.3662    100.7238     82.2333
   751.5000    141.9363     34.5217     44.7891    130.9244    101.3407
   751.7500    141.5785     38.3303     46.9859    144.7116     92.7628
   752.0000    141.3657     41.1428     52.7212    128.1918     79.8257
   752.2500    141.1584     41.7522     55.9592    101.4558     87.5774
   752.5000    140.8879     44.0418     57.4871     85.1688     70.3996
   752.7500    140.4910     43.9730     54.6971     75.6423     72.4574
   753.0000    139.8190     46.9939     56.8316     68.4382     82.3720
   753.2500    138.9467     47.6586     58.3780     65.6764     84.2192
   753.5000    137.8307     46.8938     61.4146     65.8666     95.4482
   753.7500    136.6632     44.8916     59.5362     67.9091     96.8313
   754.0000    135.4441     44.6354     55.4174     69.4048     75.1994
   754.2500    134.2089     44.2503     55.2731     66.7914     83.6401
   754.5000    132.8297     44.2097     54.9797     63.6959     88.5856
   754.7500    131.2626     46.2890     54.4370     63.6483     89.8113
   755.0000    129.6905     46.1631     53.4927     63.5680     92.4198
   755.2500    128.6312     44.5122     56.3484     62.0017    109.3576
   755.5000    128.2012     44.6637     53.0510     61.0285     89.9281
   755.7500    128.1354     43.9095     51.8948     62.9210     81.8580
   756.0000    128.3058     41.6124     56.5303     65.9812     91.5446
   756.2500    128.6373     42.3257     54.6608     69.3468     97.4468
   756.5000    129.3184     42.5120     52.0441     73.0189     80.5657
   756.7500    130.2392     45.1278     52.0820     71.6043    101.2520
   757.0000    131.1615     44.2912     51.2547     66.0882    111.6254
   757.2500    132.0986     41.8672     50.5170     61.4322    114.3641
   757.5000    133.0072     42.7521     49.2081     55.7858    136.2698
   757.7500    133.8264     44.0590     49.4596     51.8670    139.6952
   758.0000    134.5590     46.6653     50.0768     51.2536    116.3477
   758.2500    135.5172     48.0421     50.6590     52.1463    126.7062
   758.5000    136.5853     48.2836     51.2108     55.2019     99.1363
   758.7500    137.7020     47.8992     50.9533     58.4989     93.8368
   759.0000    138.7576     45.9460     51.9414     59.2750    113.3624
   759.2500    139.9159     47.0692     50.6759     56.5435    100.4781
   759.5000    140.9017     47.6571     53.8786     56.0391     96.0419
   759.7500    141.6681     45.7723     54.5544     62.9286    103.4335
