~Version Information
VERS.                      2.0: CWLS Log ASCII Standard - VERSION 2.0
WRAP.                       NO: One line per depth step
~Well Information Block
STRT.FT               -16.5000: 
STOP.FT              1695.5000: 
STEP.FT                 0.2500: 
NULL.                -999.2500: 
COMP.          Pioneer Natural Resources: COMPANY
WELL.          Rancher 12-35 Tr: WELL
FLD.           Purgatorie River: FIELD
LOC.           2242' FNL & 308' FWL SWNW 35 32S 67W: LOCATION
PROV.                       CO: PROVINCE
CNTY.               Las Animas: COUNTRY
SRVC.                         : SERVICE COMPANY
DATE.         Fri Jul 08 09:39:00 2005: LOG DATE
UWI.                071 08430 : UNIQUE WELL ID
~Curve Information Block
DEPT.FT            0 000 00 00: Depth
CCL.                          : Casing Collar Locator
TT3.usec                      : CBL 3' Travel Time
AMP3.mV                       : CBL 3' Amplitude
GR.GAPI                       : Gamma Ray
~Parameter Information Block
~A  Depth       CCL         TT3         AMP3         GR     
# ...
  1089.0000      0.0000    530.1964      6.4746    120.7436
  1089.2500      0.0000    550.4732      6.5813    119.1183
  1089.5000      0.0000    598.5124      6.5745    119.1839
  1089.7500      0.0000    656.1058      6.5457    119.4358
  1090.0000      0.0000    708.1791      6.5878    117.6507
  1090.2500      0.0000    748.9557      6.6905    112.5107
  1090.5000      0.0000    778.3913      6.7645    104.1003
  1090.7500      0.0000    797.3440      6.7338     93.7770
  1091.0000      0.0000    807.1882      6.5821     83.8754
  1091.2500      0.0000    811.3461      6.3526     77.0568
  1091.5000      0.0000    813.9785      6.1419     75.3276
  1091.7500      0.0000    816.1049      6.0558     79.1718
  1092.0000      0.0000    814.8759      6.1208     87.3605
  1092.2500      0.0000    808.5759      6.2488     97.6884
  1092.5000      0.0000    800.9815      6.3185    108.1586
  1092.7500      0.0000    798.2087      6.2815    117.5160
  1093.0000      0.0000    802.0617      6.1752    124.9747
  1093.2500      0.0000    809.0499      6.0572    130.2114
  1093.5000      0.0000    815.2327      5.9607    133.9085
  1093.7500      0.0000    819.2880      5.8941    137.3217
  1094.0000      0.0000    821.3032      5.8515    140.5591
  1094.2500      0.0000    821.2284      5.8232    142.0583
  1094.5000      0.0000    818.8775      5.8001    140.4246
  1094.7500      0.0000    814.3809      5.7664    136.0378
  1095.0000      0.0000    808.4636      5.7143    130.4973
  1095.2500      0.0000    802.3788      5.6799    125.4636
  1095.5000      0.0000    797.0798      5.7246    122.3580
  1095.7500      0.0000    792.3829      5.8597    122.1810
  1096.0000      0.0000    787.3099      6.0195    125.0426
  1096.2500      0.0000    781.0978      6.1247    130.0479
  1096.5000      0.0000    773.6552      6.1508    135.6033
  1096.7500      0.0000    765.6376      6.1243    139.7184
  1097.0000      0.0000    758.4363      6.0759    140.4554
  1097.2500      0.0000    753.3036      6.0263    136.7536
  1097.5000      0.0000    749.7446      6.0092    129.1364
  1097.7500      0.0000    745.3935      6.0647    119.5432
  1098.0000      0.0000    738.5404      6.1822    110.4636
  1098.2500      0.0000    730.5907      6.2782    104.1148
  1098.5000      0.0000    725.0073      6.2636    101.7895
  1098.7500      0.0000    723.8115      6.1399    103.1783
  1099.0000      0.0000    725.9254      6.0116    106.3581
  1099.2500      0.0000    728.7441      5.9861    109.1092
  1099.5000      0.0000    730.2541      6.0609    110.6292
  1099.7500      0.0000    729.6698      6.1191    111.8321
  1100.0000      0.0000    727.4139      6.0395    113.8830
  1100.2500      0.0000    725.5826      5.8145    116.5520
  1100.5000      0.0000    727.9301      5.5634    118.3626
  1100.7500      0.0000    737.7996      5.4353    118.3807
  1101.0000      0.0000    754.9912      5.4859    117.4471
  1101.2500      0.0000    774.9457      5.6347    117.4697
  1101.5000      0.0000    791.5938      5.7365    119.6816
  1101.7500      0.0000    801.0094      5.7077    123.4697
  1102.0000      0.0000    802.4410      5.5991    126.6345
  1102.2500      0.0000    796.7847      5.5482    127.0517
  1102.5000      0.0000    785.0631      5.6473    124.5119
  1102.7500      0.0000    768.6121      5.8591    120.7295
  1103.0000      0.0000    750.2125      6.0686    117.3597
  1103.2500      0.0000    733.6000      6.2103    114.4930
  1103.5000      0.0000    720.3002      6.3153    111.4030
  1103.7500      0.0000    706.7540      6.4346    108.1100
  1104.0000      0.0000    686.0549      6.5654    105.5243
  1104.2500      0.0000    654.9384      6.6749    104.3041
  1104.5000      0.0000    620.6971      6.7500    104.2055
  1104.7500      0.0000    599.6894      6.7851    104.3880
  1105.0000      0.0000    605.0444      6.7678    103.7872
  1105.2500      0.0000    634.4500      6.7227    101.2284
  1105.5000      0.0000    671.8432      6.7276     95.9176
  1105.7500      0.0000    700.9179      6.8267     88.3708
  1106.0000      0.0000    715.3163      6.9562     80.6043
  1106.2500      0.0000    718.0299      7.0158     74.8221
  1106.5000      0.0000    715.5380      6.9997     71.7731
  1106.7500      0.0000    713.1818      6.9935     70.6306
  1107.0000      0.0000    713.1326      7.0408     70.5083
  1107.2500      0.0000    714.5541      7.0768     71.7383
  1107.5000      0.0000    715.5999      7.0250     75.5654
  1107.7500      0.0000    715.6578      6.9087     82.9464
  1108.0000      0.0000    715.9567      6.8127     93.9096
  1108.2500      0.0000    718.2651      6.7618    107.7945
  1108.5000      0.0000    723.0172      6.6991    123.4092
  1108.7500      0.0000    728.7492      6.5884    138.5461
  1109.0000      0.0000    733.8307      6.4749    150.1106
  1109.2500      0.0000    738.8421      6.4156    155.8306
  1109.5000      0.0000    746.4962      6.3925    155.9082
  1109.7500      0.0000    758.4719      6.3413    152.3494
  1110.0000      0.0000    772.4648      6.2396    146.8981
  1110.2500      0.0000    783.1196      6.1226    140.2450
  1110.5000      0.0000    786.3321      6.0289    132.8182
  1110.7500      0.0000    782.4894      5.9806    125.3523
  1111.0000      0.0000    775.5903      5.9995    118.6010
  1111.2500      0.0000    769.6285      6.0845    113.0529
  1111.5000      0.0000    765.8027      6.1739    109.0027
  1111.7500      0.0000    762.7121      6.1812    106.5809
  1112.0000      0.0000    758.6487      6.0888    105.6687
  1112.2500      0.0000    753.1762      5.9858    106.0126
  1112.5000      0.0000    746.6000      5.9956    107.3073
  1112.7500      0.0000    739.0899      6.1733    108.9707
  1113.0000      0.0000    731.4166      6.4672    110.0485
  1113.2500      0.0000    725.8362      6.7541    109.5372
  1113.5000      0.0000    724.6462      6.9031    106.6846
  1113.7500      0.0000    727.5654      6.8388    101.1382
  1114.0000      0.0000    731.5062      6.5891     93.3323
  1114.2500      0.0000    733.1741      6.2875     84.6862
  1114.5000      0.0000    731.2839      6.0998     77.0290
  1114.7500      0.0000    726.4578      6.1069     71.6964
  1115.0000      0.0000    720.2803      6.2517     69.0309
  1115.2500      0.0000    714.9388      6.4184     68.4561
  1115.5000      0.0000    712.6981      6.5477     69.0063
  1115.7500      0.0000    714.5854      6.6398     69.9383
  1116.0000      0.0000    719.5912      6.6699     70.9970
  1116.2500      0.0000    725.6198      6.5837     72.3417
  1116.5000      0.0000    731.3350      6.3982     74.4286
  1116.7500      0.0000    736.8898      6.2348     77.9435
  1117.0000      0.0000    742.8353      6.2042     83.5550
  1117.2500      0.0000    748.7033      6.2888     91.3755
  1117.5000      0.0000    753.5179      6.3863    100.4919
  1117.7500      0.0000    757.9993      6.4430    109.2082
  1118.0000      0.0000    765.0130      6.4878    116.1218
  1118.2500      0.0000    776.1002      6.5248    121.0266
  1118.5000      0.0000    787.7222      6.4475    124.5856
  1118.7500      0.0000    792.8009      6.1254    127.1356
  1119.0000      0.0000    787.1818      5.5721    128.1356
  1119.2500      0.0000    773.8660      4.9793    127.0141
  1119.5000      0.0000    759.9128      4.5651    124.2482
  1119.7500      0.0000    749.8892      4.4086    121.1628
  1120.0000      0.0000    743.5781      4.4362    118.9093
  1120.2500      0.0000    739.6549      4.5306    118.2120
  1120.5000      3.0000    739.8417      4.6152    119.7635
  1120.7500      1.9290    748.1848      4.6506    123.9143
  1121.0000     -2.1936    766.1725      4.6124    129.8615
  1121.2500      0.0000    789.4372      4.5114    135.8912
  1121.5000      0.0000    810.0433      4.4192    140.7113
  1121.7500      0.0000    821.5433      4.4452    144.0503
  1122.0000      0.0000    821.4728      4.6750    145.8421
  1122.2500      0.0000    810.6439      5.1029    145.4952
