~Version Information
VERS.                      2.0: CWLS Log ASCII Standard - VERSION 2.0
WRAP.                       NO: One line per depth step
~Well Information Block
STRT.FT               765.4000: 
STOP.FT              2581.2000: 
STEP.FT                 0.1000: 
NULL.                -999.2500: 
COMP.          Petrogulf Corporation: COMPANY
WELL.            Montoya 7-12V: WELL
FLD.           Purgatorie River: FIELD
LOC.           728' FWL & 1764' FNL: LOCATION
CNTY.               Las Animas: COUNTY
SRVC.                         : SERVICE COMPANY
DATE.          Fri Feb 20 09:23:58 2004: LOG DATE
UWI.           05-071-07887-00: UNIQUE WELL ID
STAT.                 Colorado: STATE
~Curve Information Block
DEPT.FT            0 000 00 00: Depth
DCAL.in                       : CDL Caliper
RHOB.g/cc                     : CDL Bulk Density
RHOC.g/cc                     : CDL Density Correction
DPOR.pu                       : CDL Density Porosity
GR.GAPI                       : Gamma Ray
NPOR.pu                       : Neutron Porosity
~Parameter Information Block
~A  Depth       DCAL        RHOB        RHOC        DPOR         GR         NPOR    
# ...
  2090.2000      7.9376      2.5555      0.0780      5.7260     81.0068     28.0636
  2090.3000      7.9403      2.5202      0.1211      7.8677     86.4122     26.9151
  2090.4000      7.9403      2.4949      0.0000      9.3995     85.9117     26.6232
  2090.5000      7.9589      2.4991      0.0744      9.1468     78.9795     27.0744
  2090.6000      7.9589      2.5082      0.0841      8.5937     70.8044     27.8221
  2090.7000      7.9589      2.4977      0.0452      9.2280     66.5647     28.3405
  2090.8000      7.9625      2.4925     -0.0335      9.5440     63.1176     28.5787
  2090.9000      7.9625      2.5155      0.0682      8.1538     58.9694     28.8103
  2091.0000      7.9853      2.5502      0.0808      6.0467     58.8334     28.9479
  2091.1000      7.9853      2.5805      0.1068      4.2124     60.5755     28.8221
  2091.2000      7.9853      2.6010      0.1286      2.9720     60.2902     28.7693
  2091.3000      7.9961      2.5926      0.1454      3.4812     64.2212     29.2016
  2091.4000      7.9961      2.5462      0.1511      6.2897     77.6796     29.8532
  2091.5000      7.9962      2.4852      0.1630      9.9897     90.6454     30.0744
  2091.6000      7.9962      2.4363      0.1322     12.9515     90.3246     29.8702
  2091.7000      7.9962      2.4060      0.1074     14.7850     82.7572     29.8595
  2091.8000      7.9665      2.3859      0.0951     16.0043     82.7462     30.0894
  2091.9000      7.9665      2.3624      0.1324     17.4282     91.3456     30.1699
  2092.0000      7.9903      2.3270     -0.0143     19.5750     97.0402     30.1956
  2092.1000      7.9903      2.2935     -0.0435     21.6055     92.7840     30.1427
  2092.2000      7.9903      2.2862     -0.0313     22.0478     85.7655     29.8418
  2092.3000      8.0004      2.3103      0.0036     20.5881     82.7536     29.7145
  2092.4000      8.0004      2.3510      0.0871     18.1188     77.0624     29.8746
  2092.5000      8.0005      2.4036      0.0863     14.9350     64.6075     29.7224
  2092.6000      8.0005      2.4721      0.1290     10.7799     55.6530     28.9935
  2092.7000      8.0005      2.5281      0.1873      7.3854     57.0884     28.2245
  2092.8000      7.9934      2.5373      0.1049      6.8276     63.4448     28.0402
  2092.9000      7.9934      2.5196      0.0518      7.9002     70.5322     28.2260
  2093.0000      7.9877      2.5146      0.0892      8.2062     77.3571     28.3403
  2093.1000      7.9877      2.5265      0.0676      7.4865     78.7222     28.3464
  2093.2000      7.9877      2.5268      0.0837      7.4638     73.8253     28.4136
  2093.3000      7.9856      2.4961      0.0081      9.3253     70.2394     28.5675
  2093.4000      7.9856      2.4639     -0.0157     11.2799     71.6476     28.6814
  2093.5000      7.9886      2.4664      0.0384     11.1288     74.8589     28.6477
  2093.6000      7.9886      2.4952      0.0466      9.3803     77.3675     28.1646
  2093.7000      7.9886      2.5191      0.0472      7.9326     82.9540     27.2929
  2093.8000      7.9927      2.5159      0.0738      8.1269     89.0413     26.7681
  2093.9000      7.9927      2.4865      0.0545      9.9078     84.3397     26.8787
  2094.0000      7.9933      2.4595     -0.0179     11.5439     69.4855     27.0339
  2094.1000      7.9933      2.4730     -0.0708     10.7300     55.4472     26.9045
  2094.2000      7.9933      2.5257      0.0863      7.5339     52.0433     26.4485
  2094.3000      7.9941      2.5739      0.0342      4.6140     61.3350     25.8120
  2094.4000      7.9941      2.5834      0.0965      4.0363     72.5382     25.5062
  2094.5000      7.9933      2.5590     -0.0114      5.5142     76.1902     25.7114
  2094.6000      7.9933      2.5284      0.0407      7.3689     77.8205     26.0267
  2094.7000      7.9933      2.5092      0.0481      8.5324     84.0834     26.0384
  2094.8000      7.9934      2.5131      0.0279      8.2982     89.6266     26.1265
  2094.9000      7.9934      2.5363      0.1087      6.8889     88.9200     26.7741
  2095.0000      7.9951      2.5458      0.0930      6.3179     84.0334     27.5648
  2095.1000      7.9951      2.5248      0.0271      7.5901     76.1685     28.0499
  2095.2000      7.9951      2.5003      0.0052      9.0716     69.0215     28.2420
  2095.3000      7.9951      2.5038      0.0175      8.8590     68.7409     28.2554
  2095.4000      7.9951      2.5326      0.0226      7.1141     70.6785     28.2854
  2095.5000      7.9999      2.5468      0.1399      6.2557     69.7875     28.3708
  2095.6000      7.9999      2.5170      0.0059      8.0606     69.4638     28.4827
  2095.7000      7.9999      2.4770     -0.0486     10.4827     67.4818     28.6885
  2095.8000      8.0033      2.4635      0.0504     11.3001     62.3483     28.9606
  2095.9000      8.0033      2.4621      0.0265     11.3881     60.7727     28.9323
  2096.0000      8.0025      2.4636     -0.0820     11.2987     60.3468     28.4113
  2096.1000      8.0025      2.4787      0.0360     10.3841     57.3788     28.0355
  2096.2000      8.0025      2.4988     -0.0035      9.1635     59.0118     28.1026
  2096.3000      7.9951      2.5113     -0.0177      8.4053     65.1236     27.8769
  2096.4000      7.9951      2.5104      0.0595      8.4582     69.8162     27.2581
  2096.5000      8.0005      2.4852      0.0800      9.9856     71.7238     27.1852
  2096.6000      8.0005      2.4325      0.0072     13.1833     72.7247     27.7415
  2096.7000      8.0005      2.3800     -0.0751     16.3653     74.0733     28.0756
  2096.8000      8.0016      2.3607     -0.0668     17.5352     71.5388     27.9465
  2096.9000      8.0016      2.3593     -0.0229     17.6197     62.3714     27.8618
  2097.0000      8.0020      2.3436     -0.0298     18.5707     53.9914     28.2370
  2097.1000      8.0020      2.3140     -0.0173     20.3611     55.4699     28.8585
  2097.2000      8.0020      2.2887     -0.0440     21.8980     63.7682     29.0198
  2097.3000      7.9927      2.2836      0.0020     22.2072     70.8136     28.6173
  2097.4000      7.9927      2.3107     -0.0220     20.5663     73.1195     28.3615
  2097.5000      7.9949      2.3682      0.0813     17.0808     68.0429     28.5577
  2097.6000      7.9949      2.4419      0.0992     12.6146     57.9459     28.8397
  2097.7000      7.9949      2.5205      0.1356      7.8495     50.8192     29.1234
  2097.8000      7.9954      2.5805      0.1940      4.2098     51.1331     29.5534
  2097.9000      7.9954      2.5999      0.1208      3.0338     55.8245     29.7118
  2098.0000      8.0020      2.5931      0.1053      3.4470     61.1237     29.0535
  2098.1000      8.0020      2.5857      0.0699      3.8982     64.6655     27.7620
  2098.2000      8.0020      2.5747      0.0911      4.5639     63.9560     26.4336
  2098.3000      7.9987      2.5449      0.0635      6.3692     59.8708     25.6565
  2098.4000      7.9987      2.5108      0.0073      8.4346     54.2411     25.5522
  2098.5000      7.9978      2.4935      0.0503      9.4871     49.7120     25.9482
  2098.6000      7.9978      2.4844      0.0347     10.0378     49.4021     26.7073
  2098.7000      7.9978      2.4683      0.0305     11.0111     52.2780     27.5317
  2098.8000      7.9813      2.4442     -0.0032     12.4735     55.3537     28.2207
  2098.9000      7.9813      2.4232     -0.0313     13.7460     56.1516     28.6486
  2099.0000      7.9720      2.4182      0.0210     14.0508     54.5887     28.6018
  2099.1000      7.9720      2.4345      0.0132     13.0620     53.9218     28.2671
  2099.2000      7.9720      2.4638      0.0650     11.2876     58.1454     28.3527
  2099.3000      7.9797      2.4860      0.0951      9.9409     66.6714     28.9114
  2099.4000      7.9797      2.4950      0.1000      9.3947     72.3962     29.4248
  2099.5000      7.9842      2.5003      0.0977      9.0722     71.4391     30.0653
  2099.6000      7.9842      2.5087      0.0874      8.5639     66.5147     31.2551
  2099.7000      7.9842      2.5238      0.1243      7.6504     60.6591     32.5979
