~Version Information
VERS.                      2.0: CWLS Log ASCII Standard - VERSION 2.0
WRAP.                       NO: One line per depth step
~Well Information Block
STRT.FT                 0.0000: 
STOP.FT              2384.7500: 
STEP.FT                 0.2500: 
NULL.                -999.2500: 
COMP.          Petrogulf Corporation: COMPANY
WELL.           McDaniel 9-34V: WELL
FLD.           Purgatorie River: FIELD
LOC.           620' FSL & 1800' FEL: LOCATION
STAT.                 Colorado: State
CNTY.               Las Animas: COUNTY
CTRY. USA : Country
SECT. 9 : Section
TOWN. 33S : Township
RANG. 67W : Range
SRVC.                Patterson: SERVICE COMPANY
DATE.          Thu Nov 10 12:28:18 2005: LOG DATE
API. 05-071-08333                         : UNIQUE WELL ID
~Curve Information Block
DEPT.FT            0 000 00 00: Depth
AMP3.mV                       : CBL 3' Amplitude
CCL.                          : Casing Collar Locator
GR.GAPI                       : Gamma Ray
TT3.usec                      : CBL 3' Travel Time
~Parameter Information Block
~A  Depth       AMP3        CCL          GR         TT3     
# ...
  2177.5000      6.2543      0.0000     62.0796    605.6638
  2177.7500      5.6762      0.0000     62.6330    588.8024
  2178.0000      5.4660     -2.0000     62.5289    557.5045
  2178.2500      5.2456      2.0000     62.1654    542.9852
  2178.5000      4.8874      2.0000     62.2531    560.0914
  2178.7500      4.4818      0.0000     63.2628    595.2726
  2179.0000      4.1099      0.0000     65.1562    629.2120
  2179.2500      3.7832      0.0000     67.4171    654.9156
  2179.5000      3.5260      0.0000     69.2404    671.0311
  2179.7500      3.3274      0.0000     69.8772    677.6465
  2180.0000      3.0275      0.0000     69.0792    678.3380
  2180.2500      2.5123      0.0000     67.2492    674.3734
  2180.5000      1.9434      0.0000     64.9375    661.7683
  2180.7500      1.5407      0.0000     62.1999    641.4445
  2181.0000      1.3337      0.0000     58.6962    621.9855
  2181.2500      1.2243      0.0000     54.4144    609.1149
  2181.5000      1.1256      0.0000     50.0445    602.5267
  2181.7500      1.0140      0.0000     46.5117    601.0154
  2182.0000      0.8904      0.0000     44.1798    604.6882
  2182.2500      0.7680      0.0000     42.6580    612.5516
  2182.5000      0.6960      0.0000     41.4480    619.6355
  2182.7500      0.6929      0.0000     40.5526    620.8519
  2183.0000      0.7096      0.0000     40.2728    618.1523
  2183.2500      0.7091      0.0000     40.7613    618.6778
  2183.5000      0.7039      0.0000     42.1795    624.5422
  2183.7500      0.7096      0.0000     44.9917    629.0379
  2184.0000      0.7223      0.0000     49.4965    627.4514
  2184.2500      0.7390      0.0000     55.1141    625.4628
  2184.5000      0.7595      0.0000     60.6509    628.3679
  2184.7500      0.7774      0.0000     65.2973    630.6607
  2185.0000      0.7846      0.0000     68.9600    625.7307
  2185.2500      0.7838      0.0000     71.6839    616.4954
  2185.5000      0.8028      0.0000     73.2530    608.7688
  2185.7500      0.8700      0.0000     73.4009    604.3135
  2186.0000      0.9823      0.0000     72.0342    604.6968
  2186.2500      1.1261      0.0000     69.2373    613.3307
  2186.5000      1.3091      0.0000     65.4562    630.1495
  2186.7500      1.5411      0.0000     61.7849    646.7144
  2187.0000      1.8029      0.0000     59.5424    651.3697
  2187.2500      2.0830      0.0000     59.3118    642.6536
  2187.5000      2.4142      0.0000     60.7903    630.9553
  2187.7500      2.8346      0.0000     63.5995    624.6988
  2188.0000      3.3304      0.0000     67.5232    623.6327
  2188.2500      3.8467      0.0000     71.9061    624.4404
  2188.5000      4.3456      0.0000     75.7257    625.3760
  2188.7500      4.7885      0.0000     78.5489    626.1738
  2189.0000      5.0920      0.0000     80.9079    627.0889
  2189.2500      5.1850      0.0000     83.6810    628.8846
  2189.5000      5.0812      0.0000     87.3614    633.1567
  2189.7500      4.8598      0.0000     91.5621    641.2708
  2190.0000      4.6099      0.0000     94.9584    651.4391
  2190.2500      4.3878      0.0000     96.0319    658.3635
  2190.5000      4.1904      0.0000     94.0658    658.5535
  2190.7500      3.9911      0.0000     89.4353    653.6629
  2191.0000      3.7925      0.0000     83.2256    646.7563
  2191.2500      3.6235      0.0000     76.7333    638.4810
  2191.5000      3.5166      0.0000     71.0157    627.0074
  2191.7500      3.4686      0.0000     66.6619    610.5964
  2192.0000      3.4273      0.0000     63.9093    591.0276
  2192.2500      3.3624      0.0000     62.7755    574.0991
  2192.5000      3.3025      0.0000     63.0081    565.9755
  2192.7500      3.2723      0.0000     64.1807    567.4754
  2193.0000      3.2492      0.0000     65.9497    572.5825
  2193.2500      3.1964      0.0000     68.0873    575.0503
  2193.5000      3.1032      0.0000     70.4239    574.9351
  2193.7500      2.9811      0.0000     73.0035    577.3055
  2194.0000      2.8503      0.0000     76.0563    588.2720
  2194.2500      2.7258      0.0000     79.4634    610.6745
  2194.5000      2.5958      0.0000     82.4576    638.4899
  2194.7500      2.4276      0.0000     84.1391    659.8884
  2195.0000      2.2052      0.0000     84.1794    668.2910
  2195.2500      1.9578      0.0000     82.9860    664.4985
  2195.5000      1.7414      0.0000     81.5177    651.6599
  2195.7500      1.5906      0.0000     81.0306    635.0002
  2196.0000      1.4904      0.0000     82.3757    621.1520
  2196.2500      1.3942      0.0000     84.8915    613.0403
  2196.5000      1.2688      0.0000     86.3033    608.5629
  2196.7500      1.1303      0.0000     84.4798    604.1724
  2197.0000      1.0331      0.0000     79.4091    598.0284
  2197.2500      1.0076      0.0000     73.1580    591.5911
  2197.5000      1.0282      0.0000     67.9674    588.6349
  2197.7500      1.0676      0.0000     64.8148    591.9271
  2198.0000      1.1382      0.0000     63.8100    601.8963
  2198.2500      1.2697      0.0000     65.1315    616.5145
  2198.5000      1.4839      0.0000     68.7969    628.5604
  2198.7500      1.7853      0.0000     73.7896    628.7416
  2199.0000      2.1714      0.0000     78.1882    617.5319
  2199.2500      2.6460      0.0000     80.4256    605.4907
  2199.5000      3.2033      0.0000     80.4342    599.8814
  2199.7500      3.8205      0.0000     79.6539    599.6028
  2200.0000      4.4826      0.0000     79.7484    600.6959
  2200.2500      5.1490      0.0000     81.0932    600.1664
  2200.5000      5.7115      0.0000     82.6842    595.9874
  2200.7500      6.0830      0.0000     83.5590    586.1262
  2201.0000      6.2675      0.0000     83.8037    569.4218
  2201.2500      6.2897      0.0000     84.0513    550.4207
  2201.5000      6.1695      0.0000     84.6085    539.4869
  2201.7500      5.9490      0.0000     85.3731    541.6409
  2202.0000      5.6257      0.0000     86.0671    550.5267
  2202.2500      5.1796      0.0000     86.1886    557.5895
  2202.5000      4.8135      0.0000     85.2282    558.7850
  2202.7500      4.8471      0.0000     83.4278    553.4142
  2203.0000      5.1638      0.0000     81.9954    548.9545
  2203.2500      5.3077      0.0000     81.9803    558.8718
  2203.5000      5.1841      0.0000     82.9936    582.7303
  2203.7500      5.0430      0.0000     83.4951    605.2559
  2204.0000      5.0071      2.0000     82.4830    621.4982
  2204.2500      5.0367     -2.0000     80.7033    635.6666
  2204.5000      5.0847      0.0000     80.0883    642.4587
  2204.7500      5.1084      0.0000     82.0378    634.7620
  2205.0000      5.1143      0.0000     86.1199    612.5419
  2205.2500      5.2555      0.0000     90.2435    580.2803
  2205.5000      5.6447      0.0000     92.0263    553.2189
  2205.7500      6.0222      0.0000     90.2881    546.8826
  2206.0000      6.0160      0.0000     85.6320    552.2332
  2206.2500      5.6767      0.0000     79.9837    547.0898
  2206.5000      5.3233      0.0000     75.6178    529.3938
  2206.7500      5.1144      0.0000     74.0434    516.7928
  2207.0000      5.0190      0.0000     75.1898    520.6514
  2207.2500      4.9573      0.0000     77.6192    538.0613
  2207.5000      4.8650      0.0000     79.6962    564.1626
  2207.7500      4.7247      0.0000     80.6202    595.7855
  2208.0000      4.5771      0.0000     80.5994    625.1686
  2208.2500      4.4559      0.0000     80.4339    644.0405
  2208.5000      4.3318      0.0000     80.9543    650.1131
  2208.7500      4.1631      0.0000     82.4675    645.2595
  2209.0000      3.9399      0.0000     84.3936    633.4105
  2209.2500      3.6359      0.0000     85.4304    620.1176
  2209.5000      3.2393      0.0000     84.3641    609.8317
  2209.7500      2.8524      0.0000     81.0883    603.4641
  2210.0000      2.6111      0.0000     76.9069    599.7726
  2210.2500      2.5047      0.0000     73.5863    598.0428
  2210.5000      2.3972      0.0000     71.8262    598.5042
  2210.7500      2.2170      0.0000     70.6460    600.2345
