~Version Information
 VERS.                                  2.0 : CWLS LAS VERSION
 WRAP.                                   NO : WRAPING MODE
 SWARE .                 MController 2.5.0J : SOFTWARE VERSION
~Well Information
 WELL.                          Silva 1-43R : WELL
 COMP.                Petrogulf Corporation : COMPANY
 FLD.                       Purgatory River : FIELD
 LOC.                  NE/SE sec1 T33S R68W : LOCATION
 DATE.                    6/16/06 - 6/17/06 : DATE(S) LOGGED
 SRVC.      Blanco Geological Services, LLC : SERVICE COMPANY
 STAT.                             Colorado : STATE
 CNTY.                           Las Animas : COUNTY
 CTRY.                                  USA : COUNTRY
 API.                       05-071-08372-00 : API NUMBER
 STRT.FT                              12.00 : START DEPTH
 STOP.FT                            2210.00 : STOP DEPTH
 STEP.FT                               1.00 : DEPTH INCREMENT
 NULL.                                -9999 : NULL VALUE
~Curve information
 DEPTH.FT                                   :
 ROP.MIN/FT                                 :
 GAS.UNITS                                  :
~ASCII Log data
# ...
      1812.0         0.37         28.2 
      1813.0         0.37         26.5 
      1814.0         0.40         25.3 
      1815.0         0.43         24.4 
      1816.0         0.43         23.4 
      1817.0         0.47         22.6 
      1818.0         0.47         22.4 
      1819.0         0.52         22.5 
      1820.0         0.57         21.6 
      1821.0         0.40         21.2 
      1822.0         0.50         20.8 
      1823.0         0.47         20.4 
      1824.0         0.50         20.3 
      1825.0         0.50         21.0 
      1826.0         5.43        142.7 
      1827.0         0.57        140.2 
      1828.0         0.50         91.3 
      1829.0         0.55         90.2 
      1830.0         0.63         82.9 
      1831.0         0.53         64.2 
      1832.0         0.53         47.8 
      1833.0         0.53         40.2 
      1834.0         0.57         34.2 
      1835.0         0.58         26.6 
      1836.0         0.53         21.5 
      1837.0         0.57         19.7 
      1838.0         0.60         19.2 
      1839.0         0.60         18.7 
      1840.0         0.60         19.5 
      1841.0         0.68         19.0 
      1842.0         0.60         19.1 
      1843.0         0.57         19.1 
      1844.0         0.63         19.2 
      1845.0         0.70         19.0 
      1846.0         0.82         19.4 
      1847.0         0.77         19.2 
      1848.0         0.77         19.4 
      1849.0         0.80         19.8 
      1850.0         0.78         19.6 
      1851.0         0.77         19.4 
      1852.0         0.80         19.4 
      1853.0         0.77         19.3 
      1854.0         0.78         19.7 
      1855.0         0.97         19.9 
      1856.0         6.10        138.3 
      1857.0         0.63        150.5 
      1858.0         0.70        104.0 
      1859.0         0.73         99.8 
      1860.0         0.57         76.1 
      1861.0         0.55         55.2 
      1862.0         0.63         42.5 
      1863.0         0.53         36.1 
      1864.0         0.57         31.0 
      1865.0         0.57         28.4 
      1866.0         0.57         24.5 
      1867.0         0.62         21.2 
      1868.0         0.57         19.9 
      1869.0         0.63         18.9 
      1870.0         0.57         19.0 
      1871.0         0.57         18.4 
      1872.0         0.72         18.7 
      1873.0         0.87         18.5 
      1874.0         0.57         19.0 
      1875.0         0.43         19.0 
      1876.0         0.40         19.1 
      1877.0         0.40         18.8 
      1878.0         0.47         18.7 
      1879.0         0.62         18.3 
      1880.0         0.47         18.6 
      1881.0         0.40         18.9 
      1882.0         0.43         18.9 
      1883.0         0.47         18.5 
      1884.0         0.53         19.1 
      1885.0         0.65         19.0 
      1886.0         5.42        260.3 
      1887.0         0.57        247.6 
      1888.0         0.58        143.3 
      1889.0         0.53        119.0 
      1890.0         0.83         93.9 
      1891.0         0.67         67.8 
      1892.0         0.47         52.4 
      1893.0         0.30         48.7 
      1894.0         0.40         46.3 
      1895.0         0.85         35.6 
      1896.0         0.90         26.4 
      1897.0         0.53         23.1 
      1898.0         0.43         21.5 
      1899.0         0.53         20.2 
      1900.0         0.88         19.7 
      1901.0         0.57         19.8 
      1902.0         0.63         19.8 
      1903.0         0.53         20.2 
      1904.0         0.53         20.1 
      1905.0         0.55         20.0 
      1906.0         0.67         19.9 
      1907.0         0.97         20.1 
      1908.0         0.77         19.1 
      1909.0         0.47         19.1 
      1910.0         0.48         18.9 
      1911.0         0.50         19.1 
      1912.0         0.53         19.8 
      1913.0         0.63         19.6 
      1914.0         0.57         19.8 
      1915.0         0.53         20.2 
      1916.0         5.47         59.2 
      1917.0         0.50         76.3 
      1918.0         0.37         70.2 
      1919.0         0.47         74.3 
      1920.0         0.55         87.7 
      1921.0         0.57         80.1 
      1922.0         0.63         63.0 
      1923.0         0.67         52.3 
      1924.0         0.63         39.9 
      1925.0         0.60         30.5 
      1926.0         0.35         27.1 
      1927.0         0.30         24.6 
      1928.0         0.43         23.2 
      1929.0         0.57         22.7 
      1930.0         0.50         22.5 
      1931.0         0.50         20.1 
      1932.0         1.02         19.0 
      1933.0         0.80         18.1 
      1934.0         0.97         18.1 
      1935.0         0.70         17.9 
      1936.0         0.88         18.0 
      1937.0         0.83         17.6 
      1938.0         0.63         17.5 
      1939.0         0.47         17.7 
      1940.0         0.63         18.1 
      1941.0         0.75         18.3 
      1942.0         0.43         18.3 
      1943.0         0.43         18.2 
      1944.0         0.43         18.4 
      1945.0         0.37         18.7 
      1946.0         5.50         22.6 
      1947.0         0.50         44.2 
      1948.0         0.70         78.3 
      1949.0         0.57         67.5 
      1950.0         0.40         79.5 
      1951.0         3.55         75.5 
      1952.0         0.65         40.0 
      1953.0         0.47         35.0 
      1954.0         0.43         31.1 
      1955.0         0.50         28.4 
      1956.0         0.57         26.2 
      1957.0         0.63         24.9 
      1958.0         0.45         24.6 
      1959.0         0.33         23.3 
      1960.0         0.33         22.2 
      1961.0         0.37         22.0 
      1962.0         0.40         21.5 
      1963.0         0.30         21.1 
      1964.0         0.23         21.6 
      1965.0         0.23         22.4 
      1966.0         0.23         23.1 
      1967.0         0.17         23.4 
      1968.0         0.30         23.9 
      1969.0         0.33         23.4 
      1970.0         0.32         22.2 
      1971.0         0.27         21.5 
      1972.0         0.30         21.5 
      1973.0         0.33         21.5 
      1974.0         0.33         21.7 
      1975.0         0.33         21.7 
      1976.0         4.65        115.5 
      1977.0         0.52        129.8 
      1978.0         0.47         99.4 
      1979.0         0.40         94.3 
      1980.0         0.33        103.1 
      1981.0         0.43        107.1 
      1982.0         0.43         95.8 
      1983.0         0.50         73.6 
      1984.0         0.52         54.3 
      1985.0         0.53         48.1 
      1986.0         0.57         44.6 
      1987.0         0.57         38.8 
      1988.0         0.63         32.9 
      1989.0         0.53         29.7 
      1990.0         0.55         25.9 
      1991.0         0.63         22.7 
      1992.0         0.40         21.2 
      1993.0         0.50         21.4 
      1994.0         0.40         20.9 
      1995.0         0.33         20.9 
      1996.0         0.43         21.7 
      1997.0         0.53         21.5 
      1998.0         0.55         22.7 
      1999.0         0.47         23.8 
      2000.0         0.50         25.1 
      2001.0         0.47         26.2 
      2002.0         0.60         23.8 
      2003.0         0.53         23.7 
      2004.0         0.52         23.4 
      2005.0         0.53         23.4 
      2006.0         7.13         88.3 
      2007.0         0.60         89.9 
      2008.0         0.47         76.5 
      2009.0         0.47         81.9 
      2010.0         0.78         80.9 
      2011.0         0.47         69.7 
