~Version Information
VERS.                      2.0: CWLS Log ASCII Standard - VERSION 2.0
WRAP.                       NO: One line per depth step
~Well Information Block
STRT.FT                -3.5000: 
STOP.FT              1841.0000: 
STEP.FT                 0.2500: 
NULL.                -999.2500: 
COMP.          Pioneer Natural Resources: COMPANY
WELL.          Corkscrew 33-12 Tr: WELL
FLD.           Purgatorie River: FIELD
LOC.           1870' FSL  & 1706' FEL--------: LOCATION
PROV.                       CO: PROVINCE
CNTY.               Las Animas: COUNTRY
SRVC.          Patterson Wireline: SERVICE COMPANY
DATE.          Mon Apr 04 10:07:45 2005: LOG DATE
UWI.           05 071 08295 00: UNIQUE WELL ID
~Curve Information Block
DEPT.FT            0 000 00 00: Depth
CCL.                          : Casing Collar Locator
TT3.usec                      : CBL 3' Travel Time
AMP3.mV                       : CBL 3' Amplitude
GR.GAPI                       : Gamma Ray
~Parameter Information Block
~A  Depth       CCL         TT3         AMP3         GR     
# ...
  1671.5000      0.0000    739.8784      5.7382    135.6826
  1671.7500      0.0000    741.3099      5.5032    139.5619
  1672.0000      0.0000    731.6177      5.3338    143.3308
  1672.2500      0.0000    716.3885      5.3510    146.8694
  1672.5000      0.0000    701.7181      5.5632    149.4844
  1672.7500      0.0000    691.4246      5.8675    150.4165
  1673.0000      0.0000    687.7732      6.1366    149.7770
  1673.2500      0.0000    691.7486      6.3005    148.7093
  1673.5000      0.0000    701.4301      6.3654    148.1596
  1673.7500      0.0000    711.5869      6.3803    147.3577
  1674.0000      0.0000    716.2183      6.3900    144.0271
  1674.2500      0.0000    711.7476      6.4134    136.5368
  1674.5000      0.0000    698.1051      6.4473    125.6626
  1674.7500      0.0000    677.6934      6.4795    113.9384
  1675.0000      0.0000    654.3801      6.5030    103.5981
  1675.2500      0.0000    633.4471      6.5222     95.5495
  1675.5000      0.0000    620.6130      6.5445     89.9745
  1675.7500      0.0000    618.8534      6.5756     87.2049
  1676.0000      0.0000    626.0359      6.6205     87.8385
  1676.2500      0.0000    637.2078      6.6718     92.2265
  1676.5000      0.0000    649.5945      6.7077    100.0021
  1676.7500      0.0000    664.3898      6.7113    110.1282
  1677.0000      0.0000    683.4888      6.6704    121.4115
  1677.2500      0.0000    705.2562      6.5660    132.8269
  1677.5000      0.0000    724.0052      6.3969    143.2149
  1677.7500      0.0000    733.8976      6.2114    151.1256
  1678.0000      0.0000    733.3492      6.0866    155.7285
  1678.2500      0.0000    725.0068      6.0728    157.7941
  1678.5000      0.0000    711.0754      6.1580    159.0814
  1678.7500      0.0000    689.4472      6.2796    160.7394
  1679.0000      0.0000    655.6015      6.3700    162.9429
  1679.2500      0.0000    609.0113      6.3975    165.8441
  1679.5000      0.0000    557.3832      6.3777    169.7473
  1679.7500      0.0000    513.6248      6.3484    174.1055
  1680.0000      0.0000    488.6823      6.3335    177.1872
  1680.2500      0.0000    487.4285      6.3316    177.1545
  1680.5000      0.0000    508.8430      6.3304    173.0653
  1680.7500      0.0000    546.4775      6.3267    164.8139
  1681.0000      0.0000    588.9018      6.3314    152.8513
  1681.2500      0.0000    623.4065      6.3555    138.4229
  1681.5000      0.0000    641.9994      6.3821    123.6604
  1681.7500      0.0000    644.9475      6.3588    110.7948
  1682.0000      0.0000    639.8624      6.2493    100.9216
  1682.2500      0.0000    637.3736      6.1016     93.5103
  1682.5000      0.0000    644.6845      6.0313     87.3889
  1682.7500      0.0000    660.7216      6.1150     82.3006
  1683.0000      0.0000    677.8376      6.3132     79.3180
  1683.2500      0.0000    688.9883      6.5011     79.5705
  1683.5000      0.0000    692.9928      6.5658     82.5836
  1683.7500      0.0000    693.4766      6.4875     85.9168
  1684.0000      0.0000    694.4177      6.3407     86.6913
  1684.2500      0.0000    697.0183      6.2267     83.9152
  1684.5000      0.0000    699.6108      6.1995     79.4103
  1684.7500      0.0000    699.6827      6.2441     76.4285
  1685.0000      0.0000    696.2120      6.3143     77.7192
  1685.2500      0.0000    690.5034      6.3708     84.6929
  1685.5000      0.0000    684.9618      6.3719     97.0342
  1685.7500      0.0000    681.2762      6.2645    112.2638
  1686.0000      0.0000    679.6730      6.0158    126.6493
  1686.2500      0.0000    679.4222      5.6520    137.8005
  1686.5000      0.0000    679.9208      5.2569    146.0970
  1686.7500      0.0000    682.0164      4.9376    152.8315
  1687.0000      0.0000    688.5757      4.7857    157.5685
  1687.2500      0.0000    702.3090      4.8469    158.3702
  1687.5000      0.0000    721.8770      5.1072    154.1952
  1687.7500      0.0000    741.3904      5.4900    146.2343
  1688.0000      0.0000    755.3781      5.8677    137.3680
  1688.2500     -2.0000    763.0692      6.1031    130.8167
  1688.5000     -2.0000    766.4238      6.1084    128.4629
  1688.7500      0.0000    766.2171      5.8922    129.5250
  1689.0000      0.0000    762.4634      5.5739    130.9251
  1689.2500      0.0000    756.7056      5.3387    129.3721
  1689.5000      0.0000    750.7994      5.3246    123.5485
  1689.7500      0.0000    744.0461      5.5351    114.9772
  1690.0000      0.0000    733.9811      5.8750    107.2868
  1690.2500      0.0000    720.2460      6.2503    104.3242
  1690.5000      0.0000    705.9389      6.6111    108.0676
  1690.7500      0.0000    694.4454      6.9306    117.5890
  1691.0000      0.0000    685.3804      7.1754    129.7464
  1691.2500      0.0000    673.9375      7.3009    140.9903
  1691.5000      0.0000    655.2144      7.2891    148.8499
  1691.7500      0.0000    630.7974      7.1901    152.4251
  1692.0000      0.0000    610.2398      7.0987    152.4476
  1692.2500      0.0000    603.1545      7.0833    151.0885
  1692.5000      0.0000    610.3083      7.1432    150.8501
  1692.7500      0.0000    625.3429      7.2213    152.8477
  1693.0000      0.0000    643.1854      7.2517    156.2142
  1693.2500      0.0000    661.9846      7.2181    159.2835
  1693.5000      0.0000    678.4324      7.1628    161.0996
  1693.7500      0.0000    686.5968      7.1207    161.7442
  1694.0000      0.0000    682.4512      7.0707    161.7310
  1694.2500      0.0000    668.1053      6.9736    161.5505
  1694.5000      0.0000    651.8256      6.8222    161.5311
  1694.7500      0.0000    643.4836      6.6340    161.5193
  1695.0000      0.0000    647.8103      6.4381    160.7494
  1695.2500      0.0000    661.4046      6.2913    158.6432
  1695.5000      0.0000    676.7327      6.2631    155.8215
  1695.7500      0.0000    688.3944      6.3731    153.8286
  1696.0000      0.0000    695.4594      6.5632    153.7868
  1696.2500      0.0000    699.7471      6.7377    155.5776
  1696.5000      0.0000    703.2923      6.8159    158.1739
  1696.7500      0.0000    706.9327      6.7570    160.4029
  1697.0000      0.0000    710.2006      6.5737    161.5326
  1697.2500      0.0000    711.9969      6.3409    161.5751
  1697.5000      0.0000    711.3785      6.1801    161.1875
  1697.7500      0.0000    708.0829      6.1881    161.1916
  1698.0000      0.0000    703.0190      6.3566    162.1565
  1698.2500      0.0000    698.3972      6.5838    164.3344
  1698.5000      0.0000    696.7253      6.7779    167.6612
  1698.7500      0.0000    698.9544      6.9175    171.5506
  1699.0000      0.0000    703.4341      7.0122    174.7525
  1699.2500      0.0000    706.8976      7.0606    175.8053
  1699.5000      0.0000    706.6871      7.0661    173.8434
  1699.7500      0.0000    702.3895      7.0491    169.0458
  1700.0000      0.0000    695.7686      7.0267    162.4645
  1700.2500      0.0000    689.3055      7.0082    155.5960
  1700.5000      0.0000    684.6301      7.0049    150.0057
  1700.7500      0.0000    682.0019      7.0131    146.8517
  1701.0000      0.0000    680.8713      7.0047    146.2688
  1701.2500      0.0000    680.6727      6.9573    147.2556
  1701.5000      0.0000    681.2144      6.8710    148.3130
  1701.7500      0.0000    682.6081      6.7478    148.1827
  1702.0000      0.0000    684.7176      6.5905    146.3468
  1702.2500      0.0000    686.4421      6.4259    143.3186
  1702.5000      0.0000    685.7656      6.2942    140.3596
  1702.7500      0.0000    681.0125      6.2171    138.5141
  1703.0000      0.0000    672.0605      6.1967    137.7078
  1703.2500      0.0000    660.2713      6.2244    136.8797
  1703.5000      0.0000    647.7612      6.2658    134.9650
  1703.7500      0.0000    636.8713      6.2633    131.6044
  1704.0000      0.0000    629.5719      6.1905    127.2546
  1704.2500      0.0000    626.9525      6.0849    123.1624
  1704.5000      0.0000    629.4717      5.9970    120.9115
  1704.7500      0.0000    637.3603      5.9236    121.3563
