~Version Information
VERS.                      2.0: CWLS Log ASCII Standard - VERSION 2.0
WRAP.                       NO: One line per depth step
~Well Information Block
STRT.FT               866.0000: 
STOP.FT              2029.0000: 
STEP.FT                 0.2500: 
NULL.                -999.2500: 
COMP.          Petrogulf Corporation: COMPANY
WELL.             State 16-21R: WELL
FLD.           Purgatorie River: FIELD
LOC.           203' FNL & 1560' FWL: LOCATION
PROV.                 Colorado: PROVINCE
CNTY.               Las Animas: COUNTRY
SRVC.                Patterson: SERVICE COMPANY
DATE.          Tue Aug 16 12:55:36 2005: LOG DATE
UWI.                071 08313 : UNIQUE WELL ID
~Curve Information Block
DEPT.FT            0 000 00 00: Depth
SP.mV                         : DIL Spontaneous Potential
RILD.Ohm-m                    : DIL Deep Resistivity
RILM.Ohm-m                    : DIL Medium Resistivity
RLL3.Ohm-m                    : DIL Shallow Resistivity
GR.GAPI                       : Gamma Ray
~Parameter Information Block
~A  Depth        SP         RILD        RILM        RLL3         GR     
# ...
  1090.0000     34.1924     25.8259     28.3492     47.4996    106.5378
  1090.2500     33.7186     24.5689     26.8244     30.9591     99.0633
  1090.5000     34.1832     23.4234     25.3568     30.0750     97.8861
  1090.7500     35.6594     22.7021     24.7548     33.0770     91.2272
  1091.0000     35.6697     21.3789     24.3345     35.3574     91.5391
  1091.2500     34.5714     20.0763     22.5168     36.6311     97.4605
  1091.5000     32.5264     19.3872     20.9686     36.2846     96.9835
  1091.7500     30.0882     18.8717     19.3978     34.6065    107.6812
  1092.0000     27.8185     18.2761     17.9403     29.6665    118.8601
  1092.2500     26.1013     18.1500     16.8960     23.1888    122.4711
  1092.5000     25.8944     18.4616     16.3036     18.4047    132.4576
  1092.7500     26.5761     18.8781     16.3022     16.8956    126.1574
  1093.0000     26.9846     19.3319     16.8349     18.7325    115.7496
  1093.2500     26.5201     19.5352     17.8941     21.7398    119.5907
  1093.5000     26.0750     19.6460     18.9288     26.1543    103.6332
  1093.7500     26.2673     19.7111     20.4218     33.2277     92.3727
  1094.0000     26.5765     19.6581     21.4871     39.6517     92.8344
  1094.2500     27.6261     19.4925     22.8866     48.2402     82.8390
  1094.5000     31.4524     20.0154     24.3071     51.7935     81.0227
  1094.7500     34.9684     20.4816     25.0289     51.6430     74.9310
  1095.0000     36.8900     20.7382     25.5457     57.0533     80.3298
  1095.2500     38.1098     21.3294     26.0369     63.1460     82.6026
  1095.5000     38.7646     22.5644     26.8872     61.1632     87.7380
  1095.7500     38.9126     23.5046     26.3020     54.0127     91.7904
  1096.0000     38.6544     23.4610     26.1930     48.0043     98.8053
  1096.2500     38.6398     23.9908     25.2074     40.1230    105.9039
  1096.5000     39.1908     24.1909     24.5883     30.2816    110.2426
  1096.7500     40.2009     23.5419     24.8022     26.3916    109.7119
  1097.0000     41.1556     23.1399     24.3331     31.7514    102.5406
  1097.2500     41.7807     22.0625     24.3074     42.1251    101.9628
  1097.5000     42.3601     21.4335     23.4345     54.1543     98.5121
  1097.7500     43.1159     20.8285     22.2715     48.7566    102.8291
  1098.0000     43.8572     20.0362     20.7094     33.9499    102.1989
  1098.2500     45.1151     19.2519     19.3833     27.7076    101.6389
  1098.5000     47.7742     18.9888     18.7480     26.9416    109.6608
  1098.7500     50.0131     18.6866     18.0536     27.9367    115.5527
  1099.0000     51.1715     18.7947     17.6646     25.6758    120.8753
  1099.2500     51.8658     18.5118     17.6721     21.3937    118.5092
  1099.5000     51.9806     18.1921     17.8891     22.9829    128.0442
  1099.7500     51.4331     17.8439     17.9387     27.0648    124.1106
  1100.0000     50.7736     17.9365     18.3381     36.5241    121.5002
  1100.2500     49.8185     18.2614     18.0739     36.3413    121.7660
  1100.5000     50.4632     18.6067     18.0197     30.3856    118.5205
  1100.7500     52.2440     18.8405     17.8107     26.5023    116.8699
  1101.0000     53.6559     19.1899     17.9031     25.7207    119.5997
  1101.2500     53.9946     20.1092     18.4694     24.9104    116.9098
  1101.5000     53.6075     20.4418     19.3226     25.0488    116.7918
  1101.7500     53.1966     20.6490     21.2618     29.9617    108.4552
  1102.0000     52.8898     21.1625     22.9998     38.6778    100.9654
  1102.2500     52.8302     20.8183     25.6682     48.1769     93.2168
  1102.5000     53.3798     20.0010     26.9979     60.7573     93.6696
  1102.7500     53.7778     19.3805     26.7241     69.0795     92.7174
  1103.0000     53.8770     18.5098     26.0651     64.3353     97.2018
  1103.2500     54.1363     17.8863     23.5447     61.5520     99.4549
  1103.5000     53.4987     17.5955     21.1345     54.1367    108.6768
  1103.7500     52.4876     17.5543     18.6976     42.4948    110.6834
  1104.0000     51.1482     17.1936     16.8838     28.0496    115.9391
  1104.2500     49.8325     16.8068     15.8521     19.6018    122.3381
  1104.5000     49.5012     16.6922     15.0712     17.1426    121.8880
  1104.7500     48.4338     16.6096     14.8447     17.2002    117.7576
  1105.0000     46.5499     16.4172     14.6325     19.8403    118.1559
  1105.2500     44.0917     16.2730     14.6980     19.9761    119.8866
  1105.5000     41.0124     16.1930     14.6465     17.5371    118.5518
  1105.7500     37.6508     15.9786     14.7165     18.3853    111.1794
  1106.0000     34.2162     16.1287     15.1609     20.2779    101.6672
  1106.2500     30.9852     16.1077     15.8556     22.7313     96.8311
  1106.5000     28.8371     16.6494     16.9615     26.5861     88.7558
  1106.7500     27.9397     17.3155     18.2731     30.8411     79.4860
  1107.0000     27.1942     18.3976     20.0185     37.9011     69.2074
  1107.2500     25.3014     19.8785     21.9156     45.0055     65.3220
  1107.5000     23.4637     21.3875     23.8422     51.1977     60.2601
  1107.7500     22.1320     23.1475     26.0737     60.1973     59.8976
  1108.0000     21.0936     25.1261     28.6346     71.7262     53.1232
  1108.2500     20.5328     28.1438     30.8672     82.7552     53.3705
  1108.5000     20.7883     30.5594     34.6125     89.0627     46.7708
  1108.7500     21.4743     33.2125     39.1683     90.0989     44.9491
  1109.0000     21.9425     36.9440     43.2626     94.4457     50.1090
  1109.2500     21.5338     40.5289     46.5979     98.7648     55.5602
  1109.5000     20.2353     42.9868     49.6663     96.2019     50.3020
  1109.7500     18.2986     44.6857     54.6302     94.1645     48.6146
  1110.0000     16.4885     47.6829     57.4774     97.0101     48.4266
  1110.2500     14.9451     49.5994     63.1701     97.0494     48.2558
  1110.5000     14.1872     50.7044     63.9166     92.5408     45.7351
  1110.7500     14.3462     51.5852     63.9320     85.5236     42.5743
  1111.0000     14.6414     54.4004     63.5868     78.3275     48.8325
  1111.2500     14.9571     53.1689     64.2445     76.2972     52.8509
  1111.5000     15.1181     53.7714     63.8708     76.3596     51.1971
  1111.7500     15.2898     53.8661     67.4307     76.6798     43.0568
  1112.0000     16.1255     53.5123     67.6007     78.3329     50.2258
  1112.2500     17.8036     49.9059     68.0088     79.6471     52.3013
  1112.5000     20.6289     47.9971     68.6564     81.3590     51.5010
  1112.7500     23.8542     42.8952     65.8718     84.9986     52.9956
  1113.0000     27.2074     39.6397     59.3462     87.8333     50.1259
  1113.2500     31.0713     36.1755     57.3019     83.6585     53.5969
  1113.5000     34.2614     33.1404     50.4024     84.6864     54.0832
  1113.7500     37.5065     30.1547     41.6773     86.0710     60.7552
  1114.0000     40.7591     27.5816     34.8469     84.1004     85.4711
  1114.2500     43.6306     25.6177     28.0348     66.0113    103.8289
  1114.5000     46.8413     24.1687     24.2047     35.8223    116.3878
  1114.7500     49.5853     22.0957     21.5113     21.6234    119.3148
  1115.0000     52.1871     20.8914     19.2266     18.7968    115.5129
  1115.2500     54.8370     19.5594     18.4151     18.6932    117.7839
  1115.5000     57.1107     18.4009     17.4628     18.9814    124.7565
  1115.7500     58.9679     17.2054     16.6442     20.6748    126.0595
  1116.0000     60.9497     16.5488     15.8284     20.6467    115.1250
  1116.2500     62.5893     15.6971     14.8809     20.7098    115.2843
  1116.5000     64.7901     15.0870     14.4334     19.2236    123.4878
  1116.7500     67.4022     14.5248     14.1785     18.7916    129.7577
  1117.0000     69.4435     14.2175     13.8681     20.1786    118.6615
  1117.2500     70.9896     13.8159     13.8704     20.3211    113.3396
  1117.5000     72.1705     13.5005     13.7095     21.0689    112.5407
  1117.7500     73.3093     13.2486     13.6180     20.5123    118.3551
