~Version Information
VERS.                      2.0: CWLS Log ASCII Standard - VERSION 2.0
WRAP.                       NO: One line per depth step
~Well Information Block
STRT.FT               318.1000: 
STOP.FT              2688.0000: 
STEP.FT                 0.1000: 
NULL.                -999.2500: 
COMP.          Petrogulf Corporation: COMPANY
WELL.            Montoya 1-24V: WELL
FLD.           Purgatorie River: FIELD
LOC.           605' FSL & 2557' FWL: LOCATION
CNTY.               Las Animas: COUNTY
SRVC.                         : SERVICE COMPANY
DATE.          Wed Oct 20 14:56:37 2004: LOG DATE
UWI.           05 071 08194 00: UNIQUE WELL ID
STAT.                 Colorado: STATE
~Curve Information Block
DEPT.FT            0 000 00 00: Depth
DCAL.in                       : CDL Caliper
RHOB.g/cc                     : CDL Bulk Density
RHOC.g/cc                     : CDL Density Correction
DPOR.pu                       : CDL Density Porosity
GR.GAPI                       : Gamma Ray
NPOR.pu                       : Neutron Porosity
~Parameter Information Block
~A  Depth       DCAL        RHOB        RHOC        DPOR         GR         NPOR    
# ...
   346.9000   -999.2500   -999.2500   -999.2500   -999.2500     68.9614     49.8201
   347.0000   -999.2500   -999.2500   -999.2500   -999.2500     71.6457     49.2028
   347.1000   -999.2500   -999.2500   -999.2500   -999.2500     73.0746     48.8458
   347.2000   -999.2500   -999.2500   -999.2500   -999.2500     74.6555     48.9320
   347.3000   -999.2500   -999.2500   -999.2500   -999.2500     79.7893     49.1775
   347.4000   -999.2500   -999.2500   -999.2500   -999.2500     83.3823     49.3301
   347.5000   -999.2500   -999.2500   -999.2500   -999.2500     79.8609     49.4196
   347.6000   -999.2500   -999.2500   -999.2500   -999.2500     75.1904     49.5296
   347.7000   -999.2500   -999.2500   -999.2500   -999.2500     75.2894     49.4149
   347.8000   -999.2500   -999.2500   -999.2500   -999.2500     77.0452     48.8747
   347.9000   -999.2500   -999.2500   -999.2500   -999.2500     76.9442     48.3608
   348.0000   -999.2500   -999.2500   -999.2500   -999.2500     75.8431     48.1402
   348.1000   -999.2500   -999.2500   -999.2500   -999.2500     74.3834     47.8608
   348.2000   -999.2500   -999.2500   -999.2500   -999.2500     71.7813     47.4934
   348.3000   -999.2500   -999.2500   -999.2500   -999.2500     68.3572     47.1851
   348.4000   -999.2500   -999.2500   -999.2500   -999.2500     64.8110     46.8751
   348.5000   -999.2500   -999.2500   -999.2500   -999.2500     60.3471     46.6865
   348.6000   -999.2500   -999.2500   -999.2500   -999.2500     55.7351     46.6755
   348.7000   -999.2500   -999.2500   -999.2500   -999.2500     52.8559     46.5457
   348.8000   -999.2500   -999.2500   -999.2500   -999.2500     51.2000     46.0856
   348.9000   -999.2500   -999.2500   -999.2500   -999.2500     51.7582     45.3314
   349.0000   -999.2500   -999.2500   -999.2500   -999.2500     56.0360     44.5030
   349.1000   -999.2500   -999.2500   -999.2500   -999.2500     61.1358     43.9651
   349.2000   -999.2500   -999.2500   -999.2500   -999.2500     61.8581     44.0977
   349.3000   -999.2500   -999.2500   -999.2500   -999.2500     59.2371     44.6234
   349.4000   -999.2500   -999.2500   -999.2500   -999.2500     57.9194     44.9122
   349.5000   -999.2500   -999.2500   -999.2500   -999.2500     56.6692     44.9183
   349.6000   -999.2500   -999.2500   -999.2500   -999.2500     53.0012     45.0224
   349.7000   -999.2500   -999.2500   -999.2500   -999.2500     47.7674     45.2159
   349.8000   -999.2500   -999.2500   -999.2500   -999.2500     44.4516     45.1581
   349.9000   -999.2500   -999.2500   -999.2500   -999.2500     46.1507     44.9920
   350.0000   -999.2500   -999.2500   -999.2500   -999.2500     48.7133     45.2835
   350.1000   -999.2500   -999.2500   -999.2500   -999.2500     45.4943     45.9017
   350.2000   -999.2500   -999.2500   -999.2500   -999.2500     38.9598     46.0939
   350.3000   -999.2500   -999.2500   -999.2500   -999.2500     34.9624     45.5959
   350.4000   -999.2500   -999.2500     -0.9218   -999.2500     33.4638     44.8662
   350.5000      4.7998   -999.2500     -0.8836   -999.2500     31.4712     44.3298
   350.6000      4.7998   -999.2500     -0.8542   -999.2500     29.6505     43.8198
   350.7000      4.7998   -999.2500     -0.9085   -999.2500     30.5139     43.3681
   350.8000      4.7393   -999.2500     -0.8525   -999.2500     32.9339     43.3616
   350.9000      4.7393     -0.3280     -0.9899    180.4878     33.7586     43.5893
   351.0000      4.7346     -0.3225     -0.9128    180.1545     32.9823     43.6751
   351.1000      4.7346     -0.2970     -0.8939    178.6039     32.0705     43.6920
   351.2000      4.7346     -0.2721     -0.8876    177.0961     30.6073     43.6998
   351.3000      4.7599     -0.2638     -0.8105    176.5963     29.6952     43.7262
   351.4000      4.7599     -0.2714     -0.9281    177.0566     31.6127     44.0745
   351.5000      4.7686     -0.2770     -0.8812    177.3964     35.1918     44.6017
   351.6000      4.7686     -0.2691     -0.9145    176.9126     37.7496     44.7538
   351.7000      4.7686     -0.2525     -0.8298    175.9068     40.9086     44.7877
   351.8000      4.7365     -0.2373     -0.8653    174.9869     45.4318     45.1327
   351.9000      4.7365     -0.2223     -0.8379    174.0800     46.3287     45.3601
   352.0000      4.7421     -0.2071     -0.8232    173.1603     43.3240     45.2054
   352.1000      4.7421     -0.2005     -0.8057    172.7567     42.8648     45.1424
   352.2000      4.7421     -0.1990     -0.8579    172.6687     46.0873     45.4690
   352.3000      4.7611     -0.1826     -0.8790    171.6743     50.0632     45.8733
   352.4000      4.7611     -0.1454     -0.7749    169.4170     53.5736     46.1294
   352.5000      4.7783     -0.1068     -0.7358    167.0807     54.7752     46.3351
   352.6000      4.7783     -0.0810     -0.7434    165.5126     53.0790     46.7035
   352.7000      4.7783     -0.0604     -0.7658    164.2655     51.8103     47.3433
   352.8000      4.7501     -0.0315     -0.7442    162.5122     54.7439     47.9110
   352.9000      4.7501      0.0068     -0.6649    160.1945     60.8829     48.0781
   353.0000      4.7467      0.0449     -0.6851    157.8837     65.5821     47.9837
   353.1000      4.7467      0.0788     -0.6535    155.8295     69.5133     47.7141
   353.2000      4.7467      0.1097     -0.6465    153.9555     76.8417     47.5734
   353.3000      4.7531      0.1451     -0.6508    151.8149     85.2301     47.9175
   353.4000      4.7531      0.1996     -0.6384    148.5066     91.5316     48.4658
   353.5000      4.7356      0.2823     -0.5596    143.4943     98.3567     48.9506
   353.6000      4.7356      0.3834     -0.4796    137.3672    104.9135     49.3751
   353.7000      4.7356      0.4817     -0.3628    131.4124    104.3311     49.6953
   353.8000      4.7376      0.5698     -0.4119    126.0711     96.3558     50.0469
   353.9000      4.7376      0.6608     -0.3003    120.5568     88.4371     50.4828
   354.0000      4.7542      0.7597     -0.2206    114.5650     85.2002     50.8493
   354.1000      4.7542      0.8623     -0.1637    108.3458     85.9029     51.1286
   354.2000      4.7542      0.9665     -0.0733    102.0275     89.9892     51.2537
   354.3000      4.8012      1.0665     -0.0149     95.9726     97.0080     51.1542
   354.4000      4.8012      1.1588      0.0477     90.3782    101.2011     50.9457
   354.5000      4.7679      1.2507      0.0778     84.8076     99.7266     50.8216
   354.6000      4.7679      1.3465      0.1603     79.0007     98.9534     50.8747
   354.7000      4.7679      1.4420      0.1954     73.2124    100.8155     50.9598
   354.8000      4.7928      1.5440      0.2166     67.0320    102.4492     50.8236
   354.9000      4.7928      1.6668      0.3283     59.5898    103.6922     50.5651
   355.0000      4.7946      1.8069      0.3958     51.0949    103.4502     50.3900
   355.1000      4.7946      1.9485      0.4752     42.5149    100.9905     50.2959
   355.2000      4.7946      2.0801      0.5188     34.5368     98.9447     50.3276
   355.3000      4.8168      2.1919      0.5770     27.7634     99.6423     50.4938
   355.4000      4.8168      2.2754      0.6023     22.7025    104.1794     50.7038
   355.5000      4.8109      2.3337      0.6352     19.1696    108.5251     50.9587
   355.6000      4.8109      2.3711      0.6868     16.9020    107.4042     51.2908
   355.7000      4.8109      2.3846      0.7153     16.0845    102.9683     51.6325
   355.8000      4.8234      2.3777      0.6591     16.5015    100.7959     51.8993
   355.9000      4.8234      2.3674      0.6497     17.1286    104.1863     52.0173
   356.0000      4.8287      2.3752      0.6231     16.6542    109.7246     51.8306
   356.1000      4.8287      2.4342      0.6404     13.0806    112.2362     51.5086
   356.2000      4.8287      2.5963      0.6200      3.2567    111.4394     51.4095
   356.3000      4.8021      2.8760      0.7251    -13.6968    110.5918     51.4131
   356.4000      4.8021      3.1775      0.8785    -31.9711    112.2314     51.1987
