~Version Information
 VERS.                                  2.0 : CWLS LAS VERSION
 WRAP.                                   NO : WRAPING MODE
 SWARE .                 MController 2.5.0N : SOFTWARE VERSION
~Well Information
 WELL.                    Corkscrew 33-12Tr : WELL
 COMP.    Pioneer Natural Resources USA Inc : COMPANY
 FLD.                      Purgatoire River : FIELD
 LOC.                   NW/SE Sec T33S R67W : LOCATION
 DATE.                      3/23-25,28/2005 : DATE(S) LOGGED
 SRVC.       Blanco Geological Services LLC : SERVICE COMPANY
 STAT.                                   CO : STATE
 CNTY.                           Las Animas : COUNTY
 CTRY.                                  USA : COUNTRY
 API.                       05-071-08295-00 : API NUMBER
 STRT.FT                             609.00 : START DEPTH
 STOP.FT                            1871.00 : STOP DEPTH
 STEP.FT                               1.00 : DEPTH INCREMENT
 NULL.                                -9999 : NULL VALUE
~Curve information
 DEPTH.FT                                   :
 ROP.MIN/FT                                 :
 GAS.UNITS                                  :
~ASCII Log data
# ...
      1609.0         0.83         17.1 
      1610.0         0.17         15.8 
      1611.0         0.83         16.1 
      1612.0         0.50         15.7 
      1613.0         0.83         18.8 
      1614.0         0.92         16.7 
      1615.0         0.50         24.7 
      1616.0         0.67         24.1 
      1617.0         0.33         12.5 
      1618.0         0.83         14.2 
      1619.0         0.42         13.5 
      1620.0         0.58         15.0 
      1621.0         0.58         15.1 
      1622.0         0.75         14.2 
      1623.0         0.50         13.4 
      1624.0         0.67         14.8 
      1625.0         0.42         26.0 
      1626.0         0.58         23.2 
      1627.0         0.67         12.9 
      1628.0         0.83          9.5 
      1629.0         0.50          8.4 
      1630.0         0.75          9.1 
      1631.0         0.33         11.5 
      1632.0         0.75         12.0 
      1633.0         0.83         15.0 
      1634.0         0.83         14.9 
      1635.0         1.00         17.7 
      1636.0         0.92         22.3 
      1637.0         0.83         12.4 
      1638.0         1.08          8.9 
      1639.0         0.75          8.5 
      1640.0         0.92         12.5 
      1641.0         0.75         15.2 
      1642.0         1.08         14.3 
      1643.0         0.83          9.0 
      1644.0         1.08         12.3 
      1645.0         0.83         12.7 
      1646.0         0.83         24.1 
      1647.0         0.75         14.3 
      1648.0         1.00          9.3 
      1649.0         0.75         10.4 
      1650.0         0.75         21.2 
      1651.0         0.83         22.4 
      1652.0         0.67         11.8 
      1653.0         0.42          9.0 
      1654.0         0.33          8.2 
      1655.0         0.58          8.2 
      1656.0         0.50         10.7 
      1657.0         0.67         11.8 
      1658.0         0.83         11.3 
      1659.0         0.17         10.5 
      1660.0         0.50         10.5 
      1661.0         0.67         15.2 
      1662.0         0.33         16.2 
      1663.0         0.75         15.1 
      1664.0         0.75         12.1 
      1665.0         0.67         11.9 
      1666.0         0.67         14.1 
      1667.0         0.42         14.5 
      1668.0         0.42         11.9 
      1669.0         0.58         12.7 
      1670.0         0.25         13.6 
      1671.0         0.67         13.9 
      1672.0         0.75         11.1 
      1673.0         0.75          9.6 
      1674.0         0.25         10.9 
      1675.0         0.67         12.2 
      1676.0         0.25         10.8 
      1677.0         0.58          9.7 
      1678.0         0.67          8.9 
      1679.0         0.25          9.0 
      1680.0         0.75          9.9 
      1681.0         0.75         13.8 
      1682.0         0.50         14.3 
      1683.0         0.67         12.6 
      1684.0         0.25         12.0 
      1685.0         0.42         14.5 
      1686.0         0.83         16.3 
      1687.0         0.58         16.3 
      1688.0         0.83         15.5 
      1689.0         0.17         15.2 
      1690.0         0.67         14.8 
      1691.0         0.83         16.7 
      1692.0         0.42         21.3 
      1693.0         0.42         20.3 
      1694.0         0.75         13.6 
      1695.0         0.67         10.1 
      1696.0         0.50          9.3 
      1697.0         0.33          9.6 
      1698.0         0.75         10.2 
      1699.0         0.50         12.2 
      1700.0         0.25         12.0 
      1701.0         0.75         10.5 
      1702.0         0.17          9.9 
      1703.0         0.75         10.6 
      1704.0         0.08         10.9 
      1705.0         0.17         11.2 
      1706.0         0.50         13.7 
      1707.0         0.75         13.9 
      1708.0         0.17         12.5 
      1709.0         0.83         14.7 
      1710.0         0.58         13.7 
      1711.0         0.67         13.1 
      1712.0         0.25         13.2 
      1713.0         0.67         14.6 
      1714.0         0.33         14.2 
      1715.0         0.58         12.6 
      1716.0         0.58         13.2 
      1717.0         0.33         13.7 
      1718.0         0.58         16.4 
      1719.0         0.58         17.0 
      1720.0         0.50         11.4 
      1721.0         0.67         16.6 
      1722.0         0.67         21.7 
      1723.0         0.83         14.2 
      1724.0         0.33          9.4 
      1725.0         0.75          9.3 
      1726.0         0.67         12.8 
      1727.0         0.33         14.3 
      1728.0         0.50         12.9 
      1729.0         0.42          9.6 
      1730.0         0.33          8.4 
      1731.0         0.58          7.9 
      1732.0         0.42          7.9 
      1733.0         0.33          8.4 
      1734.0         0.67          9.4 
      1735.0         0.25          9.1 
      1736.0         0.67          9.2 
      1737.0         0.25          9.7 
      1738.0         0.33         10.4 
      1739.0         0.17         11.7 
      1740.0         0.67         14.3 
      1741.0         0.25         15.9 
      1742.0         0.58         17.0 
      1743.0         0.33         17.5 
      1744.0         0.42         17.6 
      1745.0         0.67         17.5 
      1746.0         0.17         15.5 
      1747.0         0.33         16.0 
      1748.0         0.58         18.8 
      1749.0         0.17         17.9 
      1750.0         0.17         16.2 
      1751.0         0.33         15.0 
      1752.0         0.33         12.2 
      1753.0         0.25         11.2 
      1754.0         0.25         11.4 
      1755.0         0.50         10.8 
      1756.0         0.33          9.9 
      1757.0         0.25          9.9 
      1758.0         0.58         11.0 
      1759.0         0.50         14.9 
      1760.0         0.25         16.8 
      1761.0         0.50         17.3 
      1762.0         0.25         15.1 
      1763.0         0.33         15.8 
      1764.0         0.42         15.5 
      1765.0         0.50         16.8 
      1766.0         0.50         16.9 
      1767.0         0.42         16.0 
      1768.0         0.17         13.6 
      1769.0         0.08         13.4 
      1770.0         0.42         14.3 
      1771.0         0.17         14.2 
      1772.0         0.33         16.6 
      1773.0         0.25         16.2 
      1774.0         0.17         15.3 
      1775.0         0.33         14.3 
      1776.0         0.58         13.0 
      1777.0         0.08         14.5 
      1778.0         0.50         16.1 
      1779.0         0.42         16.0 
      1780.0         0.42         13.9 
      1781.0         0.50         11.9 
      1782.0         0.08         11.7 
      1783.0         0.58         11.4 
      1784.0         0.08         11.2 
      1785.0         0.17         10.4 
      1786.0         0.50         10.3 
      1787.0         0.25          9.5 
      1788.0         0.50          9.6 
      1789.0         0.25          9.9 
      1790.0         0.50         10.1 
      1791.0         0.17          9.9 
      1792.0         0.25          9.5 
      1793.0         0.50          9.4 
      1794.0         0.42          8.7 
      1795.0         0.17          8.4 
      1796.0         0.58         10.5 
      1797.0         0.08         10.3 
      1798.0         0.50         14.6 
      1799.0         0.58         17.3 
      1800.0         0.17         13.1 
      1801.0         0.50         11.6 
      1802.0         0.17          9.7 
      1803.0         0.17         10.6 
      1804.0         0.50         12.1 
      1805.0         0.33         13.2 
      1806.0         0.42         15.5 
      1807.0         0.33         15.5 
      1808.0         0.50         13.9 
