~Version Information
VERS.                      2.0: CWLS Log ASCII Standard - VERSION 2.0
WRAP.                       NO: One line per depth step
~Well Information Block
STRT.FT               875.6000: 
STOP.FT              2510.0000: 
STEP.FT                 0.1000: 
NULL.                -999.2500: 
COMP.          Petrogulf Corporation: COMPANY
WELL.          Collister 17-31 V: WELL
FLD.           Purgatoire River: FIELD
LOC.           910' FNL & 1594' FEL: LOCATION
PROV.                 Colorado: PROVINCE
CNTY.               Las Animas: COUNTRY
SRVC.                Patterson: SERVICE COMPANY
DATE.          Fri Dec 12 13:49:30 2003: LOG DATE
UWI.                          : UNIQUE WELL ID
~Curve Information Block
DEPT.FT            0 000 00 00: Depth
DCAL.in                       : CDL Caliper
DPOR.pu                       : CDL Density Porosity
NPOR.pu                       : Neutron Porosity
RHOB.g/cc                     : CDL Bulk Density
RHOC.g/cc                     : CDL Density Correction
GR.GAPI                       : Gamma Ray
~Parameter Information Block
~A  Depth       DCAL        DPOR        NPOR        RHOB        RHOC         GR     
# ...
  2392.4000      8.2663     10.0012     27.2799      2.4850      0.1025     86.5408
  2392.5000      8.2579      8.0508     26.6545      2.5172      0.1412     88.6944
  2392.6000      8.2579      6.9185     26.4786      2.5358      0.1320     92.7070
  2392.7000      8.2579      7.3298     27.1953      2.5291      0.1587     94.6599
  2392.8000      8.2672      8.7776     28.5602      2.5052      0.0923     95.8790
  2392.9000      8.2672      9.8761     29.6572      2.4870      0.0778     98.0912
  2393.0000      8.2687     10.0243     29.9376      2.4846      0.0449     98.8532
  2393.1000      8.2687      9.3829     29.8716      2.4952      0.0910     98.9830
  2393.2000      8.2687      8.6118     29.9897      2.5079      0.0754    100.1300
  2393.3000      8.2789      8.5946     30.0766      2.5082      0.1320    100.6956
  2393.4000      8.2789      9.6326     29.9440      2.4911      0.0539    102.0505
  2393.5000      8.2682     11.1004     29.6435      2.4668      0.0342    103.8027
  2393.6000      8.2682     13.6224     29.6002      2.4252      0.0880     99.6083
  2393.7000      8.2682     19.0111     30.2720      2.3363      0.0637     86.9930
  2393.8000      8.2703     26.6345     31.2859      2.2105     -0.0189     75.0139
  2393.9000      8.2703     33.8619     31.8858      2.0913     -0.0706     71.2324
  2394.0000      8.2582     40.2424     32.1942      1.9860     -0.0282     72.4089
  2394.1000      8.2582     47.3613     32.8626      1.8685     -0.1168     72.1444
  2394.2000      8.2582     55.4175     33.5381      1.7356     -0.1535     67.9433
  2394.3000      8.2326     62.7922     33.6151      1.6139     -0.1538     61.5069
  2394.4000      8.2326     67.6627     33.4837      1.5336     -0.1236     56.8834
  2394.5000      8.2229     69.4866     33.6485      1.5035      0.0018     54.7337
  2394.6000      8.2229     69.3769     34.0179      1.5053      0.0011     51.8834
  2394.7000      8.2229     69.0947     34.2882      1.5099      0.1154     45.8178
  2394.8000      8.2145     70.1615     34.5355      1.4923      0.1281     38.2920
  2394.9000      8.2145     72.7566     34.7637      1.4495      0.0656     32.8706
  2395.0000      8.2386     75.9085     34.7982      1.3975      0.0339     28.7695
  2395.1000      8.2386     79.0857     35.0223      1.3451      0.0287     26.5849
  2395.2000      8.2386     82.2566     35.5971      1.2928     -0.0235     28.5934
  2395.3000      8.3178     84.8998     35.9391      1.2492     -0.0584     29.1996
  2395.4000      8.3178     86.2177     35.8110      1.2274     -0.0684     24.2120
  2395.5000      8.2762     86.0891     35.5033      1.2295     -0.0353     20.4446
  2395.6000      8.2762     85.1315     35.3226      1.2453     -0.0364     22.4176
  2395.7000      8.2762     83.8897     35.2132      1.2658     -0.0184     25.6397
  2395.8000      8.3407     82.4976     35.0519      1.2888      0.0064     28.2899
  2395.9000      8.3407     80.9390     34.9462      1.3145      0.0682     30.6745
  2396.0000      8.7830     79.2017     35.0737      1.3432      0.0194     30.2943
  2396.1000      8.7830     77.5448     35.4585      1.3705      0.1093     28.1425
  2396.2000      8.7830     76.4610     35.6387      1.3884      0.0712     28.4004
  2396.3000      8.8128     75.8789     35.1978      1.3980      0.0847     31.9061
  2396.4000      8.8128     75.3830     34.6237      1.4062      0.0657     34.7820
  2396.5000      8.3077     74.8675     34.6678      1.4147      0.0933     35.2188
  2396.6000      8.3077     75.1796     35.0160      1.4095      0.0975     35.0086
  2396.7000      8.3077     77.4376     35.0732      1.3723      0.0747     32.5869
  2396.8000      8.2901     80.9228     35.0805      1.3148     -0.0216     27.6611
  2396.9000      8.2901     83.3851     35.2467      1.2741     -0.0195     25.6275
  2397.0000      8.2446     83.8646     35.2850      1.2662     -0.0033     27.7947
  2397.1000      8.2446     83.2882     34.8713      1.2757      0.0183     29.6204
  2397.2000      8.2446     82.8538     34.3242      1.2829      0.0425     28.6032
  2397.3000      8.3125     82.8572     34.4452      1.2829     -0.0046     27.5810
  2397.4000      8.3125     83.1659     35.3053      1.2778      0.0404     27.7550
  2397.5000      8.3824     83.9344     36.1482      1.2651     -0.0061     25.9712
  2397.6000      8.3824     84.6859     36.5415      1.2527     -0.0215     21.9476
  2397.7000      8.3824     84.5677     36.6125      1.2546     -0.0271     18.6196
  2397.8000      8.3978     83.8814     36.5312      1.2660      0.0034     17.6946
  2397.9000      8.3978     83.9166     36.3347      1.2654      0.0213     18.8216
  2398.0000      8.4715     85.0464     35.9144      1.2467      0.0335     21.9414
  2398.1000      8.4715     85.9243     35.6987      1.2322     -0.0066     26.7000
  2398.2000      8.4715     85.4970     36.1527      1.2393      0.0295     28.9332
  2398.3000      8.4474     84.9010     36.7412      1.2491      0.0921     25.3801
  2398.4000      8.4474     85.5182     36.8482      1.2390      0.0429     19.9202
  2398.5000      8.3921     86.5879     36.6294      1.2213     -0.0162     18.5864
  2398.6000      8.3921     87.0640     36.4704      1.2134      0.0186     23.2006
  2398.7000      8.3921     87.2850     36.4341      1.2098      0.0095     29.3750
  2398.8000      8.4491     87.5397     36.4027      1.2056     -0.0001     31.2689
  2398.9000      8.4491     87.5790     36.4561      1.2049      0.0176     29.2670
  2399.0000      8.3795     87.0627     36.7680      1.2135     -0.0062     27.6777
  2399.1000      8.3795     86.0996     37.1131      1.2294      0.0667     28.1515
  2399.2000      8.3795     85.0687     36.9495      1.2464     -0.0057     29.2898
  2399.3000      8.4775     82.9432     36.1533      1.2814      0.0197     30.3741
  2399.4000      8.4775     77.6262     34.8904      1.3692      0.0682     32.8755
  2399.5000      9.3893     68.0980     33.4585      1.5264      0.0593     37.5373
  2399.6000      9.3893     56.2327     32.4001      1.7222      0.2107     42.5957
  2399.7000      9.3893     46.2108     31.8240      1.8875      0.2919     47.4511
  2399.8000      9.7862     40.5378     31.4700      1.9811      0.2878     53.0494
  2399.9000      9.7862     38.2289     31.1682      2.0192      0.3085     59.5857
  2400.0000     10.3997     37.1030     30.6698      2.0378      0.2896     68.3271
  2400.1000     10.3997     35.0806     30.0729      2.0712      0.2277     79.4397
  2400.2000     10.3997     30.5677     29.6772      2.1456      0.0857     86.8731
  2400.3000     10.6590     24.0896     29.4129      2.2525      0.0374     87.4708
  2400.4000     10.6590     18.2116     29.3720      2.3495      0.0820     84.7054
  2400.5000     10.4343     14.8914     29.6112      2.4043      0.1307     83.3114
  2400.6000     10.4343     14.1127     29.7027      2.4171      0.1670     86.8571
  2400.7000     10.4343     14.7549     29.6005      2.4065      0.0765     95.9889
  2400.8000      8.6502     15.5346     29.5618      2.3937      0.0387    108.1971
  2400.9000      8.6502     16.0134     29.4183      2.3858      0.0755    114.4835
  2401.0000      8.3612     16.5274     28.8351      2.3773      0.0273    108.0673
  2401.1000      8.3612     16.8862     27.8944      2.3714      0.0312     98.4259
  2401.2000      8.3612     17.1124     27.4305      2.3676      0.0583     97.4728
  2401.3000      8.3378     17.5734     27.9011      2.3600      0.0160    102.6192
  2401.4000      8.3378     17.3572     28.6408      2.3636     -0.0009    109.4067
  2401.5000      8.2917     15.5470     28.9863      2.3935      0.0798    116.4677
  2401.6000      8.2917     13.3394     29.0088      2.4299      0.1282    118.5517
  2401.7000      8.2917     12.3595     28.9697      2.4461      0.1141    115.2598
  2401.8000      8.2706     12.5448     29.0009      2.4430      0.0829    110.9395
  2401.9000      8.2706     13.0433     29.1460      2.4348      0.0997    106.0489
