~Version Information
VERS.                      2.0: CWLS Log ASCII Standard - VERSION 2.0
WRAP.                       NO: One line per depth step
~Well Information Block
STRT.FT               300.0000: 
STOP.FT               871.2500: 
STEP.FT                 0.2500: 
NULL.                -999.2500: 
COMP.          Pioneer Natural Resources: COMPANY
WELL.            Hustler 12-17: WELL
FLD.           Purgatoire River: FIELD
LOC.           2150' FNL & 450' FWL: LOCATION
PROV.                 Colorado: PROVINCE
CNTY.               Las Animas: COUNTRY
SRVC.                Patterson: SERVICE COMPANY
DATE.          Mon Dec 20 09:25:34 2004: LOG DATE
UWI.           05 071 08236 00: UNIQUE WELL ID
~Curve Information Block
DEPT.FT            0 000 00 00: Depth
SN.Ohm-m                      : IEL Short Normal
SP.mV                         : IEL Spontaneous Potential
DIR.Ohm-m                     : IEL Induction Resistivity
GR.GAPI                       : Gamma Ray
~Parameter Information Block
~A  Depth        SN          SP         DIR          GR     
# ...
   434.0000    645.9807   -800.0005     25.8556     60.1959
   434.2500    645.9807   -800.0005     24.0950     64.1045
   434.5000    645.9807   -800.0005     22.2807     73.4084
   434.7500    645.9807   -800.0005     20.4966     81.5940
   435.0000    645.9807   -800.0005     18.8109     94.7891
   435.2500    645.9807   -800.0005     17.2738    102.7602
   435.5000    645.9807   -800.0005     15.9174    112.0761
   435.7500    645.9807   -800.0005     14.7560    116.4240
   436.0000    645.9807   -800.0005     13.7889    120.3335
   436.2500    645.9807   -800.0005     13.0048    121.3097
   436.5000    645.9807   -800.0005     12.3869    120.9108
   436.7500    645.9807   -800.0005     11.9174    120.0582
   437.0000    645.9807   -800.0005     11.5783    119.0937
   437.2500    645.9807   -800.0005     11.3526    119.1260
   437.5000    645.9807   -800.0005     11.2249    120.4015
   437.7500    645.9807   -800.0005     11.1813    121.8220
   438.0000    645.9807   -800.0005     11.2079    123.7855
   438.2500    645.9807   -800.0005     11.2888    124.2700
   438.5000    645.9807   -800.0005     11.4061    123.1692
   438.7500    645.9807   -800.0005     11.5403    121.5494
   439.0000    645.9807   -800.0005     11.6737    119.1078
   439.2500    645.9807   -800.0005     11.7952    118.0102
   439.5000    645.9807   -800.0005     11.9029    116.7364
   439.7500    645.9807   -800.0005     12.0014    115.2850
   440.0000    645.9807   -800.0005     12.0946    111.0581
   440.2500    645.9807   -800.0005     12.1798    106.9578
   440.5000    645.9807   -800.0005     12.2461    100.2808
   440.7500    645.9807   -800.0005     12.2793     96.6480
   441.0000    645.9807   -800.0005     12.2682     94.2016
   441.2500    645.9807   -800.0005     12.2103     95.0287
   441.5000    645.9807   -800.0005     12.1126     99.3619
   441.7500    645.9807   -800.0005     11.9868    103.4620
   442.0000    645.9807   -800.0005     11.8420    110.1011
   442.2500    645.9807   -800.0005     11.6789    114.3278
   442.5000    645.9807   -800.0005     11.4904    119.5264
   442.7500    645.9807   -800.0005     11.2679    121.7740
   443.0000    645.9807   -800.0005     11.0099    123.2816
   443.2500    645.9807   -800.0005     10.7270    123.6835
   443.5000    645.9807   -800.0005     10.4411    124.9208
   443.7500    645.9807   -800.0005     10.1799    126.6151
   444.0000    645.9807   -800.0005      9.9685    129.8034
   444.2500    645.9807   -800.0005      9.8226    131.4282
   444.5000    645.9807   -800.0005      9.7468    131.6507
   444.7500    645.9807   -800.0005      9.7363    129.9729
   445.0000    645.9807   -800.0005      9.7812    125.3005
   445.2500    645.9807   -800.0005      9.8719    121.6459
   445.5000    645.9807   -800.0005     10.0022    116.9225
   445.7500    645.9807   -800.0005     10.1682    114.6195
   446.0000    645.9807   -800.0005     10.3639    111.7407
   446.2500    645.9807   -800.0005     10.5779    109.5541
   446.5000    645.9807   -800.0005     10.7936    105.7324
   446.7500    645.9807   -800.0005     10.9921    103.5672
   447.0000    645.9807   -800.0005     11.1537    102.5068
   447.2500    645.9807   -800.0005     11.2592    103.5894
   447.5000    645.9807   -800.0005     11.2930    107.2402
   447.7500    645.9807   -800.0005     11.2493    110.4522
   448.0000    645.9807   -800.0005     11.1353    115.6680
   448.2500    645.9807   -800.0005     10.9674    118.9253
   448.5000    645.9807   -800.0005     10.7647    122.5297
   448.7500    645.9807   -800.0005     10.5468    123.8189
   449.0000    645.9807   -800.0005     10.3329    124.5169
   449.2500    645.9807   -800.0005     10.1415    124.6212
   449.5000    645.9807   -800.0005      9.9851    124.6247
   449.7500    645.9807   -800.0005      9.8654    124.4614
   450.0000    645.9807   -800.0005      9.7705    123.7815
   450.2500    645.9807   -800.0005      9.6768    123.0595
   450.5000    645.9807   -800.0005      9.5567    121.8959
   450.7500    645.9807   -800.0005      9.3891    121.3881
   451.0000    645.9807   -800.0005      9.1680    121.5506
   451.2500    645.9807   -800.0005      8.9033    122.3354
   451.5000    645.9807   -800.0005      8.6155    124.0269
   451.7500    645.9807   -800.0005      8.3285    125.0297
   452.0000    645.9807   -800.0005      8.0627    125.6906
   452.2500    645.9807   -800.0005      7.8321    125.3877
   452.5000    645.9807   -800.0005      7.6435    123.9429
   452.7500    645.9807   -800.0005      7.4973    122.6796
   453.0000    645.9807   -800.0005      7.3897    121.2661
   453.2500    645.9807   -800.0005      7.3153    121.0989
   453.5000    645.9807   -800.0005      7.2687    122.1648
   453.7500    645.9807   -800.0005      7.2443    123.4599
   454.0000    645.9807   -800.0005      7.2370    125.5152
   454.2500    645.9807   -800.0005      7.2408    126.5827
   454.5000    645.9807   -800.0005      7.2486    127.3433
   454.7500    645.9807   -800.0005      7.2516    127.2116
   455.0000    645.9807   -800.0005      7.2394    126.1783
   455.2500    645.9807   -800.0005      7.2021    125.1551
   455.5000    645.9807   -800.0005      7.1336    123.7236
   455.7500    645.9807   -800.0005      7.0348    123.2346
   456.0000    645.9807   -800.0005      6.9135    123.5735
   456.2500    645.9807   -800.0005      6.7818    124.3619
   456.5000    645.9807   -800.0005      6.6520    125.7076
   456.7500    645.9807   -800.0005      6.5331    126.4797
   457.0000    645.9807   -800.0005      6.4300    127.5878
   457.2500    645.9807   -800.0005      6.3455    128.3046
   457.5000    645.9807   -800.0005      6.2818    128.8606
   457.7500    645.9807   -800.0005      6.2406    128.7796
   458.0000    645.9807   -800.0005      6.2219    128.7588
   458.2500    645.9807   -800.0005      6.2222    129.3118
   458.5000    645.9807   -800.0005      6.2342    130.7019
   458.7500    645.9807   -800.0005      6.2486    131.3462
   459.0000    645.9807   -800.0005      6.2575    131.1339
   459.2500    645.9807   -800.0005      6.2567    130.2946
   459.5000    645.9807   -800.0005      6.2467    128.8762
   459.7500    645.9807   -800.0005      6.2303    128.5070
   460.0000    645.9807   -800.0005      6.2109    129.5391
   460.2500    645.9807   -800.0005      6.1918    131.1154
   460.5000    645.9807   -800.0005      6.1776    133.8102
   460.7500    645.9807   -800.0005      6.1738    135.4044
   461.0000    645.9807   -800.0005      6.1847    137.6678
   461.2500    645.9807   -800.0005      6.2110    139.3735
   461.5000    645.9807   -800.0005      6.2495    141.8684
   461.7500    645.9807   -800.0005      6.2954    142.6812
   462.0000    645.9807   -800.0005      6.3457    141.3950
   462.2500    645.9807   -800.0005      6.4000    138.9628
   462.5000    645.9807   -800.0005      6.4584    134.5344
   462.7500    645.9807   -800.0005      6.5197    132.1065
   463.0000    645.9807   -800.0005      6.5804    129.9501
   463.2500    645.9807   -800.0005      6.6357    129.2113
   463.5000    645.9807   -800.0005      6.6818    128.4639
   463.7500    645.9807   -800.0005      6.7187    128.2315
   464.0000    645.9807   -800.0005      6.7510    128.8874
   464.2500    645.9807   -800.0005      6.7858    130.1074
   464.5000    645.9807   -800.0005      6.8288    132.3511
   464.7500    645.9807   -800.0005      6.8817    133.4618
   465.0000    645.9807   -800.0005      6.9436    133.9872
   465.2500    645.9807   -800.0005      7.0143    133.6684
   465.5000    645.9807   -800.0005      7.0968    132.4510
   465.7500    645.9807   -800.0005      7.1970    131.1384
   466.0000    645.9807   -800.0005      7.3205    128.5148
   466.2500    645.9807   -800.0005      7.4699    126.6945
   466.5000    645.9807   -800.0005      7.6435    124.5260
   466.7500    645.9807   -800.0005      7.8372    123.4189
   467.0000    645.9807   -800.0005      8.0479    121.6721
   467.2500    645.9807   -800.0005      8.2759    120.3695
