~Version Information
VERS.                      2.0: CWLS Log ASCII Standard - VERSION 2.0
WRAP.                       NO: One line per depth step
~Well Information Block
STRT.FT               292.0000: 
STOP.FT               801.0000: 
STEP.FT                 0.1000: 
NULL.                -999.2500: 
COMP.          Pioneer Natural Resources: COMPANY
WELL.          HG Duran 34-27 Tr: WELL
FLD.           Purgatoire River: FIELD
LOC.           1076' FSL & 1465' FEL: LOCATION
PROV.                 Colorado: PROVINCE
CNTY.               Las Animas: COUNTRY
SRVC.                Patterson: SERVICE COMPANY
DATE.          Wed Apr 13 08:36:06 2005: LOG DATE
UWI.           05 071 08218 00: UNIQUE WELL ID
~Curve Information Block
DEPT.FT            0 000 00 00: Depth
DCAL.in                       : CDL Caliper
RHOB.g/cc                     : CDL Bulk Density
RHOC.g/cc                     : CDL Density Correction
DPOR.pu                       : CDL Density Porosity
GR.GAPI                       : Gamma Ray
NPOR.pu                       : Neutron Porosity
~Parameter Information Block
~A  Depth       DCAL        RHOB        RHOC        DPOR         GR         NPOR    
# ...
   589.6000      7.8173      2.5484      0.1048      6.1576    109.0337     19.4796
   589.7000      7.8173      2.5708      0.2556      4.8014    111.3205     19.8962
   589.8000      7.8193      2.5903      0.1919      3.6185    109.4746     20.3898
   589.9000      7.8193      2.5931      0.2152      3.4478    106.6559     20.6397
   590.0000      7.8160      2.5762      0.1612      4.4712    105.6671     20.6448
   590.1000      7.8160      2.5595      0.1333      5.4821    104.8192     20.5309
   590.2000      7.8160      2.5583      0.1110      5.5577    101.7944     20.4000
   590.3000      7.7678      2.5605      0.0796      5.4224     98.3275     20.4629
   590.4000      7.7678      2.5445      0.1116      6.3937     97.3564     20.6166
   590.5000      7.7770      2.4961      0.1250      9.3291     99.7312     20.7328
   590.6000      7.7770      2.4358      0.0472     12.9839    103.6508     21.0112
   590.7000      7.7770      2.4103      0.0076     14.5274    106.6934     21.5055
   590.8000      7.8037      2.4236      0.0874     13.7188    110.3154     21.9084
   590.9000      7.8037      2.4429      0.0976     12.5503    116.4259     22.0234
   591.0000      7.8062      2.4753      0.0656     10.5891    120.0215     22.0751
   591.1000      7.8062      2.5487      0.1493      6.1392    115.8859     22.4011
   591.2000      7.8062      2.6462      0.2606      0.2275    106.0217     23.2214
   591.3000      7.7681      2.7303      0.3158     -4.8668     96.2333     24.3061
   591.4000      7.7681      2.7802      0.3657     -7.8929     91.2814     24.9630
   591.5000      7.7622      2.7742      0.3782     -7.5257     91.3703     24.7724
   591.6000      7.7622      2.7139      0.2418     -3.8752     91.4511     24.2812
   591.7000      7.7622      2.6521      0.0767     -0.1262     85.5886     24.0760
   591.8000      7.7680      2.6267      0.1189      1.4110     74.5123     23.9411
   591.9000      7.7680      2.6201      0.1055      1.8134     65.0501     23.6887
   592.0000      7.8000      2.6088      0.0254      2.4946     60.7165     23.3606
   592.1000      7.8000      2.5945     -0.0361      3.3609     59.8290     22.8960
   592.2000      7.8000      2.5852      0.0019      3.9294     60.8988     22.2249
   592.3000      7.8238      2.5788      0.0420      4.3149     62.4659     21.2322
   592.4000      7.8238      2.5539      0.0655      5.8268     64.2649     20.0401
   592.5000      7.8348      2.4933      0.0037      9.4996     70.1799     19.5044
   592.6000      7.8348      2.4220     -0.0171     13.8197     80.4747     20.0101
   592.7000      7.8348      2.3841     -0.0383     16.1135     89.4341     20.7619
   592.8000      7.8262      2.3950      0.0221     15.4530     97.1723     20.9053
   592.9000      7.8262      2.4297      0.0870     13.3542    107.5317     20.6697
   593.0000      7.7987      2.4597      0.0518     11.5356    116.6287     20.7518
   593.1000      7.7987      2.4850      0.0560      9.9991    119.9873     21.2388
   593.2000      7.7987      2.5106      0.1909      8.4501    122.1871     21.8682
   593.3000      7.7925      2.5366      0.1772      6.8705    127.5577     22.5276
   593.4000      7.7925      2.5705      0.2373      4.8210    133.5378     23.0054
   593.5000      7.8339      2.6065      0.2662      2.6337    137.0830     23.1030
   593.6000      7.8339      2.6356      0.2610      0.8745    135.6124     23.2070
   593.7000      7.8339      2.6548      0.2369     -0.2923    128.5560     23.6229
   593.8000      7.7686      2.6534      0.2183     -0.2044    118.4122     23.9683
   593.9000      7.7686      2.6170      0.2168      2.0015    109.0153     23.9662
   594.0000      7.7175      2.5534      0.1232      5.8565    102.1895     23.7829
   594.1000      7.7175      2.5040      0.0463      8.8508     95.8110     23.5248
   594.2000      7.7175      2.4908      0.1228      9.6473     89.8665     23.3499
   594.3000      7.7535      2.4927      0.0241      9.5354     86.5651     23.1826
   594.4000      7.7535      2.4903      0.0781      9.6767     86.0188     22.7753
   594.5000      7.7887      2.4753      0.0854     10.5864     87.1985     22.2733
   594.6000      7.7887      2.4660      0.0511     11.1508     89.2189     21.8485
   594.7000      7.7887      2.4970      0.0979      9.2747     89.4944     21.2943
   594.8000      7.7818      2.5544      0.2272      5.7968     86.7014     20.7006
   594.9000      7.7818      2.5892      0.1962      3.6837     83.4937     20.3513
   595.0000      7.8123      2.5985      0.1310      3.1228     81.7745     20.1333
   595.1000      7.8123      2.6124      0.1925      2.2777     80.4443     19.8733
   595.2000      7.8123      2.6315      0.2077      1.1197     78.9879     19.7023
   595.3000      7.7613      2.6447      0.1727      0.3218     77.7451     19.6805
   595.4000      7.7613      2.6556      0.2033     -0.3403     76.4511     19.6218
   595.5000      7.7392      2.6608      0.2068     -0.6570     76.1210     19.4485
   595.6000      7.7392      2.6584      0.1588     -0.5081     77.8585     19.3479
   595.7000      7.7392      2.6581      0.2057     -0.4931     78.6706     19.4059
   595.8000      7.7510      2.6555      0.1491     -0.3349     76.2904     19.4660
   595.9000      7.7510      2.6330      0.0972      1.0274     73.3919     19.3914
   596.0000      7.7873      2.5871      0.1095      3.8104     74.6715     18.9560
   596.1000      7.7873      2.5387      0.0589      6.7449     81.2153     18.4221
   596.2000      7.7873      2.5151      0.0611      8.1783     89.3291     18.3220
   596.3000      7.8186      2.5183      0.0688      7.9792     94.0163     18.5457
   596.4000      7.8186      2.5310      0.0940      7.2150     94.3271     18.9443
   596.5000      7.8185      2.5329      0.0508      7.0960     92.9934     19.5039
   596.6000      7.8185      2.5169      0.1105      8.0685     92.7430     20.0022
   596.7000      7.8185      2.4978      0.0804      9.2238     94.6861     20.4677
   596.8000      7.8057      2.4912      0.0168      9.6250     96.6350     20.7331
   596.9000      7.8057      2.4864      0.0563      9.9152     97.0159     20.6507
   597.0000      7.8105      2.4741      0.0296     10.6578     97.1902     20.5791
   597.1000      7.8105      2.4734      0.0171     10.7000     96.8036     20.7423
   597.2000      7.8105      2.4927     -0.0003      9.5359     95.1980     21.0733
   597.3000      7.8015      2.5129      0.0146      8.3067     95.0299     21.3598
   597.4000      7.8015      2.5148      0.0885      8.1948     98.1016     21.3512
   597.5000      7.8131      2.4949      0.0504      9.4023    102.2075     21.2663
   597.6000      7.8131      2.4587      0.0787     11.5959    105.7487     21.4983
   597.7000      7.8131      2.4160      0.0245     14.1848    108.2495     21.9007
   597.8000      7.7923      2.3934     -0.0071     15.5524    105.3942     22.0566
   597.9000      7.7923      2.4131      0.0917     14.3605     96.9604     21.8331
   598.0000      7.7498      2.4623      0.0951     11.3762     91.4128     21.2426
   598.1000      7.7498      2.5178      0.1510      8.0145     92.8929     20.7282
   598.2000      7.7498      2.5664      0.1794      5.0637     98.5986     20.6504
   598.3000      7.7140      2.5941      0.2559      3.3884    103.4431     20.4643
   598.4000      7.7140      2.5892      0.2714      3.6835    102.1229     20.0252
   598.5000      7.7180      2.5637      0.2024      5.2332     95.8298     19.8146
   598.6000      7.7180      2.5369      0.1815      6.8526     91.2114     19.8557
   598.7000      7.7180      2.5153      0.1373      8.1613     93.6442     19.9613
   598.8000      7.7182      2.5118      0.0600      8.3777    103.4260     20.1649
   598.9000      7.7182      2.5369      0.0430      6.8528    116.1707     20.5914
   599.0000      7.7335      2.5707      0.0608      4.8073    126.4325     21.2314
   599.1000      7.7335      2.5771      0.1710      4.4183    130.7350     21.9090
