~Version Information
VERS.                      2.0: CWLS Log ASCII Standard - VERSION 2.0
WRAP.                       NO: One line per depth step
~Well Information Block
STRT.FT               -11.2500: 
STOP.FT              1934.7500: 
STEP.FT                 0.2500: 
NULL.                -999.2500: 
COMP.          Pioneer Natural Resources: COMPANY
WELL.          Commander 43-26 Tr: WELL
FLD.           Purgatorie River: FIELD
LOC.           2439' FSL  & 446' FEL--------: LOCATION
PROV.                       CO: PROVINCE
CNTY.               Las Animas: COUNTRY
SRVC.          Patterson Wireline: SERVICE COMPANY
DATE.          Tue Apr 26 09:07:23 2005: LOG DATE
UWI.           05 071 08341 00: UNIQUE WELL ID
~Curve Information Block
DEPT.FT            0 000 00 00: Depth
CCL.                          : Casing Collar Locator
TT3.usec                      : CBL 3' Travel Time
AMP3.mV                       : CBL 3' Amplitude
GR.GAPI                       : Gamma Ray
~Parameter Information Block
~A  Depth       CCL         TT3         AMP3         GR     
# ...
   759.2500      0.0000    411.8233     18.6391    121.9578
   759.5000      0.0000    364.8268     20.4517    122.6941
   759.7500      0.0000    334.9173     22.0206    122.5929
   760.0000      0.0000    318.6123     23.3177    123.0684
   760.2500      0.0000    310.7764     24.4080    124.5819
   760.5000      0.0000    307.3685     25.3425    126.4378
   760.7500      0.0000    306.0243     26.1548    127.4072
   761.0000      0.0000    305.5454     26.8978    126.8956
   761.2500      0.0000    305.4001     27.6467    125.3124
   761.5000      0.0000    305.3509     28.4703    123.1801
   761.7500      0.0000    305.3113     29.4052    120.5695
   762.0000      0.0000    305.2608     30.4475    117.7887
   762.2500      0.0000    305.2064     31.5622    115.8639
   762.5000      0.0000    305.1629     32.6971    115.7500
   762.7500      0.0000    305.1331     33.8034    117.5802
   763.0000      0.0000    305.0697     34.8581    120.9970
   763.2500      0.0000    304.7960     35.8779    125.6459
   763.5000      0.0000    303.8802     36.9093    131.0720
   763.7500      0.0000    301.6005     37.9894    136.5429
   764.0000      0.0000    297.2668     39.1007    141.1387
   764.2500      0.0000    290.9067     40.1563    144.0202
   764.5000      0.0000    283.6735     41.0335    144.6949
   764.7500      0.0000    277.2971     41.6357    143.0090
   765.0000      0.0000    272.9524     41.9435    139.0436
   765.2500      0.0000    270.6822     42.0243    133.4288
   765.5000      0.0000    269.7861     41.9968    127.8101
   765.7500      0.0000    269.5187     41.9704    124.3594
   766.0000      0.0000    269.4382     42.0014    124.2691
   766.2500      0.0000    269.3753     42.0964    126.8044
   766.5000      0.0000    269.2888     42.2482    129.9702
   766.7500      0.0000    269.1697     42.4622    131.9024
   767.0000      0.0000    269.0108     42.7526    131.6967
   767.2500      0.0000    268.8118     43.1235    129.5614
   767.5000      0.0000    268.5797     43.5705    126.5155
   767.7500      0.0000    268.3187     44.1039    123.6988
   768.0000      0.0000    268.0244     44.7536    121.8675
   768.2500      0.0000    267.6993     45.5322    121.4775
   768.5000      0.0000    267.3677     46.3986    122.7363
   768.7500      0.0000    267.0655     47.2734    125.2145
   769.0000      0.0000    266.8160     48.0901    127.7116
   769.2500      0.0000    266.6215     48.8196    128.8856
   769.5000      0.0000    266.4744     49.4459    128.1728
   769.7500      0.0000    266.3692     49.9396    126.3783
   770.0000      0.0000    266.3028     50.2610    125.4512
   770.2500      0.0000    266.2695     50.3757    127.0877
   770.5000      0.0000    266.2622     50.2699    130.9718
   770.7500      0.0000    266.2770     49.9638    134.5934
   771.0000      0.0000    266.3150     49.4988    135.2673
   771.2500      0.0000    266.3825     48.8991    132.4063
   771.5000      0.0000    266.4911     48.1619    127.6657
   771.7500      0.0000    266.6544     47.2958    122.9901
   772.0000      0.0000    266.8821     46.3569    118.9698
   772.2500      0.0000    267.1727     45.4372    115.3228
   772.5000      0.0000    267.5053     44.6269    112.4996
   772.7500      0.0000    267.8317     43.9996    111.8950
   773.0000      0.0000    268.0772     43.6290    114.2128
   773.2500      0.0000    268.1638     43.5935    118.2689
   773.5000      0.0000    268.0563     43.9302    122.0393
   773.7500      0.0000    267.7966     44.5815    124.7472
   774.0000      0.0000    267.4905     45.3879    127.5351
   774.2500      0.0000    267.2547     46.1319    132.0003
   774.5000      0.0000    267.1644     46.6146    138.1974
   774.7500      0.0000    267.2289     46.7429    144.2176
   775.0000      0.0000    267.3977     46.5692    147.6592
   775.2500      0.0000    267.5968     46.2278    147.3488
   775.5000      0.0000    267.7715     45.8256    143.8578
   775.7500      0.0000    267.9079     45.3992    138.9588
   776.0000      0.0000    268.0262     44.9510    134.6301
   776.2500      0.0000    268.1684     44.4857    131.7940
   776.5000      0.0000    268.4165     44.0062    129.5182
   776.7500      0.0000    268.9626     43.4990    125.7358
   777.0000      0.0000    270.2278     42.9414    119.0134
   777.2500      0.0000    272.8961     42.3240    109.5873
   777.5000      0.0000    277.6038     41.6630     98.9700
   777.7500      0.0000    284.2791     41.0001     89.0811
   778.0000      0.0000    291.7529     40.3957     81.7684
   778.2500      0.0000    298.2985     39.9160     78.5103
   778.5000      0.0000    302.7343     39.6115     79.8953
   778.7500      0.0000    304.9951     39.4977     85.0850
   779.0000      0.0000    305.7739     39.5444     91.7894
   779.2500      0.0000    305.8500     39.6700     97.0771
   779.5000      0.0000    305.7239     39.7572     98.8152
   779.7500      0.0000    305.6073     39.6967     96.8344
   780.0000      0.0000    305.5481     39.4244     92.7682
   780.2500      0.0000    305.5409     38.9177     88.6135
   780.5000      0.0000    305.5843     38.1764     85.2613
   780.7500      0.0000    305.6833     37.2330     82.2691
   781.0000      0.0000    305.8257     36.1809     79.0433
   781.2500      0.0000    305.9712     35.1718     76.1664
   781.5000      0.0000    306.0779     34.3550     75.2470
   781.7500      0.0000    306.1352     33.7975     77.3576
   782.0000      0.0000    306.1646     33.4675     81.9046
   782.2500      0.0000    306.1885     33.3121     87.1487
   782.5000      0.0000    306.2003     33.3390     91.5293
   782.7500      0.0000    306.1323     33.6071     94.3445
   783.0000      0.0000    305.7916     34.1609     95.5260
   783.2500      0.0000    304.7476     35.0076     95.1726
   783.5000      0.0000    302.2922     36.1369     93.3213
   783.7500      0.0000    297.7416     37.5161     90.0937
   784.0000      0.0000    291.1012     39.0621     86.1146
   784.2500      0.0000    283.4820     40.6512     82.5564
   784.5000      0.0000    276.5923     42.1739     80.3326
   784.7500      0.0000    271.6423     43.5789     79.4862
   785.0000      0.0000    268.7614     44.8799     79.8528
   785.2500      0.0000    267.3413     46.1373     82.0996
   785.5000      0.0000    266.6873     47.4188     87.4933
   785.7500      0.0000    266.3563     48.7426     96.5022
   786.0000      0.0000    266.1505     50.0494    107.8279
   786.2500      0.0000    266.0035     51.2349    118.7077
   786.5000      0.0000    265.8984     52.2057    126.0709
   786.7500      0.0000    265.8309     52.9077    128.0323
   787.0000      0.0000    265.8004     53.3342    125.3444
   787.2500      0.0000    265.8021     53.5280    121.4527
   787.5000      0.0000    265.8222     53.5592    120.1474
   787.7500      0.0000    265.8423     53.4873    122.5082
   788.0000      0.0000    265.8494     53.3515    126.2914
   788.2500      0.0000    265.8412     53.2018    128.4325
   788.5000      0.0000    265.8219     53.1118    127.7926
   788.7500      0.0000    265.7966     53.1391    125.3850
   789.0000      0.0000    265.7703     53.2824    122.6894
   789.2500      0.0000    265.7465     53.4995    120.4539
   789.5000      0.0000    265.7234     53.7632    118.6897
   789.7500      0.0000    265.6957     54.0807    117.0402
   790.0000      0.0000    265.6625     54.4619    115.2832
   790.2500      0.0000    265.6279     54.8861    113.9906
   790.5000      0.0000    265.5925     55.3107    114.3816
   790.7500      0.0000    265.5464     55.7066    116.8889
   791.0000      0.0000    265.4770     56.0779    120.0367
   791.2500      0.0000    265.3833     56.4495    121.2824
   791.5000      0.0000    265.2812     56.8445    119.2095
   791.7500      0.0000    265.1913     57.2614    114.9726
   792.0000      0.0000    265.1250     57.6581    111.6468
   792.2500      0.0000    265.0834     57.9647    111.9268
   792.5000      0.0000    265.0656     58.1340    116.1053
