~Version Information
VERS.                      2.0: CWLS Log ASCII Standard - VERSION 2.0
WRAP.                       NO: One line per depth step
~Well Information Block
STRT.FT               400.0000: 
STOP.FT              2201.0000: 
STEP.FT                 0.1000: 
NULL.                -999.2500: 
COMP.          Evergreen Operating Corporation: COMPANY
WELL.            Triumph 13-10: WELL
FLD.           Purgatorie River: FIELD
LOC.           1551' FSL & 522' FWL: LOCATION
PROV.                 Colorado: PROVINCE
CNTY.               Las Animas: COUNTRY
SRVC.                Patterson: SERVICE COMPANY
DATE.          Mon Jul 26 07:55:18 2004: LOG DATE
UWI.           05 071 08108 00: UNIQUE WELL ID
~Curve Information Block
DEPT.FT            0 000 00 00: Depth
DCAL.in                       : CDL Caliper
RHOB.g/cc                     : CDL Bulk Density
RHOC.g/cc                     : CDL Density Correction
DPOR.pu                       : CDL Density Porosity
NPOR.pu                       : Neutron Porosity
GR.GAPI                       : Gamma Ray
~Parameter Information Block
~A  Depth       DCAL        RHOB        RHOC        DPOR        NPOR         GR     
   400.0000      8.3766      2.4481     -0.3011     12.2353     39.5084     64.2096
   400.1000      8.3766      2.4320     -0.2346     13.2140     39.4233     60.1412
   400.2000      8.3766      2.4177     -0.2568     14.0808     38.9345     56.6313
   400.3000      8.3759      2.3989     -0.2480     15.2208     38.5746     56.3400
   400.4000      8.3759      2.3839     -0.2764     16.1268     38.6172     60.0064
   400.5000      8.3776      2.3807     -0.2815     16.3238     38.7577     65.0857
   400.6000      8.3776      2.3885     -0.2567     15.8504     38.6909     67.0280
   400.7000      8.3776      2.4081     -0.2577     14.6613     38.4635     65.0413
   400.8000      8.3774      2.4368     -0.2656     12.9196     38.4047     63.3490
   400.9000      8.3774      2.4525     -0.2113     11.9693     38.7882     64.2827
   401.0000      8.3803      2.4354     -0.2202     13.0086     39.3574     67.2525
   401.1000      8.3803      2.3974     -0.2740     15.3080     39.6263     71.5414
   401.2000      8.3803      2.3619     -0.2418     17.4606     39.4724     76.7838
   401.3000      8.3749      2.3368     -0.3107     18.9839     39.1758     83.4402
   401.4000      8.3749      2.3254     -0.2885     19.6743     39.0434     90.5150
   401.5000      8.3710      2.3267     -0.2250     19.5941     39.0609     93.0011
   401.6000      8.3710      2.3316     -0.2567     19.2953     38.9218     86.8355
   401.7000      8.3710      2.3293     -0.2313     19.4383     38.5204     75.3025
   401.8000      8.3623      2.3127     -0.2975     20.4406     38.1262     65.1546
   401.9000      8.3623      2.2961     -0.3259     21.4511     37.9428     58.3313
   402.0000      8.3620      2.2926     -0.2712     21.6587     37.9586     53.1239
   402.1000      8.3620      2.2913     -0.2502     21.7378     38.1957     49.8974
   402.2000      8.3620      2.2876     -0.3107     21.9630     38.5398     49.4819
   402.3000      8.3679      2.2918     -0.2567     21.7094     38.7969     49.7812
   402.4000      8.3679      2.3038     -0.2823     20.9806     39.0533     48.8107
   402.5000      8.3627      2.3181     -0.2466     20.1165     39.2949     47.4411
   402.6000      8.3627      2.3269     -0.2228     19.5816     39.4439     45.7494
   402.7000      8.3627      2.3190     -0.2141     20.0621     39.6307     43.5023
   402.8000      8.3588      2.2981     -0.2375     21.3282     39.6777     41.8947
   402.9000      8.3588      2.2887     -0.2835     21.8958     39.4035     40.6335
   403.0000      8.3564      2.3056     -0.2198     20.8732     39.1804     40.0858
   403.1000      8.3564      2.3340     -0.1846     19.1520     39.3957     42.4692
   403.2000      8.3564      2.3468     -0.1801     18.3741     39.8586     45.9445
   403.3000      8.3556      2.3329     -0.1847     19.2189     40.2006     47.6989
   403.4000      8.3556      2.3062     -0.2594     20.8375     40.2614     48.7352
   403.5000      8.3580      2.2884     -0.2436     21.9167     39.8591     50.1222
   403.6000      8.3580      2.2843     -0.2389     22.1649     39.1449     50.6985
   403.7000      8.3580      2.2834     -0.2166     22.2200     38.8028     49.3051
   403.8000      8.3555      2.2787     -0.1910     22.5049     39.2027     46.7844
   403.9000      8.3555      2.2728     -0.2408     22.8611     39.8223     44.1397
   404.0000      8.3482      2.2676     -0.2499     23.1742     40.1271     42.3565
   404.1000      8.3482      2.2618     -0.2632     23.5257     40.3110     42.4884
   404.2000      8.3482      2.2538     -0.2234     24.0123     40.6222     44.4628
   404.3000      8.3501      2.2405     -0.2686     24.8202     40.8752     46.6453
   404.4000      8.3501      2.2283     -0.2782     25.5573     40.8370     47.8116
   404.5000      8.3442      2.2356     -0.2658     25.1163     40.4698     48.0046
   404.6000      8.3442      2.2675     -0.2318     23.1837     40.0692     47.0643
   404.7000      8.3442      2.2973     -0.1619     21.3755     40.0917     47.0406
   404.8000      8.3454      2.2986     -0.2418     21.2984     40.3996     51.0974
   404.9000      8.3454      2.2797     -0.2029     22.4443     40.5543     56.9532
   405.0000      8.3475      2.2650     -0.2891     23.3320     40.6650     59.9453
   405.1000      8.3475      2.2691     -0.2557     23.0834     40.9782     57.7915
   405.2000      8.3475      2.2875     -0.2324     21.9720     41.3123     52.2255
   405.3000      8.3468      2.3072     -0.1830     20.7781     41.4092     48.8503
   405.4000      8.3468      2.3223     -0.2726     19.8602     41.4007     50.8330
   405.5000      8.3475      2.3281     -0.1463     19.5114     41.3990     55.3441
   405.6000      8.3475      2.3179     -0.2154     20.1273     41.3608     58.2375
   405.7000      8.3475      2.3154     -0.3267     20.2777     41.5280     58.5490
   405.8000      8.3539      2.3421     -0.1805     18.6630     41.8366     56.9846
   405.9000      8.3539      2.3737     -0.1381     16.7471     41.8329     56.6692
   406.0000      8.3523      2.3805     -0.1538     16.3333     41.3732     58.0769
   406.1000      8.3523      2.3555     -0.1622     17.8458     40.9253     56.5834
   406.2000      8.3523      2.3152     -0.2161     20.2883     40.8028     52.4055
   406.3000      8.3464      2.2916     -0.3005     21.7222     40.6594     50.8258
   406.4000      8.3464      2.3008     -0.2364     21.1652     40.2677     53.9791
   406.5000      8.3418      2.3254     -0.2278     19.6734     39.9026     59.2316
   406.6000      8.3418      2.3428     -0.2323     18.6204     39.6735     62.7171
   406.7000      8.3418      2.3463     -0.1970     18.4089     39.4374     63.3961
   406.8000      8.3589      2.3463     -0.2645     18.4082     39.4954     63.1036
   406.9000      8.3589      2.3606     -0.2118     17.5392     39.9017     63.3579
   407.0000      8.3480      2.3907     -0.1663     15.7144     39.9889     64.7039
   407.1000      8.3480      2.4180     -0.2042     14.0622     39.5256     68.0825
   407.2000      8.3480      2.4184     -0.1279     14.0358     39.0530     73.5830
   407.3000      8.3506      2.3850     -0.2061     16.0634     38.9335     76.2430
   407.4000      8.3506      2.3395     -0.2495     18.8160     38.8046     72.9258
   407.5000      8.3492      2.2964     -0.2335     21.4273     38.1632     69.4295
   407.6000      8.3492      2.2530     -0.2831     24.0582     37.0555     72.6390
   407.7000      8.3492      2.2229     -0.2479     25.8844     35.7573     82.8273
   407.8000      8.3480      2.2251     -0.2699     25.7538     34.3387     94.9682
   407.9000      8.3480      2.2591     -0.2138     23.6887     32.7104    102.7466
   408.0000      8.3482      2.3074     -0.2064     20.7643     30.9106    104.7323
   408.1000      8.3482      2.3497     -0.1656     18.2029     29.1129    105.4843
   408.2000      8.3482      2.3730     -0.0847     16.7891     27.2529    106.0410
   408.3000      8.3502      2.3775     -0.1206     16.5148     25.2483    104.3992
   408.4000      8.3502      2.3722     -0.0729     16.8373     23.4394    102.0202
   408.5000      8.3504      2.3586     -0.0229     17.6585     22.0802    104.3889
   408.6000      8.3504      2.3415      0.0216     18.6978     20.8543    111.1929
   408.7000      8.3504      2.3293      0.1123     19.4345     19.4607    115.4678
   408.8000      8.3997      2.3097      0.1636     20.6272     18.1243    113.6802
   408.9000      8.3997      2.2705      0.1213     23.0021     17.2324    108.6506
   409.0000      8.4213      2.2345      0.0417     25.1807     16.9804    107.5498
   409.1000      8.4213      2.2254      0.1055     25.7359     17.1538    112.9477
   409.2000      8.4213      2.2357      0.1245     25.1114     17.2402    119.1675
   409.3000      8.3819      2.2533      0.1173     24.0452     16.8880    121.8523
   409.4000      8.3819      2.2703      0.2075     23.0147     15.9964    120.8685
   409.5000      8.3809      2.2777      0.1912     22.5652     14.9552    116.2640
