~Version Information
VERS.                      2.0: CWLS Log ASCII Standard - VERSION 2.0
WRAP.                       NO: One line per depth step
~Well Information Block
STRT.FT               185.5000: 
STOP.FT              2039.2500: 
STEP.FT                 0.2500: 
NULL.                -999.2500: 
COMP.          Petrogulf Corporation: COMPANY
WELL.            Montoya 7-12R: WELL
FLD.           Purgatorie River: FIELD
LOC.           1769' FNL & 658' FWL--: LOCATION
PROV.                       CO: PROVINCE
CNTY.               Las Animas: COUNTRY
SRVC.                         : SERVICE COMPANY
DATE.          Wed Feb 09 09:05:42 2005: LOG DATE
UWI.         005 071 08240  : UNIQUE WELL ID
~Curve Information Block
DEPT.FT            0 000 00 00: Depth
CCL.                          : Casing Collar Locator
CCLRT.                        : CCLRT
TT3.usec                      : CBL 3' Travel Time
AMP3.mV                       : CBL 3' Amplitude
GR.GAPI                       : Gamma Ray
~Parameter Information Block
~A  Depth       CCL        CCLRT        TT3         AMP3         GR     
# ...
  1025.5000      0.0000   -999.2500    710.1278      5.8508    146.3578
  1025.7500      0.0000   -999.2500    715.9778      5.6276    147.8188
  1026.0000      0.0000   -999.2500    725.8444      5.4178    146.0994
  1026.2500      0.0000   -999.2500    736.5217      5.2128    139.3878
  1026.5000      0.0000   -999.2500    743.2579      5.0181    128.3229
  1026.7500      0.0000   -999.2500    743.5961      4.8613    116.2288
  1027.0000      0.0000   -999.2500    738.7731      4.7706    107.4567
  1027.2500      0.0000   -999.2500    731.7117      4.7552    105.1269
  1027.5000      0.0000   -999.2500    724.8841      4.8085    109.8989
  1027.7500      0.0000   -999.2500    720.1464      4.9193    120.0407
  1028.0000      0.0000   -999.2500    719.3288      5.0736    132.3152
  1028.2500      0.0000   -999.2500    723.8293      5.2520    143.2561
  1028.5000      0.0000   -999.2500    732.9137      5.4331    150.4188
  1028.7500      0.0000   -999.2500    742.4073      5.6029    153.1376
  1029.0000      0.0000   -999.2500    746.2929      5.7555    152.3401
  1029.2500      0.0000   -999.2500    741.0400      5.8817    149.4436
  1029.5000      0.0000   -999.2500    728.5449      5.9626    145.3954
  1029.7500      0.0000   -999.2500    714.3651      5.9824    140.9320
  1030.0000      0.0000   -999.2500    703.2766      5.9480    137.3840
  1030.2500      0.0000   -999.2500    696.7953      5.8896    136.2857
  1030.5000      0.0000   -999.2500    694.1949      5.8376    137.9446
  1030.7500      0.0000   -999.2500    694.6293      5.7970    140.9863
  1031.0000      0.0000   -999.2500    697.8203      5.7401    143.3482
  1031.2500      0.0000   -999.2500    702.9821      5.6238    143.1487
  1031.5000      0.0000   -999.2500    707.3600      5.4289    139.0611
  1031.7500      0.0000   -999.2500    705.9467      5.1900    131.1485
  1032.0000      0.0000   -999.2500    693.1904      4.9856    121.4487
  1032.2500      0.0000   -999.2500    666.5616      4.8849    112.7565
  1032.5000      0.0000   -999.2500    630.1079      4.9040    106.7540
  1032.7500      0.0000   -999.2500    594.5686      5.0151    103.8677
  1033.0000      0.0000   -999.2500    572.1569      5.1811    104.3657
  1033.2500      0.0000   -999.2500    569.3674      5.3674    108.5669
  1033.5000     -2.0000   -999.2500    583.9283      5.5320    115.9454
  1033.7500      0.0000   -999.2500    607.8275      5.6285    124.5162
  1034.0000      0.0000   -999.2500    632.6276      5.6231    131.5073
  1034.2500      0.0000   -999.2500    652.9275      5.5162    135.1564
  1034.5000      0.0000   -999.2500    667.5178      5.3583    136.0817
  1034.7500      0.0000   -999.2500    678.7324      5.2392    136.7443
  1035.0000      0.0000   -999.2500    689.6066      5.2374    139.5804
  1035.2500      0.0000   -999.2500    700.7390      5.3664    145.3289
  1035.5000      0.0000   -999.2500    710.0353      5.5755    152.4522
  1035.7500      0.0000   -999.2500    714.9247      5.7911    158.0411
  1036.0000      0.0000   -999.2500    714.1556      5.9510    159.7261
  1036.2500      0.0000   -999.2500    708.0306      6.0184    157.1033
  1036.5000      0.0000   -999.2500    697.5468      5.9930    151.9101
  1036.7500      0.0000   -999.2500    683.1815      5.9103    147.3439
  1037.0000      0.0000   -999.2500    664.5672      5.8158    146.3252
  1037.2500      0.0000   -999.2500    642.0558      5.7358    148.9374
  1037.5000      0.0000   -999.2500    618.5375      5.6738    151.7133
  1037.7500      0.0000   -999.2500    598.7155      5.6262    150.4317
  1038.0000      0.0000   -999.2500    586.3693      5.5973    143.5929
  1038.2500      0.0000   -999.2500    582.9915      5.5994    133.0477
  1038.5000      0.0000   -999.2500    588.7374      5.6386    122.0790
  1038.7500      0.0000   -999.2500    602.5484      5.6993    113.2502
  1039.0000      0.0000   -999.2500    619.8991      5.7472    107.2228
  1039.2500      0.0000   -999.2500    632.3025      5.7602    103.1179
  1039.5000      0.0000   -999.2500    632.7744      5.7560    100.3239
  1039.7500      0.0000   -999.2500    623.0143      5.7795     99.6014
  1040.0000      0.0000   -999.2500    613.1627      5.8590    101.7930
  1040.2500      0.0000   -999.2500    612.7825      5.9768    106.0028
  1040.5000      0.0000   -999.2500    621.9764      6.0794    109.8822
  1040.7500      0.0000   -999.2500    631.3696      6.1119    111.5193
  1041.0000      0.0000   -999.2500    630.8352      6.0511    110.6916
  1041.2500      0.0000   -999.2500    618.3613      5.9214    108.5748
  1041.5000      0.0000   -999.2500    600.3854      5.7814    106.6146
  1041.7500      0.0000   -999.2500    584.5787      5.6836    105.7553
  1042.0000      0.0000   -999.2500    573.7654      5.6404    106.5851
  1042.2500      0.0000   -999.2500    565.9825      5.6266    109.6727
  1042.5000      0.0000   -999.2500    558.0941      5.6131    115.3472
  1042.7500      0.0000   -999.2500    548.9258      5.5886    123.1655
  1043.0000      0.0000   -999.2500    540.4631      5.5541    131.5835
  1043.2500      0.0000   -999.2500    537.1904      5.5157    138.0041
  1043.5000      0.0000   -999.2500    543.9360      5.4945    139.6808
  1043.7500      0.0000   -999.2500    562.8453      5.5295    135.4511
  1044.0000      0.0000   -999.2500    590.9030      5.6488    126.6685
  1044.2500      0.0000   -999.2500    620.2474      5.8404    116.2312
  1044.5000      0.0000   -999.2500    642.3621      6.0567    106.9961
  1044.7500      0.0000   -999.2500    653.5435      6.2436    100.9515
  1045.0000      0.0000   -999.2500    657.0106      6.3637     98.7596
  1045.2500      0.0000   -999.2500    659.2179      6.4022     99.2750
  1045.5000      0.0000   -999.2500    663.3330      6.3665     99.8175
  1045.7500      0.0000   -999.2500    666.6497      6.2832     97.8832
  1046.0000      0.0000   -999.2500    665.0780      6.1893     93.2990
  1046.2500      0.0000   -999.2500    659.0608      6.1147     88.7711
  1046.5000      0.0000   -999.2500    653.3621      6.0654     87.9486
  1046.7500      0.0000   -999.2500    650.8733      6.0267     92.6527
  1047.0000      0.0000   -999.2500    648.0354      5.9883    101.7379
  1047.2500      0.0000   -999.2500    638.7041      5.9628    112.2369
  1047.5000      0.0000   -999.2500    623.5713      5.9743    121.3526
  1047.7500      0.0000   -999.2500    613.3282      6.0377    127.5683
  1048.0000      0.0000   -999.2500    619.1205      6.1603    130.6151
  1048.2500      0.0000   -999.2500    640.3462      6.3506    131.1626
  1048.5000      0.0000   -999.2500    664.5578      6.6072    130.6088
  1048.7500      0.0000   -999.2500    678.7310      6.8981    130.3511
  1049.0000      0.0000   -999.2500    678.7282      7.1687    130.5625
  1049.2500      0.0000   -999.2500    670.0834      7.3795    130.0253
  1049.5000      0.0000   -999.2500    663.0565      7.5218    127.6702
  1049.7500      0.0000   -999.2500    665.4807      7.5982    123.9469
  1050.0000      0.0000   -999.2500    677.0905      7.6065    120.4795
  1050.2500      0.0000   -999.2500    690.4470      7.5524    118.9134
  1050.5000      0.0000   -999.2500    698.0276      7.4626    120.0775
  1050.7500      0.0000   -999.2500    697.6315      7.3754    123.4155
  1051.0000      0.0000   -999.2500    691.0099      7.3206    126.9610
  1051.2500      0.0000   -999.2500    679.2838      7.3004    128.5206
  1051.5000      0.0000   -999.2500    661.2932      7.2854    127.2890
  1051.7500      0.0000   -999.2500    636.4299      7.2339    124.2907
  1052.0000      0.0000   -999.2500    607.9835      7.1215    121.3604
  1052.2500      0.0000   -999.2500    582.4594      6.9514    119.7916
  1052.5000      0.0000   -999.2500    565.1479      6.7450    119.7922
  1052.7500      0.0000   -999.2500    556.8843      6.5332    120.9464
  1053.0000      0.0000   -999.2500    555.2410      6.3526    122.9429
  1053.2500      0.0000   -999.2500    557.9171      6.2336    125.8146
