~Version Information
VERS.                      2.0: CWLS Log ASCII Standard - VERSION 2.0
WRAP.                       NO: One line per depth step
~Well Information Block
STRT.FT               870.0000: 
STOP.FT              2519.5000: 
STEP.FT                 0.2500: 
NULL.                -999.2500: 
COMP.          Pioneer Natural Resources: COMPANY
WELL.              Tiaga 23-14: WELL
FLD.           Purgatoire River: FIELD
LOC.           2168' FSL & 2030' FWL: LOCATION
PROV.                 Colorado: PROVINCE
CNTY.               Las Animas: COUNTRY
SRVC.                         : SERVICE COMPANY
DATE.          Sat May 07 08:44:43 2005: LOG DATE
UWI.           05 071 08329 00: UNIQUE WELL ID
~Curve Information Block
DEPT.FT            0 000 00 00: Depth
LTEN.lb                       : Surface Line Tension
SN.Ohm-m                      : IEL Short Normal
SP.mV                         : IEL Spontaneous Potential
DIR.Ohm-m                     : IEL Induction Resistivity
GR.GAPI                       : Gamma Ray
~Parameter Information Block
~A  Depth       LTEN         SN          SP         DIR          GR     
# ...
  2382.0000    908.8056     41.0226     29.3222     36.5455     56.9014
  2382.2500    905.5368     41.6595     29.4892     37.0230     58.3210
  2382.5000    903.2053     41.9105     29.6189     37.5617     60.3289
  2382.7500    902.0931     41.8138     29.7140     38.1075     61.5975
  2383.0000    902.1754     41.4352     29.7809     38.5394     63.2861
  2383.2500    903.3286     40.8369     29.8336     38.7329     64.0611
  2383.5000    905.3397     40.1102     29.8946     38.6284     64.3828
  2383.7500    907.8242     39.3897     29.9892     38.2565     64.1136
  2384.0000    910.2858     38.7866     30.1336     37.7003     63.6113
  2384.2500    912.2688     38.3244     30.3249     37.0367     63.6250
  2384.5000    913.5823     37.9466     30.5429     36.3113     64.5291
  2384.7500    914.5031     37.5665     30.7653     35.5623     65.6960
  2385.0000    915.5804     37.1316     30.9794     34.8546     68.0820
  2385.2500    917.0557     36.6500     31.1794     34.2730     69.9483
  2385.5000    918.5981     36.1497     31.3538     33.8739     72.7402
  2385.7500    919.6496     35.6378     31.4825     33.6381     74.2262
  2386.0000    919.8069     35.1092     31.5494     33.4725     75.4476
  2386.2500    918.8866     34.5724     31.5569     33.2645     75.6981
  2386.5000    916.9358     34.0602     31.5268     32.9490     75.9118
  2386.7500    914.2651     33.6126     31.4879     32.5348     76.2503
  2387.0000    911.3086     33.2376     31.4623     32.0755     76.8602
  2387.2500    908.4044     32.9047     31.4595     31.6254     76.9263
  2387.5000    905.7344     32.5957     31.4796     31.2177     76.1081
  2387.7500    903.3939     32.3282     31.5205     30.8669     75.1474
  2388.0000    901.4937     32.1030     31.5800     30.5781     73.8120
  2388.2500    900.2712     31.8711     31.6538     30.3499     73.3311
  2388.5000    900.1194     31.5824     31.7309     30.1757     73.4761
  2388.7500    901.4429     31.2343     31.7940     30.0464     74.1210
  2389.0000    904.4374     30.8623     31.8262     29.9535     75.4938
  2389.2500    908.9030     30.5109     31.8201     29.8853     76.3139
  2389.5000    914.1292     30.2102     31.7824     29.8181     77.0522
  2389.7500    919.0145     29.9626     31.7311     29.7140     77.2719
  2390.0000    922.5562     29.7619     31.6864     29.5335     77.3094
  2390.2500    924.3410     29.6124     31.6637     29.2619     77.0140
  2390.5000    924.5328     29.5183     31.6716     28.9266     75.7940
  2390.7500    923.4480     29.4808     31.7095     28.5875     74.5409
  2391.0000    921.2769     29.5016     31.7644     28.3057     72.6848
  2391.2500    918.1948     29.5706     31.8123     28.1139     71.9158
  2391.5000    914.5903     29.6550     31.8330     28.0056     71.7131
  2391.7500    911.1045     29.7145     31.8236     27.9470     71.9472
  2392.0000    908.4547     29.7246     31.7998     27.9014     72.1494
  2392.2500    907.1384     29.6818     31.7821     27.8500     71.9910
  2392.5000    907.1693     29.5929     31.7794     27.7953     71.5591
  2392.7500    908.0903     29.4692     31.7845     27.7473     71.3770
  2393.0000    909.4185     29.3216     31.7809     27.7083     71.3473
  2393.2500    911.1179     29.1491     31.7550     27.6709     71.4018
  2393.5000    913.4442     28.9428     31.7052     27.6271     71.5547
  2393.7500    916.3188     28.7032     31.6436     27.5770     71.6997
  2394.0000    919.1620     28.4478     31.5924     27.5274     71.6043
  2394.2500    921.4022     28.2113     31.5765     27.4792     70.9595
  2394.5000    922.8283     28.0347     31.6142     27.4167     69.0191
  2394.7500    923.4457     27.9355     31.7076     27.3073     67.5465
  2395.0000    923.4144     27.8993     31.8394     27.1139     66.0281
  2395.2500    923.1019     27.9109     31.9800     26.8181     65.5921
  2395.5000    922.7374     27.9720     32.1021     26.4466     65.3434
  2395.7500    921.9540     28.0860     32.1897     26.0830     65.2888
  2396.0000    919.9963     28.2387     32.2373     25.8470     65.6920
  2396.2500    916.4943     28.3986     32.2449     25.8422     66.5243
  2396.5000    911.9915     28.5450     32.2158     26.1037     68.4872
  2396.7500    907.6917     28.6779     32.1565     26.5761     69.9280
  2397.0000    904.6413     28.7917     32.0758     27.1361     71.8340
  2397.2500    903.1110     28.8689     31.9841     27.6467     72.8948
  2397.5000    902.7435     28.8989     31.8915     28.0133     74.1805
  2397.7500    903.1844     28.8887     31.8053     28.2069     74.7473
  2398.0000    904.4830     28.8576     31.7278     28.2532     75.0583
  2398.2500    906.9231     28.8216     31.6565     28.2082     75.0014
  2398.5000    910.5022     28.7833     31.5854     28.1405     74.7945
  2398.7500    914.6257     28.7385     31.5041     28.1258     74.6406
  2399.0000    918.3683     28.6832     31.3963     28.2442     74.3113
  2399.2500    921.0428     28.6206     31.2421     28.5655     73.9751
  2399.5000    922.5451     28.5703     31.0270     29.1191     73.2982
  2399.7500    923.2234     28.5605     30.7541     29.8525     72.7813
  2400.0000    923.4579     28.6094     30.4490     30.6073     71.9629
  2400.2500    923.3622     28.7190     30.1504     31.1538     71.3619
  2400.5000    922.8678     28.8714     29.8926     31.3044     70.2895
  2400.7500    921.9512     29.0299     29.6932     31.0383     69.4415
  2401.0000    920.6630     29.1605     29.5534     30.5112     68.0410
  2401.2500    919.0640     29.2594     29.4638     29.9378     67.1295
  2401.5000    917.2850     29.3547     29.4106     29.4703     65.9831
  2401.7500    915.5445     29.4748     29.3770     29.1563     65.3795
  2402.0000    913.9743     29.6013     29.3455     28.9622     64.6333
  2402.2500    912.5145     29.6511     29.3024     28.8178     64.3029
  2402.5000    911.0720     29.5452     29.2398     28.6549     64.4520
  2402.7500    909.7075     29.2830     29.1561     28.4299     65.1936
  2403.0000    908.6575     28.9192     29.0567     28.1323     67.1918
  2403.2500    908.2856     28.5006     28.9547     27.7754     68.7998
  2403.5000    908.9935     28.0600     28.8670     27.3780     71.1235
  2403.7500    911.0320     27.6405     28.8026     26.9512     72.6561
  2404.0000    914.3146     27.2770     28.7542     26.5004     75.4845
  2404.2500    918.3898     26.9660     28.7024     26.0383     77.8989
  2404.5000    922.5126     26.6840     28.6302     25.5919     81.7554
  2404.7500    925.7678     26.4263     28.5355     25.1927     83.8036
  2405.0000    927.3868     26.2151     28.4320     24.8586     85.2279
  2405.2500    927.1775     26.0763     28.3414     24.5878     85.1338
  2405.5000    925.6130     26.0087     28.2801     24.3711     84.3283
  2405.7500    923.3668     25.9880     28.2500     24.2086     83.8744
  2406.0000    920.7846     25.9960     28.2395     24.1099     83.5480
  2406.2500    917.8540     26.0216     28.2321     24.0820     83.3713
  2406.5000    914.5696     26.0333     28.2131     24.1202     82.7955
  2406.7500    911.1715     25.9903     28.1712     24.2150     82.1340
  2407.0000    908.0437     25.8927     28.0984     24.3642     80.8265
  2407.2500    905.5238     25.7918     27.9927     24.5766     79.9035
  2407.5000    903.9445     25.7468     27.8604     24.8595     78.8189
  2407.7500    903.7817     25.7885     27.7140     25.2014     78.4376
  2408.0000    905.4184     25.9216     27.5686     25.5639     78.2566
  2408.2500    908.5813     26.1489     27.4388     25.8973     78.1933
  2408.5000    912.2888     26.4812     27.3363     26.1683     77.9670
  2408.7500    915.5818     26.9048     27.2651     26.3811     77.7256
  2409.0000    918.1596     27.3624     27.2170     26.5707     77.3006
  2409.2500    920.2462     27.8076     27.1766     26.7748     77.0148
  2409.5000    922.0947     28.2536     27.1317     27.0106     76.5488
  2409.7500    923.8071     28.7383     27.0797     27.2768     76.0976
