~Version Information
VERS.                      2.0: CWLS Log ASCII Standard - VERSION 2.0
WRAP.                       NO: One line per depth step
~Well Information Block
STRT.FT               750.0000: 
STOP.FT              2431.5000: 
STEP.FT                 0.1000: 
NULL.                -999.2500: 
COMP.          Petrogulf Corporation: COMPANY
WELL.           McDaniel 9-34V: WELL
FLD.           Purgatorie River: FIELD
LOC.           620' FSL & 1800' FEL: LOCATION
PROV.                 Colorado: PROVINCE
CNTY.               Las Animas: COUNTRY
SRVC.                Patterson: SERVICE COMPANY
DATE.          Wed Sep 28 07:18:04 2005: LOG DATE
UWI.                          : UNIQUE WELL ID
~Curve Information Block
DEPT.FT            0 000 00 00: Depth
DCAL.in                       : CDL Caliper
RHOB.g/cc                     : CDL Bulk Density
RHOC.g/cc                     : CDL Density Correction
DPOR.pu                       : CDL Density Porosity
GR.GAPI                       : Gamma Ray
NPOR.pu                       : Neutron Porosity
~Parameter Information Block
~A  Depth       DCAL        RHOB        RHOC        DPOR         GR         NPOR    
# ...
  1969.2000      8.0352      3.0702      0.1581    -25.4653    102.0907     28.6330
  1969.3000      8.0387      3.1460      0.1858    -30.0634     95.2516     28.8223
  1969.4000      8.0387      3.1900      0.1652    -32.7273     91.9590     28.8216
  1969.5000      8.0400      3.1845      0.1787    -32.3963     91.3265     28.6942
  1969.6000      8.0400      3.1189      0.0672    -28.4171     92.8875     28.5096
  1969.7000      8.0400      3.0221     -0.0601    -22.5510     94.6537     28.3656
  1969.8000      8.0385      2.9384     -0.1121    -17.4781     96.8825     28.2144
  1969.9000      8.0385      2.8654     -0.0580    -13.0566    100.0095     28.0177
  1970.0000      8.0415      2.7690     -0.0943     -7.2099    102.6518     28.0530
  1970.1000      8.0415      2.6618     -0.1671     -0.7155    107.0822     28.3548
  1970.2000      8.0415      2.6012     -0.2199      2.9552    115.0896     28.5970
  1970.3000      8.0461      2.5953     -0.0674      3.3163    120.8338     28.6399
  1970.4000      8.0461      2.5906     -0.0182      3.5995    118.3244     28.6379
  1970.5000      8.0779      2.5623      0.0096      5.3166    111.3612     28.8591
  1970.6000      8.0779      2.5338      0.0356      7.0432    107.5261     29.3404
  1970.7000      8.0779      2.5297      0.0409      7.2921    109.3027     29.7264
  1970.8000      8.1386      2.5471      0.0758      6.2371    113.4498     29.6633
  1970.9000      8.1386      2.5601      0.0949      5.4476    116.1919     29.1204
  1971.0000      8.1438      2.5490      0.0568      6.1189    118.5140     28.6661
  1971.1000      8.1438      2.5211      0.0553      7.8135    122.0180     28.8814
  1971.2000      8.1438      2.4957      0.0280      9.3486    123.6885     29.6348
  1971.3000      8.1467      2.4860      0.0346      9.9376    121.7431     30.3166
  1971.4000      8.1467      2.4978      0.0208      9.2241    118.2909     30.5457
  1971.5000      8.1488      2.5290     -0.0042      7.3316    116.4302     30.5332
  1971.6000      8.1488      2.5647      0.0263      5.1672    115.9336     30.4752
  1971.7000      8.1488      2.5815      0.0846      4.1524    116.1159     30.2316
  1971.8000      8.1569      2.5649      0.0755      5.1583    119.2568     29.7773
  1971.9000      8.1569      2.5345      0.0167      7.0008    121.9791     29.4836
  1972.0000      8.1762      2.5235      0.0255      7.6653    120.2707     29.6586
  1972.1000      8.1762      2.5275      0.0838      7.4261    118.3920     30.0265
  1972.2000      8.1762      2.5148      0.0852      8.1965    118.3227     30.1660
  1972.3000      8.1698      2.4841     -0.0113     10.0567    116.6813     30.1847
  1972.4000      8.1698      2.4659     -0.0048     11.1585    113.1857     30.2897
  1972.5000      8.2140      2.4711      0.0085     10.8429    110.6662     30.3134
  1972.6000      8.2140      2.4824      0.0397     10.1581    111.6799     30.0569
  1972.7000      8.2140      2.4897      0.0292      9.7164    115.9312     29.7299
  1972.8000      8.2141      2.4950      0.0800      9.3913    121.6023     29.8414
  1972.9000      8.2141      2.4966      0.0865      9.2961    127.7439     30.2511
  1973.0000      8.1828      2.4963      0.0750      9.3128    132.0438     30.3644
  1973.1000      8.1828      2.5024      0.0941      8.9483    129.9758     30.1953
  1973.2000      8.1828      2.5179      0.0962      8.0040    122.3519     30.2419
  1973.3000      8.1682      2.5400      0.1111      6.6674    116.2054     30.7579
  1973.4000      8.1682      2.5674      0.1116      5.0054    114.5780     31.3062
  1973.5000      8.1508      2.6025      0.1395      2.8772    114.6291     31.5653
  1973.6000      8.1508      2.6388      0.1260      0.6782    113.9423     31.8305
  1973.7000      8.1508      2.6619      0.1460     -0.7220    110.4274     32.1030
  1973.8000      8.1477      2.6715      0.1106     -1.3054    104.7599     31.8437
  1973.9000      8.1477      2.6780      0.1196     -1.6975    102.2844     31.1485
  1974.0000      8.1251      2.6809      0.0837     -1.8706    103.7973     30.7243
  1974.1000      8.1251      2.6772      0.0671     -1.6510    104.6366     30.5993
  1974.2000      8.1251      2.6684      0.0630     -1.1130    102.9032     30.3518
  1974.3000      8.1147      2.6567     -0.0381     -0.4067    100.7045     29.8808
  1974.4000      8.1147      2.6408     -0.0295      0.5605    100.1387     29.2723
  1974.5000      8.1198      2.6127     -0.0549      2.2606    100.9669     28.6094
  1974.6000      8.1198      2.5764      0.0144      4.4630    102.3013     28.1840
  1974.7000      8.1198      2.5379      0.0714      6.7915    103.3991     28.3403
  1974.8000      8.1215      2.4945      0.0349      9.4248    102.6744     28.9171
  1974.9000      8.1215      2.4483      0.0025     12.2241    100.9260     29.2502
  1975.0000      8.1280      2.4025      0.0049     14.9994    101.8347     29.0167
  1975.1000      8.1280      2.3570     -0.0220     17.7595    104.3577     28.6551
  1975.2000      8.1280      2.3129      0.0073     20.4328    103.9659     28.4984
  1975.3000      8.1328      2.2671     -0.0005     23.2049    101.6034     28.5122
  1975.4000      8.1328      2.2222     -0.0138     25.9298    101.3921     28.6855
  1975.5000      8.1470      2.1900     -0.0069     27.8785    104.6029     29.2236
  1975.6000      8.1470      2.1808     -0.0186     28.4393    108.6000     30.0360
  1975.7000      8.1470      2.2009      0.0118     27.2181    109.6504     30.6171
  1975.8000      8.1444      2.2504      0.0569     24.2172    109.4377     30.9000
  1975.9000      8.1444      2.3127      0.1553     20.4412    109.4683     31.0526
  1976.0000      8.1401      2.3632      0.1786     17.3791    106.5281     31.1654
  1976.1000      8.1401      2.3974      0.1063     15.3074    100.9492     31.4406
  1976.2000      8.1401      2.4242      0.1385     13.6836     99.0826     31.6979
  1976.3000      8.1369      2.4388      0.1190     12.7995    104.4155     31.5993
  1976.4000      8.1369      2.4386      0.0811     12.8134    112.4982     31.3573
  1976.5000      8.1539      2.4337      0.0652     13.1068    118.8414     31.4033
  1976.6000      8.1539      2.4239      0.0576     13.7023    122.2238     31.5690
  1976.7000      8.1539      2.3988      0.0409     15.2216    121.3764     31.6096
  1976.8000      8.1632      2.3657      0.0424     17.2275    118.3349     31.7647
  1976.9000      8.1632      2.3478      0.0522     18.3133    116.0563     32.1048
  1977.0000      8.2101      2.3483      0.1355     18.2829    112.9818     32.4174
  1977.1000      8.2101      2.3445      0.1335     18.5174    107.6629     32.5094
  1977.2000      8.2101      2.3286      0.1164     19.4788    104.8114     32.3344
  1977.3000      8.2281      2.3116      0.1103     20.5107    109.0834     32.1955
  1977.4000      8.2281      2.2941      0.1071     21.5711    116.1547     32.3971
  1977.5000      8.1364      2.2734      0.0680     22.8271    120.0608     32.6860
  1977.6000      8.1364      2.2633      0.0095     23.4389    121.7762     32.7122
  1977.7000      8.1364      2.2819      0.0650     22.3071    123.3360     32.5525
  1977.8000      8.1158      2.3243      0.0850     19.7374    124.7498     32.3736
  1977.9000      8.1158      2.3650      0.0826     17.2743    124.1738     32.0971
  1978.0000      8.1091      2.3842      0.1032     16.1092    120.2633     31.7215
  1978.1000      8.1091      2.3919      0.0219     15.6454    116.7689     31.4919
  1978.2000      8.1091      2.4093      0.0269     14.5873    117.5501     31.4066
  1978.3000      8.0994      2.4338      0.0255     13.1052    119.7084     31.2510
  1978.4000      8.0994      2.4518      0.0151     12.0136    118.8508     31.1151
  1978.5000      8.1139      2.4652      0.0003     11.2024    116.5443     31.1712
  1978.6000      8.1139      2.4859      0.0186      9.9475    115.5890     31.3403
  1978.7000      8.1139      2.5171      0.0584      8.0531    116.5003     31.4746
