~Version Information
 VERS.                2.0:  CWLS LOG ASCII STANDARD -VERSION 2.0
 WRAP.                 NO:  ONE LINE PER DEPTH STEP
~WELL INFORMATION BLOCK
#MNEM.UNIT       DATA		            DESCRIPTION OF MNEMONIC
#---------    -------------            ------------------------
 STRT.FT  0.500                          :START DEPTH
 STOP.FT  1808.700                       :STOP DEPTH
 STEP.FT  0.100                          :STEP    UP_HOLE  
 NULL.    -999.25                        :NULL VALUE
 COMP.              EL PASO PRODUCTIONS  :COMPANY
 WELL.                     COREHOLE #38  :WELL
 FLD .                 PURGATOIRE RIVER  :FIELD
 LOC .      15   35S   65W               :LOCATION
 CNTY.                           COLFAX  :COUNTY
 STAT.                     NM            :STATE
 CTRY.                                   :
 SRVC.     O'DRISCOLL                    :SERVICE COMPANY
 DATE.   04/28/05                        :LOG DATE
 API .                                   :API NUMBER
 LIC .                                   :LICENSE NUMBER
~Curve Information Block
#MNEM.UNIT      API CODE     Curve Description
#---------    -------------  ------------------------
 DEPT     .FT        00 001 00 00          :  1  DEPTH   
 GAMMA    .API-GR    00 310 00 00          :  2                GAMMA
 VOLTAGE  .MV        00 000 00 00          :  3              VOLTAGE
 CALIPER  .INCH      00 280 00 00          :  4              CALIPER
 DEN(LS)  .G/CC      00 350 00 00          :  5              DEN(LS)
 DEN(SS)  .G/CC      00 350 00 00          :  6              DEN(SS)
 CURRENT  .UA        00 000 00 00          :  7              CURRENT
 RES(SG)  .OHM-M     00 220 00 00          :  8              RES(SG)
 POR(DEN) .PERCENT   00 890 00 00          :  9             POR(DEN)
 DEN(LS)  .CPS       00 350 00 00          : 10              DEN(LS)
 DEN(SS)  .CPS       00 350 00 00          : 11              DEN(SS)
 COMP     .G/CC      00 356 00 00          : 12                 COMP
 DEN(CDL) .G/CC      00 350 00 00          : 13             DEN(CDL)
 TEMP     .DEG F     00 660 00 00          : 14                 TEMP
 DEL_TEMP .DEG F     00 000 00 00          : 15             DEL_TEMP
 TIME     .MINUTES   00 000 00 00          : 16                 TIME
~Parameter Information Block
#MNEM.UNIT   Information     Description
#---------- ---------------  ------------------------
 FILE.      ORIGINAL           :File Type
 FIID.      9139A              :File Type Identifier
 VERS.      3.58G              :System Version
 SER .      1                  :System Serial Number
 TRUK.      .498775            :Truck Calibration Number
 TOOL.        1245             :Tool Serial Number
 TIME.      1507               :Time    HrHrMinMin
 LAT .       36 59'            :Latitude
 LON .       104 39'           :Longitude
 LMF .            GL           :Log Measured From
 DMF .            GL           :Driller Measured From
 PD  .            GL           :Permanent Data
 PDEV.                         :Elevation Permanent Data
 EKB .M                        :Elevation Kelly Bushing
 ELEV.DF                       :Elevation DF
 EGL .M        7777            :Elevation Ground Level
 DRDP.          1825           :Driller's Depth
 CASD.       10.               :Casing Diameter
 CASB.           300           :Casing Bottom
 CASX.         STEEL           :Casing Type
 CAST.                         :Casing Thickness
 TNOC.                         :Time Circulation Stopped
 LOGU.        108              :Logging Unit
 RECB.           R.SIPES       :Recorded By
 OSR1.          9057           :Other Services
 OSR2.                         :Other Services
 OSR3.                         :Other Services
 BS  .MM         3.5           :Bit Size
 MST .                         :Mean Surface Temperature
 TGRD.                         :Temperature Gradiant
 MAGN.            12           :Magnetic Declination
 MDEN.       2.7               :Density Matrix
 MATR.      SANDSTONE          :Neutron Matrix
 DTMT.            54           :Delta T Matrix
 DTFL.                         :Delta T Fluid
 MUDS.                         :Mud Sample Source
 MRS .                         :Mud Resistivity
 MTP .                         :Mud Temperature
 MFRS.                         :Resistivity Mud Filtrate
 MFTP.                         :Temperature Mud Filtrate
 MCRS.                         :Resistivity Mud Cake
 MCTP.                         :Temperature Mud Cake
 FTYP.                         :Fluid Type
 FD  .K/M3                     :Fluid Density
 DFV .S                        :Fluid Viscosity
 FPH .                         :Fuild PH
 ELCO.       50000             :Electron Cutoff
~Other Information
#MNEM.UNIT  Information      Description
#---------- ---------------  ------------------------
# -------------------------- 
~A DEPTH  GAMMA    VOLTAGE  CALIPER DEN(LS) DEN(SS) CURRENT  RES(SG)  POR(DEN) DEN(LS) DEN(SS) COMP  DEN(CDL) TEMP  DEL_TEMP TIME    
# ...
   6.500     37.8    825.7  -999.25 -999.25 -999.25    -1.0  -61648.4 -999.25 -999.25 -999.25 -999.25 -999.25 33.3  -999.25 -999.25 
   6.600     30.3    721.2  -999.25 -999.25 -999.25    -1.0  -51205.8 -999.25 -999.25 -999.25 -999.25 -999.25 33.3  -999.25 -999.25 
   6.700     34.1    611.3  -999.25 -999.25 -999.25    -0.9  -50871.7 -999.25 -999.25 -999.25 -999.25 -999.25 33.3  -999.25 -999.25 
   6.800     36.9    432.7  -999.25 -999.25 -999.25    -0.5  -66551.0 -999.25 -999.25 -999.25 -999.25 -999.25 33.3  -999.25 -999.25 
   6.900     34.1    365.5  -999.25 -999.25 -999.25    -0.5  -56222.8 -999.25 -999.25 -999.25 -999.25 -999.25 33.3  -999.25 -999.25 
   7.000     41.6    418.4  -999.25 -999.25 -999.25    -0.4  -81687.0 -999.25 -999.25 -999.25 -999.25 -999.25 33.3  -999.25 -999.25 
   7.100     48.2    464.3  -999.25 -999.25 -999.25    -0.4  -90639.7 -999.25 -999.25 -999.25 -999.25 -999.25 33.3  -999.25 -999.25 
   7.200     44.4    300.8  -999.25 -999.25 -999.25    -1.1  -19450.4 -999.25 -999.25 -999.25 -999.25 -999.25 33.3  -999.25 -999.25 
   7.300     40.7    269.4  -999.25 -999.25 -999.25    -0.7  -29098.5 -999.25 -999.25 -999.25 -999.25 -999.25 33.3  -999.25 -999.25 
   7.400     36.9    270.7  -999.25 -999.25 -999.25    -0.6  -31593.7 -999.25 -999.25 -999.25 -999.25 -999.25 33.3  -999.25 -999.25 
   7.500     35.9    174.8  -999.25 -999.25 -999.25    -0.7  -17569.3 -999.25 -999.25 -999.25 -999.25 -999.25 33.3  -999.25 -999.25 
   7.600     32.2    164.6  -999.25 -999.25 -999.25    -0.6  -20889.5 -999.25 -999.25 -999.25 -999.25 -999.25 33.3  -999.25 -999.25 
   7.700     32.2    137.8  -999.25 -999.25 -999.25    -0.9  -11468.3 -999.25 -999.25 -999.25 -999.25 -999.25 33.3  -999.25 -999.25 
   7.800     33.1    114.6  -999.25 -999.25 -999.25    -1.1  -7410.7  -999.25 -999.25 -999.25 -999.25 -999.25 33.3  -999.25 -999.25 
   7.900     35.0     98.9   3.0  -999.25 -999.25    -1.7  -4165.2  -999.25 -999.25 -999.25 -999.25 -999.25 33.3  -999.25 -999.25 
   8.000     32.2    106.3   3.0  -999.25 -999.25    -1.8  -4120.1  -999.25 -999.25 -999.25 -999.25 -999.25 33.3  -999.25 -999.25 
   8.100     42.6    102.0   3.0  -999.25 -999.25    -1.6  -4560.8  -999.25 -999.25 -999.25 -999.25 -999.25 33.3  -999.25 -999.25 
   8.200     44.4     98.2   3.0  -999.25 -999.25    -2.1  -3280.6  -999.25 -999.25 -999.25 -999.25 -999.25 33.3  -999.25 -999.25 
   8.300     48.2    106.5   3.0  -999.25 -999.25    -2.4  -3126.5  -999.25 -999.25 -999.25 -999.25 -999.25 33.3  -999.25 -999.25 
   8.400     47.3    116.3   3.0  -999.25 -999.25    -2.0  -4171.1  -999.25 -999.25 -999.25 -999.25 1.44 33.3  -999.25 -999.25 
   8.500     42.6    135.7   3.0  -999.25 -999.25    -1.8  -5258.6  -999.25 -999.25 -999.25 -999.25 1.42 33.3  -999.25 -999.25 
   8.600     35.9    131.6   3.0  2.33 -999.25    -1.2  -8145.4  74.4  980.39 -999.25 -0.899 1.54 33.3  -999.25 0.40000 
   8.700     35.9    128.0   3.0  2.33 -999.25    -2.6  -3540.8  75.9  992.97 -999.25 -0.919 1.58 33.3  -999.25 0.40100 
   8.800     35.0    133.7   3.0  2.42 2.72    -2.2  -4268.6  55.3  832.08 4469.30 -0.657 1.58 33.3  -999.25 0.30000 
   8.900     36.9    129.2   3.0  2.41 2.74    -2.3  -4036.1  58.8  838.77 4410.16 -0.713 1.63 33.3  -999.25 0.29900 
   9.000     43.5    123.9   3.0  2.39 2.76    -0.7  -12453.7 66.4  872.30 4345.96 -0.822 1.68 33.3  -999.25 0.20100 
   9.100     41.6    113.7   3.0  2.40 2.73    42.0    193.2  58.5  852.18 4459.08 -0.700 1.71 33.3  -999.25 0.19900 
   9.200     38.8    113.6   3.0  2.42 2.76   200.6     40.4  60.7  832.09 4345.95 -0.750 1.74 33.3  -999.25 0.20000 
   9.300     32.2    121.2   3.0  2.46 2.72   138.1     62.6  45.6  766.77 4489.69 -0.534 1.75 33.3  -999.25 0.20000 
   9.400     31.2    130.5   3.0  2.42 2.71    95.7     97.3  51.1  822.02 4536.10 -0.593 1.81 33.3  -999.25 0.20000 
   9.500     34.1    114.2   3.0  2.40 2.76   144.6     56.3  64.1  857.20 4351.07 -0.792 1.78 33.3  -999.25 0.20100 
   9.600     34.1    110.6   3.0  2.48 2.71    91.9     85.9  40.3  731.60 4510.22 -0.465 1.77 33.3  -999.25 0.09900 
   9.700     33.1    118.1   3.0  2.43 2.82    59.4    141.9  69.1  811.98 4115.34 -0.904 1.69 33.3  -999.25 0.20000 
   9.800     37.8    115.8   3.0  2.43 2.69    67.4    122.5  48.2  817.01 4592.41 -0.546 1.65 33.3  -999.25 0.20000 
   9.900     35.9    116.4   3.0  2.39 2.81    79.8    104.1  76.3  872.30 4151.08 -0.989 1.61 33.3  -999.25 0.20000 
  10.000     32.2    117.3   3.0  2.37 2.77    60.7    138.0  74.4  917.55 4304.93 -0.934 1.65 33.3  -999.25 0.20000 
  10.100     36.9    116.6   3.0  2.42 2.71    38.4    216.8  51.3  822.03 4530.86 -0.596 1.54 33.3  -999.25 0.20000 
  10.200     36.9    109.1   3.0  2.44 2.78    66.1    117.7  59.3  796.90 4268.99 -0.748 1.62 33.3  -999.25 0.20000 
  10.300     39.7    120.6   3.0  2.36 2.78    98.8     87.1  79.2  932.60 4253.60 -1.006 1.61 33.3  -999.25 0.10000 
  10.400     43.5    118.7   3.0  2.45 2.75   158.0     53.6  52.3  781.87 4376.86 -0.638 1.55 33.3  -999.25 0.20000 
  10.500     43.5    105.9   3.0  2.46 2.90   321.6     23.5  78.0  766.77 3823.36 -1.084 1.55 33.3  -999.25 0.20000 
  10.600     41.6    106.5   3.0  2.40 2.79   420.7     18.1  69.4  852.18 4227.96 -0.885 1.66 33.3  -999.25 0.20000 
  10.700     43.5     93.8   3.0  2.44 2.78   272.5     24.6  59.4  791.88 4253.60 -0.752 1.68 33.3  -999.25 0.20000 
  10.800     43.5     47.9   3.0  2.49 2.78    -1.7  -1961.0  47.0  711.52 4279.37 -0.592 1.81 33.3  -999.25 0.20000 
  10.900     48.2     34.0   3.0  2.54 2.83    -2.2  -1109.5  44.7  651.27 4094.81 -0.601 1.84 33.3  -999.25 0.10000 
  11.000     47.3     28.8   3.0  2.56 2.83    -2.1   -963.3  41.5  626.17 4074.20 -0.565 1.88 33.3  -999.25 0.20000 
  11.100     47.3     20.1   3.0  2.44 2.79    -1.9   -738.3  60.3  791.88 4233.08 -0.768 1.88 33.3  -999.25 0.20000 
  11.200     45.4     15.5   3.0  2.50 2.79    -2.2   -507.1  47.5  696.46 4217.71 -0.611 1.79 33.3  -999.25 0.20000 
  11.300     39.7     13.3   3.0  2.52 2.81    -2.2   -423.5  47.0  681.43 4167.02 -0.615 1.67 33.3  -999.25 0.20000 
  11.400     29.3     11.5   3.0  2.41 2.81    -1.7   -470.3  71.0  842.14 4166.43 -0.919 1.67 33.3  -999.25 0.20000 
  11.500     31.2     10.2   3.0  2.45 2.88    -2.1   -350.0  76.5  786.90 3905.29 -1.046 1.67 33.3  -999.25 0.20000 
  11.600     35.9      9.9   3.0  2.51 2.88    -2.2   -321.9  62.0  691.43 3894.99 -0.861 1.64 33.3  -999.25 0.10000 
  11.700     44.4      9.9   3.0  2.57 2.86    -2.0   -353.8  45.0  616.14 3961.66 -0.632 1.61 33.3  -999.25 0.20000 
  11.800     46.3      9.8   3.0  2.62 3.00     6.3    110.4  55.8  550.91 3516.71 -0.868 1.72 33.3  -999.25 0.20000 
  11.900     52.0      9.6   3.0  2.52 3.00    24.7     27.8  81.5  681.39 3522.04 -1.200 1.77 33.3  -999.25 0.20000 
  12.000     46.3      9.4   3.0  2.66 2.99   163.9      4.1  44.5  505.77 3532.12 -0.720 1.74 33.3  -999.25 0.20000 
  12.100     39.7      9.3   3.0  2.69 3.04   292.7      2.3  47.4  480.69 3378.91 -0.794 1.77 33.3  -999.25 0.20000 
  12.200     25.6      8.7   3.0  2.70 3.09   269.7      2.3  52.5  470.66 3251.57 -0.892 1.91 33.3  -999.25 0.10000 
  12.300     29.3      9.3   3.0  2.71 3.07   267.2      2.5  46.6  455.63 3292.21 -0.806 1.89 33.3  -999.25 0.20000 
  12.400     24.6      8.7   3.0  2.66 2.97   251.1      2.5  40.5  505.77 3608.65 -0.653 1.92 33.3  -999.25 0.20000 
  12.500     25.6      8.3   3.0  2.66 3.04   243.0      2.4  52.4  505.77 3394.24 -0.854 1.96 33.3  -999.25 0.20000 
  12.600     23.7      7.7   3.0  2.72 3.02   192.3      2.9  36.6  450.61 3450.35 -0.641 1.91 33.3  -999.25 0.20000 
  12.700     31.2      6.3   3.0  2.71 3.04   155.6      2.9  40.7  455.62 3394.22 -0.707 1.82 33.3  -999.25 0.20000 
  12.800     25.6      5.9   3.0  2.66 3.09   139.5      3.0  63.0  510.79 3241.35 -1.031 1.87 33.3  -999.25 0.20000 
  12.900     24.6      6.9   2.9  2.64 3.08   136.0      3.6  65.5  530.84 3282.06 -1.052 1.90 33.3  -999.25 0.10000 
  13.000     28.4      5.8   2.9  2.74 3.06   134.4      3.1  39.1  430.57 3322.80 -0.704 1.93 33.3  -999.25 0.20000 
