~Version Information
VERS.                      2.0: CWLS Log ASCII Standard - VERSION 2.0
WRAP.                       NO: One line per depth step
~Well Information Block
STRT.FT               866.0000: 
STOP.FT              2029.0000: 
STEP.FT                 0.2500: 
NULL.                -999.2500: 
COMP.          Petrogulf Corporation: COMPANY
WELL.             State 16-21R: WELL
FLD.           Purgatorie River: FIELD
LOC.           203' FNL & 1560' FWL: LOCATION
PROV.                 Colorado: PROVINCE
CNTY.               Las Animas: COUNTRY
SRVC.                Patterson: SERVICE COMPANY
DATE.          Tue Aug 16 12:55:36 2005: LOG DATE
UWI.                071 08313 : UNIQUE WELL ID
~Curve Information Block
DEPT.FT            0 000 00 00: Depth
SP.mV                         : DIL Spontaneous Potential
RILD.Ohm-m                    : DIL Deep Resistivity
RILM.Ohm-m                    : DIL Medium Resistivity
RLL3.Ohm-m                    : DIL Shallow Resistivity
GR.GAPI                       : Gamma Ray
~Parameter Information Block
~A  Depth        SP         RILD        RILM        RLL3         GR     
# ...
  1398.0000    111.4434     12.5807     16.9441     33.1837    108.9617
  1398.2500    115.2987     12.6440     16.3806     32.1049     97.9521
  1398.5000    117.6944     12.7252     15.9256     24.6708     96.0541
  1398.7500    119.4917     12.7132     15.3441     18.4740     96.2975
  1399.0000    120.4957     12.6122     14.8593     16.9161    102.3449
  1399.2500    121.2221     12.5711     14.2735     16.1596    103.9858
  1399.5000    121.2357     12.3300     13.8685     15.4059     97.7288
  1399.7500    120.9056     12.0849     13.4778     15.0610    100.3844
  1400.0000    120.2718     11.8437     13.1039     14.7408     97.4369
  1400.2500    119.7961     11.4790     12.7485     14.7629    101.9237
  1400.5000    119.0565     11.0530     12.3591     14.6601     98.7089
  1400.7500    118.2849     10.6955     11.9702     15.0514     97.3324
  1401.0000    117.4958     10.4204     11.5295     15.0328     98.2649
  1401.2500    116.6121     10.1003     11.3241     15.3631    100.4098
  1401.5000    115.5118      9.9862     10.8907     15.0431     97.6830
  1401.7500    114.3015      9.7974     10.6935     14.4955     99.7132
  1402.0000    113.3334      9.7579     10.5354     14.5233    106.6664
  1402.2500    112.6450      9.6484     10.3675     14.5743    101.1019
  1402.5000    112.3840      9.6761     10.1353     14.1876     98.8640
  1402.7500    112.5328      9.6641     10.1446     13.7053     96.9016
  1403.0000    112.3866      9.5399     10.0239     13.3304     98.8084
  1403.2500    111.7589      9.6090      9.8427     13.5032    100.2919
  1403.5000    110.6670      9.5411      9.9636     13.9189    101.7327
  1403.7500    109.5620      9.5988     10.1302     14.3232     97.0163
  1404.0000    108.1349      9.7092     10.2892     14.5033     98.1386
  1404.2500    106.0196      9.7546     10.3446     14.8607     98.8905
  1404.5000    104.0013      9.7129     10.4190     14.8843     91.2339
  1404.7500    101.9297      9.6176     10.4482     14.7645     90.9146
  1405.0000     99.4024      9.7692     10.5075     15.2531     94.7945
  1405.2500     96.8056      9.8200     10.5758     16.3360     96.6804
  1405.5000     94.7529      9.9716     10.6569     17.4539     95.9135
  1405.7500     92.6768     10.1346     10.6761     18.1781    101.4931
  1406.0000     90.4409     10.4087     10.6390     17.8088    115.5918
  1406.2500     88.3300     10.9148     10.6865     16.7303    120.1290
  1406.5000     86.1208     11.3833     10.8103     14.8767    129.2883
  1406.7500     84.2825     11.9619     10.9623     13.3539    121.1187
  1407.0000     82.0999     12.6315     11.5271     13.8905    123.9953
  1407.2500     79.8528     13.4151     12.2679     15.9002    116.7146
  1407.5000     77.0833     14.2419     13.3646     19.5820     90.4338
  1407.7500     73.8955     15.2823     14.9116     22.8767     80.6131
  1408.0000     70.3343     16.3574     16.9574     29.0445     69.4852
  1408.2500     67.3229     17.2795     19.3072     51.5695     63.1366
  1408.5000     65.0723     18.2895     21.9461     99.9188     61.9251
  1408.7500     63.2898     19.6009     25.0393    151.0279     64.9373
  1409.0000     61.2670     21.6329     27.1609    164.2965     75.8758
  1409.2500     59.1937     24.2176     29.4854    126.4949     77.9847
  1409.5000     57.0490     27.7044     33.3590     97.5865     77.7731
  1409.7500     55.0504     32.2736     37.1130     85.8631     80.4084
  1410.0000     53.8946     36.0826     40.5862     86.1451     79.0255
  1410.2500     52.6520     43.7614     44.3375     95.3413     75.6417
  1410.5000     51.9166     49.1655     54.3879    109.2973     82.7403
  1410.7500     51.7981     54.0474     64.9572    124.3423     84.8971
  1411.0000     51.8730     58.6989     68.0864    140.2463     91.0742
  1411.2500     52.0255     61.8510     77.8105    159.5120     93.3412
  1411.5000     52.3690     64.1740     87.1794    189.3909     85.7112
  1411.7500     52.8008     62.5737     89.3296    242.7935     82.1887
  1412.0000     53.0504     63.6825     95.8181    304.1816     82.5075
  1412.2500     53.5267     58.0104     95.3410    343.9169     84.0911
  1412.5000     54.0610     58.6717     82.5857    339.6463     99.4781
  1412.7500     54.8383     59.2348     83.3022    292.5871     95.0806
  1413.0000     55.7795     59.9581     76.8508    218.5737     96.1479
  1413.2500     57.5067     61.7516     67.1858    126.9503    101.9641
  1413.5000     59.5119     57.5327     59.1789     66.4256    100.9376
  1413.7500     61.5186     58.1681     56.0441     51.9126     96.1727
  1414.0000     63.3364     57.5765     52.7522     51.7671     94.6671
  1414.2500     65.9907     56.6346     54.4811     55.3844     93.1181
  1414.5000     68.9410     54.1376     55.1371     71.0490     91.5393
  1414.7500     71.9688     49.2038     52.8606     96.6321     98.1399
  1415.0000     74.9927     46.6620     51.2866    105.0994     96.2286
  1415.2500     78.1843     44.0832     47.2662    104.6446     94.1152
  1415.5000     81.7292     43.3941     44.4049     93.2264     93.5013
  1415.7500     85.1954     42.7870     42.5011     74.3164     96.3703
  1416.0000     88.2907     41.6885     39.2983     54.7598     93.1157
  1416.2500     91.8693     41.2205     38.5212     41.9863     74.1982
  1416.5000     95.6269     39.7304     37.3875     39.5142     63.1816
  1416.7500     98.8634     37.5470     39.2686     55.0712     60.3033
  1417.0000    101.4527     36.3338     38.5769     95.2800     52.5962
  1417.2500    103.7481     36.1322     38.3855    140.3934     51.7490
  1417.5000    106.2794     35.9131     37.4756    143.1728     66.4178
  1417.7500    108.0988     34.9812     34.7831     94.6297     75.8518
  1418.0000    109.2090     32.7100     33.9555     49.8338     85.2965
  1418.2500    109.8975     32.5982     33.3175     36.9314     90.0769
  1418.5000    109.7364     32.8846     33.4156     44.1478     82.4319
  1418.7500    109.4090     32.9735     33.9318     56.1519     79.2634
  1419.0000    108.1712     34.1194     35.1161     57.1719     77.9468
  1419.2500    106.1193     33.5130     36.7020     53.6189     76.5915
  1419.5000    103.8914     33.2212     36.6703     58.8088     73.8165
  1419.7500    102.1701     33.4386     37.9682     68.7969     73.4933
  1420.0000    100.6084     34.1170     38.1316     75.3107     73.0739
  1420.2500     99.2842     34.8611     37.8914     76.1584     74.9975
  1420.5000     98.4776     35.8281     36.5073     60.5928     80.7209
  1420.7500     97.7458     37.3163     36.5423     47.5399     88.7961
  1421.0000     96.2272     37.5590     37.0102     42.1411     85.0891
  1421.2500     94.3273     38.5759     39.2086     46.5463     80.2594
  1421.5000     91.6719     39.8065     39.7271     59.1821     78.7677
  1421.7500     88.5689     41.6777     42.0816     67.6527     79.6737
  1422.0000     85.0580     42.5349     45.6311     63.8211     83.3599
  1422.2500     82.4258     43.0286     46.8672     57.9144     83.4165
  1422.5000     80.3462     43.5811     47.6118     59.0255     76.5859
  1422.7500     78.6275     45.2962     50.1318     64.7250     71.1022
  1423.0000     76.6087     47.4330     52.4977     76.9921     67.4617
  1423.2500     74.5306     47.1007     55.6805     90.5774     65.0474
  1423.5000     72.5422     51.7764     61.4384     99.8911     65.1574
  1423.7500     70.9413     52.0324     70.1325    121.4418     61.5091
  1424.0000     69.8301     53.9609     72.3504    163.2598     54.8020
  1424.2500     69.3126     54.9980     79.8464    205.9264     47.5443
  1424.5000     70.6950     53.8909     87.1308    225.5436     46.8196
  1424.7500     73.3353     57.0903     90.9280    221.2411     44.9773
  1425.0000     75.5927     54.2528     91.2289    211.2572     44.9087
  1425.2500     78.2674     51.9531     90.2498    201.6933     46.6678
  1425.5000     82.2625     48.2208     92.1977    184.4964     49.6812
  1425.7500     86.1664     43.6104     88.7173    160.8487     56.0047
