~Version Information
VERS.                      2.0: CWLS Log ASCII Standard - VERSION 2.0
WRAP.                       NO: One line per depth step
~Well Information Block
STRT.FT               250.0000: 
STOP.FT              1017.5000: 
STEP.FT                 0.1000: 
NULL.                -999.2500: 
COMP.          Pioneer Natural Resources: COMPANY
WELL.              Oscar 41-31: WELL
FLD.           Purgatoire River: FIELD
LOC.           412' FNL & 1216' FEL: LOCATION
PROV.                 Colorado: PROVINCE
CNTY.               Las Animas: COUNTRY
SRVC.                Patterson: SERVICE COMPANY
DATE.          Thu Feb 24 15:11:09 2005: LOG DATE
UWI.           05 071 08290 00: UNIQUE WELL ID
~Curve Information Block
DEPT.FT            0 000 00 00: Depth
DCAL.in                       : CDL Caliper
RHOB.g/cc                     : CDL Bulk Density
RHOC.g/cc                     : CDL Density Correction
DPOR.pu                       : CDL Density Porosity
GR.GAPI                       : Gamma Ray
NPOR.pu                       : Neutron Porosity
~Parameter Information Block
~A  Depth       DCAL        RHOB        RHOC        DPOR         GR         NPOR    
# ...
   806.8000      7.8927      2.4038      0.0216     14.9182     86.8044     12.6023
   806.9000      7.8927      2.3765      0.0115     16.5729     91.0431     13.6606
   807.0000      7.8904      2.3608      0.0214     17.5302     94.2237     14.8192
   807.1000      7.8904      2.3594      0.0166     17.6103     99.7799     16.2242
   807.2000      7.8904      2.3625      0.0290     17.4240    105.6610     17.4473
   807.3000      7.8901      2.3660      0.0408     17.2104    109.0639     17.6040
   807.4000      7.8901      2.3734      0.0344     16.7623    110.7160     17.1793
   807.5000      7.8902      2.3869      0.0617     15.9436    111.0435     17.4457
   807.6000      7.8902      2.4104      0.0751     14.5219    109.0459     18.7737
   807.7000      7.8902      2.4442      0.1123     12.4746    111.0067     20.3971
   807.8000      7.8902      2.4761      0.1169     10.5398    123.6621     21.1553
   807.9000      7.8902      2.4937      0.1257      9.4699    137.9833     20.8442
   808.0000      7.8907      2.4974      0.0902      9.2481    142.9617     20.3287
   808.1000      7.8907      2.4974      0.0617      9.2495    139.3566     20.3605
   808.2000      7.8907      2.4966      0.0631      9.2973    129.3492     20.8072
   808.3000      7.8910      2.4895      0.0501      9.7277    117.2833     20.9524
   808.4000      7.8910      2.4846     -0.0211     10.0262    111.9533     20.8127
   808.5000      7.8900      2.4928      0.0204      9.5283    118.0331     20.9612
   808.6000      7.8900      2.4986      0.0460      9.1741    131.1331     21.2877
   808.7000      7.8900      2.4848     -0.0017     10.0094    142.3155     21.3506
   808.8000      7.8881      2.4628     -0.0215     11.3434    147.1134     21.3468
   808.9000      7.8881      2.4526     -0.0155     11.9654    147.0682     22.2164
   809.0000      7.8833      2.4547      0.0006     11.8337    140.8607     24.1985
   809.1000      7.8833      2.4549     -0.0124     11.8233    131.6434     26.2549
   809.2000      7.8833      2.4482     -0.0456     12.2290    129.1533     27.7874
   809.3000      7.8753      2.4447     -0.0212     12.4426    132.0132     29.1488
   809.4000      7.8753      2.4457     -0.0199     12.3825    129.8650     30.7862
   809.5000      7.8694      2.4398      0.0276     12.7382    123.5806     32.4723
   809.6000      7.8694      2.4319      0.0027     13.2191    117.7632     33.8559
   809.7000      7.8694      2.4350      0.0396     13.0311    110.0004     34.9180
   809.8000      7.8668      2.4408      0.0691     12.6813    100.3849     35.5878
   809.9000      7.8668      2.4411     -0.0064     12.6592     93.1241     35.8171
   810.0000      7.8644      2.4446      0.0195     12.4504     88.5740     35.5316
   810.1000      7.8644      2.4491      0.0204     12.1736     84.5044     34.6387
   810.2000      7.8644      2.4394      0.0506     12.7664     82.6843     33.1204
   810.3000      7.8609      2.4093      0.0171     14.5891     84.9370     31.5139
   810.4000      7.8609      2.3729     -0.0152     16.7942     89.3217     30.3932
   810.5000      7.8577      2.3473     -0.0112     18.3432     95.0053     29.4240
   810.6000      7.8577      2.3330     -0.0117     19.2101    101.1265     28.2079
   810.7000      7.8577      2.3274     -0.0229     19.5502    102.8496     26.9727
   810.8000      7.8535      2.3353      0.0462     19.0722    100.4846     25.9663
   810.9000      7.8535      2.3675      0.0208     17.1192    101.6452     25.1837
   811.0000      7.8440      2.4374      0.0787     12.8826    105.6663     24.3696
   811.1000      7.8440      2.5313      0.1854      7.1930    105.6040     23.1447
   811.2000      7.8440      2.6109      0.2440      2.3716    103.7046     21.8594
   811.3000      7.8408      2.6525      0.3177     -0.1512    105.5486     21.3106
   811.4000      7.8408      2.6558      0.2747     -0.3488    108.8864     21.0221
   811.5000      7.8564      2.6259      0.2944      1.4632    111.0719     19.8061
   811.6000      7.8564      2.5704      0.2060      4.8247    114.6537     18.4041
   811.7000      7.8564      2.5124      0.1021      8.3393    117.8470     18.4112
   811.8000      7.8709      2.4706      0.0750     10.8708    116.7652     19.5519
   811.9000      7.8709      2.4384      0.0464     12.8223    113.6229     20.5981
   812.0000      7.8753      2.4114      0.0164     14.4578    110.7484     21.3453
   812.1000      7.8753      2.4130      0.0067     14.3651    106.6434     22.0448
   812.2000      7.8753      2.4675      0.0864     11.0626    103.1582     22.2933
   812.3000      7.8764      2.5553      0.2578      5.7404    102.4254     21.9288
   812.4000      7.8764      2.6319      0.2734      1.1000    100.7592     21.6057
   812.5000      7.8761      2.6803      0.2624     -1.8360     98.2049     21.7853
   812.6000      7.8761      2.7036      0.2593     -3.2465     96.6385     22.1610
   812.7000      7.8761      2.7026      0.2556     -3.1859     92.5861     22.1509
   812.8000      7.8750      2.6796      0.2190     -1.7923     85.5513     21.7871
   812.9000      7.8750      2.6445      0.1348      0.3335     77.7116     21.2897
   813.0000      7.8741      2.6082      0.1395      2.5351     70.6674     20.5736
   813.1000      7.8741      2.5746      0.0732      4.5681     67.8496     19.3818
   813.2000      7.8741      2.5516      0.0325      5.9632     68.8925     17.8269
   813.3000      7.8736      2.5415      0.0195      6.5739     70.0781     16.3413
   813.4000      7.8736      2.5345     -0.0517      7.0021     69.1646     14.8108
   813.5000      7.8735      2.5244     -0.0137      7.6131     66.0160     12.9419
   813.6000      7.8735      2.4912      0.0218      9.6265     64.1814     11.1421
   813.7000      7.8735      2.3979      0.0143     15.2786     64.7138     10.1559
   813.8000      7.8741      2.2401     -0.0369     24.8412     62.6658     10.1221
   813.9000      7.8741      2.0611     -0.1540     35.6917     57.3908     10.2261
   814.0000      7.8755      1.8957     -0.1301     45.7127     54.4708      9.5709
   814.1000      7.8755      1.7467     -0.2252     54.7468     56.3031      8.7138
   814.2000      7.8755      1.6281     -0.2227     61.9351     61.2658      8.6169
   814.3000      7.8780      1.5609     -0.1863     66.0045     68.7093      9.4365
   814.4000      7.8780      1.5580     -0.1453     66.1809     77.0131     10.8323
   814.5000      7.8806      1.6310      0.0280     61.7576     82.2531     12.1918
   814.6000      7.8806      1.7695      0.1656     53.3651     83.6337     13.5290
   814.7000      7.8806      1.9319      0.3524     43.5230     85.4928     15.6306
   814.8000      7.8816      2.0786      0.3976     34.6278     88.9687     18.2733
   814.9000      7.8816      2.2021      0.4284     27.1472     91.8677     20.7814
   815.0000      7.8799      2.3045      0.3933     20.9420     94.5227     22.8983
   815.1000      7.8799      2.3882      0.3394     15.8690     96.4990     24.4001
   815.2000      7.8799      2.4641      0.2959     11.2679     96.0431     25.5067
   815.3000      7.8769      2.5288      0.2779      7.3436     93.4874     26.4838
   815.4000      7.8769      2.5617      0.2353      5.3491     92.0104     27.3450
   815.5000      7.8745      2.5557      0.2208      5.7123     93.3626     27.6590
   815.6000      7.8745      2.5247      0.1624      7.5926     97.0592     26.9736
   815.7000      7.8745      2.4871      0.1123      9.8705    101.7830     25.5104
   815.8000      7.8729      2.4548      0.0891     11.8313    105.6544     23.6993
   815.9000      7.8729      2.4316      0.0740     13.2368    109.0344     21.9196
   816.0000      7.8712      2.4191      0.0637     13.9916    114.6313     20.6612
   816.1000      7.8712      2.4217      0.0302     13.8376    122.2804     19.9492
   816.2000      7.8712      2.4367      0.1503     12.9264    130.0486     19.6220
   816.3000      7.8669      2.4532      0.1300     11.9250    134.3698     19.9894
