~Version Information
VERS.                      2.0: CWLS Log ASCII Standard - VERSION 2.0
WRAP.                       NO: One line per depth step
~Well Information Block
STRT.FT               866.0000: 
STOP.FT              2027.5000: 
STEP.FT                 0.1000: 
NULL.                -999.2500: 
COMP.          Petrogulf Corporation: COMPANY
WELL.             State 16-21R: WELL
FLD.           Purgatorie River: FIELD
LOC.           203' FNL & 1560' FWL: LOCATION
PROV.                 Colorado: PROVINCE
CNTY.               Las Animas: COUNTRY
SRVC.                Patterson: SERVICE COMPANY
DATE.          Tue Aug 16 13:32:09 2005: LOG DATE
UWI.                071 08313 : UNIQUE WELL ID
~Curve Information Block
DEPT.FT            0 000 00 00: Depth
DCAL.in                       : CDL Caliper
RHOB.g/cc                     : CDL Bulk Density
RHOC.g/cc                     : CDL Density Correction
DPOR.pu                       : CDL Density Porosity
GR.GAPI                       : Gamma Ray
NPOR.pu                       : Neutron Porosity
~Parameter Information Block
~A  Depth       DCAL        RHOB        RHOC        DPOR         GR         NPOR    
# ...
  1931.6000      7.9899      2.4631      0.0563     11.3284    131.4447     21.9391
  1931.7000      7.9899      2.4759      0.0938     10.5545    131.3832     22.4792
  1931.8000      7.9687      2.4838      0.0967     10.0719    134.3716     22.6369
  1931.9000      7.9687      2.4817      0.1038     10.1979    139.4710     22.6582
  1932.0000      7.9468      2.4739      0.0824     10.6719    143.7292     22.6299
  1932.1000      7.9468      2.4690      0.0939     10.9714    145.7029     22.7032
  1932.2000      7.9468      2.4672      0.1149     11.0794    145.5010     22.8291
  1932.3000      7.8922      2.4665      0.0834     11.1234    144.0502     22.9280
  1932.4000      7.8922      2.4755      0.0950     10.5728    143.0361     23.1047
  1932.5000      7.9280      2.4925      0.1253      9.5437    143.5081     23.4370
  1932.6000      7.9280      2.5008      0.1357      9.0426    143.3880     23.9842
  1932.7000      7.9280      2.5005      0.1025      9.0583    140.9697     24.5017
  1932.8000      7.8820      2.5077      0.0937      8.6257    139.2743     24.5907
  1932.9000      7.8820      2.5239      0.1038      7.6445    139.1113     24.3053
  1933.0000      7.9455      2.5380      0.1002      6.7875    139.3102     23.7859
  1933.1000      7.9455      2.5461      0.0737      6.2978    140.2119     23.1406
  1933.2000      7.9455      2.5543      0.0469      5.8003    139.6695     22.5406
  1933.3000      7.9482      2.5646      0.0995      5.1761    135.3292     22.0457
  1933.4000      7.9482      2.5724      0.0452      4.7059    129.7387     21.5437
  1933.5000      7.9655      2.5819      0.0767      4.1248    126.0893     20.9669
  1933.6000      7.9655      2.5940      0.1277      3.3951    123.4773     20.3542
  1933.7000      7.9655      2.5942      0.1365      3.3823    120.6671     19.7844
  1933.8000      7.9238      2.5824      0.0732      4.0958    118.4234     19.3649
  1933.9000      7.9238      2.5784      0.0947      4.3381    116.3697     18.9424
  1934.0000      7.8581      2.5849      0.1023      3.9484    112.7266     18.3854
  1934.1000      7.8581      2.5869      0.0805      3.8261    107.1356     17.8695
  1934.2000      7.8581      2.5833      0.0770      4.0434    101.5414     17.4753
  1934.3000      7.9136      2.5875      0.1012      3.7900     98.2302     17.1772
  1934.4000      7.9136      2.6061      0.1790      2.6618     97.9224     16.9760
  1934.5000      7.8555      2.6354      0.1434      0.8870     99.2974     17.0191
  1934.6000      7.8555      2.6632      0.1894     -0.8008     99.8560     17.4793
  1934.7000      7.8555      2.6724      0.1927     -1.3550     99.8787     18.1877
  1934.8000      7.8009      2.6616      0.1742     -0.7010    100.7715     18.8814
  1934.9000      7.8009      2.6465      0.1513      0.2130    101.5259     19.2794
  1935.0000      7.8085      2.6382      0.1290      0.7154    100.5451     19.0926
  1935.1000      7.8085      2.6368      0.0905      0.8011     98.7195     18.5817
  1935.2000      7.8085      2.6404      0.1130      0.5844     98.3181     18.3304
  1935.3000      7.8667      2.6433      0.1202      0.4049     98.9927     18.4344
  1935.4000      7.8667      2.6355      0.1129      0.8761     99.7118     18.5798
  1935.5000      7.8974      2.6147      0.0731      2.1405     99.3997     18.4976
  1935.6000      7.8974      2.5903      0.0648      3.6162     95.9942     18.3210
  1935.7000      7.8974      2.5738      0.0620      4.6169     90.1133     18.6295
  1935.8000      7.9434      2.5688      0.0612      4.9209     85.3542     19.4838
  1935.9000      7.9434      2.5713      0.0771      4.7710     84.8749     20.1916
  1936.0000      7.9352      2.5701      0.1050      4.8429     87.2806     20.2873
  1936.1000      7.9352      2.5567      0.0541      5.6550     88.2458     20.0327
  1936.2000      7.9352      2.5430      0.0114      6.4845     85.9904     20.0741
  1936.3000      7.9527      2.5399      0.0641      6.6707     81.8987     20.5356
  1936.4000      7.9527      2.5371      0.0687      6.8424     77.3688     21.0343
  1936.5000      7.9573      2.5282      0.0482      7.3815     73.5336     21.3738
  1936.6000      7.9573      2.5226      0.0615      7.7209     72.8037     21.4480
  1936.7000      7.9573      2.5272      0.0738      7.4421     74.0613     21.1178
  1936.8000      7.9651      2.5298      0.1133      7.2862     74.2436     20.4532
  1936.9000      7.9651      2.5186      0.0511      7.9632     74.1445     19.6622
  1937.0000      7.9900      2.5072      0.0653      8.6575     74.3154     18.9623
  1937.1000      7.9900      2.5031      0.0691      8.9019     73.8788     18.6198
  1937.2000      7.9900      2.4974      0.0719      9.2509     73.6014     18.4317
  1937.3000      7.9646      2.4898      0.0668      9.7119     74.4897     18.0177
  1937.4000      7.9646      2.4897      0.0401      9.7159     75.3059     17.5727
  1937.5000      7.9186      2.4982      0.1058      9.2014     74.8269     17.2191
  1937.6000      7.9186      2.5072      0.0848      8.6532     73.2632     16.8321
  1937.7000      7.9186      2.5091      0.1412      8.5412     71.5711     16.5516
  1937.8000      7.8979      2.4991      0.0690      9.1465     70.0340     16.5258
  1937.9000      7.8979      2.4882      0.0297      9.8085     68.7912     16.5469
  1938.0000      7.9013      2.4903      0.0762      9.6802     69.4585     16.3771
  1938.1000      7.9013      2.5008      0.0964      9.0448     71.1843     16.0231
  1938.2000      7.9013      2.5013      0.1092      9.0129     70.6103     15.4981
  1938.3000      7.9195      2.4841      0.0758     10.0534     67.4165     14.9751
  1938.4000      7.9195      2.4631      0.0412     11.3274     64.4893     14.6978
  1938.5000      7.9640      2.4557      0.0473     11.7763     63.2326     14.7012
  1938.6000      7.9640      2.4660      0.0595     11.1522     61.6530     14.8189
  1938.7000      7.9640      2.4842      0.0770     10.0510     59.4892     14.6447
  1938.8000      7.9692      2.4940      0.1166      9.4565     59.3544     13.8067
  1938.9000      7.9692      2.4908      0.0544      9.6495     60.5922     12.6352
  1939.0000      7.9826      2.4888      0.0849      9.7687     61.1658     12.0202
  1939.1000      7.9826      2.5016      0.0658      8.9929     60.3653     12.4459
  1939.2000      7.9826      2.5233      0.1351      7.6785     57.8390     13.5222
  1939.3000      7.9766      2.5324      0.0999      7.1276     54.3639     14.3649
  1939.4000      7.9766      2.5239      0.0707      7.6414     50.9539     14.5116
  1939.5000      7.9578      2.5130      0.0419      8.3006     48.4178     14.2852
  1939.6000      7.9578      2.5072      0.0793      8.6548     47.3643     14.0805
  1939.7000      7.9578      2.5017      0.0689      8.9853     47.3605     13.9732
  1939.8000      7.9666      2.4984      0.0774      9.1908     48.0727     14.0374
  1939.9000      7.9666      2.5031      0.0727      8.9056     47.8981     14.1983
  1940.0000      7.9665      2.5143      0.0827      8.2261     47.5324     14.2039
  1940.1000      7.9665      2.5293      0.0873      7.3145     49.7917     14.2299
  1940.2000      7.9665      2.5463      0.0992      6.2874     52.3181     14.6335
  1940.3000      7.9723      2.5550      0.1072      5.7572     52.4215     15.2347
  1940.4000      7.9723      2.5513      0.0780      5.9839     53.4337     15.7379
  1940.5000      7.9717      2.5486      0.0726      6.1436     60.9755     16.1791
  1940.6000      7.9717      2.5574      0.0859      5.6123     75.6548     16.5859
  1940.7000      7.9717      2.5711      0.0902      4.7836     91.4178     16.9862
  1940.8000      7.9778      2.5794      0.0817      4.2781    103.4093     17.5550
  1940.9000      7.9778      2.5792      0.0605      4.2911    111.7818     18.4237
  1941.0000      7.9687      2.5722      0.0992      4.7146    117.8655     19.6957
  1941.1000      7.9687      2.5652      0.0736      5.1405    124.1975     21.3519
