~Version Information
 VERS.                                  2.0 : CWLS LAS VERSION
 WRAP.                                   NO : WRAPING MODE
 SWARE .                 MController 2.5.0J : SOFTWARE VERSION
~Well Information
 WELL.                  Dude Canyon 22-32Tr : WELL
 COMP.   Pioneer Natural Resources USA Inc. : COMPANY
 FLD.                      Purgatoire River : FIELD
 LOC.                SE/NW Sec 32 T32S R67W : LOCATION
 DATE.                             07/08/04 : DATE(S) LOGGED
 SRVC.       BLANCO Geological Services LLC : SERVICE COMPANY
 STAT.                                   CO : STATE
 CNTY.                           Las Animas : COUNTY
 CTRY.                                  USA : COUNTRY
 API.                       05-071-08421-00 : API NUMBER
 STRT.FT                             476.00 : START DEPTH
 STOP.FT                             1630.00 : STOP DEPTH
 STEP.FT                               1.00 : DEPTH INCREMENT
 NULL.                                -9999 : NULL VALUE
~Curve information
 DEPTH.FT                                   :
 ROP.MIN/FT                                 :
 GAS.UNITS                                  :
~ASCII Log data
       476.0     -9999.00          1.5 
       477.0        21.13          2.2 
       478.0         0.30          1.8 
       479.0         0.10          1.5 
       480.0         0.10          1.5 
       481.0         0.07          1.5 
       482.0         0.10          1.5 
       483.0         0.07          1.5 
       484.0         0.10          1.5 
       485.0         0.07          1.6 
       486.0         0.10          1.6 
       487.0         0.07          1.6 
       488.0         0.10          1.5 
       489.0         0.07          1.5 
       490.0         0.10          1.6 
       491.0         0.07          1.6 
       492.0         0.10          1.6 
       493.0         0.07          1.6 
       494.0         0.10          1.6 
       495.0         0.10          1.7 
       496.0         0.07          1.4 
       497.0         0.12          1.4 
       498.0         0.10          1.7 
       499.0         0.10          1.4 
       500.0         0.07          1.4 
       501.0         0.13          1.4 
       502.0         0.13          1.6 
       503.0         1.50          1.6 
       504.0         0.40          1.6 
       505.0         0.10          1.5 
       506.0         0.17          1.5 
       507.0         0.17          1.6 
       508.0         0.17          1.4 
       509.0         0.13          1.4 
       510.0         0.13          1.7 
       511.0         0.12          1.7 
       512.0         0.10          1.7 
       513.0         0.13          1.7 
       514.0         0.10          1.6 
       515.0         0.10          1.4 
       516.0         0.10          1.4 
       517.0         0.10          1.5 
       518.0         0.17          1.4 
       519.0         0.20          1.6 
       520.0         0.17          1.6 
       521.0         0.17          1.6 
       522.0         0.13          1.6 
       523.0         0.13          1.6 
       524.0         0.17          1.6 
       525.0         0.17          1.6 
       526.0         0.17          1.5 
       527.0         0.20          1.5 
       528.0         0.17          1.5 
       529.0         0.23          1.7 
       530.0         0.23          1.6 
       531.0         0.17          1.5 
       532.0         0.22          1.8 
       533.0         0.17          1.5 
       534.0         0.20          1.6 
       535.0         0.23          1.5 
       536.0         1.90          1.6 
       537.0         0.77          1.4 
       538.0         0.48          1.3 
       539.0         0.43          1.6 
       540.0         0.30          1.3 
       541.0         0.33          1.1 
       542.0         0.33          1.4 
       543.0         0.33          1.0 
       544.0         0.33          1.1 
       545.0         0.30          0.4 
       546.0         0.33          0.2 
       547.0         0.38          0.8 
       548.0         0.27          1.4 
       549.0         0.23          2.4 
       550.0         0.20          2.6 
       551.0         0.23          3.3 
       552.0         0.20          3.7 
       553.0         0.23          4.2 
       554.0         0.23          4.1 
       555.0         0.27          4.8 
       556.0         0.23          5.1 
       557.0         0.23          5.5 
       558.0         0.27          5.8 
       559.0         0.17          6.0 
       560.0         0.20          6.5 
       561.0         0.17          6.5 
       562.0         0.22          6.4 
       563.0         0.10          6.4 
       564.0         0.10          6.6 
       565.0         0.17          6.9 
       566.0         2.17          7.5 
       567.0         0.27          7.4 
       568.0         0.23          7.5 
       569.0         0.28          7.8 
       570.0         0.20          7.9 
       571.0         0.23          8.3 
       572.0         0.20          8.1 
       573.0         0.17          8.6 
       574.0         0.20          8.4 
       575.0         0.23          8.1 
       576.0         0.30          8.2 
       577.0         0.23          8.2 
       578.0         0.20          8.2 
       579.0         0.20          8.0 
       580.0         0.17          8.3 
       581.0         0.23          8.9 
       582.0         0.20          8.9 
       583.0         0.20          9.3 
       584.0         0.20          9.1 
       585.0         0.25          9.1 
       586.0         0.17          9.1 
       587.0         0.23          9.1 
       588.0         0.20          9.5 
       589.0         0.23          9.0 
       590.0         0.20          9.0 
       591.0         0.23          9.6 
       592.0         0.23          9.7 
       593.0         0.33          9.4 
       594.0         0.23          9.4 
       595.0         0.10          9.0 
       596.0         1.95          9.4 
       597.0         0.40          9.0 
       598.0         0.37          9.2 
       599.0         0.23          9.1 
       600.0         0.20          9.1 
       601.0         0.20          8.6 
       602.0         0.23          9.1 
       603.0         0.20          8.6 
       604.0         0.17          8.6 
       605.0         0.20          8.7 
       606.0         0.18          8.6 
       607.0         0.17          8.8 
       608.0         0.20          9.2 
       609.0         0.17          9.7 
       610.0         0.20          9.3 
       611.0         0.23          9.5 
       612.0         0.20          9.5 
       613.0         0.17          9.8 
       614.0         0.23          9.8 
       615.0         0.27          9.7 
       616.0         0.30         10.3 
       617.0         0.20          9.5 
       618.0         0.20          9.5 
       619.0         0.17          9.1 
       620.0         0.17          9.5 
       621.0         0.17          9.5 
       622.0         0.17          9.5 
       623.0         0.15          9.5 
       624.0         0.17          9.7 
       625.0         0.17          9.7 
       626.0         2.77         11.1 
       627.0         0.65         44.2 
       628.0         0.33         51.4 
       629.0         0.17         41.9 
       630.0         0.17         25.7 
       631.0         0.20         23.5 
       632.0         0.20         14.1 
       633.0         0.20          9.5 
       634.0         0.20          9.0 
       635.0         0.20          7.7 
       636.0         0.20          7.3 
       637.0         0.20          7.4 
       638.0         0.20          7.8 
       639.0         0.27          8.0 
       640.0         0.27          8.6 
       641.0         0.32          8.9 
       642.0         0.17          9.1 
       643.0         0.20          9.5 
       644.0         0.20          9.4 
       645.0         0.20          9.4 
       646.0         0.20          9.7 
       647.0         0.17          9.7 
       648.0         0.20          9.6 
       649.0         0.20          9.4 
       650.0         0.23          9.9 
       651.0         0.20          9.9 
       652.0         0.17          9.5 
       653.0         0.20          9.3 
       654.0         0.20          9.7 
       655.0         0.20          9.6 
       656.0         1.48          9.9 
       657.0         0.67         10.4 
       658.0         0.30         10.0 
       659.0         0.27         10.7 
       660.0         0.27         10.4 
       661.0         0.23         10.2 
       662.0         0.37         10.2 
       663.0         0.42         10.0 
       664.0         0.30         10.0 
       665.0         0.23         10.3 
       666.0         0.23         10.2 
       667.0         0.23         10.3 
       668.0         0.30         10.4 
       669.0         0.17         10.5 
       670.0         0.20         10.4 
       671.0         0.17         10.8 
       672.0         0.20         10.4 
       673.0         0.17         10.5 
       674.0         0.23         10.2 
       675.0         0.20         10.1 
