~Version Information
VERS.                      2.0: CWLS Log ASCII Standard - VERSION 2.0
WRAP.                       NO: One line per depth step
~Well Information Block
STRT.FT               546.2500: 
STOP.FT              2488.5000: 
STEP.FT                 0.2500: 
NULL.                -999.2500: 
COMP.          Petrogulf Corporation: COMPANY
WELL.               Egan 9-11V: WELL
FLD.           Purgatorie River: FIELD
LOC.           724' FNL & 1379' FWL: LOCATION
PROV.                 Colorado: PROVINCE
CNTY.               Las Animas: COUNTRY
SRVC.          Patterson Wireline: SERVICE COMPANY
DATE.          Fri Jul 11 23:16:48 2003: LOG DATE
UWI.           05 071 07875 00: UNIQUE WELL ID
~Curve Information Block
DEPT.FT            0 000 00 00: Depth
DCAL.in                       : CDL Caliper
RHOB.g/cc                     : CDL Bulk Density
RHOC.g/cc                     : CDL Density Correction
DPOR.pu                       : CDL Density Porosity
GR.GAPI                       : Gamma Ray
NPOR.pu                       : Neutron Porosity
~Parameter Information Block
~A  Depth       DCAL        RHOB        RHOC        DPOR         GR         NPOR    
# ...
  1458.2500      8.3322      2.5080      0.0813      8.6059    132.0501     23.1671
  1458.5000      8.3389      2.4964      0.0694      9.3117    132.3394     23.4031
  1458.7500      8.3529      2.4853      0.0655      9.9843    132.5882     23.6833
  1459.0000      8.3648      2.4607      0.0656     11.4722    132.3311     24.2091
  1459.2500      8.3700      2.4373      0.0669     12.8924    131.6731     24.5978
  1459.5000      8.3729      2.3895      0.0669     15.7861    129.9129     25.2048
  1459.7500      8.3757      2.3495      0.0657     18.2117    128.1122     25.6170
  1460.0000      8.3804      2.2806      0.0642     22.3863    124.4466     26.2595
  1460.2500      8.3883      2.2326      0.0636     25.2956    121.4420     26.6993
  1460.5000      8.3946      2.1666      0.0632     29.2997    115.8056     27.2653
  1460.7500      8.3941      2.1326      0.0645     31.3594    110.8350     27.4795
  1461.0000      8.3899      2.1065      0.0733     32.9369    101.4708     27.4873
  1461.2500      8.3894      2.1098      0.0846     32.7376     94.8828     27.3488
  1461.5000      8.3892      2.1473      0.1044     30.4671     86.9822     27.0818
  1461.7500      8.3871      2.1912      0.1157     27.8078     84.0472     26.8820
  1462.0000      8.3890      2.2748      0.1289     22.7370     83.2202     26.4653
  1462.2500      8.3959      2.3343      0.1364     19.1342     84.3832     26.0935
  1462.5000      8.4011      2.4147      0.1433     14.2621     87.1521     25.5257
  1462.7500      8.3931      2.4559      0.1409     11.7615     88.8771     25.2437
  1463.0000      8.3642      2.4938      0.1232      9.4646     90.4567     25.0263
  1463.2500      8.3300      2.5034      0.1055      8.8836     90.7894     24.9899
  1463.5000      8.3121      2.4994      0.0820      9.1252     90.7941     25.0796
  1463.7500      8.3071      2.4890      0.0748      9.7605     90.9301     25.2741
  1464.0000      8.3029      2.4693      0.0827     10.9517     91.7019     25.8287
  1464.2500      8.3016      2.4575      0.1003     11.6685     92.4612     26.3540
  1464.5000      8.3278      2.4464      0.1397     12.3389     93.4731     27.2575
  1464.7500      8.4056      2.4449      0.1701     12.4277     93.8404     27.8525
  1465.0000      8.5028      2.4516      0.2139     12.0227     93.9175     28.6102
  1465.2500      8.5513      2.4606      0.2374     11.4770     93.9370     28.9835
  1465.5000      8.5633      2.4769      0.2565     10.4891     94.6854     29.3411
  1465.7500      8.6011      2.4871      0.2550      9.8756     95.9495     29.4622
  1466.0000      8.6610      2.4977      0.2318      9.2276     98.8509     29.4774
  1466.2500      8.6602      2.5011      0.2079      9.0220    101.1097     29.3781
  1466.5000      8.5958      2.5015      0.1742      8.9988    104.2274     29.1266
  1466.7500      8.5649      2.5000      0.1605      9.0926    105.7299     28.9678
  1467.0000      8.5871      2.4975      0.1558      9.2427    107.0250     28.8398
  1467.2500      8.6275      2.4969      0.1605      9.2760    107.7074     28.7984
  1467.5000      8.6112      2.4991      0.1724      9.1484    109.5977     28.6163
  1467.7500      8.4978      2.5026      0.1799      8.9305    111.8419     28.3197
  1468.0000      8.3992      2.5109      0.1839      8.4292    116.4991     27.6409
  1468.2500      8.3926      2.5177      0.1778      8.0198    119.7432     27.1579
  1468.5000      8.4566      2.5278      0.1526      7.4070    122.6003     26.6128
  1468.7500      8.4976      2.5328      0.1280      7.1034    121.9019     26.4073
  1469.0000      8.4547      2.5330      0.0910      7.0887    116.8839     26.2106
  1469.2500      8.3890      2.5246      0.0720      7.6009    112.5443     26.0512
  1469.5000      8.3298      2.4927      0.0521      9.5349    108.2551     25.7411
  1469.7500      8.2655      2.4571      0.0404     11.6917    107.7744     25.5686
  1470.0000      8.2279      2.3872      0.0230     15.9285    108.8543     25.4693
  1470.2500      8.2228      2.3371      0.0165     18.9612    108.8573     25.4482
  1470.5000      8.2401      2.2743      0.0245     22.7721    105.6090     25.2374
  1470.7500      8.2718      2.2497      0.0416     24.2583    101.2850     24.8729
  1471.0000      8.2920      2.2481      0.0729     24.3557     93.3237     23.9507
  1471.2500      8.2985      2.2706      0.0896     22.9951     88.3611     23.0887
  1471.5000      8.2889      2.3316      0.1023     19.2985     82.8837     21.4640
  1471.7500      8.2531      2.3827      0.1041     16.1999     80.6333     20.2581
  1472.0000      8.2247      2.4605      0.1012     11.4876     78.5822     18.5532
  1472.2500      8.2163      2.5058      0.0961      8.7404     77.4186     17.6368
  1472.5000      8.2148      2.5566      0.0832      5.6589     75.0844     16.7135
  1472.7500      8.2154      2.5780      0.0719      4.3614     73.2077     16.3985
  1473.0000      8.2161      2.5940      0.0542      3.3954     71.0567     16.3158
  1473.2500      8.2166      2.5967      0.0435      3.2275     70.6754     16.4630
  1473.5000      8.2168      2.5947      0.0308      3.3485     71.5614     16.8338
  1473.7500      8.2164      2.5923      0.0259      3.4994     72.5586     17.0707
  1474.0000      8.2166      2.5904      0.0257      3.6151     73.8899     17.2826
  1474.2500      8.2179      2.5912      0.0303      3.5628     74.5724     17.3218
  1474.5000      8.2152      2.5953      0.0413      3.3140     75.6197     17.2659
  1474.7500      8.2067      2.5989      0.0492      3.0971     76.7228     17.1619
  1475.0000      8.1998      2.6035      0.0583      2.8160     79.7396     16.9561
  1475.2500      8.1940      2.6054      0.0616      2.7014     82.7968     16.8714
  1475.5000      8.1904      2.6065      0.0639      2.6371     88.0764     16.9626
  1475.7500      8.1916      2.6066      0.0661      2.6313     90.9894     17.1569
  1476.0000      8.1949      2.6068      0.0740      2.6160     92.6947     17.4892
  1476.2500      8.1967      2.6072      0.0817      2.5926     91.7326     17.6631
  1476.5000      8.1956      2.6073      0.0915      2.5872     88.2465     17.8505
  1476.7500      8.1936      2.6062      0.0936      2.6526     85.8219     17.9710
  1477.0000      8.1930      2.6019      0.0884      2.9165     83.9966     18.2202
  1477.2500      8.1948      2.5972      0.0805      3.2007     84.5174     18.4457
  1477.5000      8.1978      2.5887      0.0667      3.7151     87.7201     18.8206
  1477.7500      8.1994      2.5831      0.0593      4.0539     91.0154     19.0475
  1478.0000      8.2010      2.5762      0.0533      4.4727     96.8010     19.3484
  1478.2500      8.2049      2.5728      0.0520      4.6788    100.7247     19.5784
  1478.5000      8.2104      2.5690      0.0505      4.9088    105.9471     20.0822
  1478.7500      8.2145      2.5669      0.0484      5.0354    108.6738     20.5540
  1479.0000      8.2155      2.5642      0.0444      5.2013    111.5892     21.4198
  1479.2500      8.2160      2.5629      0.0426      5.2786    113.1233     22.0210
  1479.5000      8.2170      2.5628      0.0427      5.2830    115.7934     22.7446
  1479.7500      8.2160      2.5646      0.0447      5.1742    118.0964     22.9730
  1480.0000      8.2114      2.5706      0.0514      4.8135    121.7129     22.7934
  1480.2500      8.2076      2.5764      0.0585      4.4601    123.5271     22.3554
  1480.5000      8.2054      2.5863      0.0711      3.8615    124.6720     21.4833
  1480.7500      8.1997      2.5923      0.0775      3.4988    124.4468     20.9668
  1481.0000      8.1945      2.5984      0.0801      3.1245    122.8147     20.5360
  1481.2500      8.1934      2.6004      0.0773      3.0051    120.8155     20.4758
  1481.5000      8.1938      2.6015      0.0711      2.9390    116.6959     20.4853
  1481.7500      8.1938      2.6026      0.0685      2.8713    113.8123     20.3930
  1482.0000      8.1939      2.6082      0.0689      2.5338    110.4167     20.0294
