~Version Information
VERS.                      2.0: CWLS Log ASCII Standard - VERSION 2.0
WRAP.                       NO: One line per depth step
~Well Information Block
STRT.FT                 0.0000: 
STOP.FT              2006.5000: 
STEP.FT                 0.2500: 
NULL.                -999.2500: 
COMP.          Petrogulf Corporation: COMPANY
WELL.           Lavedure 7-44R: WELL
FLD.           Purgatorie River: FIELD
LOC.           946' FSL & 521' FEL: LOCATION
STAT.                 Colorado: State
CNTY.               Las Animas: COUNTY
CTRY. USA : Country
SECT. 7 : Section
TOWN. 33S : Township
RANG. 67W : Range
SRVC.                Patterson: SERVICE COMPANY
DATE.          Thu Nov 10 15:49:38 2005: LOG DATE
API. 05-071-08090       : UNIQUE WELL ID
~Curve Information Block
DEPT.FT            0 000 00 00: Depth
CCL.                          : Casing Collar Locator
TT3.usec                      : CBL 3' Travel Time
AMP3.mV                       : CBL 3' Amplitude
GR.GAPI                       : Gamma Ray
~Parameter Information Block
~A  Depth       CCL         TT3         AMP3         GR     
# ...
  1574.5000      0.0000    693.4338      3.2276    152.5180
  1574.7500      0.0000    699.7578      3.0170    152.6028
  1575.0000      0.0000    693.9337      2.8635    153.1246
  1575.2500      0.0000    679.8416      2.7515    152.5570
  1575.5000      0.0000    668.3611      2.6578    149.7265
  1575.7500      0.0000    667.3856      2.5781    144.8634
  1576.0000      0.0000    676.2480      2.5172    139.3616
  1576.2500      0.0000    686.0194      2.4779    134.7295
  1576.5000      0.0000    686.9414      2.4525    131.8264
  1576.7500      0.0000    679.5890      2.4215    130.5833
  1577.0000      0.0000    672.1665      2.3855    130.0655
  1577.2500      0.0000    667.2496      2.3730    129.1472
  1577.5000      0.0000    661.6134      2.3941    127.5005
  1577.7500      0.0000    655.2555      2.4151    125.7198
  1578.0000      0.0000    651.0766      2.4201    124.2181
  1578.2500      0.0000    649.8720      2.4648    122.4187
  1578.5000      0.0000    650.7717      2.5919    119.5640
  1578.7500      0.0000    654.5774      2.7558    116.0194
  1579.0000      0.0000    663.9089      2.8918    113.2932
  1579.2500      0.0000    676.8104      2.9854    112.9226
  1579.5000      0.0000    682.1695      3.0616    115.4375
  1579.7500      0.0000    671.6249      3.1435    119.9389
  1580.0000      0.0000    654.2164      3.2316    124.6202
  1580.2500      0.0000    647.7606      3.3055    128.2406
  1580.5000      0.0000    658.2051      3.3251    131.1752
  1580.7500      0.0000    674.7153      3.2636    134.6187
  1581.0000      0.0000    685.4087      3.1283    138.9329
  1581.2500      0.0000    691.5276      2.9403    143.2946
  1581.5000      0.0000    698.0724      2.7309    146.7433
  1581.7500      0.0000    699.1014      2.5511    148.9092
  1582.0000      0.0000    689.4489      2.4537    149.7374
  1582.2500      0.0000    677.9124      2.4547    148.9891
  1582.5000      0.0000    673.3139      2.5274    146.2264
  1582.7500      0.0000    673.4015      2.6368    141.1225
  1583.0000      0.0000    674.1602      2.7583    133.6405
  1583.2500      0.0000    677.2291      2.8848    124.1795
  1583.5000      0.0000    683.8469      3.0454    113.9213
  1583.7500      0.0000    687.9186      3.2888    104.7407
  1584.0000      0.0000    682.0292      3.6362     98.1360
  1584.2500      0.0000    670.2470      4.0413     94.2286
  1584.5000      0.0000    668.0045      4.3884     92.0889
  1584.7500      0.0000    682.0842      4.5787     90.9057
  1585.0000      0.0000    697.3604      4.6064     90.7431
  1585.2500      0.0000    696.0217      4.5034     92.3234
  1585.5000      0.0000    679.3874      4.2711     95.9760
  1585.7500      0.0000    659.6749      3.9164    100.5830
  1586.0000      0.0000    643.6869      3.4953    104.0264
  1586.2500      0.0000    633.4707      3.0877    105.3395
  1586.5000      0.0000    632.5016      2.7529    106.2332
  1586.7500      0.0000    642.5192      2.5159    109.7701
  1587.0000      0.0000    659.2936      2.3875    117.4612
  1587.2500      0.0000    675.2126      2.3810    127.8706
  1587.5000      0.0000    684.3143      2.5179    137.6209
  1587.7500      0.0000    686.4730      2.8165    143.3700
  1588.0000      0.0000    687.5635      3.2553    143.5123
  1588.2500      0.0000    692.2949      3.7751    138.9027
  1588.5000      0.0000    698.1625      4.3263    131.9861
  1588.7500      0.0000    700.6817      4.8615    124.9842
  1589.0000      0.0000    701.3786      5.3190    118.9614
  1589.2500      0.0000    703.9458      5.6599    114.3010
  1589.5000      0.0000    707.1902      5.9008    111.3903
  1589.7500      0.0000    706.5131      6.0910    110.5659
  1590.0000      0.0000    697.6058      6.2183    111.7603
  1590.2500      0.0000    683.1541      6.1892    114.6795
  1590.5000      0.0000    673.4147      5.9703    119.2833
  1590.7500      0.0000    670.7446      5.6331    125.6678
  1591.0000      0.0000    667.5135      5.2524    133.3719
  1591.2500      0.0000    661.3003      4.8661    141.0423
  1591.5000      0.0000    656.0089      4.4900    146.9285
  1591.7500      0.0000    653.4600      4.1364    149.8074
  1592.0000      0.0000    652.5948      3.8315    149.7117
  1592.2500      0.0000    651.9282      3.6019    147.9103
  1592.5000      0.0000    649.7919      3.4593    146.0855
  1592.7500      0.0000    644.5643      3.4126    145.3508
  1593.0000      0.0000    638.1530      3.4492    145.8676
  1593.2500      0.0000    639.1364      3.4914    147.0864
  1593.5000      0.0000    656.2302      3.4933    148.0822
  1593.7500      0.0000    685.6544      3.5707    147.6936
  1594.0000      0.0000    710.3158      3.8516    144.8385
  1594.2500      0.0000    718.0962      4.2921    139.3559
  1594.5000      2.0000    717.7709      4.7663    132.7074
  1594.7500      0.0000    725.0824      5.2044    127.4292
  1595.0000      0.0000    736.8767      5.5764    125.4148
  1595.2500      0.0000    737.7922      5.8450    126.5583
  1595.5000      0.0000    726.7670      6.0245    129.3383
  1595.7500      0.0000    714.1411      6.2444    132.9878
  1596.0000      0.0000    702.9803      6.5758    138.5946
  1596.2500      0.0000    689.9238      6.8263    147.1838
  1596.5000      0.0000    676.8072      6.8125    156.8513
  1596.7500      0.0000    671.2767      6.6617    163.0179
  1597.0000      0.0000    678.0115      6.5476    162.2267
  1597.2500      0.0000    693.5679      6.4838    155.1234
  1597.5000      0.0000    708.9828      6.4357    145.2845
  1597.7500      0.0000    717.9453      6.3662    135.8461
  1598.0000      0.0000    721.7709      6.2520    127.8316
  1598.2500      0.0000    723.8065      6.1349    121.0129
  1598.5000      0.0000    723.5563      6.0929    115.3044
  1598.7500      0.0000    720.9676      6.1449    111.2635
  1599.0000      0.0000    720.3648      6.2280    109.7908
  1599.2500      0.0000    724.6511      6.2954    111.4107
  1599.5000      0.0000    730.6057      6.3683    115.5294
  1599.7500      0.0000    734.1413      6.4419    120.2415
  1600.0000      0.0000    736.4700      6.4294    123.1184
  1600.2500      0.0000    743.1748      6.2575    122.7204
  1600.5000      0.0000    756.0126      5.9439    119.7796
  1600.7500      0.0000    764.7607      5.5675    116.7998
  1601.0000      0.0000    755.7997      5.2156    116.1675
  1601.2500      0.0000    730.5962      4.9395    118.6415
  1601.5000      0.0000    703.1981      4.7301    123.5744
  1601.7500      0.0000    682.3770      4.5519    129.8410
  1602.0000      0.0000    668.5345      4.3942    135.8857
  1602.2500      0.0000    661.3693      4.2636    139.3807
  1602.5000      0.0000    661.2904      4.1384    138.2135
  1602.7500      0.0000    666.7895      3.9745    132.5450
  1603.0000      0.0000    673.4542      3.7672    125.3194
  1603.2500      0.0000    676.0620      3.5544    120.0792
  1603.5000      0.0000    672.9910      3.3726    118.4438
  1603.7500      0.0000    667.8549      3.2523    119.7581
  1604.0000      0.0000    665.0596      3.1916    122.6019
  1604.2500      0.0000    664.7829      3.1255    126.2553
  1604.5000      0.0000    665.0139      3.0147    130.8532
  1604.7500      0.0000    665.2355      2.9186    136.3595
  1605.0000      0.0000    664.7065      2.9007    141.8416
  1605.2500      0.0000    662.2906      2.9329    146.2263
  1605.5000      0.0000    659.1070      2.9650    149.4512
  1605.7500      0.0000    657.0758      3.0076    152.0343
  1606.0000      0.0000    656.4379      3.0864    153.5799
  1606.2500      0.0000    656.4105      3.1901    152.6429
  1606.5000      0.0000    656.3875      3.2975    148.5560
  1606.7500      0.0000    656.1429      3.3970    142.8746
  1607.0000      0.0000    655.7365      3.4779    138.3911
  1607.2500      0.0000    655.3992      3.5525    136.7856
  1607.5000      0.0000    655.3054      3.6666    137.7133
  1607.7500      0.0000    655.4058      3.8357    139.9245
