~Version Information
VERS.                      2.0: CWLS Log ASCII Standard - VERSION 2.0
WRAP.                       NO: One line per depth step
~Well Information Block
STRT.FT               987.5000: 
STOP.FT              2426.0000: 
STEP.FT                 0.5000: 
NULL.                -999.2500: 
COMP.          Evergreen Operating Corporation: COMPANY
WELL.          McCullough 34-32: WELL
FLD.           Purgatorie River: FIELD
LOC.           261' FSL & 2098' FEL--: LOCATION
PROV.                 Colorado: PROVINCE
CNTY.               Las Animas: COUNTRY
SRVC.          Patterson Wireline: SERVICE COMPANY
DATE.          Mon May 17 13:38:56 2004: LOG DATE
UWI.           05-071-07953-00: UNIQUE WELL ID
~Curve Information Block
DEPT.FT            0 000 00 00: Depth
CCL.                          : Casing Collar Locator
TT3.usec                      : CBL 3' Travel Time
AMP3.mV                       : CBL 3' Amplitude
GR.GAPI                       : Gamma Ray
~Parameter Information Block
~A  Depth       CCL         TT3         AMP3         GR     
# ...
  1255.5000      0.0000    275.9082     50.6316    119.6266
  1256.0000      0.0000    275.9973     50.5060    114.8851
  1256.5000      0.0000    276.0555     49.3943    124.3481
  1257.0000      0.0000    276.1113     47.8116    135.9571
  1257.5000      0.0000    276.0022     47.6500    140.3008
  1258.0000      0.0000    275.9158     49.0179    137.7476
  1258.5000      0.0000    276.0672     49.9149    131.6972
  1259.0000      0.0000    276.2186     49.7750    134.2767
  1259.5000      0.0000    276.2504     49.3042    137.6822
  1260.0000      0.0000    276.2939     49.0094    131.3138
  1260.5000      0.0000    276.3351     49.0529    125.0226
  1261.0000      0.0000    276.3915     49.1099    127.2316
  1261.5000      0.0000    276.4787     48.7571    132.6260
  1262.0000      0.0000    276.5008     48.3901    135.6819
  1262.5000      0.0000    276.5417     48.3793    131.8178
  1263.0000      0.0000    276.5581     48.6385    127.5040
  1263.5000      0.0000    276.5206     48.8509    133.8941
  1264.0000      0.0000    276.5310     48.7175    137.4927
  1264.5000      0.0000    276.6503     48.2537    129.7332
  1265.0000      0.0000    276.8497     47.5116    118.5756
  1265.5000      0.0000    276.9703     46.8723    111.4585
  1266.0000      0.0000    276.9912     46.5511    112.9381
  1266.5000      0.0000    276.9622     46.2574    121.4595
  1267.0000      0.0000    276.9449     45.8719    129.9105
  1267.5000      0.0000    277.0217     45.4097    139.7948
  1268.0000      0.0000    277.0384     44.7907    148.0634
  1268.5000      0.0000    276.9708     44.1375    153.0060
  1269.0000      0.0000    277.0436     43.6803    151.1748
  1269.5000      0.0000    277.2426     43.1874    139.8505
  1270.0000      0.0000    277.3170     42.3183    130.5497
  1270.5000      0.0000    277.4716     41.2258    130.9460
  1271.0000      0.0000    277.7845     40.1560    129.7585
  1271.5000      0.0000    277.9550     39.2198    128.5089
  1272.0000      0.0000    277.9512     38.5175    131.2933
  1272.5000      0.0000    277.8889     37.9136    127.9360
  1273.0000      0.0000    277.9144     37.2475    124.6309
  1273.5000      0.0000    278.0836     36.5813    127.3877
  1274.0000      0.0000    278.2594     35.9381    126.5054
  1274.5000      0.0000    278.3269     35.3518    117.5236
  1275.0000      0.0000    278.3713     34.7033    108.9010
  1275.5000      0.0000    278.5574     33.6732    108.8002
  1276.0000      0.0000    278.9314     32.6221    113.3334
  1276.5000      0.0000    279.2110     31.9348    112.2101
  1277.0000      0.0000    279.2501     31.6048    107.6393
  1277.5000      0.0000    279.2021     31.6053    107.3627
  1278.0000      0.0000    279.0931     31.6030    116.3278
  1278.5000      0.0000    278.8831     31.8139    128.8404
  1279.0000      0.0000    278.5355     32.3810    132.6954
  1279.5000      0.0000    278.3520     33.0134    124.8760
  1280.0000      0.0000    279.8230     33.0480    118.8180
  1280.5000      0.0000    287.2885     31.3738    121.8992
  1281.0000      0.0000    301.8957     28.2783    131.3172
  1281.5000      0.0000    313.4333     25.2343    133.3853
  1282.0000      0.0000    317.1197     22.7725    126.4133
  1282.5000      0.0000    317.8318     20.4238    123.3794
  1283.0000      0.0000    318.3262     18.4649    124.6730
  1283.5000      0.0000    318.7643     17.4308    124.5983
  1284.0000      0.0000    318.9313     17.3670    121.7676
  1284.5000      0.0000    318.8356     18.0947    126.5083
  1285.0000      0.0000    318.5492     19.2203    134.5540
  1285.5000      0.0000    318.1592     20.2358    136.6254
  1286.0000      0.0000    317.9273     20.4917    132.2938
  1286.5000      0.0000    319.1030     19.4035    125.7395
  1287.0000      0.0000    332.0887     17.2408    126.3681
  1287.5000      0.0000    390.1719     13.9162    130.2258
  1288.0000      0.0000    499.2683     10.7811    130.7623
  1288.5000      0.0000    616.2081      8.6009    127.1060
  1289.0000      0.0000    717.0618      6.9537    119.3422
  1289.5000     -5.0000    774.6653      6.4191    114.5283
  1290.0000      0.0000    769.3937      6.9298    118.5828
  1290.5000      0.0000    660.5374      8.2154    123.3936
  1291.0000      0.0000    478.6174      9.9726    127.4330
  1291.5000      0.0000    357.5842     11.9746    132.7025
  1292.0000      0.0000    324.1777     14.7898    135.4524
  1292.5000      0.0000    320.0448     17.6634    137.1115
  1293.0000      0.0000    319.5294     19.2422    141.2174
  1293.5000      0.0000    319.4525     19.5554    146.3331
  1294.0000      0.0000    319.7089     19.1159    152.3988
  1294.5000      0.0000    320.2616     18.6458    153.2186
  1295.0000      0.0000    321.7769     18.0024    146.9813
  1295.5000      0.0000    336.1999     16.5706    135.0184
  1296.0000      0.0000    410.6747     13.9222    126.5911
  1296.5000      0.0000    562.8850      9.9995    119.9961
  1297.0000      0.0000    692.3969      6.7195    101.2169
  1297.5000      0.0000    756.4227      4.9508     78.9601
  1298.0000      0.0000    792.0154      3.5721     65.1893
  1298.5000      0.0000    813.5168      2.7740     58.5238
  1299.0000      0.0000    823.7545      3.0421     58.1235
  1299.5000      0.0000    803.2650      3.9764     65.4292
  1300.0000      0.0000    729.0364      6.2324     79.9881
  1300.5000      0.0000    581.7426      9.5788     96.2102
  1301.0000      0.0000    416.7123     13.3100    107.5245
  1301.5000      0.0000    336.4713     17.2175    113.9736
  1302.0000      0.0000    321.0669     19.0300    119.8758
  1302.5000      0.0000    320.0050     18.1427    125.9901
  1303.0000      0.0000    320.0248     17.0070    128.1162
  1303.5000      0.0000    320.1231     16.4143    121.0781
  1304.0000      0.0000    320.2269     16.1927    108.8033
  1304.5000      0.0000    320.2512     16.0825    103.0048
  1305.0000      0.0000    320.3005     15.8599    104.7941
  1305.5000      0.0000    320.3759     15.6513    107.3714
  1306.0000      0.0000    320.4913     15.5559    109.5151
  1306.5000      0.0000    320.8105     15.5538    111.6427
  1307.0000      0.0000    323.4267     15.2452    116.2427
  1307.5000      0.0000    343.9135     14.2268    122.5516
  1308.0000      0.0000    426.3228     12.0294    126.6265
  1308.5000      0.0000    576.7426      9.2196    122.4357
  1309.0000      0.0000    702.3888      6.6278    114.8479
  1309.5000      0.0000    763.9959      4.7007    101.5085
  1310.0000      0.0000    779.8331      3.4952     80.3590
  1310.5000      0.0000    754.6690      2.5711     62.9108
  1311.0000      0.0000    719.8884      2.1348     54.9532
  1311.5000      0.0000    711.6525      2.1228     51.5893
  1312.0000      0.0000    720.2330      2.0181     50.3282
  1312.5000      0.0000    737.2054      2.0460     48.0065
  1313.0000      0.0000    780.4528      2.0265     43.0417
  1313.5000      0.0000    834.7049      1.7974     44.2189
  1314.0000      0.0000    845.2996      2.0114     57.1637
  1314.5000      0.0000    802.6606      2.7799     71.4366
  1315.0000      0.0000    756.3822      3.4195     77.4944
  1315.5000      0.0000    746.1506      3.9381     85.3074
  1316.0000      0.0000    759.4343      5.0362     97.7221
  1316.5000      0.0000    758.7372      6.6773    107.8687
  1317.0000      0.0000    673.0820      8.6904    123.6746
  1317.5000      0.0000    496.3155     11.0785    145.9424
  1318.0000      0.0000    364.3509     13.0913    156.3780
  1318.5000      0.0000    325.2582     14.2446    154.9715
  1319.0000      0.0000    320.7088     14.7157    148.4984
  1319.5000      0.0000    320.6971     14.5455    142.4572
  1320.0000      0.0000    321.0023     14.1316    140.4746
  1320.5000      0.0000    321.3333     13.7988    140.2361
  1321.0000      0.0000    321.6667     13.6251    147.7461
  1321.5000      0.0000    322.0000     13.4750    158.6161
  1322.0000      0.0000    322.3336     12.8871    157.2930
