~Version Information
VERS.                      2.0: CWLS Log ASCII Standard - VERSION 2.0
WRAP.                       NO: One line per depth step
~Well Information Block
STRT.FT                -8.0000: 
STOP.FT              1540.2500: 
STEP.FT                 0.2500: 
NULL.                -999.2500: 
COMP.          Pioneer Natural Resources: COMPANY
WELL.           Telna 24-22 Tr: WELL
FLD.           Purgatorie River: FIELD
LOC.           748' FSL & 1931' FWL--: LOCATION
PROV.                       CO: PROVINCE
CNTY.               Las Animas: COUNTRY
SRVC.          Patterson Wireline: SERVICE COMPANY
DATE.          Fri May 06 12:29:21 2005: LOG DATE
UWI.           05 071 08304 00: UNIQUE WELL ID
~Curve Information Block
DEPT.FT            0 000 00 00: Depth
CCL.                          : Casing Collar Locator
TT3.usec                      : CBL 3' Travel Time
AMP3.mV                       : CBL 3' Amplitude
GR.GAPI                       : Gamma Ray
~Parameter Information Block
~A  Depth       CCL         TT3         AMP3         GR     
# ...
  1298.5000      0.0000    758.4343      4.8712    125.5267
  1298.7500      0.0000    748.0804      4.8390    128.3087
  1299.0000      0.0000    737.6920      4.8329    128.1531
  1299.2500      0.0000    728.5095      4.8986    126.5588
  1299.5000      0.0000    722.3966      5.0296    125.0035
  1299.7500      0.0000    720.1457      5.1643    124.4675
  1300.0000      0.0000    720.9517      5.2507    125.1781
  1300.2500      0.0000    723.1369      5.2865    126.5660
  1300.5000      0.0000    725.4969      5.2873    127.7566
  1300.7500      0.0000    728.4948      5.2507    128.2872
  1301.0000      0.0000    733.8228      5.1830    127.9772
  1301.2500      0.0000    741.8061      5.1406    126.1264
  1301.5000      0.0000    749.3694      5.1888    121.7647
  1301.7500      0.0000    751.5472      5.3093    115.2064
  1302.0000      0.0000    745.3375      5.3954    108.8751
  1302.2500      0.0000    731.8697      5.3568    105.8415
  1302.5000      0.0000    715.2354      5.1903    107.3217
  1302.7500      0.0000    699.8774      4.9459    111.7846
  1303.0000      0.0000    689.2557      4.6766    116.6105
  1303.2500      0.0000    686.5228      4.4297    120.4843
  1303.5000      0.0000    695.0559      4.2452    124.0948
  1303.7500      0.0000    716.3920      4.1427    128.7259
  1304.0000      2.0000    747.1213      4.1153    134.5768
  1304.2500      0.0000    779.0766      4.1302    140.6222
  1304.5000     -2.0000    803.3762      4.1495    145.6120
  1304.7500      0.0000    814.4812      4.1691    148.7015
  1305.0000      0.0000    811.6332      4.2088    149.5182
  1305.2500      0.0000    798.0594      4.2563    148.2852
  1305.5000      0.0000    778.7761      4.2716    145.8624
  1305.7500      0.0000    758.2647      4.2637    143.4140
  1306.0000      0.0000    739.9797      4.3068    141.8738
  1306.2500      0.0000    727.1849      4.4609    141.3839
  1306.5000      0.0000    722.6345      4.7148    141.0911
  1306.7500      0.0000    727.2544      5.0044    139.8766
  1307.0000      0.0000    739.9525      5.2449    137.6251
  1307.2500      0.0000    758.2092      5.3586    135.6409
  1307.5000      0.0000    778.0969      5.3148    135.5249
  1307.7500      0.0000    794.4978      5.1464    137.7410
  1308.0000      0.0000    802.9459      4.9207    141.5213
  1308.2500      0.0000    801.9962      4.7135    145.9076
  1308.5000      0.0000    793.5715      4.6060    150.3199
  1308.7500      0.0000    781.2512      4.6524    154.1575
  1309.0000      0.0000    769.0417      4.8206    156.5565
  1309.2500      0.0000    761.6008      5.0000    156.9218
  1309.5000      0.0000    763.5051      5.0943    155.3726
  1309.7500      0.0000    776.1861      5.0913    152.3520
  1310.0000      0.0000    795.7222      5.0358    148.1302
  1310.2500      0.0000    814.9697      4.9629    143.1290
  1310.5000      0.0000    828.0386      4.8723    138.4042
  1310.7500      0.0000    832.0930      4.7582    135.1860
  1311.0000      0.0000    825.4419      4.6524    133.8886
  1311.2500      0.0000    805.9165      4.6308    134.0082
  1311.5000      0.0000    772.9025      4.7544    135.0260
  1311.7500      0.0000    731.5117      4.9970    136.8012
  1312.0000      0.0000    693.9609      5.2430    138.7118
  1312.2500      0.0000    674.7074      5.3606    139.0390
  1312.5000      0.0000    681.6094      5.2858    135.9391
  1312.7500      0.0000    710.4408      5.0697    128.9892
  1313.0000      0.0000    748.3265      4.8582    119.4973
  1313.2500      0.0000    782.7992      4.7927    109.3819
  1313.5000      0.0000    807.8405      4.9044     99.8639
  1313.7500      0.0000    823.3512      5.1146     91.1081
  1314.0000      0.0000    831.7112      5.3226     82.9412
  1314.2500      0.0000    835.4258      5.4541     75.6903
  1314.5000      0.0000    836.4182      5.4530     70.1932
  1314.7500      0.0000    835.9531      5.3001     67.1118
  1315.0000      0.0000    834.5765      5.0560     66.2020
  1315.2500      0.0000    832.0714      4.8419     66.0943
  1315.5000      0.0000    827.8009      4.7625     65.0824
  1315.7500      0.0000    821.6964      4.8554     62.6894
  1316.0000      0.0000    815.0933      5.0798     60.3300
  1316.2500      0.0000    810.0911      5.3253     59.9789
  1316.5000      0.0000    807.5844      5.4681     62.3040
  1316.7500      0.0000    805.8868      5.4669     66.3289
  1317.0000      0.0000    801.4701      5.3981     70.4320
  1317.2500      0.0000    791.6746      5.3656     73.2399
  1317.5000      0.0000    777.9923      5.3827     74.0491
  1317.7500      0.0000    766.9375      5.3753     73.1686
  1318.0000      0.0000    765.9384      5.3013     71.9225
  1318.2500      0.0000    777.0374      5.2174     71.9247
  1318.5000      0.0000    795.0629      5.2004     74.1482
  1318.7500      0.0000    811.9486      5.2360     78.6192
  1319.0000      0.0000    821.6508      5.2242     84.6849
  1319.2500      0.0000    821.1983      5.0735     91.2794
  1319.5000      0.0000    809.6423      4.7655     97.0163
  1319.7500      0.0000    788.5740      4.3525    100.4368
  1320.0000      0.0000    763.6474      3.9185    100.5834
  1320.2500      0.0000    743.5737      3.5310     97.4771
  1320.5000      0.0000    735.9341      3.2185     91.9902
  1320.7500      0.0000    742.8474      2.9885     85.3450
  1321.0000      0.0000    759.3607      2.8349     78.6956
  1321.2500      0.0000    776.4443      2.7237     72.8650
  1321.5000      0.0000    788.1766      2.6066     68.2244
  1321.7500      0.0000    796.5860      2.4717     64.8060
  1322.0000      0.0000    807.2022      2.3635     62.5640
  1322.2500      0.0000    820.3030      2.3481     61.5703
  1322.5000      0.0000    830.2050      2.4662     62.0344
  1322.7500      0.0000    833.2806      2.7195     64.2570
  1323.0000      0.0000    832.5372      3.0952     68.5577
  1323.2500      0.0000    832.6932      3.5866     74.9574
  1323.5000      0.0000    833.5513      4.1769     82.7391
  1323.7500      0.0000    830.6254      4.8148     90.7868
  1324.0000      0.0000    821.3724      5.4243     98.7196
  1324.2500      0.0000    809.0019      5.9335    107.1345
  1324.5000      0.0000    800.0323      6.2957    116.1952
  1324.7500      0.0000    798.9761      6.4975    124.5307
  1325.0000      0.0000    805.4425      6.5510    130.1624
  1325.2500      0.0000    815.4497      6.4722    132.2842
  1325.5000      0.0000    824.7227      6.2731    131.9259
  1325.7500      0.0000    831.0386      5.9834    131.1373
  1326.0000      0.0000    834.4670      5.6642    131.2633
  1326.2500      0.0000    836.2659      5.3874    131.6389
  1326.5000      0.0000    837.7369      5.2057    130.4525
  1326.7500      0.0000    839.5867      5.1312    127.2827
  1327.0000      0.0000    841.7181      5.1202    124.1638
  1327.2500      0.0000    843.3861      5.0872    123.8295
  1327.5000      0.0000    843.7534      4.9688    127.4904
  1327.7500      0.0000    842.4171      4.7765    134.3557
  1328.0000      0.0000    839.4435      4.5734    142.2627
  1328.2500      0.0000    835.1805      4.4086    148.4635
  1328.5000      0.0000    830.3049      4.2881    150.9244
  1328.7500      0.0000    825.8490      4.1977    149.8234
  1329.0000      0.0000    822.7171      4.1320    147.5760
  1329.2500      0.0000    821.0889      4.1020    146.7821
  1329.5000      0.0000    820.5205      4.1286    147.8345
  1329.7500      0.0000    820.7286      4.2336    148.5010
  1330.0000      0.0000    822.0085      4.4247    145.9809
  1330.2500      0.0000    824.5378      4.6755    139.4387
  1330.5000      0.0000    827.4992      4.9152    130.5358
  1330.7500      0.0000    829.3858      5.0550    121.9522
  1331.0000      0.0000    829.2056      5.0518    116.0006
  1331.2500      0.0000    827.2898      4.9470    114.3285
  1331.5000      0.0000    825.1623      4.8306    117.7888
  1331.7500      0.0000    824.5765      4.7623    125.8077
