~Version Information
VERS.                      2.0: CWLS Log ASCII Standard - VERSION 2.0
WRAP.                       NO: One line per depth step
~Well Information Block
STRT.FT               -12.5000: 
STOP.FT              1613.0000: 
STEP.FT                 0.2500: 
NULL.                -999.2500: 
COMP.          Pioneer Natural Resources: COMPANY
WELL.          Peregrine 12-20: WELL
FLD.           Purgatorie River: FIELD
LOC.           1722' FNL & 999' FWL--: LOCATION
PROV.                       CO: PROVINCE
CNTY.               Las Animas: COUNTRY
SRVC.          Patterson Wireline: SERVICE COMPANY
DATE.          Fri Jul 22 12:50:00 2005: LOG DATE
UWI.           05 071 08428 00: UNIQUE WELL ID
~Curve Information Block
DEPT.FT            0 000 00 00: Depth
CCL.                          : Casing Collar Locator
TT3.usec                      : CBL 3' Travel Time
AMP3.mV                       : CBL 3' Amplitude
GR.GAPI                       : Gamma Ray
~Parameter Information Block
~A  Depth       CCL         TT3         AMP3         GR     
# ...
   423.0000      0.0000    724.9216      6.9702    135.9583
   423.2500      0.0000    730.4505      6.9567    135.7301
   423.5000      0.0000    734.8363      6.9445    135.7902
   423.7500      0.0000    737.7015      6.9377    134.5456
   424.0000      0.0000    739.2658      6.9405    130.9028
   424.2500      0.0000    739.4966      6.9521    125.0711
   424.5000      0.0000    738.2511      6.9671    118.4255
   424.7500      0.0000    735.7912      6.9795    112.2135
   425.0000      0.0000    732.5112      6.9867    106.5604
   425.2500      0.0000    728.3723      6.9918    101.0451
   425.5000      0.0000    723.4216      6.9999     95.9046
   425.7500      0.0000    718.8329      7.0109     92.1698
   426.0000      0.0000    716.5259      7.0162     90.7341
   426.2500      0.0000    717.4053      7.0062     91.5124
   426.5000      0.0000    720.5110      6.9791     93.4411
   426.7500      0.0000    724.2100      6.9399     95.2589
   427.0000      0.0000    727.7313      6.8936     96.5146
   427.2500      0.0000    731.1420      6.8450     97.8923
   427.5000      0.0000    734.3814      6.8007    100.3723
   427.7500      0.0000    736.9977      6.7646    104.1261
   428.0000      0.0000    738.6804      6.7270    108.4072
   428.2500      0.0000    739.5928      6.6678    112.3630
   428.5000      0.0000    740.2136      6.5728    115.5135
   428.7500      0.0000    741.1057      6.4456    117.2647
   429.0000      0.0000    742.8164      6.3045    116.4711
   429.2500      0.0000    745.6817      6.1662    112.2198
   429.5000      0.0000    749.4485      6.0347    105.1403
   429.7500      0.0000    753.0286      5.9061     97.4391
   430.0000      0.0000    754.7831      5.7817     91.3472
   430.2500      0.0000    753.4468      5.6726     87.5925
   430.5000      0.0000    749.3225      5.5948     85.2904
   430.7500      0.0000    744.6902      5.5610     82.8981
   431.0000      0.0000    742.4318      5.5783     79.2693
   431.2500      0.0000    743.7323      5.6512     74.3301
   431.5000      0.0000    747.0746      5.7867     69.0914
   431.7500      0.0000    749.5034      5.9917     65.0276
   432.0000      0.0000    749.1566      6.2593     63.3991
   432.2500      0.0000    746.8079      6.5551     64.8787
   432.5000      0.0000    744.6038      6.8243     69.2188
   432.7500      0.0000    743.3290      7.0181     74.8809
   433.0000      0.0000    742.0090      7.1159     79.2268
   433.2500      0.0000    740.2543      7.1287     79.9414
   433.5000      0.0000    739.0200      7.0877     76.8909
   433.7500      0.0000    738.3149      7.0299     72.2619
   434.0000      0.0000    736.3294      6.9839     68.4710
   434.2500      0.0000    732.1835      6.9637     66.3506
   434.5000      0.0000    728.1929      6.9673     65.6772
   434.7500      0.0000    728.5105      6.9804     66.5335
   435.0000      0.0000    736.1271      6.9858     69.1561
   435.2500      0.0000    750.6617      6.9782     72.7103
   435.5000      0.0000    767.6229      6.9700     75.1907
   435.7500      0.0000    780.0253      6.9809     75.0062
   436.0000      0.0000    782.3580      7.0210     72.5186
   436.2500      0.0000    774.1481      7.0828     69.8637
   436.5000      0.0000    760.3416      7.1455     69.3241
   436.7500      0.0000    748.1816      7.1853     71.7249
   437.0000      0.0000    742.9429      7.1871     75.9842
   437.2500      0.0000    745.6694      7.1533     79.9426
   437.5000      0.0000    754.0984      7.1010     81.6622
   437.7500      0.0000    764.7261      7.0529     80.2874
   438.0000      0.0000    773.8563      7.0280     76.2996
   438.2500      0.0000    778.2843      7.0399     71.2325
   438.5000      0.0000    776.7464      7.0964     66.6511
   438.7500      0.0000    770.5862      7.1932     62.9826
   439.0000      0.0000    762.5724      7.3050     59.6935
   439.2500      0.0000    755.9503      7.3871     56.7626
   439.5000      0.0000    754.4268      7.3971     55.2721
   439.7500      0.0000    760.4918      7.3253     56.1167
   440.0000      0.0000    772.3827      7.2075     58.6915
   440.2500      0.0000    783.8954      7.1030     61.3085
   440.5000      0.0000    788.1334      7.0546     62.5525
   440.7500      0.0000    781.4772      7.0673     62.0476
   441.0000      0.0000    765.1445      7.1183     60.3989
   441.2500      0.0000    744.3091      7.1800     58.6898
   441.5000      0.0000    725.2473      7.2328     57.7380
   441.7500      0.0000    711.9351      7.2651     57.6534
   442.0000      0.0000    704.7097      7.2691     58.1388
   442.2500      0.0000    701.6682      7.2399     59.0177
   442.5000      0.0000    700.7673      7.1799     60.2159
   442.7500      0.0000    700.8582      7.1035     61.3961
   443.0000      0.0000    701.7731      7.0333     62.0834
   443.2500      0.0000    704.1986      6.9903     62.2757
   443.5000      0.0000    709.3440      6.9824     62.5489
   443.7500      0.0000    717.8381      7.0024     63.1906
   444.0000      0.0000    728.4478      7.0344     63.4534
   444.2500      0.0000    738.4611      7.0622     62.1763
   444.5000      0.0000    746.1624      7.0738     59.1643
   444.7500      0.0000    752.5526      7.0629     55.6522
   445.0000      0.0000    760.0057      7.0316     53.4366
   445.2500      0.0000    769.4948      6.9939     53.6690
   445.5000      0.0000    779.3591      6.9692     56.1500
   445.7500      0.0000    786.6202      6.9662     59.3754
   446.0000      0.0000    789.4828      6.9741     61.3652
   446.2500      0.0000    788.5151      6.9721     60.9644
   446.5000      0.0000    785.6917      6.9452     58.6822
   446.7500      0.0000    783.1774      6.8918     56.2531
   447.0000      0.0000    782.8248      6.8212     55.1712
   447.2500      0.0000    785.4223      6.7464     55.5857
   447.5000      0.0000    790.0629      6.6756     56.6962
   447.7500      0.0000    794.8696      6.6109     58.0148
   448.0000      0.0000    798.1328      6.5507     59.7702
   448.2500      0.0000    798.7469      6.4951     61.9576
   448.5000      0.0000    796.9583      6.4452     63.4717
   448.7500      0.0000    795.2163      6.3999     62.8204
   449.0000      0.0000    796.6448      6.3557     59.8904
   449.2500      0.0000    801.1145      6.3114     56.5343
   449.5000      0.0000    803.7234      6.2712     54.9346
   449.7500      0.0000    798.9407      6.2400     55.6186
   450.0000      0.0000    786.6053      6.2195     57.4251
   450.2500      0.0000    773.3281      6.2057     59.0572
   450.5000      0.0000    767.4321      6.1870     60.1432
   450.7500      0.0000    771.8516      6.1367     60.9471
   451.0000      0.0000    782.5873      6.0129     61.6143
   451.2500      0.0000    795.1934      5.7840     61.8941
   451.5000      0.0000    810.8897      5.4689     61.3726
   451.7500      0.0000    832.6562      5.1444     59.8732
   452.0000      0.0000    856.4143      4.9002     57.8044
   452.2500      0.0000    871.4227      4.7821     56.0923
   452.5000      0.0000    870.7133      4.7753     55.4797
   452.7500      0.0000    857.5913      4.8300     55.9400
   453.0000      0.0000    840.7849      4.8970     57.0745
   453.2500     -2.0000    825.9212      4.9507     58.7422
   453.5000      0.0000    812.4533      4.9958     60.7584
   453.7500      0.0000    795.8039      5.0646     62.3999
   454.0000      0.0000    771.6473      5.2067     62.9466
   454.2500      0.0000    741.2266      5.4558     62.5667
   454.5000      0.0000    714.0154      5.7833     62.1293
   454.7500      0.0000    702.3055      6.0938     62.2384
   455.0000      0.0000    710.8283      6.2955     62.7772
   455.2500      0.0000    733.0410      6.3741     63.2089
   455.5000      0.0000    757.8162      6.3856     62.9952
   455.7500      0.0000    777.3817      6.3916     61.9422
   456.0000      0.0000    789.9462      6.4164     60.5538
   456.2500      0.0000    798.6546      6.4507     59.8863
