~Version Information
VERS.                      2.0: CWLS Log ASCII Standard - VERSION 2.0
WRAP.                       NO: One line per depth step
~Well Information Block
STRT.FT               800.0000: 
STOP.FT              1933.5000: 
STEP.FT                 0.2500: 
NULL.                -999.2500: 
COMP.          Pioneer Natural Resources: COMPANY
WELL.            Nova 11-14 Tr: WELL
FLD.           Purgatoire River: FIELD
LOC.           706' FNL & 1109' FWL: LOCATION
PROV.                 Colorado: PROVINCE
CNTY.               Las Animas: COUNTRY
SRVC.                Patterson: SERVICE COMPANY
DATE.          Wed Jul 20 23:28:11 2005: LOG DATE
UWI.           05 071 08434 00: UNIQUE WELL ID
~Curve Information Block
DEPT.FT            0 000 00 00: Depth
SN.Ohm-m                      : IEL Short Normal
SP.mV                         : IEL Spontaneous Potential
DIR.Ohm-m                     : IEL Induction Resistivity
GR.GAPI                       : Gamma Ray
~Parameter Information Block
~A  Depth        SN          SP         DIR          GR     
# ...
  1604.0000     19.7207    -67.7299     19.1010    123.8827
  1604.2500     20.4147    -67.4982     19.3530    122.2788
  1604.5000     20.9798    -67.2465     19.6602    119.2153
  1604.7500     21.3570    -67.0451     20.0109    117.5622
  1605.0000     21.6236    -66.9305     20.3901    116.6236
  1605.2500     21.7893    -66.8864     20.7765    116.9538
  1605.5000     21.8036    -66.8685     21.1448    118.1826
  1605.7500     21.7115    -66.8540     21.4696    119.1511
  1606.0000     21.6468    -66.8694     21.7354    120.4838
  1606.2500     21.7055    -66.9719     21.9433    121.1032
  1606.5000     21.9234    -67.2041     22.1132    121.3352
  1606.7500     22.3021    -67.5630     22.2772    120.9519
  1607.0000     22.7560    -68.0007     22.4668    119.4515
  1607.2500     23.1409    -68.4456     22.7018    117.6371
  1607.5000     23.3887    -68.8201     22.9850    113.3838
  1607.7500     23.5423    -69.0452     23.3014    109.6422
  1608.0000     23.7004    -69.0536     23.6198    103.4497
  1608.2500     23.9607    -68.8250     23.8957     99.4849
  1608.5000     24.3453    -68.4173     24.0872     94.3834
  1608.7500     24.7907    -67.9517     24.1788     91.6368
  1609.0000     25.2677    -67.5512     24.1963     88.6099
  1609.2500     25.8044    -67.2865     24.1928     87.5922
  1609.5000     26.3317    -67.1676     24.2150     88.1533
  1609.7500     26.6870    -67.1667     24.2750     89.9075
  1610.0000     26.7848    -67.2387     24.3427     93.5763
  1610.2500     26.6467    -67.3331     24.3583     95.8247
  1610.5000     26.3427    -67.4092     24.2584     97.9079
  1610.7500     25.9554    -67.4477     24.0050     98.3999
  1611.0000     25.5498    -67.4518     23.6002     98.1734
  1611.2500     25.1534    -67.4406     23.0742     97.5333
  1611.5000     24.7526    -67.4423     22.4595     96.0256
  1611.7500     24.3113    -67.4843     21.7745     94.9072
  1612.0000     23.7941    -67.5818     21.0292     93.7712
  1612.2500     23.1750    -67.7276     20.2347     93.7660
  1612.5000     22.4406    -67.8912     19.4072     95.3202
  1612.7500     21.5776    -68.0275     18.5668     97.5810
  1613.0000     20.5660    -68.0978     17.7372    103.0356
  1613.2500     19.3963    -68.0995     16.9440    108.0033
  1613.5000     18.1036    -68.0841     16.2065    116.9685
  1613.7500     16.8122    -68.1351     15.5301    123.5068
  1614.0000     15.6764    -68.3114     14.9083    133.1811
  1614.2500     14.7553    -68.6092     14.3336    138.8796
  1614.5000     14.0412    -68.9808     13.8063    145.3259
  1614.7500     13.5471    -69.3811     13.3342    147.9859
  1615.0000     13.2578    -69.7876     12.9239    149.8573
  1615.2500     13.1029    -70.1865     12.5765    150.1411
  1615.5000     13.0329    -70.5594     12.2897    149.6809
  1615.7500     13.0634    -70.8856     12.0665    148.8011
  1616.0000     13.2154    -71.1466     11.9208    146.4212
  1616.2500     13.4289    -71.3193     11.8734    144.1788
  1616.5000     13.5827    -71.3652     11.9420    140.3162
  1616.7500     13.6192    -71.2296     12.1285    137.6306
  1617.0000     13.6143    -70.8609     12.4135    133.0635
  1617.2500     13.7011    -70.2500     12.7587    129.0766
  1617.5000     13.9333    -69.4566     13.1175    121.1471
  1617.7500     14.2519    -68.5855     13.4506    114.9564
  1618.0000     14.5968    -67.7163     13.7387    105.6105
  1618.2500     15.0701    -66.8510     13.9836     99.8033
  1618.5000     15.9358    -65.9308     14.1968     91.8805
  1618.7500     17.2917    -64.9134     14.3887     87.3397
  1619.0000     18.7615    -63.8390     14.5649     82.7642
  1619.2500     19.7259    -62.8241     14.7281     82.0340
  1619.5000     19.8796    -61.9902     14.8752     85.2669
  1619.7500     19.3866    -61.3974     14.9932     90.1934
  1620.0000     18.5720    -61.0327     15.0598    100.5859
  1620.2500     17.6802    -60.8309     15.0512    108.4905
  1620.5000     16.8760    -60.6979     14.9507    119.6620
  1620.7500     16.2797    -60.5344     14.7484    125.2909
  1621.0000     15.9352    -60.2739     14.4379    129.3288
  1621.2500     15.7676    -59.9126     14.0192    129.1219
  1621.5000     15.5840    -59.4975     13.5086    126.3757
  1621.7500     15.2089    -59.0803     12.9423    124.4315
  1622.0000     14.6738    -58.6803     12.3674    123.4387
  1622.2500     14.1331    -58.2901     11.8271    124.7943
  1622.5000     13.5792    -57.9056     11.3494    129.9365
  1622.7500     12.8347    -57.5425     10.9443    134.5995
  1623.0000     11.8121    -57.2232     10.6044    141.1643
  1623.2500     10.6240    -56.9530     10.3102    144.2881
  1623.5000      9.5016    -56.7123     10.0374    146.9322
  1623.7500      8.6975    -56.4741      9.7659    147.8125
  1624.0000      8.3784    -56.2238      9.4870    148.6158
  1624.2500      8.5185    -55.9671      9.2048    149.0599
  1624.5000      8.9044    -55.7225      8.9312    149.8658
  1624.7500      9.2634    -55.5089      8.6798    150.5744
  1625.0000      9.4293    -55.3350      8.4613    151.5285
  1625.2500      9.3776    -55.1967      8.2804    151.5980
  1625.5000      9.1581    -55.0842      8.1370    150.2701
  1625.7500      8.8572    -54.9876      8.0272    148.6378
  1626.0000      8.5609    -54.8917      7.9448    146.1659
  1626.2500      8.3251    -54.7783      7.8825    144.9926
  1626.5000      8.1713    -54.6464      7.8331    143.6334
  1626.7500      8.0831    -54.5298      7.7912    142.4098
  1627.0000      8.0436    -54.4898      7.7546    139.8768
  1627.2500      8.0651    -54.5831      7.7244    138.3905
  1627.5000      8.1292    -54.8265      7.7037    138.0044
  1627.7500      8.1385    -55.1819      7.6949    139.3610
  1628.0000      7.9934    -55.5726      7.6993    143.0131
  1628.2500      7.6954    -55.9212      7.7164    145.3222
  1628.5000      7.3615    -56.1820      7.7441    146.2154
  1628.7500      7.1747    -56.3531      7.7788    144.4440
  1629.0000      7.2860    -56.4708      7.8167    139.7500
  1629.2500      7.6828    -56.5973      7.8555    137.2849
  1629.5000      8.1566    -56.7997      7.8955    137.2316
  1629.7500      8.4736    -57.1194      7.9386    139.4975
  1630.0000      8.5977    -57.5414      7.9855    143.8674
  1630.2500      8.6621    -57.9930      8.0331    145.9974
  1630.5000      8.7425    -58.3819      8.0745    147.2527
  1630.7500      8.7903    -58.6454      8.1037    147.2095
  1631.0000      8.7656    -58.7764      8.1209    146.9691
  1631.2500      8.7278    -58.8147      8.1345    147.2479
  1631.5000      8.7586    -58.8160      8.1588    148.7682
  1631.7500      8.8557    -58.8209      8.2060    150.3650
  1632.0000      8.9745    -58.8449      8.2798    152.8438
  1632.2500      9.1110    -58.8897      8.3739    154.0852
  1632.5000      9.2632    -58.9550      8.4768    154.8941
  1632.7500      9.4038    -59.0402      8.5786    154.6077
  1633.0000      9.5294    -59.1420      8.6740    152.7352
  1633.2500      9.6272    -59.2515      8.7613    150.5155
  1633.5000      9.6519    -59.3476      8.8387    146.1697
  1633.7500      9.5815    -59.3957      8.9052    143.0251
  1634.0000      9.4263    -59.3666      8.9629    138.5405
  1634.2500      9.2278    -59.2663      9.0192    135.9053
  1634.5000      9.0472    -59.1442      9.0845    132.7117
  1634.7500      8.8893    -59.0666      9.1678    131.2206
  1635.0000      8.7357    -59.0797      9.2715    130.3505
  1635.2500      8.6569    -59.1910      9.3902    131.1103
  1635.5000      8.7340    -59.3761      9.5119    134.8322
  1635.7500      8.9401    -59.6029      9.6224    138.7155
  1636.0000      9.2069    -59.8549      9.7086    144.7517
  1636.2500      9.4868    -60.1378      9.7608    147.6523
  1636.5000      9.7379    -60.4639      9.7734    149.2186
  1636.7500     10.0170    -60.8337      9.7470    148.6065
  1637.0000     10.5111    -61.2331      9.6903    146.5201
  1637.2500     11.2024    -61.6448      9.6215    145.1896
