~Version Information
VERS.                      2.0: CWLS Log ASCII Standard - VERSION 2.0
WRAP.                       NO: One line per depth step
~Well Information Block
STRT.FT               294.0000: 
STOP.FT              1961.5000: 
STEP.FT                 0.2500: 
NULL.                -999.2500: 
COMP.          Pioneer Natural Resources: COMPANY
WELL.          Commander 43-26 Tr: WELL
FLD.           Purgatoire River: FIELD
LOC.           2439' FSL & 446' FEL: LOCATION
PROV.                 Colorado: PROVINCE
CNTY.               Las Animas: COUNTRY
SRVC.                Patterson: SERVICE COMPANY
DATE.          Thu Apr 14 18:26:07 2005: LOG DATE
UWI.           05 071 08341 00: UNIQUE WELL ID
~Curve Information Block
DEPT.FT            0 000 00 00: Depth
SN.Ohm-m                      : IEL Short Normal
SP.mV                         : IEL Spontaneous Potential
DIR.Ohm-m                     : IEL Induction Resistivity
GR.GAPI                       : Gamma Ray
~Parameter Information Block
~A  Depth        SN          SP         DIR          GR     
# ...
   528.5000   2000.0000   2000.0000     17.0637    159.1304
   528.7500   2000.0000   2000.0000     16.6000    158.7203
   529.0000   2000.0000   2000.0000     16.2372    158.5563
   529.2500   2000.0000   2000.0000     15.9560    158.3456
   529.5000   2000.0000   2000.0000     15.7440    157.9918
   529.7500   2000.0000   2000.0000     15.5917    157.9842
   530.0000   2000.0000   2000.0000     15.4891    157.9654
   530.2500   2000.0000   2000.0000     15.4278    157.3519
   530.5000   2000.0000   2000.0000     15.4065    155.2122
   530.7500   2000.0000   2000.0000     15.4329    153.5511
   531.0000   2000.0000   2000.0000     15.5194    151.8831
   531.2500   2000.0000   2000.0000     15.6721    151.3732
   531.5000   2000.0000   2000.0000     15.8827    150.6734
   531.7500   2000.0000   2000.0000     16.1305    149.9247
   532.0000   2000.0000   2000.0000     16.3966    148.7171
   532.2500   2000.0000   2000.0000     16.6770    148.1835
   532.5000   2000.0000   2000.0000     16.9831    147.6563
   532.7500   2000.0000   2000.0000     17.3283    147.0352
   533.0000   2000.0000   2000.0000     17.7131    145.1317
   533.2500   2000.0000   2000.0000     18.1194    143.3359
   533.5000   2000.0000   2000.0000     18.5184    140.6008
   533.7500   2000.0000   2000.0000     18.8907    139.1362
   534.0000   2000.0000   2000.0000     19.2449    137.7137
   534.2500   2000.0000   2000.0000     19.6190    137.3385
   534.5000   2000.0000   2000.0000     20.0638    137.9059
   534.7500   2000.0000   2000.0000     20.6153    139.1404
   535.0000   2000.0000   2000.0000     21.2761    141.8510
   535.2500   2000.0000   2000.0000     22.0144    143.7801
   535.5000   2000.0000   2000.0000     22.7828    146.7105
   535.7500   2000.0000   2000.0000     23.5402    149.0951
   536.0000   2000.0000   2000.0000     24.2612    153.6326
   536.2500   2000.0000   2000.0000     24.9331    156.5947
   536.5000   2000.0000   2000.0000     25.5566    158.7914
   536.7500   2000.0000   2000.0000     26.1448    157.8772
   537.0000   2000.0000   2000.0000     26.7014    152.8932
   537.2500   2000.0000   2000.0000     27.1855    147.7316
   537.5000   2000.0000   2000.0000     27.5000    138.7202
   537.7500   2000.0000   2000.0000     27.5369    132.9123
   538.0000   2000.0000   2000.0000     27.2447    125.9346
   538.2500   2000.0000   2000.0000     26.6587    122.6203
   538.5000   2000.0000   2000.0000     25.8752    118.9789
   538.7500   2000.0000   2000.0000     25.0067    117.0391
   539.0000   2000.0000   2000.0000     24.1477    114.9627
   539.2500   2000.0000   2000.0000     23.3531    114.5569
   539.5000   2000.0000   2000.0000     22.6349    116.0511
   539.7500   2000.0000   2000.0000     21.9738    118.5068
   540.0000   2000.0000   2000.0000     21.3392    123.9184
   540.2500   2000.0000   2000.0000     20.7047    128.1594
   540.5000   2000.0000   2000.0000     20.0581    134.4075
   540.7500   2000.0000   2000.0000     19.4105    138.0265
   541.0000   2000.0000   2000.0000     18.7980    142.2337
   541.2500   2000.0000   2000.0000     18.2696    144.0170
   541.5000   2000.0000   2000.0000     17.8648    144.6590
   541.7500   2000.0000   2000.0000     17.5963    143.5755
   542.0000   2000.0000   2000.0000     17.4485    140.1142
   542.2500   2000.0000   2000.0000     17.3890    137.2552
   542.5000   2000.0000   2000.0000     17.3864    133.5814
   542.7500   2000.0000   2000.0000     17.4239    132.0737
   543.0000   2000.0000   2000.0000     17.5057    130.7447
   543.2500   2000.0000   2000.0000     17.6541    129.5340
   543.5000   2000.0000   2000.0000     17.9004    126.1166
   543.7500   2000.0000   2000.0000     18.2727    123.1404
   544.0000   2000.0000   2000.0000     18.7873    119.4746
   544.2500   2000.0000   2000.0000     19.4479    118.3874
   544.5000   2000.0000   2000.0000     20.2508    118.6670
   544.7500   2000.0000   2000.0000     21.1899    119.3774
   545.0000   2000.0000   2000.0000     22.2530    119.9330
   545.2500   2000.0000   2000.0000     23.4065    119.5869
   545.5000   2000.0000   2000.0000     24.5861    117.8127
   545.7500   2000.0000   2000.0000     25.7102    115.7402
   546.0000   2000.0000   2000.0000     26.7079    111.4827
   546.2500   2000.0000   2000.0000     27.5393    108.3749
   546.5000   2000.0000   2000.0000     28.1977    104.5199
   546.7500   2000.0000   2000.0000     28.7134    102.9541
   547.0000   2000.0000   2000.0000     29.1607    102.2497
   547.2500   2000.0000   2000.0000     29.6356    102.8560
   547.5000   2000.0000   2000.0000     30.2008    105.5784
   547.7500   2000.0000   2000.0000     30.8410    108.7131
   548.0000   2000.0000   2000.0000     31.4767    114.9852
   548.2500   2000.0000   2000.0000     32.0221    119.4578
   548.5000   2000.0000   2000.0000     32.4258    124.9337
   548.7500   2000.0000   2000.0000     32.6531    127.2114
   549.0000   2000.0000   2000.0000     32.6527    129.0908
   549.2500   2000.0000   2000.0000     32.3748    130.0358
   549.5000   2000.0000   2000.0000     31.8339    131.3392
   549.7500   2000.0000   2000.0000     31.1445    131.5665
   550.0000   2000.0000   2000.0000     30.4899    129.8528
   550.2500   2000.0000   2000.0000     30.0559    127.3473
   550.5000   2000.0000   2000.0000     29.9824    122.6333
   550.7500   2000.0000   2000.0000     30.3419    119.5119
   551.0000   2000.0000   2000.0000     31.1328    115.1583
   551.2500   2000.0000   2000.0000     32.2816    112.2307
   551.5000   2000.0000   2000.0000     33.6650    107.4125
   551.7500   2000.0000   2000.0000     35.1625    103.9425
   552.0000   2000.0000   2000.0000     36.7237     98.5608
   552.2500   2000.0000   2000.0000     38.4031     94.8427
   552.5000   2000.0000   2000.0000     40.3260     88.9144
   552.7500   2000.0000   2000.0000     42.6003     84.7728
   553.0000   2000.0000   2000.0000     45.2523     78.5792
   553.2500   2000.0000   2000.0000     48.2525     74.5483
   553.5000   2000.0000   2000.0000     51.6112     68.4291
   553.7500   2000.0000   2000.0000     55.4091     64.1228
   554.0000   2000.0000   2000.0000     59.6516     57.4220
   554.2500   2000.0000   2000.0000     64.0066     53.2157
   554.5000   2000.0000   2000.0000     67.7036     48.3019
   554.7500   2000.0000   2000.0000     69.8662     46.2858
   555.0000   2000.0000   2000.0000     70.1110     44.7509
   555.2500   2000.0000   2000.0000     68.7588     44.1089
   555.5000   2000.0000   2000.0000     66.4219     43.0051
   555.7500   2000.0000   2000.0000     63.5269     42.3336
   556.0000   2000.0000   2000.0000     60.2300     42.4014
   556.2500   2000.0000   2000.0000     56.6408     43.6777
   556.5000   2000.0000   2000.0000     53.0179     47.8113
   556.7500   2000.0000   2000.0000     49.7431     52.1899
   557.0000   2000.0000   2000.0000     47.1435     61.6862
   557.2500   2000.0000   2000.0000     45.3563     70.1480
   557.5000   2000.0000   2000.0000     44.3009     85.1421
   557.7500   2000.0000   2000.0000     43.7318     95.2736
   558.0000   2000.0000   2000.0000     43.3314    107.8397
   558.2500   2000.0000   2000.0000     42.8207    113.4281
   558.5000   2000.0000   2000.0000     42.0412    117.3971
   558.7500   2000.0000   2000.0000     40.9614    117.3614
   559.0000   2000.0000   2000.0000     39.6263    113.5816
   559.2500   2000.0000   2000.0000     38.1116    108.8491
   559.5000   2000.0000   2000.0000     36.5089     99.7120
   559.7500   2000.0000   2000.0000     34.9214     93.4014
   560.0000   2000.0000   2000.0000     33.4456     85.6542
   560.2500   2000.0000   2000.0000     32.1421     82.7365
   560.5000   2000.0000   2000.0000     31.0196     83.1215
   560.7500   2000.0000   2000.0000     30.0499     86.6965
   561.0000   2000.0000   2000.0000     29.1989     95.8185
   561.2500   2000.0000   2000.0000     28.4479    103.2035
   561.5000   2000.0000   2000.0000     27.7798    114.3874
   561.7500   2000.0000   2000.0000     27.1486    121.2308
