~Version Information
VERS.                      2.0: CWLS Log ASCII Standard - VERSION 2.0
WRAP.                       NO: One line per depth step
~Well Information Block
STRT.FT               770.0000: 
STOP.FT              1718.7000: 
STEP.FT                 0.1000: 
NULL.                -999.2500: 
COMP.          Pioneer Natural Resources: COMPANY
WELL.            Salty 42-6 Tr: WELL
FLD.           Purgatoire River: FIELD
LOC.           2409' FNL & 599' FEL: LOCATION
PROV.                 Colorado: PROVINCE
CNTY.               Las Animas: COUNTRY
SRVC.                Patterson: SERVICE COMPANY
DATE.          Thu Dec 16 09:30:36 2004: LOG DATE
UWI.           05 071 08238 00: UNIQUE WELL ID
~Curve Information Block
DEPT.FT            0 000 00 00: Depth
DCAL.in                       : CDL Caliper
RHOB.g/cc                     : CDL Bulk Density
RHOC.g/cc                     : CDL Density Correction
DPOR.pu                       : CDL Density Porosity
NPOR.pu                       : Neutron Porosity
GR.GAPI                       : Gamma Ray
~Parameter Information Block
~A  Depth       DCAL        RHOB        RHOC        DPOR        NPOR         GR     
# ...
  1566.8000      7.9007      2.3760      0.1332     16.6075     19.1741    127.7385
  1566.9000      7.9007      2.3858      0.0922     16.0097     19.8518    128.1411
  1567.0000      7.8911      2.4051      0.1076     14.8446     20.1373    133.0032
  1567.1000      7.8911      2.4261      0.0817     13.5711     19.9199    134.9584
  1567.2000      7.8911      2.4398      0.1164     12.7370     19.2063    129.6652
  1567.3000      7.8878      2.4451      0.1083     12.4179     18.4377    123.0560
  1567.4000      7.8878      2.4489      0.1492     12.1849     18.1139    120.6596
  1567.5000      7.8833      2.4594      0.1062     11.5537     18.1475    121.1978
  1567.6000      7.8833      2.4803      0.1068     10.2870     18.3781    118.1756
  1567.7000      7.8833      2.5086      0.1232      8.5707     18.8066    109.2026
  1567.8000      7.8689      2.5342      0.1509      7.0177     19.2424     99.8464
  1567.9000      7.8689      2.5480      0.1322      6.1822     19.7368     94.1945
  1568.0000      7.8485      2.5534      0.0921      5.8540     20.2918     91.0127
  1568.1000      7.8485      2.5533      0.1237      5.8610     20.4952     89.2997
  1568.2000      7.8485      2.5483      0.0759      6.1647     20.3184     89.2576
  1568.3000      7.8372      2.5508      0.0947      6.0111     20.0338     87.5107
  1568.4000      7.8372      2.5607      0.1552      5.4135     19.8850     80.0242
  1568.5000      7.8365      2.5641      0.0940      5.2067     20.0271     69.6710
  1568.6000      7.8365      2.5658      0.0780      5.1040     20.3365     63.3038
  1568.7000      7.8365      2.5779      0.1022      4.3719     20.6558     61.9455
  1568.8000      7.8381      2.6015      0.0431      2.9420     20.7087     60.2444
  1568.9000      7.8381      2.6247      0.1020      1.5337     20.2871     55.2990
  1569.0000      7.8368      2.6292      0.0211      1.2619     19.6796     49.3577
  1569.1000      7.8368      2.6112      0.0690      2.3526     19.1747     46.3727
  1569.2000      7.8368      2.5843      0.0419      3.9843     18.8269     48.1810
  1569.3000      7.8344      2.5732      0.0165      4.6536     18.5819     52.1054
  1569.4000      7.8344      2.5833      0.0604      4.0398     18.4349     54.0529
  1569.5000      7.8341      2.5860      0.1100      3.8758     18.2672     52.9232
  1569.6000      7.8341      2.5659      0.0555      5.0988     17.8081     50.3405
  1569.7000      7.8341      2.5367      0.0969      6.8652     17.1546     48.2981
  1569.8000      7.8347      2.5127      0.0209      8.3229     16.6280     47.7042
  1569.9000      7.8347      2.5036      0.0238      8.8728     16.4476     48.5001
  1570.0000      7.8312      2.5070      0.0263      8.6662     16.6826     50.7942
  1570.1000      7.8312      2.5095      0.0272      8.5158     17.0096     53.1713
  1570.2000      7.8312      2.5119      0.0353      8.3715     16.9599     52.7502
  1570.3000      7.8191      2.5222      0.0613      7.7484     16.5465     49.9100
  1570.4000      7.8191      2.5308      0.0724      7.2265     16.2813     47.4070
  1570.5000      7.8075      2.5289      0.0396      7.3424     16.3072     45.9437
  1570.6000      7.8075      2.5253      0.0687      7.5603     16.2569     46.0028
  1570.7000      7.8075      2.5276      0.0490      7.4206     16.0273     47.6891
  1570.8000      7.8150      2.5316      0.0669      7.1765     15.8925     49.2169
  1570.9000      7.8150      2.5274      0.0392      7.4294     15.9427     48.9960
  1571.0000      7.8255      2.5148      0.0309      8.1958     16.0119     46.8718
  1571.1000      7.8255      2.4943      0.0549      9.4393     16.0635     44.5628
  1571.2000      7.8255      2.4641      0.0133     11.2693     16.1527     44.2023
  1571.3000      7.8282      2.4433     -0.0449     12.5249     16.3104     45.8405
  1571.4000      7.8282      2.4490      0.0085     12.1839     16.6291     47.5227
  1571.5000      7.8311      2.4640      0.0686     11.2727     17.1534     48.7623
  1571.6000      7.8311      2.4741      0.0026     10.6607     17.6284     49.4079
  1571.7000      7.8311      2.4884      0.0012      9.7967     17.9049     49.0732
  1571.8000      7.8349      2.5078      0.0679      8.6153     18.2773     49.9977
  1571.9000      7.8349      2.5217      0.0475      7.7738     18.9603     52.7732
  1572.0000      7.8343      2.5232      0.0436      7.6860     19.9582     56.4470
  1572.1000      7.8343      2.5122      0.0487      8.3525     21.0944     62.6946
  1572.2000      7.8343      2.5013     -0.0079      9.0138     22.0515     70.0298
  1572.3000      7.8314      2.5002      0.0354      9.0776     22.6150     76.2226
  1572.4000      7.8314      2.4975      0.0492      9.2395     22.8108     82.6477
  1572.5000      7.8306      2.4852      0.0221      9.9856     22.6955     88.8949
  1572.6000      7.8306      2.4694      0.0134     10.9435     22.3571     95.1288
  1572.7000      7.8306      2.4495      0.0476     12.1530     21.8800    103.6331
  1572.8000      7.8232      2.4280      0.0222     13.4556     21.3672    114.1994
  1572.9000      7.8232      2.4263      0.0122     13.5603     21.0252    122.5436
  1573.0000      7.8147      2.4539      0.0860     11.8832     21.0026    126.1572
  1573.1000      7.8147      2.4887      0.1663      9.7770     21.1609    126.7563
  1573.2000      7.8147      2.5015      0.1814      9.0001     21.2182    126.5736
  1573.3000      7.8187      2.4845      0.1573     10.0310     21.0435    128.1102
  1573.4000      7.8187      2.4587      0.0857     11.5929     20.8373    132.0208
  1573.5000      7.8261      2.4528      0.1029     11.9502     20.8673    137.4436
  1573.6000      7.8261      2.4698      0.1042     10.9203     21.1038    143.3288
  1573.7000      7.8261      2.4879      0.1351      9.8253     21.2914    147.6507
  1573.8000      7.8292      2.4909      0.0889      9.6448     21.3240    150.6889
  1573.9000      7.8292      2.4847      0.0740     10.0192     21.3020    152.2506
  1574.0000      7.8300      2.4764      0.0977     10.5183     21.2735    151.0490
  1574.1000      7.8300      2.4661      0.0911     11.1470     21.3149    147.2089
  1574.2000      7.8300      2.4575      0.0936     11.6665     21.7252    142.4874
  1574.3000      7.8311      2.4573      0.0748     11.6801     22.4530    141.0424
  1574.4000      7.8311      2.4604      0.0884     11.4910     23.0150    142.0403
  1574.5000      7.8375      2.4488      0.1204     12.1914     23.2652    141.2804
  1574.6000      7.8375      2.4208      0.0568     13.8918     23.2204    140.8703
  1574.7000      7.8375      2.3995      0.0835     15.1806     22.8521    144.6987
  1574.8000      7.8445      2.3978      0.1101     15.2818     22.5255    150.5517
  1574.9000      7.8445      2.4111      0.0680     14.4813     22.4652    151.9675
  1575.0000      7.8411      2.4340      0.0970     13.0910     22.3931    147.8996
  1575.1000      7.8411      2.4548      0.1421     11.8308     22.0800    145.8810
  1575.2000      7.8411      2.4607      0.1631     11.4705     21.4741    148.2271
  1575.3000      7.8407      2.4562      0.1421     11.7478     20.7885    147.5748
  1575.4000      7.8407      2.4528      0.1548     11.9489     20.3843    142.0251
  1575.5000      7.8509      2.4533      0.1448     11.9211     20.4253    137.8327
  1575.6000      7.8509      2.4571      0.1439     11.6880     20.7259    138.0044
  1575.7000      7.8509      2.4660      0.1552     11.1517     21.0592    138.2701
  1575.8000      7.8593      2.4766      0.1459     10.5076     21.3181    134.2761
  1575.9000      7.8593      2.4824      0.1273     10.1556     21.4357    129.6967
  1576.0000      7.8607      2.4856      0.1219      9.9654     21.5872    129.8760
  1576.1000      7.8607      2.4941      0.1022      9.4502     21.7602    133.5633
  1576.2000      7.8607      2.5064      0.1264      8.7036     21.5712    136.5239
  1576.3000      7.8607      2.5120      0.0939      8.3658     21.3103    137.7834
