~Version Information
VERS.                      2.0: CWLS Log ASCII Standard - VERSION 2.0
WRAP.                       NO: One line per depth step
~Well Information Block
STRT.FT               590.0000: 
STOP.FT              1563.5000: 
STEP.FT                 0.1000: 
NULL.                -999.2500: 
COMP.          Petrogulf Corporation: COMPANY
WELL.             State 16-43R: WELL
FLD.           Purgatorie River: FIELD
LOC.           2538' FSL & 716' FEL: LOCATION
PROV.                 Colorado: PROVINCE
CNTY.               Las Animas: COUNTRY
SRVC.                Patterson: SERVICE COMPANY
DATE.          Tue Aug 09 14:21:37 2005: LOG DATE
UWI.                          : UNIQUE WELL ID
~Curve Information Block
DEPT.FT            0 000 00 00: Depth
DCAL.in                       : CDL Caliper
RHOB.g/cc                     : CDL Bulk Density
RHOC.g/cc                     : CDL Density Correction
DPOR.pu                       : CDL Density Porosity
GR.GAPI                       : Gamma Ray
NPOR.pu                       : Neutron Porosity
~Parameter Information Block
~A  Depth       DCAL        RHOB        RHOC        DPOR         GR         NPOR    
# ...
  1156.4000      8.6527      2.4848      0.0580     10.0102     91.9953     18.5939
  1156.5000      8.6496      2.4882      0.0993      9.8032     91.3844     18.7707
  1156.6000      8.6496      2.4953      0.0921      9.3756     92.0299     19.1888
  1156.7000      8.6496      2.4997      0.1079      9.1071     93.3503     19.4189
  1156.8000      8.6306      2.5001      0.0987      9.0848     96.0784     19.1232
  1156.9000      8.6306      2.4978      0.0867      9.2257     98.3790     18.5824
  1157.0000      8.6372      2.4952      0.0700      9.3846     98.5009     18.3881
  1157.1000      8.6372      2.4922      0.0835      9.5608     97.1735     18.6819
  1157.2000      8.6372      2.4894      0.0599      9.7363     96.4924     19.0885
  1157.3000      8.6576      2.4890      0.0582      9.7579     97.6789     19.2293
  1157.4000      8.6576      2.4909      0.0531      9.6407     98.4592     19.1883
  1157.5000      8.6591      2.4900      0.0912      9.6981     96.6190     19.2150
  1157.6000      8.6591      2.4856      0.0509      9.9620     93.9572     19.2143
  1157.7000      8.6591      2.4840      0.0647     10.0586     93.8884     19.0324
  1157.8000      8.6602      2.4854      0.0638      9.9744     96.7758     18.7974
  1157.9000      8.6602      2.4858      0.0794      9.9505     99.6382     18.7117
  1158.0000      8.6597      2.4869      0.0652      9.8857     99.8032     18.7976
  1158.1000      8.6597      2.4942      0.0734      9.4447     98.2340     18.9873
  1158.2000      8.6597      2.5074      0.0623      8.6396     97.2127     19.2929
  1158.3000      8.6521      2.5161      0.0895      8.1180     96.9576     19.7603
  1158.4000      8.6521      2.5099      0.0755      8.4882     97.6477     20.2780
  1158.5000      8.6307      2.4965      0.0666      9.3004     99.5756     20.6868
  1158.6000      8.6307      2.4896      0.0782      9.7205    100.4828     20.9745
  1158.7000      8.6307      2.4921      0.0538      9.5699     99.4094     21.2547
  1158.8000      8.5989      2.5010      0.0707      9.0291     98.9924     21.4668
  1158.9000      8.5989      2.5166      0.0605      8.0831     99.8433     21.3059
  1159.0000      8.5814      2.5390      0.1131      6.7299     99.5587     20.9666
  1159.1000      8.5814      2.5594      0.1268      5.4912     97.9044     20.9270
  1159.2000      8.5814      2.5681      0.1072      4.9666     97.2917     21.1616
  1159.3000      8.5817      2.5610      0.1137      5.3947     97.7122     21.3656
  1159.4000      8.5817      2.5379      0.1410      6.7960     97.6114     21.3499
  1159.5000      8.5528      2.5068      0.0681      8.6793     97.0706     21.1432
  1159.6000      8.5528      2.4878      0.0660      9.8285     96.1486     20.8761
  1159.7000      8.5528      2.4885      0.0680      9.7877     94.4253     20.7962
  1159.8000      8.4896      2.4955      0.0418      9.3608     93.3566     20.9172
  1159.9000      8.4896      2.4996      0.0358      9.1179     94.5439     21.0408
  1160.0000      8.4348      2.5046      0.0598      8.8091     96.9128     21.1146
  1160.1000      8.4348      2.5163      0.0649      8.1057     99.2549     21.1300
  1160.2000      8.4348      2.5299      0.0629      7.2788    102.0102     21.0732
  1160.3000      8.4248      2.5364      0.1049      6.8828    103.0527     21.0356
  1160.4000      8.4248      2.5408      0.0565      6.6164    100.2432     21.2784
  1160.5000      8.4176      2.5576      0.0708      5.5978     95.8806     21.8510
  1160.6000      8.4176      2.5775      0.1222      4.3922     92.4037     22.4315
  1160.7000      8.4176      2.5789      0.0535      4.3117     91.8776     22.7653
  1160.8000      8.4142      2.5691      0.0568      4.9037     96.2338     22.9269
  1160.9000      8.4142      2.5694      0.0305      4.8862    103.4956     23.1130
  1161.0000      8.4150      2.5804      0.0686      4.2189    107.7340     23.3531
  1161.1000      8.4150      2.5854      0.0606      3.9134    107.2264     23.4992
  1161.2000      8.4150      2.5777      0.0185      4.3813    105.8070     23.3603
  1161.3000      8.4121      2.5650      0.0545      5.1522    105.5719     22.9897
  1161.4000      8.4121      2.5622      0.0120      5.3221    105.5439     22.6465
  1161.5000      8.4002      2.5758      0.1106      4.4958    103.9145     22.4413
  1161.6000      8.4002      2.5871      0.0907      3.8118    101.0569     22.3078
  1161.7000      8.4002      2.5775      0.1069      4.3922     99.6891     22.1681
  1161.8000      8.4093      2.5464      0.0709      6.2782    100.4269     21.8831
  1161.9000      8.4093      2.5083      0.0392      8.5873    100.0554     21.4174
  1162.0000      8.4142      2.4855      0.0324      9.9695     95.6621     21.0065
  1162.1000      8.4142      2.4849      0.0605     10.0057     89.8788     20.8581
  1162.2000      8.4142      2.4920      0.0409      9.5781     88.4643     20.7789
  1162.3000      8.4206      2.4941      0.0539      9.4496     91.6370     20.6022
  1162.4000      8.4206      2.4905      0.0340      9.6640     94.7623     20.4741
  1162.5000      8.4179      2.4864      0.0299      9.9158     94.6251     20.3974
  1162.6000      8.4179      2.4832      0.0569     10.1070     91.2845     20.3111
  1162.7000      8.4179      2.4803      0.0633     10.2846     87.6924     20.2044
  1162.8000      8.4221      2.4829      0.0397     10.1248     86.7729     20.0195
  1162.9000      8.4221      2.4868      0.0836      9.8882     88.6612     19.6628
  1163.0000      8.4354      2.4791      0.0437     10.3593     91.0528     19.1481
  1163.1000      8.4354      2.4684      0.0087     11.0065     93.0132     18.6141
  1163.2000      8.4354      2.4697      0.0582     10.9299     96.8695     18.3181
  1163.3000      8.4197      2.4734      0.0939     10.7049    101.4257     18.6146
  1163.4000      8.4197      2.4712      0.0378     10.8337    101.9600     19.3254
  1163.5000      8.4414      2.4722      0.0604     10.7782     99.5088     19.8996
  1163.6000      8.4414      2.4765      0.0757     10.5177     98.4997     20.1922
  1163.7000      8.4414      2.4772      0.0849     10.4742     98.1981     20.1305
  1163.8000      8.4510      2.4821      0.0670     10.1758     95.4397     19.5513
  1163.9000      8.4510      2.5034      0.0863      8.8856     90.6753     18.9181
  1164.0000      8.4491      2.5278      0.1286      7.4046     87.9774     18.7123
  1164.1000      8.4491      2.5307      0.1094      7.2294     89.8380     18.6747
  1164.2000      8.4491      2.5138      0.0829      8.2532     93.6521     18.5344
  1164.3000      8.4386      2.4939      0.0616      9.4588     97.3962     18.4294
  1164.4000      8.4386      2.4757      0.0646     10.5650    101.1549     18.4150
  1164.5000      8.4392      2.4596      0.0339     11.5422    102.7004     18.3962
  1164.6000      8.4392      2.4512      0.0273     12.0461    101.0513     18.4462
  1164.7000      8.4392      2.4526      0.0398     11.9665     97.6772     18.6149
  1164.8000      8.4447      2.4589      0.0528     11.5819     93.3316     18.7091
  1164.9000      8.4447      2.4664      0.0500     11.1267     90.6239     18.5844
  1165.0000      8.4452      2.4714      0.0760     10.8243     91.5198     18.4119
  1165.1000      8.4452      2.4656      0.0807     11.1784     92.1276     18.4246
  1165.2000      8.4452      2.4488      0.0650     12.1933     89.0999     18.5098
  1165.3000      8.4446      2.4384      0.0369     12.8250     86.0503     18.4696
  1165.4000      8.4446      2.4515      0.0348     12.0277     86.9946     18.4729
  1165.5000      8.4488      2.4784      0.1035     10.4008     91.1028     18.6434
  1165.6000      8.4488      2.4942      0.0885      9.4401     95.2432     18.7325
  1165.7000      8.4488      2.4898      0.1328      9.7089     96.5878     18.4813
  1165.8000      8.4434      2.4723      0.0727     10.7711     94.8368     17.9671
  1165.9000      8.4434      2.4576      0.0269     11.6633     91.7902     17.5904
