~Version Information
 VERS.                                  2.0 : CWLS LAS VERSION
 WRAP.                                   NO : WRAPING MODE
 SWARE .                 MController 2.5.0J : SOFTWARE VERSION
~Well Information
 WELL.                       Montoya 01-41V : WELL
 COMP.                Petrogulf Corporation : COMPANY
 FLD.                      Purgatoire River : FIELD
 LOC.                NE/NE Sec 01 T33S R68W : LOCATION
 DATE.                             08/21/05 : DATE(S) LOGGED
 SRVC.       BLANCO Geological Services LLC : SERVICE COMPANY
 STAT.                                   CO : STATE
 CNTY.                           Las Animas : COUNTY
 CTRY.                                  USA : COUNTRY
 API.                       05-071-08144-00 : API NUMBER
 STRT.FT                             719.00 : START DEPTH
 STOP.FT                            2945.00 : STOP DEPTH
 STEP.FT                               1.00 : DEPTH INCREMENT
 NULL.                                -9999 : NULL VALUE
~Curve information
 DEPTH.FT                                   :
 ROP.MIN/FT                                 :
 GAS.UNITS                                  :
~ASCII Log data
# ...
      1519.0         0.27          3.8 
      1520.0         0.17          3.8 
      1521.0         0.23          3.9 
      1522.0         0.28          3.3 
      1523.0         0.27          3.6 
      1524.0         0.30          3.8 
      1525.0         0.27          3.4 
      1526.0         0.30          3.8 
      1527.0         0.27          4.1 
      1528.0         0.23          5.3 
      1529.0         0.27          6.7 
      1530.0         1.95          7.7 
      1531.0         0.50          3.7 
      1532.0         0.30          3.3 
      1533.0         0.30          3.3 
      1534.0         0.30          3.5 
      1535.0         0.33          3.4 
      1536.0         0.30          3.5 
      1537.0         0.27          3.9 
      1538.0         0.35          3.5 
      1539.0         0.30          3.7 
      1540.0         0.27          3.7 
      1541.0         0.23          3.4 
      1542.0         0.23          3.4 
      1543.0         0.23          3.5 
      1544.0         0.20          3.3 
      1545.0         0.23          3.4 
      1546.0         0.20          3.3 
      1547.0         0.23          3.2 
      1548.0         0.23          3.8 
      1549.0         0.23          3.4 
      1550.0         0.23          4.0 
      1551.0         0.27          3.3 
      1552.0         0.28          3.6 
      1553.0         0.23          3.2 
      1554.0         0.27          3.8 
      1555.0         0.27          3.4 
      1556.0         0.20          3.2 
      1557.0         0.23          3.3 
      1558.0         0.20          3.4 
      1559.0         0.23          3.6 
      1560.0         1.95          3.4 
      1561.0         0.47          3.3 
      1562.0         0.40          3.4 
      1563.0         0.57          3.9 
      1564.0         0.40          3.7 
      1565.0         0.37          3.6 
      1566.0         0.37          3.6 
      1567.0         0.37          3.7 
      1568.0         0.35          4.4 
      1569.0         0.33          4.3 
      1570.0         0.37          4.2 
      1571.0         0.30          3.9 
      1572.0         0.30          3.7 
      1573.0         0.27          4.0 
      1574.0         0.23          3.7 
      1575.0         0.20          4.0 
      1576.0         0.30          3.4 
      1577.0         0.30          3.8 
      1578.0         0.27          3.5 
      1579.0         0.32          3.6 
      1580.0         0.30          3.7 
      1581.0         0.33          3.2 
      1582.0         0.30          3.5 
      1583.0         0.30          3.8 
      1584.0         0.33          3.3 
      1585.0         0.33          3.5 
      1586.0         0.33          3.7 
      1587.0         0.33          4.2 
      1588.0         0.30          7.2 
      1589.0         0.38          8.3 
      1590.0         2.60          9.0 
      1591.0         0.40          3.6 
      1592.0         0.45          3.9 
      1593.0         0.30          3.2 
      1594.0         0.27          3.4 
      1595.0         0.27          3.1 
      1596.0         0.30          3.0 
      1597.0         0.30          3.7 
      1598.0         0.30          3.2 
      1599.0         0.30          3.3 
      1600.0         0.30          3.6 
      1601.0         0.23          3.2 
      1602.0         0.17          3.4 
      1603.0         0.23          3.5 
      1604.0         0.22          3.5 
      1605.0         0.17          3.3 
      1606.0         0.20          3.5 
      1607.0         0.20          3.5 
      1608.0         0.17          3.8 
      1609.0         0.20          3.8 
      1610.0         0.23          3.5 
      1611.0         0.23          3.5 
      1612.0         0.23          3.6 
      1613.0         0.23          3.9 
      1614.0         0.23          4.0 
      1615.0         0.20          3.8 
      1616.0         0.20          3.6 
      1617.0         0.23          4.5 
      1618.0         0.23          5.4 
      1619.0         0.27          6.0 
      1620.0         2.02          5.9 
      1621.0         0.33          3.9 
      1622.0         0.70          3.7 
      1623.0         0.55          4.4 
      1624.0         0.50          4.4 
      1625.0         0.53          3.7 
      1626.0         0.40          4.2 
      1627.0         0.40          4.3 
      1628.0         0.47          4.3 
      1629.0         0.47          4.2 
      1630.0         0.30          4.2 
      1631.0         0.32          4.6 
      1632.0         0.37          4.0 
      1633.0         0.37          4.6 
      1634.0         0.37          4.1 
      1635.0         0.37          4.2 
      1636.0         0.43          4.9 
      1637.0         0.37          4.3 
      1638.0         0.33          4.6 
      1639.0         0.33          5.0 
      1640.0         0.42          6.3 
      1641.0         0.40          7.1 
      1642.0         0.37          6.4 
      1643.0         0.33          6.0 
      1644.0         0.30          5.5 
      1645.0         0.27          5.0 
      1646.0         0.27          5.5 
      1647.0         0.30          6.2 
      1648.0         0.33          7.8 
      1649.0         0.33          8.8 
      1650.0         2.32         10.3 
      1651.0         0.73          5.2 
      1652.0         0.55          5.5 
      1653.0         0.63          5.4 
      1654.0         0.57          5.0 
      1655.0         0.60          5.8 
      1656.0         0.60          5.8 
      1657.0         0.60          6.3 
      1658.0         0.45          5.8 
      1659.0         0.27          8.1 
      1660.0         0.30          8.3 
      1661.0         0.40          9.9 
      1662.0         0.40         12.1 
      1663.0         0.30         14.5 
      1664.0         0.27         18.5 
      1665.0         0.27         18.8 
      1666.0         0.27         19.1 
      1667.0         0.27         17.8 
      1668.0         0.23         16.2 
      1669.0         0.25         13.5 
      1670.0         0.20         12.8 
      1671.0         0.20         11.7 
      1672.0         0.23         11.9 
      1673.0         0.33         15.0 
      1674.0         0.40         15.1 
      1675.0         0.47         11.1 
      1676.0         0.40          9.9 
      1677.0         0.30          8.4 
      1678.0         0.30         11.4 
      1679.0         0.48         29.3 
      1680.0         2.93        117.1 
      1681.0         0.38          9.9 
      1682.0         0.40         10.7 
      1683.0         0.40          8.0 
      1684.0         0.37          7.0 
      1685.0         0.30          6.6 
      1686.0         0.37          6.2 
      1687.0         0.40          6.0 
      1688.0         0.43          5.9 
      1689.0         0.40          6.1 
      1690.0         0.38          5.9 
      1691.0         0.33          5.8 
      1692.0         0.37          5.6 
      1693.0         0.37          6.4 
      1694.0         0.43          6.7 
      1695.0         0.40          7.7 
      1696.0         0.40          7.3 
      1697.0         0.37          7.2 
      1698.0         0.30          6.3 
      1699.0         0.28          6.0 
      1700.0         0.27          5.6 
      1701.0         0.80          5.9 
      1702.0         0.63          6.4 
      1703.0         0.37          7.5 
      1704.0         0.37          6.5 
      1705.0         0.43          8.8 
      1706.0         0.37         22.2 
      1707.0         0.42         70.6 
      1708.0         0.40        133.4 
      1709.0         0.40        232.4 
      1710.0         1.73        232.8 
      1711.0         0.33         17.7 
      1712.0         0.22         11.2 
      1713.0         0.20         10.4 
      1714.0         0.20         10.4 
      1715.0         0.20         10.9 
      1716.0         0.53         12.0 
      1717.0         0.50         11.6 
      1718.0         0.53          8.8 
