~Version Information
VERS.                      2.0: CWLS Log ASCII Standard - VERSION 2.0
WRAP.                       NO: One line per depth step
~Well Information Block
STRT.FT               647.0000: 
STOP.FT              1167.5000: 
STEP.FT                 0.2500: 
NULL.                -999.2500: 
COMP.          Pioneer Natural Resources: COMPANY
WELL.             Linda T 32-3: WELL
FLD.           Purgatoire River: FIELD
LOC.           1350' FNL & 2290' FEL: LOCATION
PROV.                 Colorado: PROVINCE
CNTY.               Las Animas: COUNTRY
SRVC.                Patterson: SERVICE COMPANY
DATE.          Sat Feb 05 06:41:02 2005: LOG DATE
UWI.           05 071 08215 00: UNIQUE WELL ID
~Curve Information Block
DEPT.FT            0 000 00 00: Depth
SN.Ohm-m                      : IEL Short Normal
SP.mV                         : IEL Spontaneous Potential
DIR.Ohm-m                     : IEL Induction Resistivity
GR.GAPI                       : Gamma Ray
~Parameter Information Block
~A  Depth        SN          SP         DIR          GR     
# ...
  1149.5000     12.1925      2.2294     12.6625      0.3454
  1149.7500     12.0246      2.1698     12.5596      0.0950
  1150.0000     11.8334      2.1411     12.3814      0.0089
  1150.2500     11.6210      2.1175     12.1590      0.0000
  1150.5000     11.4028      2.0865     11.9226   -999.2500
  1150.7500     11.1912      2.0573     11.6916   -999.2500
  1151.0000     10.9884      2.0550     11.4730   -999.2500
  1151.2500     10.7958      2.1043     11.2617   -999.2500
  1151.5000     10.6193      2.2128     11.0439   -999.2500
  1151.7500     10.4606      2.3682     10.8072   -999.2500
  1152.0000     10.3117      2.5418     10.5514   -999.2500
  1152.2500     10.1651      2.6953     10.2922   -999.2500
  1152.5000     10.0235      2.7966     10.0542   -999.2500
  1152.7500      9.8868      2.8392      9.8579   -999.2500
  1153.0000      9.7419      2.8461      9.7123   -999.2500
  1153.2500      9.5859      2.8495      9.6125   -999.2500
  1153.5000      9.4495      2.8667      9.5436   -999.2500
  1153.7500      9.3814      2.8980      9.4880   -999.2500
  1154.0000      9.4078      2.9410      9.4330   -999.2500
  1154.2500      9.5049      3.0000      9.3760   -999.2500
  1154.5000      9.6203      3.0803      9.2959   -999.2500
  1154.7500      9.7141      3.1775      9.2572   -999.2500
  1155.0000      9.7627      3.2777      9.2370   -999.2500
  1155.2500      9.7552      3.3677      9.2322   -999.2500
  1155.5000      9.7017      3.4436      9.2341   -999.2500
  1155.7500      9.6210      3.5074      9.2345   -999.2500
  1156.0000      9.5254      3.5600      9.2319   -999.2500
  1156.2500      9.4169      3.5999      9.2321   -999.2500
  1156.5000      9.2843      3.6278      9.2455   -999.2500
  1156.7500      9.1133      3.6520      9.2869   -999.2500
  1157.0000      8.9089      3.6898      9.3852   -999.2500
  1157.2500      8.7023      3.7608      9.6027   -999.2500
  1157.5000      8.5400      3.8749     10.0579   -999.2500
  1157.7500      8.4651      4.0197     10.9502   -999.2500
  1158.0000      8.4941      4.1619     12.6625   -999.2500
  1158.2500      8.6122      4.2662     15.6478   -999.2500
  1158.5000      8.7984      4.3218     20.9159   -999.2500
  1158.7500      9.0413      4.3527     30.1269   -999.2500
  1159.0000      9.3222      4.4037     45.7054   -999.2500
  1159.2500      9.5962      4.5101     69.4745   -999.2500
  1159.5000      9.8104      4.6784     98.5589   -999.2500
  1159.7500      9.9416      4.8932    124.0183   -999.2500
  1160.0000     10.0076      5.1364    139.9584   -999.2500
  1160.2500     10.0448      5.3953    149.2268   -999.2500
  1160.5000     10.0735      5.6520    157.8624   -999.2500
  1160.7500     10.0836      5.8814    171.1864   -999.2500
  1161.0000     10.0531      6.0701 100000.0000   -999.2500
  1161.2500      9.9742      6.2327 100000.0000   -999.2500
  1161.5000      9.8655      6.4034 100000.0000   -999.2500
  1161.7500      9.7650      6.6103 100000.0000   -999.2500
  1162.0000      9.7088      6.8599 100000.0000   -999.2500
  1162.2500      9.6928      7.1454 100000.0000   -999.2500
  1162.5000      9.6581      7.4656 100000.0000   -999.2500
  1162.7500      9.5658      7.8216 100000.0000   -999.2500
  1163.0000      9.4612      8.1727 100000.0000   -999.2500
  1163.2500      9.4044      8.3738 100000.0000   -999.2500
  1163.5000      9.3954      8.1671 100000.0000   -999.2500
  1163.7500      9.3400      7.3056 100000.0000   -999.2500
  1164.0000      8.9240      5.7745 100000.0000   -999.2500
  1164.2500      7.5496      3.9059 100000.0000   -999.2500
  1164.5000      4.8558      2.2047 100000.0000   -999.2500
  1164.7500      1.5248      1.0191 100000.0000   -999.2500
  1165.0000     -1.1129      0.3806 100000.0000   -999.2500
  1165.2500     -2.4551      0.1137 100000.0000   -999.2500
  1165.5000     -2.8942      0.0269 100000.0000   -999.2500
  1165.7500     -2.9865      0.0050 100000.0000   -999.2500
  1166.0000     -2.9989      0.0007 100000.0000   -999.2500
  1166.2500   -999.2500   -999.2500 100000.0000   -999.2500
  1166.5000   -999.2500   -999.2500 100000.0000   -999.2500
  1166.7500   -999.2500   -999.2500 100000.0000   -999.2500
  1167.0000   -999.2500   -999.2500 100000.0000   -999.2500
  1167.2500   -999.2500   -999.2500 100000.0000   -999.2500
  1167.5000   -999.2500   -999.2500 100000.0000   -999.2500
