~Version Information
VERS.                      2.0: CWLS Log ASCII Standard - VERSION 2.0
WRAP.                       NO: One line per depth step
~Well Information Block
STRT.FT               898.0000: 
STOP.FT              2359.2000: 
STEP.FT                 0.1000: 
NULL.                -999.2500: 
COMP.          Pioneer Natural Resources: COMPANY
WELL.             Trimax 44-23: WELL
FLD.           Purgatoire River: FIELD
LOC.           527' FSL & 1064' FEL: LOCATION
PROV.                 Colorado: PROVINCE
CNTY.               Las Animas: COUNTRY
SRVC.                Patterson: SERVICE COMPANY
DATE.          Mon Mar 14 07:28:19 2005: LOG DATE
UWI.           05 071 08326 00: UNIQUE WELL ID
~Curve Information Block
DEPT.FT            0 000 00 00: Depth
DCAL.in                       : CDL Caliper
RHOB.g/cc                     : CDL Bulk Density
RHOC.g/cc                     : CDL Density Correction
DPOR.pu                       : CDL Density Porosity
GR.GAPI                       : Gamma Ray
NPOR.pu                       : Neutron Porosity
~Parameter Information Block
~A  Depth       DCAL        RHOB        RHOC        DPOR         GR         NPOR    
# ...
  1675.6000      7.8668      2.5035      0.0781      8.8774     40.6189     17.4831
  1675.7000      7.8668      2.4903      0.0594      9.6796     45.0263     17.2327
  1675.8000      7.8674      2.4747      0.0283     10.6217     48.2801     17.8379
  1675.9000      7.8674      2.4659      0.0417     11.1567     50.6431     18.5308
  1676.0000      7.8674      2.4645      0.0331     11.2452     53.5046     18.6615
  1676.1000      7.8674      2.4668      0.0178     11.1015     56.2176     18.4633
  1676.2000      7.8674      2.4710      0.0294     10.8474     55.6087     18.1861
  1676.3000      7.8668      2.4784      0.0503     10.3983     51.8798     17.9424
  1676.4000      7.8668      2.4868      0.0684      9.8938     50.2787     17.8239
  1676.5000      7.8662      2.4875      0.0728      9.8506     53.7697     18.0045
  1676.6000      7.8662      2.4813      0.0268     10.2266     60.6466     18.4316
  1676.7000      7.8662      2.4781      0.0503     10.4172     65.8591     18.3900
  1676.8000      7.8654      2.4791      0.0705     10.3570     66.4040     17.7604
  1676.9000      7.8654      2.4774      0.0242     10.4636     66.0718     17.1427
  1677.0000      7.8634      2.4727      0.0170     10.7460     67.0760     17.0475
  1677.1000      7.8634      2.4711     -0.0063     10.8432     66.4995     17.5770
  1677.2000      7.8634      2.4736      0.0334     10.6891     64.4642     18.3549
  1677.3000      7.8630      2.4739      0.0082     10.6754     62.7981     19.0432
  1677.4000      7.8630      2.4734      0.0111     10.7015     60.5045     19.4025
  1677.5000      7.8665      2.4811      0.0155     10.2352     58.2647     19.3438
  1677.6000      7.8665      2.4948      0.0405      9.4056     58.4508     19.0402
  1677.7000      7.8665      2.5023      0.0434      8.9504     59.6992     18.5181
  1677.8000      7.8683      2.4999      0.0519      9.0952     59.8320     17.8903
  1677.9000      7.8683      2.4974      0.0299      9.2469     58.8420     17.5756
  1678.0000      7.8669      2.5035      0.0363      8.8796     57.6116     17.7786
  1678.1000      7.8669      2.5140      0.0004      8.2435     58.0591     18.1319
  1678.2000      7.8669      2.5185      0.0564      7.9727     61.0782     18.3721
  1678.3000      7.8655      2.5183     -0.0032      7.9815     63.7591     18.6058
  1678.4000      7.8655      2.5202      0.0452      7.8692     63.0644     18.5846
  1678.5000      7.8647      2.5188      0.0043      7.9500     59.7831     18.1647
  1678.6000      7.8647      2.5134     -0.0205      8.2814     57.3853     17.9897
  1678.7000      7.8647      2.5136     -0.0038      8.2685     57.4979     18.1883
  1678.8000      7.8642      2.5271      0.0089      7.4468     58.0268     18.2447
  1678.9000      7.8642      2.5510      0.0125      6.0000     57.2764     18.1186
  1679.0000      7.8615      2.5730      0.0324      4.6664     54.9749     17.8012
  1679.1000      7.8615      2.5812      0.0324      4.1669     54.2414     17.2367
  1679.2000      7.8615      2.5737      0.0258      4.6229     59.0009     16.9103
  1679.3000      7.8591      2.5627      0.0167      5.2939     65.2939     16.9938
  1679.4000      7.8591      2.5551      0.0463      5.7516     66.1495     17.0698
  1679.5000      7.8615      2.5458      0.0257      6.3165     62.2349     16.8216
  1679.6000      7.8615      2.5393      0.0342      6.7101     58.4130     16.2696
  1679.7000      7.8615      2.5477     -0.0347      6.1991     57.1444     15.9042
  1679.8000      7.8648      2.5725      0.0347      4.6975     58.3793     16.2069
  1679.9000      7.8648      2.6005      0.0267      2.9973     60.4033     16.7804
  1680.0000      7.8658      2.6193      0.0364      1.8598     63.4043     17.3026
  1680.1000      7.8658      2.6289      0.0716      1.2788     67.0651     17.8408
  1680.2000      7.8658      2.6351      0.0987      0.9026     66.8376     17.6271
  1680.3000      7.8656      2.6373      0.0827      0.7720     61.7881     16.5623
  1680.4000      7.8656      2.6345      0.0729      0.9385     56.3104     15.8706
  1680.5000      7.8659      2.6267      0.0930      1.4118     53.5540     15.6109
  1680.6000      7.8659      2.6098      0.0838      2.4348     52.7566     15.3137
  1680.7000      7.8659      2.5866      0.0651      3.8410     51.8739     15.4813
  1680.8000      7.8665      2.5688      0.0227      4.9192     53.1794     16.2583
  1680.9000      7.8665      2.5636      0.0334      5.2339     57.5378     16.9145
  1681.0000      7.8658      2.5641      0.0295      5.2089     59.2613     16.8350
  1681.1000      7.8658      2.5639      0.0139      5.2206     55.2691     16.0154
  1681.2000      7.8658      2.5657      0.0275      5.1100     48.8893     15.1596
  1681.3000      7.8651      2.5697      0.0408      4.8675     44.7939     14.9576
  1681.4000      7.8651      2.5721      0.0105      4.7207     45.8519     15.1201
  1681.5000      7.8654      2.5680      0.0704      4.9689     50.4994     14.7985
  1681.6000      7.8654      2.5588     -0.0039      5.5251     54.8615     14.2281
  1681.7000      7.8654      2.5554      0.0141      5.7315     57.9117     14.3801
  1681.8000      7.8655      2.5634      0.0203      5.2506     60.7310     15.2682
  1681.9000      7.8655      2.5762      0.0490      4.4756     62.2101     15.7735
  1682.0000      7.8651      2.5753      0.0537      4.5249     60.7525     15.2530
  1682.1000      7.8651      2.5559      0.0322      5.7036     56.9959     14.4501
  1682.2000      7.8651      2.5357      0.0206      6.9301     53.5967     14.1487
  1682.3000      7.8648      2.5245      0.0432      7.6059     51.8848     13.9025
  1682.4000      7.8648      2.5262      0.0165      7.5027     50.8897     13.2170
  1682.5000      7.8652      2.5498      0.0342      6.0748     51.0300     12.9560
  1682.6000      7.8652      2.5835      0.0564      4.0309     53.5244     13.7635
  1682.7000      7.8652      2.6057      0.0927      2.6839     55.0358     14.6930
  1682.8000      7.8658      2.6209      0.0585      1.7660     52.0818     14.5353
  1682.9000      7.8658      2.6403      0.1092      0.5871     48.1576     13.6540
  1683.0000      7.8663      2.6523      0.0894     -0.1403     48.6924     13.0304
  1683.1000      7.8663      2.6464      0.0803      0.2194     53.6044     12.6812
  1683.2000      7.8663      2.6294      0.0744      1.2459     58.3452     12.4128
  1683.3000      7.8660      2.6142      0.0473      2.1670     60.0386     12.6995
  1683.4000      7.8660      2.6101      0.0223      2.4193     60.0346     13.6959
  1683.5000      7.8655      2.6105      0.0726      2.3931     59.3274     14.6029
  1683.6000      7.8655      2.6006      0.0373      2.9961     58.3623     14.8010
  1683.7000      7.8655      2.5798      0.0291      4.2538     58.1195     14.4072
  1683.8000      7.8652      2.5624      0.0075      5.3116     57.8379     13.7877
  1683.9000      7.8652      2.5597      0.0256      5.4712     55.0445     13.3692
  1684.0000      7.8652      2.5684      0.0361      4.9447     51.2957     13.2109
  1684.1000      7.8652      2.5779      0.0244      4.3708     51.8230     13.0637
  1684.2000      7.8652      2.5787      0.0377      4.3187     55.6316     12.8697
  1684.3000      7.8650      2.5696      0.0126      4.8702     57.3884     12.7048
  1684.4000      7.8650      2.5642      0.0007      5.2004     57.0225     12.8043
  1684.5000      7.8640      2.5769      0.0008      4.4313     57.4607     13.1415
  1684.6000      7.8640      2.5944      0.0799      3.3685     60.1334     13.5542
  1684.7000      7.8640      2.5939      0.0620      3.4002     65.4831     14.1844
  1684.8000      7.8630      2.5831      0.0425      4.0561     72.9024     14.9110
  1684.9000      7.8630      2.5793      0.0941      4.2851     78.8148     15.5530
  1685.0000      7.8635      2.5813      0.0851      4.1622     79.3347     16.3302
  1685.1000      7.8635      2.5828      0.0550      4.0725     75.9176     17.1360
