~Version Information
 VERS.                                  2.0 : CWLS LAS VERSION
 WRAP.                                   NO : WRAPING MODE
 SWARE .                 MController 2.5.0J : SOFTWARE VERSION
~Well Information
 WELL.            Rabbit Bush Federal 44-19 : WELL
 COMP.  Pioneer Natural Resources USA, Inc. : COMPANY
 FLD.                      Purgatoire River : FIELD
 LOC.              SE/SE  Sec 19 T32S  R66W : LOCATION
 DATE.                      8/24/06-8/25/06 : DATE(S) LOGGED
 SRVC.       BLANCO Geological Services LLC : SERVICE COMPANY
 STAT.                                   CO : STATE
 CNTY.                            Las Animas: COUNTY
 CTRY.                               U.S.A. : COUNTRY
 API.                       05-071-08149-00 : API NUMBER
 STRT.FT                             539.00 : START DEPTH
 STOP.FT                            2785.00 : STOP DEPTH
 STEP.FT                               1.00 : DEPTH INCREMENT
 NULL.                                -9999 : NULL VALUE
~Curve information
 DEPTH.FT                                   :
 ROP.MIN/FT                                 :
 GAS.UNITS                                  :
~ASCII Log data
# ...
      2539.0         0.33         39.6 
      2540.0         0.37         38.8 
      2541.0         0.35         38.4 
      2542.0         0.33         38.1 
      2543.0         0.33         38.5 
      2544.0         0.37         40.9 
      2545.0         0.40         45.8 
      2546.0         3.15         83.3 
      2547.0         0.70         81.3 
      2548.0         0.53         80.5 
      2549.0         0.47         79.3 
      2550.0         0.48         75.9 
      2551.0         0.43         72.6 
      2552.0         0.40         69.3 
      2553.0         0.43         66.7 
      2554.0         0.43         66.9 
      2555.0         0.43         66.3 
      2556.0         0.40         62.7 
      2557.0         0.45         62.3 
      2558.0         0.43         63.0 
      2559.0         0.27         63.1 
      2560.0         0.30         61.8 
      2561.0         0.27         59.5 
      2562.0         0.33         61.7 
      2563.0         0.30         71.6 
      2564.0         0.33         71.6 
      2565.0         0.33         64.9 
      2566.0         0.30         54.3 
      2567.0         0.27         48.8 
      2568.0         0.25         45.9 
      2569.0         0.30         44.4 
      2570.0         0.43         42.4 
      2571.0         0.40         39.4 
      2572.0         0.40         38.4 
      2573.0         0.40         38.1 
      2574.0         0.37         40.1 
      2575.0         0.40         45.5 
      2576.0         4.47         99.2 
      2577.0         0.47         95.1 
      2578.0         0.50         86.2 
      2579.0         0.47         80.7 
      2580.0         0.37         77.7 
      2581.0         0.43         76.2 
      2582.0         0.43         77.1 
      2583.0         0.48         78.5 
      2584.0         0.43         78.8 
      2585.0         0.37         78.5 
      2586.0         0.23         77.8 
      2587.0         0.23         77.7 
      2588.0         0.20         77.3 
      2589.0         0.30         76.7 
      2590.0         0.37         74.4 
      2591.0         0.33         69.1 
      2592.0         0.33         64.5 
      2593.0         0.35         81.4 
      2594.0         0.33         89.5 
      2595.0         0.40         87.2 
      2596.0         0.33         73.6 
      2597.0         0.47         60.6 
      2598.0         0.40         52.9 
      2599.0         0.40         47.6 
      2600.0         0.47         43.9 
      2601.0         0.45         42.2 
      2602.0         0.37         45.4 
      2603.0         0.43         51.9 
      2604.0         0.40         63.2 
      2605.0         0.43         74.1 
      2606.0         3.38        115.5 
      2607.0         0.53        104.0 
      2608.0         0.63         97.7 
      2609.0         0.48         90.1 
      2610.0         0.47         82.5 
      2611.0         0.43         77.5 
      2612.0         0.50         74.4 
      2613.0         0.47         74.2 
      2614.0         0.40         72.0 
      2615.0         0.33         69.5 
      2616.0         0.37         67.6 
      2617.0         0.42         65.1 
      2618.0         0.47         64.0 
      2619.0         0.43         64.2 
      2620.0         0.47         64.2 
      2621.0         0.33         70.1 
      2622.0         0.37         85.2 
      2623.0         0.37         86.0 
      2624.0         0.27         80.1 
      2625.0         0.20         70.7 
      2626.0         0.23         65.4 
      2627.0         0.25         60.0 
      2628.0         0.27         54.2 
      2629.0         0.33         48.7 
      2630.0         0.37         44.6 
      2631.0         0.33         42.6 
      2632.0         0.33         42.1 
      2633.0         0.37         43.7 
      2634.0         0.33         46.1 
      2635.0         0.33         53.2 
      2636.0         5.80        101.2 
      2637.0         0.40         82.3 
      2638.0         0.53         79.4 
      2639.0         0.55         78.7 
      2640.0         0.43         79.3 
      2641.0         0.43         72.5 
      2642.0         0.43         67.1 
      2643.0         0.37         62.9 
      2644.0         0.63         59.1 
      2645.0         0.43         58.1 
      2646.0         0.30         60.2 
      2647.0         0.38         62.2 
      2648.0         0.43         63.7 
      2649.0         0.33         64.1 
      2650.0         0.33         69.6 
      2651.0         0.27         80.9 
      2652.0         0.27         85.6 
      2653.0         0.30         86.1 
      2654.0         0.33         81.0 
      2655.0         0.30         72.9 
      2656.0         0.30         63.9 
      2657.0         0.30         57.1 
      2658.0         0.45         52.0 
      2659.0         0.47         47.4 
      2660.0         0.37         44.6 
      2661.0         0.33         44.0 
      2662.0         0.30         46.2 
      2663.0         0.40         52.7 
      2664.0         0.53         65.8 
      2665.0         0.33         75.4 
      2666.0         4.03        113.3 
      2667.0         0.40         85.0 
      2668.0         0.30         78.6 
      2669.0         0.43         73.7 
      2670.0         0.40         67.6 
      2671.0         0.37         65.5 
      2672.0         0.50         64.0 
      2673.0         0.45         62.3 
      2674.0         0.30         60.4 
      2675.0         0.27         59.2 
      2676.0         0.33         58.2 
      2677.0         0.33         56.5 
      2678.0         0.50         56.0 
      2679.0         0.47         55.1 
      2680.0         0.50         53.0 
      2681.0         0.50         52.8 
      2682.0         0.48         53.0 
      2683.0         0.53         53.1 
      2684.0         0.53         53.4 
      2685.0         0.53         53.2 
      2686.0         0.50         57.1 
      2687.0         0.53         63.6 
      2688.0         0.55         63.6 
      2689.0         0.53         61.1 
      2690.0         0.53         55.9 
      2691.0         0.57         44.4 
      2692.0         0.60         34.3 
      2693.0         0.63         31.6 
      2694.0         0.65         30.0 
      2695.0         0.70         34.8 
      2696.0         4.45         95.7 
      2697.0         0.43         85.4 
      2698.0         0.73         81.0 
      2699.0         0.55         68.4 
      2700.0         0.53         61.7 
      2701.0         0.53         57.2 
      2702.0         0.53         52.6 
      2703.0         0.60         50.6 
      2704.0         0.60         49.0 
      2705.0         0.58         47.7 
      2706.0         0.57         46.8 
      2707.0         0.57         45.8 
      2708.0         0.57         45.4 
      2709.0         0.53         44.5 
      2710.0         0.50         42.3 
      2711.0         0.52         41.7 
      2712.0         0.53         41.7 
      2713.0         0.53         42.5 
      2714.0         0.57         48.9 
      2715.0         0.57         61.6 
      2716.0         0.57         63.5 
      2717.0         0.58         62.1 
      2718.0         0.43         55.6 
      2719.0         0.33         44.6 
      2720.0         0.30         37.6 
      2721.0         0.37         33.9 
      2722.0         0.33         31.1 
      2723.0         0.37         29.4 
      2724.0         0.37         27.2 
      2725.0         0.37         26.0 
      2726.0         5.90        157.9 
      2727.0         0.57        105.2 
      2728.0         0.65         95.6 
      2729.0         0.47         87.6 
      2730.0         0.40         75.8 
      2731.0         0.30         72.3 
      2732.0         0.30         71.6 
      2733.0         0.30         70.2 
      2734.0         0.33         67.9 
      2735.0         0.27         63.1 
      2736.0         0.30         59.7 
      2737.0         0.23         57.3 
      2738.0         0.35         55.8 
