~Version Information
VERS.                      2.0: CWLS Log ASCII Standard - VERSION 2.0
WRAP.                       NO: One line per depth step
~Well Information Block
STRT.FT               245.0000: 
STOP.FT              1919.7000: 
STEP.FT                 0.1000: 
NULL.                -999.2500: 
COMP.          Pioneer Natural Resources: COMPANY
WELL.          Oink Oink 14-36 Tr: WELL
FLD.           Purgatoire River: FIELD
LOC.           236' FSL & 164' FWL--: LOCATION
PROV.                 Colorado: PROVINCE
CNTY.               Las Animas: COUNTRY
SRVC.                Patterson: SERVICE COMPANY
DATE.          Fri Jun 10 08:23:18 2005: LOG DATE
UWI.           05 071 08393 00: UNIQUE WELL ID
~Curve Information Block
DEPT.FT            0 000 00 00: Depth
DCAL.in                       : CDL Caliper
RHOB.g/cc                     : CDL Bulk Density
RHOC.g/cc                     : CDL Density Correction
DPOR.pu                       : CDL Density Porosity
NPOR.pu                       : Neutron Porosity
GR.GAPI                       : Gamma Ray
~Parameter Information Block
~A  Depth       DCAL        RHOB        RHOC        DPOR        NPOR         GR     
# ...
   686.6000      8.2072      2.4961      0.1847      9.3260     18.5110    141.3353
   686.7000      8.2072      2.5279      0.2237      7.4006     18.5897    148.7306
   686.8000      8.1962      2.5594      0.3002      5.4917     18.6335    152.1316
   686.9000      8.1962      2.5603      0.2204      5.4373     19.0397    150.1564
   687.0000      8.1937      2.5498      0.1668      6.0732     19.9305    144.6814
   687.1000      8.1937      2.5605      0.2057      5.4215     21.0372    137.0107
   687.2000      8.1937      2.5858      0.2395      3.8897     21.9470    127.8607
   687.3000      8.1925      2.5888      0.2317      3.7086     22.4377    121.0933
   687.4000      8.1925      2.5519      0.1543      5.9453     22.5929    121.2277
   687.5000      8.1918      2.5085      0.0270      8.5758     22.7199    126.5871
   687.6000      8.1918      2.5075      0.0434      8.6349     22.9723    131.2728
   687.7000      8.1918      2.5508      0.0748      6.0113     23.1585    133.2046
   687.8000      8.1936      2.5949      0.1266      3.3386     23.1804    134.1255
   687.9000      8.1936      2.6096      0.0742      2.4513     23.3309    135.4029
   688.0000      8.1962      2.6035      0.0949      2.8198     23.8936    137.3759
   688.1000      8.1962      2.5963      0.0407      3.2521     24.5110    139.2338
   688.2000      8.1962      2.5961      0.0847      3.2642     24.5306    139.0384
   688.3000      8.1968      2.5830      0.1148      4.0581     24.1620    136.1213
   688.4000      8.1968      2.5433     -0.0225      6.4647     24.1339    135.0410
   688.5000      8.1956      2.5021     -0.0112      8.9627     24.2543    139.5349
   688.6000      8.1956      2.4779      0.0228     10.4296     23.9128    145.2387
   688.7000      8.1956      2.4658      0.0044     11.1634     23.3032    147.5501
   688.8000      8.1945      2.4641      0.0188     11.2640     22.8853    147.2778
   688.9000      8.1945      2.4737      0.0664     10.6830     22.7261    144.8060
   689.0000      8.1961      2.4871      0.0912      9.8725     22.5765    141.1082
   689.1000      8.1961      2.4893      0.1166      9.7421     22.3536    136.9909
   689.2000      8.1961      2.4744      0.0683     10.6405     22.3849    131.1418
   689.3000      8.2012      2.4577      0.0561     11.6560     22.6874    125.6625
   689.4000      8.2012      2.4489      0.0522     12.1864     22.7621    125.5912
   689.5000      8.2143      2.4459      0.0448     12.3674     22.3546    134.4307
   689.6000      8.2143      2.4495      0.0259     12.1527     21.4727    147.2837
   689.7000      8.2143      2.4520      0.0777     12.0000     20.2900    154.5922
   689.8000      8.2357      2.4359      0.0965     12.9746     19.3026    152.7294
   689.9000      8.2357      2.3994      0.0543     15.1903     18.8380    142.3707
   690.0000      8.2532      2.3530      0.0523     18.0019     18.7259    130.0438
   690.1000      8.2532      2.3026      0.0040     21.0524     18.8610    126.0470
   690.2000      8.2532      2.2631     -0.0266     23.4468     19.0258    132.5138
   690.3000      8.2653      2.2559     -0.0164     23.8861     18.9845    141.5942
   690.4000      8.2653      2.2807      0.0718     22.3807     19.0823    146.9536
   690.5000      8.2703      2.3148      0.1368     20.3148     19.6380    149.1722
   690.6000      8.2703      2.3406      0.1410     18.7494     20.2026    146.3731
   690.7000      8.2703      2.3602      0.1473     17.5656     20.2850    137.3134
   690.8000      8.2638      2.3770      0.1871     16.5468     20.0087    130.0632
   690.9000      8.2638      2.3848      0.2109     16.0747     19.6507    129.7393
   691.0000      8.2471      2.3847      0.1722     16.0813     19.2730    132.4902
   691.1000      8.2471      2.3890      0.1576     15.8196     18.8028    133.9566
   691.2000      8.2471      2.4009      0.1586     15.0984     18.4824    134.0845
   691.3000      8.2309      2.4090      0.1711     14.6060     18.5299    134.9244
   691.4000      8.2309      2.4063      0.1237     14.7693     18.7816    137.4710
   691.5000      8.2210      2.4064      0.0501     14.7619     19.0813    142.0623
   691.6000      8.2210      2.4227      0.1236     13.7787     19.5075    146.7934
   691.7000      8.2210      2.4479      0.1474     12.2492     20.1793    146.9420
   691.8000      8.2177      2.4747      0.1418     10.6216     21.0592    141.7425
   691.9000      8.2177      2.4970      0.1913      9.2757     21.9452    135.2856
   692.0000      8.2172      2.5047      0.1557      8.8050     22.4015    133.6091
   692.1000      8.2172      2.5004      0.1398      9.0661     22.2935    138.5628
   692.2000      8.2172      2.4891      0.1341      9.7499     22.0179    144.3360
   692.3000      8.2124      2.4709      0.1053     10.8569     22.0279    145.7151
   692.4000      8.2124      2.4581      0.0483     11.6331     22.5010    142.9942
   692.5000      8.2026      2.4662      0.0806     11.1383     23.0679    139.4988
   692.6000      8.2026      2.4828      0.0866     10.1325     23.0917    138.2733
   692.7000      8.2026      2.4805      0.0586     10.2743     22.5657    137.5441
   692.8000      8.1950      2.4538      0.0304     11.8883     22.0510    135.0670
   692.9000      8.1950      2.4244      0.0072     13.6720     21.8041    132.5537
   693.0000      8.1910      2.4157      0.0188     14.1989     21.8400    131.1494
   693.1000      8.1910      2.4266      0.0462     13.5385     22.1043    128.7030
   693.2000      8.1910      2.4379      0.0429     12.8555     22.0116    124.4822
   693.3000      8.1906      2.4397      0.0499     12.7454     21.1793    121.5546
   693.4000      8.1906      2.4408     -0.0079     12.6816     20.0090    121.2754
   693.5000      8.1941      2.4509      0.0629     12.0666     19.2124    122.2311
   693.6000      8.1941      2.4617      0.0691     11.4144     19.2068    122.8570
   693.7000      8.1941      2.4615      0.0700     11.4242     19.7531    124.0478
   693.8000      8.1983      2.4530      0.0478     11.9393     20.3750    125.2928
   693.9000      8.1983      2.4514      0.0609     12.0367     20.9681    123.6652
   694.0000      8.1974      2.4663      0.0787     11.1308     21.4136    122.1461
   694.1000      8.1974      2.4836      0.1529     10.0879     21.5257    125.8843
   694.2000      8.1974      2.4825      0.1248     10.1497     21.5745    131.5776
   694.3000      8.1938      2.4698      0.0250     10.9237     21.8689    134.0157
   694.4000      8.1938      2.4661      0.0344     11.1467     22.2851    134.3866
   694.5000      8.1931      2.4760      0.0814     10.5476     22.7044    135.7552
   694.6000      8.1931      2.4925      0.0760      9.5427     23.3899    139.4421
   694.7000      8.1931      2.5106      0.1060      8.4467     24.4400    143.5860
   694.8000      8.1941      2.5235      0.0806      7.6696     25.2035    144.8305
   694.9000      8.1941      2.5222      0.0939      7.7483     25.0570    142.6870
   695.0000      8.1947      2.5032      0.0807      8.8999     24.4624    139.6355
   695.1000      8.1947      2.4788      0.0423     10.3756     24.4368    136.0515
   695.2000      8.1947      2.4664      0.0430     11.1254     24.8448    133.1270
   695.3000      8.1949      2.4654      0.0519     11.1900     24.6790    136.0796
   695.4000      8.1949      2.4632      0.0319     11.3231     24.0509    145.7250
   695.5000      8.1956      2.4579      0.0341     11.6442     23.9933    154.4409
   695.6000      8.1956      2.4577      0.0008     11.6544     24.7274    153.0087
   695.7000      8.1956      2.4639      0.0314     11.2782     25.6262    142.8806
   695.8000      8.1952      2.4656      0.0635     11.1778     26.1845    133.5291
   695.9000      8.1952      2.4548      0.0597     11.8278     26.2439    130.3239
   696.0000      8.1947      2.4342      0.0410     13.0815     25.8613    131.8427
   696.1000      8.1947      2.4065      0.0447     14.7594     25.0616    135.2261
