~Version Information
VERS.                      2.0: CWLS Log ASCII Standard - VERSION 2.0
WRAP.                       NO: One line per depth step
~Well Information Block
STRT.FT                -7.0000: 
STOP.FT              1656.2500: 
STEP.FT                 0.2500: 
NULL.                -999.2500: 
COMP.          Pioneer Natural Resources: COMPANY
WELL.               Elmo 14-21: WELL
FLD.           Purgatorie River: FIELD
LOC.           623' FSL & 450' FWL--: LOCATION
PROV.                       CO: PROVINCE
CNTY.               Las Animas: COUNTRY
SRVC.          Patterson Wireline: SERVICE COMPANY
DATE.          Mon Jun 27 15:45:41 2005: LOG DATE
UWI.           05 071 08360 00: UNIQUE WELL ID
~Curve Information Block
DEPT.FT            0 000 00 00: Depth
CCL.                          : Casing Collar Locator
TT3.usec                      : CBL 3' Travel Time
AMP3.mV                       : CBL 3' Amplitude
GR.GAPI                       : Gamma Ray
~Parameter Information Block
~A  Depth       CCL         TT3         AMP3         GR     
# ...
  1534.0000      0.0000    719.8807      8.0164     77.0240
  1534.2500      0.0000    722.4865      8.7023     79.7680
  1534.5000      0.0000    725.2238      9.1696     83.5361
  1534.7500      0.0000    726.4349      9.3012     87.4333
  1535.0000      0.0000    725.9616      9.0896     90.3613
  1535.2500      0.0000    724.8692      8.6546     91.7155
  1535.5000      0.0000    724.1434      8.1958     91.8570
  1535.7500      0.0000    724.1835      7.8947     91.6648
  1536.0000      0.0000    725.3023      7.8292     91.5160
  1536.2500      0.0000    728.1492      7.9488     90.8774
  1536.5000      0.0000    733.2735      8.1154     89.0443
  1536.7500      0.0000    740.0692      8.1753     86.1506
  1537.0000      0.0000    746.3135      8.0254     83.2296
  1537.2500      0.0000    749.3854      7.6566     81.2936
  1537.5000      0.0000    748.4838      7.1620     80.5278
  1537.7500      0.0000    745.5839      6.6969     80.6389
  1538.0000      0.0000    743.7882      6.4132     81.7932
  1538.2500      0.0000    744.5759      6.4090     84.5988
  1538.5000      0.0000    746.8527      6.7008     89.1324
  1538.7500      0.0000    748.7669      7.2123     94.5594
  1539.0000      0.0000    750.0648      7.7953     99.8323
  1539.2500      0.0000    752.3312      8.2856    104.4056
  1539.5000      0.0000    756.9600      8.5566    108.3069
  1539.7500      0.0000    763.0672      8.5396    111.6883
  1540.0000      0.0000    767.5631      8.2278    114.1733
  1540.2500      0.0000    767.4494      7.6917    114.7502
  1540.5000      0.0000    761.9661      7.0826    112.6591
  1540.7500      0.0000    752.6041      6.5830    108.3349
  1541.0000      0.0000    741.7836      6.3173    103.2153
  1541.2500      0.0000    731.7733      6.2956     98.6982
  1541.5000      0.0000    724.0487      6.4373     95.3991
  1541.7500      0.0000    718.9972      6.6408     93.1852
  1542.0000      0.0000    716.2321      6.8314     91.5770
  1542.2500      0.0000    715.2457      6.9634     90.0516
  1542.5000      0.0000    715.7805      7.0047     88.0455
  1542.7500      0.0000    717.7576      6.9372     84.9749
  1543.0000      0.0000    720.9144      6.7728     80.7104
  1543.2500      0.0000    724.5169      6.5662     76.2155
  1543.5000      0.0000    727.5872      6.4079     73.4130
  1543.7500      0.0000    729.5228      6.3951     73.9436
  1544.0000      0.0000    730.2484      6.5953     77.8474
  1544.2500      0.0000    729.8087      7.0182     83.5621
  1544.5000      0.0000    728.2646      7.6130     89.1916
  1544.7500      0.0000    726.0138      8.2915     93.5522
  1545.0000      0.0000    723.7358      8.9608     96.0772
  1545.2500      0.0000    721.8923      9.5459     96.3472
  1545.5000      0.0000    720.1791      9.9972     94.1702
  1545.7500      0.0000    716.8231     10.2964     90.0327
  1546.0000      0.0000    707.4629     10.4633     85.3083
  1546.2500      0.0000    684.7688     10.5555     81.8371
  1546.5000      0.0000    641.2863     10.6524     80.8338
  1546.7500      0.0000    575.8151     10.8365     81.8557
  1547.0000      0.0000    497.9690     11.1829     82.9497
  1547.2500      0.0000    424.3911     11.7444     82.1908
  1547.5000      0.0000    368.6299     12.5197     79.2643
  1547.7500      0.0000    334.3763     13.4295     75.5770
  1548.0000      0.0000    317.1774     14.3344     73.0049
  1548.2500      0.0000    310.6628     15.0819     72.5949
  1548.5000      0.0000    311.5799     15.5442     74.1562
  1548.7500      0.0000    322.0569     15.6385     76.7340
  1549.0000      0.0000    349.0764     15.3405     79.2921
  1549.2500      0.0000    399.7958     14.6812     80.9363
  1549.5000      0.0000    473.3592     13.7240     80.8726
  1549.7500      0.0000    556.3782     12.5437     78.7184
  1550.0000      0.0000    629.2914     11.2260     74.8144
  1550.2500      0.0000    679.0494      9.8815     69.9405
  1550.5000      0.0000    705.3015      8.6514     64.9417
  1550.7500      0.0000    715.7968      7.6838     60.8104
  1551.0000      0.0000    718.3597      7.0846     58.5803
  1551.2500      0.0000    716.6337      6.8719     58.6458
  1551.5000      0.0000    709.9742      6.9665     60.4184
  1551.7500      0.0000    695.9239      7.2200     62.9088
  1552.0000      0.0000    674.5117      7.4609     65.4003
  1552.2500      0.0000    651.2549      7.5473     67.4055
  1552.5000      0.0000    632.9720      7.4131     68.3475
  1552.7500      0.0000    618.0004      7.0834     67.6613
  1553.0000      0.0000    593.9395      6.6467     65.2512
  1553.2500      0.0000    550.0817      6.2068     61.7746
  1553.5000      0.0000    490.7961      5.8436     58.4303
  1553.7500      0.0000    432.8840      5.5959     56.3363
  1554.0000      0.0000    391.2988      5.4658     55.8468
  1554.2500      0.0000    370.8968      5.4382     56.3026
  1554.5000      0.0000    370.6528      5.5015     56.5865
  1554.7500      0.0000    391.1152      5.6588     56.1757
  1555.0000      0.0000    434.8182      5.9242     55.6560
  1555.2500      0.0000    499.4547      6.3060     56.1231
  1555.5000      0.0000    572.7917      6.7803     58.1557
  1555.7500      0.0000    637.4901      7.2701     61.3987
  1556.0000      0.0000    681.9517      7.6578     64.8319
  1556.2500      0.0000    705.7634      7.8471     67.2981
  1556.5000      0.0000    715.6829      7.8405     68.1826
  1556.7500      0.0000    718.5425      7.7669     67.9661
  1557.0000      0.0000    717.3979      7.8140     67.9284
  1557.2500      0.0000    711.2888      8.0989     68.9362
  1557.5000      0.0000    697.4436      8.5741     70.4628
  1557.7500      0.0000    675.6230      9.0589     71.0376
  1558.0000      0.0000    651.9385      9.3820     69.7467
  1558.2500      0.0000    636.0644      9.5149     67.0693
  1558.5000      0.0000    631.8250      9.5728     64.1870
  1558.7500      0.0000    631.3862      9.6824     61.8991
  1559.0000      0.0000    620.9003      9.8474     60.5458
  1559.2500      0.0000    591.7283      9.9552     60.5275
  1559.5000      0.0000    547.6136      9.9091     62.1151
  1559.7500      0.0000    503.8705      9.7359     64.8291
  1560.0000      0.0000    478.2340      9.5532     67.5949
  1560.2500      0.0000    478.1090      9.4394     69.4927
  1560.5000      0.0000    495.1363      9.3510     70.0411
  1560.7500      0.0000    511.7664      9.1776     69.0433
  1561.0000      0.0000    512.1955      8.8769     66.7027
  1561.2500      0.0000    490.0175      8.5424     63.8316
  1561.5000      0.0000    451.0538      8.3272     61.3947
  1561.7500      0.0000    409.2596      8.2987     59.6316
  1562.0000      0.0000    376.9623      8.3711     57.8697
  1562.2500      0.0000    357.9862      8.3845     55.4048
  1562.5000      0.0000    349.1772      8.2469     52.3791
  1562.7500      0.0000    345.7733      8.0089     49.6003
  1563.0000      0.0000    344.5978      7.8152     47.7932
  1563.2500      0.0000    344.1717      7.7841     47.3645
  1563.5000      0.0000    343.9217      7.9172     48.5450
  1563.7500      0.0000    343.6362      8.1132     51.1907
  1564.0000      0.0000    343.3412      8.2745     54.4547
  1564.2500      0.0000    343.2802      8.3879     57.0542
  1564.5000      0.0000    344.0651      8.4811     58.1196
  1564.7500      0.0000    347.1611      8.5231     57.8235
  1565.0000      0.0000    355.6988      8.4233     57.0425
  1565.2500      0.0000    374.3102      8.1477     56.2266
  1565.5000      0.0000    406.4591      7.8009     54.7821
  1565.7500      0.0000    450.6978      7.5591     51.9477
  1566.0000      0.0000    500.5256      7.5248     48.2024
  1566.2500      0.0000    548.7967      7.6542     45.4055
  1566.5000      0.0000    590.8430      7.8033     45.3423
  1566.7500      0.0000    622.5558      7.8333     48.0847
  1567.0000      0.0000    638.0375      7.6952     51.8598
  1567.2500      0.0000    632.3013      7.4462     54.6329
