~Version Information
VERS.                      2.0: CWLS Log ASCII Standard - VERSION 2.0
WRAP.                       NO: One line per depth step
~Well Information Block
STRT.FT               650.0000: 
STOP.FT              2000.5000: 
STEP.FT                 0.1000: 
NULL.                -999.2500: 
COMP.          Pioneer Natural Resources: COMPANY
WELL.           Firehawk 34-26: WELL
FLD.           Purgatoire River: FIELD
LOC.           1196' FSL & 1595' FEL--: LOCATION
STAT.                 Colorado: State
CNTY.               Las Animas: COUNTY
CTRY. USA : Country
SECT. 26 : Section
TOWN. 32S : Township
RANG. 66W : Range
SRVC.                Patterson: SERVICE COMPANY
DATE.          Mon Oct 17 07:23:34 2005: LOG DATE
API.           05 071 08389 00: UNIQUE WELL ID
~Curve Information Block
DEPT.FT            0 000 00 00: Depth
DCAL.in                       : CDL Caliper
RHOB.g/cc                     : CDL Bulk Density
RHOC.g/cc                     : CDL Density Correction
DPOR.pu                       : CDL Density Porosity
NPOR.pu                       : Neutron Porosity
GR.GAPI                       : Gamma Ray
~Parameter Information Block
~A  Depth       DCAL        RHOB        RHOC        DPOR        NPOR         GR     
# ...
  1878.8000      7.9740      2.5556      0.1561      5.7230     29.4633    111.8942
  1878.9000      7.9740      2.5358      0.0995      6.9224     29.3038    110.0808
  1879.0000      7.9880      2.5137      0.1104      8.2604     29.6552    111.5160
  1879.1000      7.9880      2.4959      0.0940      9.3420     30.3126    115.2109
  1879.2000      7.9880      2.4806      0.0800     10.2656     30.7553    119.3619
  1879.3000      8.0080      2.4646      0.0503     11.2343     30.7480    121.4865
  1879.4000      8.0080      2.4489      0.0276     12.1855     30.4898    118.3741
  1879.5000      8.0209      2.4346      0.0363     13.0552     30.1427    113.4847
  1879.6000      8.0209      2.4164      0.0786     14.1600     29.7442    114.4812
  1879.7000      8.0209      2.3958      0.0291     15.4046     29.3710    123.0964
  1879.8000      8.0241      2.3839      0.0214     16.1302     29.3678    135.5573
  1879.9000      8.0241      2.3843      0.0625     16.1010     30.1601    143.6456
  1880.0000      8.0168      2.3912      0.0950     15.6834     31.4828    140.8735
  1880.1000      8.0168      2.3926      0.1173     15.6028     32.6380    133.2700
  1880.2000      8.0168      2.3722      0.1070     16.8382     33.2098    129.8935
  1880.3000      8.0108      2.3232      0.0628     19.8081     33.5049    131.3312
  1880.4000      8.0108      2.2524      0.0498     24.0958     33.9534    133.1084
  1880.5000      8.0129      2.1648      0.0402     29.4074     34.1666    128.9113
  1880.6000      8.0129      2.0619     -0.0280     35.6417     33.9905    116.1593
  1880.7000      8.0129      1.9573     -0.0569     41.9834     34.1504    100.6588
  1880.8000      8.0306      1.8693     -0.0839     47.3181     34.9267     88.6115
  1880.9000      8.0306      1.8036     -0.0783     51.2952     35.8000     80.3987
  1881.0000      8.0854      1.7576     -0.0804     54.0861     36.1966     75.7080
  1881.1000      8.0854      1.7398     -0.0840     55.1660     36.0292     77.5489
  1881.2000      8.0854      1.7621      0.0394     53.8100     35.4834     81.2226
  1881.3000      8.1889      1.8133      0.1893     50.7089     34.7425     78.7934
  1881.4000      8.1889      1.8697      0.2243     47.2921     34.0837     76.0316
  1881.5000      8.2478      1.9263      0.2181     43.8617     33.7130     81.6813
  1881.6000      8.2478      1.9947      0.2047     39.7182     33.3799     90.9238
  1881.7000      8.2478      2.0776      0.1687     34.6921     32.7732     97.7669
  1881.8000      8.1636      2.1609      0.1794     29.6422     32.2692    104.3561
  1881.9000      8.1636      2.2240      0.1775     25.8188     32.2963    108.5768
  1882.0000      8.0622      2.2481      0.1961     24.3581     32.7352    107.1990
  1882.1000      8.0622      2.2258      0.0803     25.7118     33.3166    106.0557
  1882.2000      8.0622      2.1710     -0.0097     29.0297     33.5583    109.7126
  1882.3000      8.0321      2.1029     -0.0468     33.1557     33.4911    112.8273
  1882.4000      8.0321      2.0242     -0.0479     37.9275     33.7429    107.2779
  1882.5000      8.0355      1.9337     -0.0830     43.4114     34.3595     96.9421
  1882.6000      8.0355      1.8464     -0.1022     48.7024     34.8598     92.8222
  1882.7000      8.0355      1.7756     -0.0673     52.9944     34.9761     93.5955
  1882.8000      8.0494      1.7165     -0.0653     56.5768     34.7095     92.2641
  1882.9000      8.0494      1.6683     -0.0385     59.4951     34.2578     89.0117
  1883.0000      8.1023      1.6460      0.0403     60.8499     33.6749     82.5051
  1883.1000      8.1023      1.6525      0.1650     60.4535     33.1040     72.5323
  1883.2000      8.1023      1.6714      0.1805     59.3111     32.7600     65.5318
  1883.3000      8.1919      1.7004      0.1604     57.5513     32.1421     64.5655
  1883.4000      8.1919      1.7585      0.1332     54.0292     30.7748     66.9276
  1883.5000      8.1940      1.8531      0.1491     48.2942     29.0535     69.3614
  1883.6000      8.1940      1.9674      0.1783     41.3670     27.3545     70.8409
  1883.7000      8.1940      2.0830      0.1885     34.3656     25.7024     72.9357
  1883.8000      8.0691      2.1980      0.2020     27.3954     24.3007     77.8882
  1883.9000      8.0691      2.3120      0.2505     20.4826     23.0330     83.0969
  1884.0000      7.9725      2.4088      0.2320     14.6189     21.7010     85.7616
  1884.1000      7.9725      2.4743      0.1839     10.6513     20.6266     88.5535
  1884.2000      7.9725      2.5134      0.1654      8.2804     20.0127     94.5815
  1884.3000      7.9493      2.5377      0.1393      6.8057     19.5872    102.1646
  1884.4000      7.9493      2.5573      0.0816      5.6170     19.1315    106.0884
  1884.5000      7.9505      2.5776      0.0748      4.3868     18.8813    105.3400
  1884.6000      7.9505      2.5945      0.0401      3.3620     19.0026    105.9692
  1884.7000      7.9505      2.6030      0.0499      2.8498     19.2485    109.8073
  1884.8000      7.9546      2.5996      0.0738      3.0530     19.3354    109.0085
  1884.9000      7.9546      2.5837      0.0549      4.0201     19.0615    102.1770
  1885.0000      7.9557      2.5614      0.0623      5.3725     18.6370     93.7598
  1885.1000      7.9557      2.5443      0.0334      6.4041     18.6030     85.7839
  1885.2000      7.9557      2.5408      0.0321      6.6175     18.9339     82.8082
  1885.3000      7.9544      2.5419      0.0752      6.5491     19.1059     88.6937
  1885.4000      7.9544      2.5365      0.0410      6.8816     18.8844     99.9060
  1885.5000      7.9529      2.5349      0.0001      6.9742     18.5947    108.3517
  1885.6000      7.9529      2.5447      0.0580      6.3836     18.4095    109.3114
  1885.7000      7.9529      2.5526      0.0445      5.9047     18.3105    105.0425
  1885.8000      7.9521      2.5526      0.0510      5.9058     18.8179    102.6914
  1885.9000      7.9521      2.5526      0.0286      5.9058     19.8686    104.7094
  1886.0000      7.9509      2.5528      0.0571      5.8884     20.6573    104.1988
  1886.1000      7.9509      2.5439      0.0748      6.4333     21.1447     99.8647
  1886.2000      7.9509      2.5354      0.0313      6.9437     21.5246     99.2964
  1886.3000      7.9512      2.5476      0.0617      6.2072     21.3923    103.6725
  1886.4000      7.9512      2.5687      0.0942      4.9257     20.8476    106.5909
  1886.5000      7.9538      2.5730      0.0892      4.6681     20.5905    106.3452
  1886.6000      7.9538      2.5589      0.0868      5.5211     20.6416    106.8404
  1886.7000      7.9538      2.5419      0.0598      6.5538     20.7338    109.9584
  1886.8000      7.9557      2.5304      0.0603      7.2507     20.7615    110.3577
  1886.9000      7.9557      2.5212      0.0703      7.8049     20.6813    103.1339
  1887.0000      7.9544      2.5143      0.0503      8.2233     20.5935     93.0090
  1887.1000      7.9544      2.5135      0.0631      8.2705     20.6146     87.8095
  1887.2000      7.9544      2.5141      0.0604      8.2342     20.6135     91.3772
  1887.3000      7.9517      2.5084      0.0536      8.5797     20.7781    100.1509
  1887.4000      7.9517      2.4960      0.0441      9.3335     21.4764    106.3991
  1887.5000      7.9524      2.4875      0.0327      9.8514     22.0395    107.3343
  1887.6000      7.9524      2.4962      0.0318      9.3223     21.8043    105.8659
  1887.7000      7.9524      2.5193      0.0761      7.9240     21.4350    105.6271
  1887.8000      7.9552      2.5425      0.0603      6.5146     21.3588    107.0380
  1887.9000      7.9552      2.5537      0.0957      5.8364     21.2678    110.1716
  1888.0000      7.9554      2.5438      0.0977      6.4379     21.0685    115.1395
  1888.1000      7.9554      2.5204      0.0469      7.8526     20.9652    116.7409
  1888.2000      7.9554      2.5001      0.0772      9.0854     21.2001    113.5410
  1888.3000      7.9532      2.4885      0.0151      9.7908     21.7270    110.0092
