~Version Information
VERS.                      2.0: CWLS Log ASCII Standard - VERSION 2.0
WRAP.                       NO: One line per depth step
~Well Information Block
STRT.FT               825.0000: 
STOP.FT              2446.5000: 
STEP.FT                 0.2500: 
NULL.                -999.2500: 
COMP.          Petrogulf Corporation: COMPANY
WELL.            Kraft 17-23 V: WELL
FLD.           Purgatorie River: FIELD
LOC.           1500' FSL & 1773' FWL: LOCATION
CNTY.               Las Animas: COUNTY
SRVC.                         : SERVICE COMPANY
DATE.          Thu Nov 20 06:35:41 2003: LOG DATE
UWI.                          : UNIQUE WELL ID
STAT.                 Colorado: STATE
~Curve Information Block
DEPT.FT            0 000 00 00: Depth
SN.Ohm-m                      : IEL Short Normal
SP.mV                         : IEL Spontaneous Potential
DIR.Ohm-m                     : IEL Induction Resistivity
GR.GAPI                       : Gamma Ray
~Parameter Information Block
~A  Depth        SN          SP         DIR          GR     
# ...
   925.5000   2000.0000   2000.0000     43.1141     68.3582
   925.7500   2000.0000   2000.0000     40.5586     68.2162
   926.0000   2000.0000   2000.0000     37.1670     66.0290
   926.2500   2000.0000   2000.0000     33.8630     63.6756
   926.5000   2000.0000   2000.0000     31.2088     60.1763
   926.7500   2000.0000   2000.0000     29.3654     58.8697
   927.0000   2000.0000   2000.0000     28.2495     59.7556
   927.2500   2000.0000   2000.0000     27.6727     62.2731
   927.5000   2000.0000   2000.0000     27.4131     67.5160
   927.7500   2000.0000   2000.0000     27.2530     70.7829
   928.0000   2000.0000   2000.0000     27.0092     73.9046
   928.2500   2000.0000   2000.0000     26.5709     74.7238
   928.5000   2000.0000   2000.0000     25.9286     74.9486
   928.7500   2000.0000   2000.0000     25.1789     74.9778
   929.0000   2000.0000   2000.0000     24.4846     74.9451
   929.2500   2000.0000   2000.0000     24.0137     74.5788
   929.5000   2000.0000   2000.0000     23.8803     73.4296
   929.7500   2000.0000   2000.0000     24.1020     72.6715
   930.0000   2000.0000   2000.0000     24.5773     72.1841
   930.2500   2000.0000   2000.0000     25.1033     72.1126
   930.5000   2000.0000   2000.0000     25.4565     71.3622
   930.7500   2000.0000   2000.0000     25.5311     70.0264
   931.0000   2000.0000   2000.0000     25.4225     67.0645
   931.2500   2000.0000   2000.0000     25.3753     64.9567
   931.5000   2000.0000   2000.0000     25.6409     62.2280
   931.7500   2000.0000   2000.0000     26.3661     60.8765
   932.0000   2000.0000   2000.0000     27.5488     60.0219
   932.2500   2000.0000   2000.0000     29.0482     60.5860
   932.5000   2000.0000   2000.0000     30.6568     63.1387
   932.7500   2000.0000   2000.0000     32.2072     65.4262
   933.0000   2000.0000   2000.0000     33.6387     68.4600
   933.2500   2000.0000   2000.0000     34.9530     69.7407
   933.5000   2000.0000   2000.0000     36.0730     70.6131
   933.7500   2000.0000   2000.0000     36.7523     71.0830
   934.0000   2000.0000   2000.0000     36.6507     73.0469
   934.2500   2000.0000   2000.0000     35.5981     75.5884
   934.5000   2000.0000   2000.0000     33.8045     80.3888
   934.7500   2000.0000   2000.0000     31.7891     83.3425
   935.0000   2000.0000   2000.0000     30.0831     86.6992
   935.2500   2000.0000   2000.0000     29.0150     88.4266
   935.5000   2000.0000   2000.0000     28.6615     90.5768
   935.7500   2000.0000   2000.0000     28.8890     91.5652
   936.0000   2000.0000   2000.0000     29.4277     92.0300
   936.2500   2000.0000   2000.0000     30.0032     91.6478
   936.5000   2000.0000   2000.0000     30.5185     90.1665
   936.7500   2000.0000   2000.0000     31.1533     88.6840
   937.0000   2000.0000   2000.0000     32.2780     86.0145
   937.2500   2000.0000   2000.0000     34.2839     84.0094
   937.5000   2000.0000   2000.0000     37.4217     80.4460
   937.7500   2000.0000   2000.0000     41.6184     77.6856
   938.0000   2000.0000   2000.0000     46.2110     73.7061
   938.2500   2000.0000   2000.0000     49.8644     71.8658
   938.5000   2000.0000   2000.0000     51.1914     71.1845
   938.7500   2000.0000   2000.0000     49.8667     72.2097
   939.0000   2000.0000   2000.0000     46.8475     75.7328
   939.2500   2000.0000   2000.0000     43.4244     79.2197
   939.5000   2000.0000   2000.0000     40.4653     85.6609
   939.7500   2000.0000   2000.0000     38.3334     90.2485
   940.0000   2000.0000   2000.0000     37.0841     96.3703
   940.2500   2000.0000   2000.0000     36.6111     99.2187
   940.5000   2000.0000   2000.0000     36.6902    100.7268
   940.7500   2000.0000   2000.0000     36.9928     99.7208
   941.0000   2000.0000   2000.0000     37.1273     95.5110
   941.2500   2000.0000   2000.0000     36.7701     91.3374
   941.5000   2000.0000   2000.0000     35.8337     84.2327
   941.7500   2000.0000   2000.0000     34.5233     79.9048
   942.0000   2000.0000   2000.0000     33.2302     75.5601
   942.2500   2000.0000   2000.0000     32.3670     74.4213
   942.5000   2000.0000   2000.0000     32.2916     74.6933
   942.7500   2000.0000   2000.0000     33.3162     75.5114
   943.0000   2000.0000   2000.0000     35.7433     76.9050
   943.2500   2000.0000   2000.0000     39.8408     77.7372
   943.5000   2000.0000   2000.0000     45.6102     78.3432
   943.7500   2000.0000   2000.0000     52.1774     77.9345
   944.0000   2000.0000   2000.0000     57.1484     76.2731
   944.2500   2000.0000   2000.0000     57.6113     75.4139
   944.5000   2000.0000   2000.0000     53.1334     76.4508
   944.7500   2000.0000   2000.0000     46.2347     78.8771
   945.0000   2000.0000   2000.0000     39.4767     83.1159
   945.2500   2000.0000   2000.0000     33.9235     84.6681
   945.5000   2000.0000   2000.0000     29.6200     83.5849
   945.7500   2000.0000   2000.0000     26.2813     81.0537
   946.0000   2000.0000   2000.0000     23.6311     76.7522
   946.2500   2000.0000   2000.0000     21.4971     74.6523
   946.5000   2000.0000   2000.0000     19.8020     73.1506
   946.7500   2000.0000   2000.0000     18.5227     73.0828
   947.0000   2000.0000   2000.0000     17.6405     74.7811
   947.2500   2000.0000   2000.0000     17.1077     77.9737
   947.5000   2000.0000   2000.0000     16.8280     87.0375
   947.7500   2000.0000   2000.0000     16.6473     95.4036
   948.0000   2000.0000   2000.0000     16.3760    108.1433
   948.2500   2000.0000   2000.0000     15.8593    114.4762
   948.5000   2000.0000   2000.0000     15.0628    118.6006
   948.7500   2000.0000   2000.0000     14.1014    118.0815
   949.0000   2000.0000   2000.0000     13.1671    114.9021
   949.2500   2000.0000   2000.0000     12.4305    113.0639
   949.5000   2000.0000   2000.0000     11.9893    113.3955
   949.7500   2000.0000   2000.0000     11.8654    116.3588
   950.0000   2000.0000   2000.0000     12.0190    124.2673
   950.2500   2000.0000   2000.0000     12.3567    130.7449
   950.5000   2000.0000   2000.0000     12.7442    140.1151
   950.7500   2000.0000   2000.0000     13.0376    145.0771
   951.0000   2000.0000   2000.0000     13.1350    149.6286
   951.2500   2000.0000   2000.0000     13.0164    150.9406
   951.5000   2000.0000   2000.0000     12.7419    151.8464
   951.7500   2000.0000   2000.0000     12.4161    152.6314
   952.0000   2000.0000   2000.0000     12.1477    154.1214
   952.2500   2000.0000   2000.0000     12.0234    154.3263
   952.5000   2000.0000   2000.0000     12.0987    151.3927
   952.7500   2000.0000   2000.0000     12.3966    146.9129
   953.0000   2000.0000   2000.0000     12.9064    137.7536
   953.2500   2000.0000   2000.0000     13.5829    131.2822
   953.5000   2000.0000   2000.0000     14.3415    122.5707
   953.7500   2000.0000   2000.0000     15.0636    117.8127
   954.0000   2000.0000   2000.0000     15.6176    112.5285
   954.2500   2000.0000   2000.0000     15.9026    110.3734
   954.5000   2000.0000   2000.0000     15.8935    109.4077
   954.7500   2000.0000   2000.0000     15.6514    110.3762
   955.0000   2000.0000   2000.0000     15.2840    114.1770
   955.2500   2000.0000   2000.0000     14.8904    117.9064
   955.5000   2000.0000   2000.0000     14.5280    124.0636
   955.7500   2000.0000   2000.0000     14.2096    127.7841
   956.0000   2000.0000   2000.0000     13.9244    132.0351
   956.2500   2000.0000   2000.0000     13.6637    133.8306
   956.5000   2000.0000   2000.0000     13.4358    134.7190
   956.7500   2000.0000   2000.0000     13.2659    133.9111
   957.0000   2000.0000   2000.0000     13.1815    130.6925
   957.2500   2000.0000   2000.0000     13.2001    127.6945
   957.5000   2000.0000   2000.0000     13.3259    123.1635
   957.7500   2000.0000   2000.0000     13.5585    120.8614
   958.0000   2000.0000   2000.0000     13.9015    119.6662
   958.2500   2000.0000   2000.0000     14.3633    120.8627
   958.5000   2000.0000   2000.0000     14.9468    125.5150
   958.7500   2000.0000   2000.0000     15.6192    129.7867
