~Version Information
VERS.                      2.0: CWLS Log ASCII Standard - VERSION 2.0
WRAP.                       NO: One line per depth step
~Well Information Block
STRT.FT               456.0000: 
STOP.FT              1703.0000: 
STEP.FT                 0.2500: 
NULL.                -999.2500: 
COMP.          Pioneer Natural Resources: COMPANY
WELL.                Mead 11-9: WELL
FLD.           Purgatoire River: FIELD
LOC.           1127' FNL & 668' FWL: LOCATION
PROV.                 Colorado: PROVINCE
CNTY.               Las Animas: COUNTRY
SRVC.                Patterson: SERVICE COMPANY
DATE.          Fri Feb 18 16:14:34 2005: LOG DATE
UWI.           05 071 08160 00: UNIQUE WELL ID
~Curve Information Block
DEPT.FT            0 000 00 00: Depth
SN.Ohm-m                      : IEL Short Normal
SP.mV                         : IEL Spontaneous Potential
DIR.Ohm-m                     : IEL Induction Resistivity
GR.GAPI                       : Gamma Ray
~Parameter Information Block
~A  Depth        SN          SP         DIR          GR     
# ...
  1025.5000     41.4959   -189.3693     29.0035     63.4675
  1025.7500     43.6865   -189.1648     29.9582     62.2471
  1026.0000     45.6805   -188.9644     30.8125     65.0062
  1026.2500     47.4492   -188.8599     31.5390     69.7732
  1026.5000     48.9764   -188.8992     32.1303     80.1375
  1026.7500     50.2705   -189.0659     32.5883     88.0597
  1027.0000     51.3347   -189.2953     32.8752     99.9367
  1027.2500     52.1162   -189.5132     32.8918    107.9135
  1027.5000     52.5317   -189.6703     32.5118    121.5624
  1027.7500     52.5352   -189.7502     31.6408    132.3109
  1028.0000     52.1365   -189.7574     30.2558    148.5761
  1028.2500     51.3409   -189.6973     28.4158    156.4810
  1028.5000     50.0457   -189.5625     26.2547    159.4978
  1028.7500     47.9893   -189.3334     23.9536    155.4047
  1029.0000     44.8374   -188.9909     21.6918    144.1846
  1029.2500     40.4109   -188.5342     19.5981    136.8620
  1029.5000     34.9360   -187.9901     17.7299    130.8973
  1029.7500     29.0701   -187.4104     16.0852    131.1831
  1030.0000     23.6051   -186.8585     14.6342    136.1730
  1030.2500     19.0992   -186.3913     13.3487    140.3175
  1030.5000     15.7162   -186.0404     12.2141    144.4688
  1030.7500     13.3037   -185.8011     11.2256    145.2432
  1031.0000     11.5803   -185.6370     10.3769    144.5871
  1031.2500     10.2969   -185.5013      9.6552    144.1150
  1031.5000      9.3095   -185.3611      9.0419    144.6931
  1031.7500      8.5597   -185.2075      8.5178    145.9357
  1032.0000      8.0113   -185.0522      8.0673    148.0100
  1032.2500      7.6140   -184.9153      7.6793    148.8602
  1032.5000      7.3173   -184.8142      7.3463    149.2158
  1032.7500      7.0879   -184.7539      7.0622    149.4212
  1033.0000      6.9065   -184.7219      6.8221    150.7707
  1033.2500      6.7644   -184.6914      6.6219    152.4588
  1033.5000      6.6598   -184.6359      6.4588    155.2788
  1033.7500      6.5891   -184.5462      6.3307    156.6217
  1034.0000      6.5442   -184.4368      6.2357    157.0300
  1034.2500      6.5196   -184.3360      6.1715    156.1931
  1034.5000      6.5218   -184.2722      6.1364    153.8185
  1034.7500      6.5643   -184.2657      6.1290    151.9746
  1035.0000      6.6480   -184.3244      6.1482    149.3755
  1035.2500      6.7591   -184.4375      6.1927    147.7066
  1035.5000      6.8801   -184.5725      6.2598    144.9918
  1035.7500      6.9905   -184.6839      6.3469    143.2438
  1036.0000      7.0808   -184.7342      6.4527    141.8102
  1036.2500      7.1698   -184.7157      6.5798    142.0842
  1036.5000      7.2878   -184.6535      6.7356    143.8505
  1036.7500      7.4533   -184.5854      6.9312    145.2477
  1037.0000      7.6795   -184.5360      7.1784    146.7997
  1037.2500      7.9745   -184.5061      7.4859    147.0451
  1037.5000      8.3362   -184.4845      7.8570    144.8603
  1037.7500      8.7636   -184.4719      8.2904    140.6656
  1038.0000      9.2689   -184.4925      8.7838    129.5705
  1038.2500      9.8812   -184.5749      9.3386    119.8364
  1038.5000     10.6713   -184.7229      9.9614    104.8769
  1038.7500     11.8022   -184.9053     10.6609     96.5175
  1039.0000     13.5410   -185.0723     11.4420     88.0715
  1039.2500     16.1058   -185.1815     12.2993     85.0320
  1039.5000     19.3755   -185.2151     13.2149     82.7985
  1039.7500     22.7908   -185.1800     14.1600     81.7981
  1040.0000     25.6685   -185.0986     15.1022     79.9426
  1040.2500     27.6272   -184.9961     16.0119     78.4217
  1040.5000     28.6949   -184.8878     16.8583     76.4159
  1040.7500     29.1004   -184.7708     17.5964     75.9730
  1041.0000     29.0235   -184.6280     18.1588     77.9843
  1041.2500     28.5209   -184.4408     18.4683     81.6135
  1041.5000     27.6542   -184.1987     18.4711     90.1613
  1041.7500     26.6098   -183.9020     18.1613     96.8193
  1042.0000     25.6062   -183.5630     17.5779    105.0936
  1042.2500     24.6960   -183.2095     16.7804    107.6384
  1042.5000     23.7281   -182.8805     15.8318    105.9420
  1042.7500     22.5139   -182.6131     14.7953    102.4206
  1043.0000     21.0280   -182.4283     13.7366     97.9908
  1043.2500     19.4575   -182.3239     12.7182     98.0501
  1043.5000     18.0345   -182.2797     11.7863    104.4864
  1043.7500     16.8185   -182.2726     10.9606    112.4526
  1044.0000     15.6816   -182.2905     10.2360    126.9674
  1044.2500     14.4640   -182.3352      9.5928    136.2723
  1044.5000     13.0448   -182.4093      9.0107    146.9785
  1044.7500     11.3434   -182.5031      8.4779    151.2679
  1045.0000      9.4367   -182.5914      7.9917    153.6635
  1045.2500      7.6137   -182.6440      7.5540    153.3072
  1045.5000      6.1744   -182.6415      7.1665    151.6930
  1045.7500      5.2607   -182.5874      6.8284    150.9455
  1046.0000      4.8763   -182.5104      6.5374    151.2339
  1046.2500      4.9184   -182.4539      6.2911    152.1148
  1046.5000      5.1942   -182.4577      6.0878    153.0222
  1046.7500      5.5068   -182.5412      5.9267    152.5760
  1047.0000      5.7384   -182.6955      5.8058    150.2102
  1047.2500      5.8571   -182.8896      5.7204    148.1594
  1047.5000      5.8911   -183.0830      5.6629    145.8477
  1047.7500      5.8948   -183.2351      5.6248    145.3305
  1048.0000      5.9174   -183.3118      5.5995    145.8396
  1048.2500      5.9887   -183.2982      5.5836    146.4286
  1048.5000      6.1029   -183.2159      5.5761    146.9930
  1048.7500      6.2170   -183.1208      5.5756    147.3418
  1049.0000      6.2768   -183.0670      5.5801    148.5987
  1049.2500      6.2318   -183.0690      5.5875    150.0818
  1049.5000      6.0759   -183.0961      5.5972    152.6287
  1049.7500      5.8808   -183.1002      5.6099    153.8228
  1050.0000      5.7345   -183.0478      5.6266    153.8188
  1050.2500      5.6717   -182.9342      5.6469    152.5825
  1050.5000      5.6821   -182.7791      5.6681    150.0464
  1050.7500      5.7436   -182.6138      5.6860    148.8776
  1051.0000      5.8299   -182.4672      5.6966    148.9122
  1051.2500      5.8943   -182.3545      5.6987    150.0720
  1051.5000      5.8891   -182.2705      5.6948    152.8377
  1051.7500      5.8083   -182.1934      5.6914    154.9436
  1052.0000      5.6764   -182.0945      5.6969    157.8581
  1052.2500      5.5145   -181.9505      5.7196    159.3160
  1052.5000      5.3607   -181.7546      5.7644    160.2453
  1052.7500      5.2894   -181.5207      5.8320    159.5990
  1053.0000      5.3604   -181.2728      5.9194    156.0631
  1053.2500      5.5565   -181.0303      6.0218    152.1700
  1053.5000      5.8045   -180.8045      6.1352    145.6435
  1053.7500      6.0533   -180.6055      6.2573    141.9533
  1054.0000      6.3022   -180.4458      6.3867    138.3031
  1054.2500      6.5663   -180.3362      6.5222    136.9335
  1054.5000      6.8674   -180.2822      6.6641    135.5664
  1054.7500      7.2533   -180.2850      6.8183    134.6268
  1055.0000      7.7556   -180.3450      6.9981    132.8548
  1055.2500      8.3030   -180.4635      7.2216    131.6136
  1055.5000      8.7346   -180.6350      7.5036    130.2506
  1055.7500      8.9222   -180.8355      7.8482    129.8467
  1056.0000      8.8643   -181.0215      8.2463    129.7261
  1056.2500      8.6729   -181.1487      8.6795    129.5767
  1056.5000      8.4849   -181.1958      9.1297    128.4855
  1056.7500      8.3867   -181.1717      9.5877    126.8313
  1057.0000      8.4241   -181.1066     10.0542    122.9767
  1057.2500      8.6565   -181.0364     10.5347    120.0520
  1057.5000      9.2024   -180.9901     11.0299    116.6077
  1057.7500     10.2667   -180.9851     11.5338    115.4638
  1058.0000     12.0394   -181.0283     12.0416    115.1400
  1058.2500     14.4005   -181.1172     12.5611    115.2679
  1058.5000     16.7679   -181.2350     13.1173    115.2792
  1058.7500     18.4578   -181.3481     13.7395    115.0489
