~Version Information
VERS.                      2.0: CWLS Log ASCII Standard - VERSION 2.0
WRAP.                       NO: One line per depth step
~Well Information Block
STRT.FT               545.0000: 
STOP.FT              1922.0000: 
STEP.FT                 0.2500: 
NULL.                -999.2500: 
COMP.          Pioneer Natural Resources: COMPANY
WELL.            Summers 21-19: WELL
FLD.           Purgatoire River: FIELD
LOC.           900' FNL & 1950' FWL: LOCATION
PROV.                 Colorado: PROVINCE
CNTY.               Las Animas: COUNTRY
SRVC.                Patterson: SERVICE COMPANY
DATE.          Sat Oct 15 03:34:13 2005: LOG DATE
UWI.           05 071 08315 00: UNIQUE WELL ID
~Curve Information Block
DEPT.FT            0 000 00 00: Depth
SN.Ohm-m                      : IEL Short Normal
SP.mV                         : IEL Spontaneous Potential
DIR.Ohm-m                     : IEL Induction Resistivity
GR.GAPI                       : Gamma Ray
~Parameter Information Block
~A  Depth        SN          SP         DIR          GR     
# ...
  1349.0000     14.7464   -106.6936     12.1635    127.5621
  1349.2500     15.9657   -106.7386     12.6628    118.8490
  1349.5000     17.4674   -106.7838     13.3095    106.5544
  1349.7500     19.2535   -106.8110     14.1027     99.4145
  1350.0000     21.4629   -106.8136     15.0234     90.5166
  1350.2500     24.1811   -106.7898     16.0403     85.9044
  1350.5000     27.2322   -106.7345     17.1121     81.0277
  1350.7500     30.2294   -106.6331     18.1760     78.8361
  1351.0000     32.8956   -106.4570     19.1304     76.3344
  1351.2500     35.2343   -106.1674     19.8387     74.9865
  1351.5000     37.2539   -105.7273     20.1728     73.7465
  1351.7500     38.6390   -105.1260     20.0782     73.6927
  1352.0000     38.8680   -104.4039     19.6045     74.9465
  1352.2500     37.6151   -103.6541     18.8722     76.7952
  1352.5000     34.9442   -102.9879     18.0119     81.9252
  1352.7500     31.2230   -102.4857     17.1211     87.7600
  1353.0000     27.0707   -102.1691     16.2549    101.1544
  1353.2500     23.2318   -102.0111     15.4350    112.7383
  1353.5000     20.1706   -101.9659     14.6641    131.1016
  1353.7500     17.8862   -101.9911     13.9379    141.6318
  1354.0000     16.2034   -102.0555     13.2528    151.9657
  1354.2500     14.9935   -102.1398     12.6101    155.0338
  1354.5000     14.1236   -102.2350     12.0152    155.7893
  1354.7500     13.4434   -102.3434     11.4747    155.1094
  1355.0000     12.8553   -102.4787     10.9953    153.6915
  1355.2500     12.3398   -102.6649     10.5865    152.7840
  1355.5000     11.9049   -102.9272     10.2612    151.9317
  1355.7500     11.5331   -103.2771     10.0340    151.8799
  1356.0000     11.2113   -103.7003      9.9148    152.1293
  1356.2500     10.9772   -104.1587      9.9027    151.9507
  1356.5000     10.8953   -104.6099      9.9850    150.5939
  1356.7500     11.0043   -105.0358     10.1432    149.0331
  1357.0000     11.2990   -105.4602     10.3599    146.2266
  1357.2500     11.7555   -105.9400     10.6243    144.5118
  1357.5000     12.3290   -106.5283     10.9319    143.1919
  1357.7500     12.9198   -107.2374     11.2827    143.5338
  1358.0000     13.4464   -108.0293     11.6788    145.2370
  1358.2500     13.9810   -108.8356     12.1205    145.8540
  1358.5000     14.6840   -109.5858     12.6033    143.0719
  1358.7500     15.5904   -110.2242     13.1126    137.6101
  1359.0000     16.5861   -110.7136     13.6195    124.3751
  1359.2500     17.6034   -111.0359     14.0788    113.7203
  1359.5000     18.7189   -111.1987     14.4375     98.6600
  1359.7500     20.0259   -111.2466     14.6577     91.1821
  1360.0000     21.4696   -111.2654     14.7387     85.7264
  1360.2500     22.7567   -111.3620     14.7154     86.0251
  1360.5000     23.4083   -111.6190     14.6309     91.4404
  1360.7500     23.0680   -112.0506     14.5065     97.7715
  1361.0000     21.8204   -112.5948     14.3318    110.5959
  1361.2500     20.0984   -113.1504     14.0793    120.6834
  1361.5000     18.3112   -113.6313     13.7296    135.9262
  1361.7500     16.6760   -113.9959     13.2851    144.5459
  1362.0000     15.3060   -114.2432     12.7640    153.1635
  1362.2500     14.2220   -114.3955     12.1867    155.9423
  1362.5000     13.2892   -114.4872     11.5738    157.2088
  1362.7500     12.3864   -114.5566     10.9523    157.2760
  1363.0000     11.6024   -114.6285     10.3559    157.4506
  1363.2500     11.0900   -114.6873      9.8153    157.8962
  1363.5000     10.7864   -114.6612      9.3485    159.3439
  1363.7500     10.4555   -114.4335      8.9597    160.8851
  1364.0000     10.0274   -113.8876      8.6450    163.5057
  1364.2500      9.6811   -112.9662      8.3982    164.7315
  1364.5000      9.5323   -111.7153      8.2118    164.5041
  1364.7500      9.4898   -110.2796      8.0774    162.5257
  1365.0000      9.4480   -108.8455      7.9853    156.7179
  1365.2500      9.4072   -107.5633      7.9259    151.3476
  1365.5000      9.3847   -106.5029      7.8919    142.5965
  1365.7500      9.3401   -105.6610      7.8787    137.4682
  1366.0000      9.2251   -105.0013      7.8845    132.3180
  1366.2500      9.0550   -104.4900      7.9090    130.7588
  1366.5000      8.9242   -104.1042      7.9526    130.3534
  1366.7500      8.9320   -103.8197      8.0157    130.4392
  1367.0000      9.0737   -103.5993      8.0971    129.5996
  1367.2500      9.2720   -103.3983      8.1930    128.0606
  1367.5000      9.4566   -103.1844      8.2977    124.9535
  1367.7500      9.5680   -102.9529      8.4049    123.1941
  1368.0000      9.6026   -102.7233      8.5092    122.2915
  1368.2500      9.6331   -102.5206      8.6072    123.0320
  1368.5000      9.7294   -102.3596      8.6976    125.3571
  1368.7500      9.8836   -102.2360      8.7810    127.0448
  1369.0000     10.0345   -102.1236      8.8579    129.2403
  1369.2500     10.1713   -101.9811      8.9262    130.4402
  1369.5000     10.3256   -101.7760      8.9803    131.3874
  1369.7500     10.4651   -101.5159      9.0120    130.9911
  1370.0000     10.4946   -101.2568      9.0162    128.9661
  1370.2500     10.3582   -101.0742      8.9940    127.6622
  1370.5000     10.1052   -101.0165      8.9514    128.3658
  1370.7500      9.8137   -101.0806      8.8947    131.7619
  1371.0000      9.5000   -101.2219      8.8266    141.2642
  1371.2500      9.2137   -101.3825      8.7478    149.3008
  1371.5000      9.0846   -101.5129      8.6606    160.8213
  1371.7500      9.1468   -101.5763      8.5701    166.5934
  1372.0000      9.2570   -101.5418      8.4800    170.7773
  1372.2500      9.2502   -101.3832      8.3872    170.3284
  1372.5000      9.1268   -101.0885      8.2826    165.9978
  1372.7500      9.0364   -100.6686      8.1567    162.4118
  1373.0000      9.0690   -100.1550      8.0089    159.2553
  1373.2500      9.1521    -99.5892      7.8501    159.3835
  1373.5000      9.1669    -99.0132      7.6976    161.3726
  1373.7500      9.0756    -98.4668      7.5657    162.3568
  1374.0000      8.9178    -97.9865      7.4595    162.0955
  1374.2500      8.7632    -97.5993      7.3763    161.1665
  1374.5000      8.6969    -97.3136      7.3103    159.8574
  1374.7500      8.7254    -97.1222      7.2584    159.3116
  1375.0000      8.7133    -97.0164      7.2217    158.6256
  1375.2500      8.5638    -96.9979      7.2037    158.0633
  1375.5000      8.3637    -97.0795      7.2080    157.4541
  1375.7500      8.2469    -97.2766      7.2364    157.6777
  1376.0000      8.2245    -97.5958      7.2899    159.3644
  1376.2500      8.2144    -98.0220      7.3672    161.1251
  1376.5000      8.1699    -98.5139      7.4646    163.4137
  1376.7500      8.1300    -99.0173      7.5736    163.7265
  1377.0000      8.1418    -99.4917      7.6824    161.4948
  1377.2500      8.1782    -99.9282      7.7807    158.6802
  1377.5000      8.2396   -100.3415      7.8639    154.3923
  1377.7500      8.4059   -100.7416      7.9353    152.2862
  1378.0000      8.6519   -101.1112      8.0022    150.0359
  1378.2500      8.8396   -101.4100      8.0719    148.4179
  1378.5000      8.9338   -101.6070      8.1486    144.7235
  1378.7500      9.0060   -101.7118      8.2337    141.1714
  1379.0000      9.0674   -101.7731      8.3261    134.4778
  1379.2500      9.0774   -101.8423      8.4228    129.6068
  1379.5000      9.0646   -101.9356      8.5176    122.8675
  1379.7500      9.0895   -102.0301      8.6020    119.4179
  1380.0000      9.1558   -102.0926      8.6682    116.6078
  1380.2500      9.2523   -102.1121      8.7146    116.4156
  1380.5000      9.3725   -102.1056      8.7456    117.8989
  1380.7500      9.4595   -102.0974      8.7658    119.2290
  1381.0000      9.4754   -102.0981      8.7726    120.5741
  1381.2500      9.5072   -102.1028      8.7559    120.8779
  1381.5000      9.6181   -102.1000      8.7062    120.7421
  1381.7500      9.6785   -102.0788      8.6228    120.4300
  1382.0000      9.5482   -102.0327      8.5165    119.7598
  1382.2500      9.2884   -101.9612      8.4041    119.1935
