~Version Information
VERS.                      2.0: CWLS Log ASCII Standard - VERSION 2.0
WRAP.                       NO: One line per depth step
~Well Information Block
STRT.FT               845.0000: 
STOP.FT              2308.2000: 
STEP.FT                 0.1000: 
NULL.                -999.2500: 
COMP.          Pioneer Natural Resources: COMPANY
WELL.             Vector 33-23: WELL
FLD.           Purgatoire River: FIELD
LOC.           1560' FEL & 1988' FSL----: LOCATION
PROV.                 Colorado: PROVINCE
CNTY.               Las Animas: COUNTRY
SRVC.                Patterson: SERVICE COMPANY
DATE.          Mon Mar 28 08:17:25 2005: LOG DATE
UWI.           05 071 08336 00: UNIQUE WELL ID
~Curve Information Block
DEPT.FT            0 000 00 00: Depth
DCAL.in                       : CDL Caliper
RHOB.g/cc                     : CDL Bulk Density
RHOC.g/cc                     : CDL Density Correction
DPOR.pu                       : CDL Density Porosity
NPOR.pu                       : Neutron Porosity
GR.GAPI                       : Gamma Ray
~Parameter Information Block
~A  Depth       DCAL        RHOB        RHOC        DPOR        NPOR         GR     
# ...
  1133.0000      8.1073      2.5058      0.0390      8.7411     28.0913    155.6292
  1133.1000      8.1073      2.4753     -0.0175     10.5885     27.8717    159.6767
  1133.2000      8.1073      2.4713      0.0537     10.8290     27.2759    156.4224
  1133.3000      8.1070      2.4839      0.0315     10.0656     26.3205    147.2716
  1133.4000      8.1070      2.5023      0.0340      8.9522     25.3963    138.9818
  1133.5000      8.1071      2.5196      0.0924      7.9009     24.8502    135.8459
  1133.6000      8.1071      2.5296      0.0658      7.2949     24.6384    135.3689
  1133.7000      8.1071      2.5401      0.0718      6.6632     24.7179    135.6860
  1133.8000      8.1077      2.5575      0.1026      5.6069     25.1189    137.5843
  1133.9000      8.1077      2.5746      0.1360      4.5708     25.5428    138.9512
  1134.0000      8.1059      2.5860      0.1031      3.8817     25.5555    139.0441
  1134.1000      8.1059      2.5993      0.1035      3.0728     25.2765    140.5338
  1134.2000      8.1059      2.6249      0.0916      1.5221     25.1306    141.2661
  1134.3000      8.1036      2.6558      0.1779     -0.3531     25.4441    138.7387
  1134.4000      8.1036      2.6783      0.1181     -1.7153     26.1148    136.3140
  1134.5000      8.1032      2.6997      0.1248     -3.0136     26.6544    132.1293
  1134.6000      8.1032      2.7217      0.1544     -4.3427     26.8505    122.6680
  1134.7000      8.1032      2.7241      0.1553     -4.4884     26.7457    113.8767
  1134.8000      8.1033      2.6994      0.1081     -2.9958     26.6826    110.4897
  1134.9000      8.1033      2.6619      0.0827     -0.7196     27.1040    111.9528
  1135.0000      8.1029      2.6302      0.0500      1.2003     27.9359    115.8843
  1135.1000      8.1029      2.6111      0.0577      2.3580     28.7875    117.8242
  1135.2000      8.1029      2.5964      0.0531      3.2461     29.3982    119.1645
  1135.3000      8.1018      2.5816      0.0236      4.1466     29.7981    124.5379
  1135.4000      8.1018      2.5698      0.0376      4.8592     29.8913    131.4407
  1135.5000      8.1014      2.5613      0.0192      5.3738     29.5519    134.0877
  1135.6000      8.1014      2.5533      0.0399      5.8581     29.2026    134.0555
  1135.7000      8.1014      2.5462      0.0263      6.2910     29.0405    134.8587
  1135.8000      8.1037      2.5453      0.0316      6.3425     28.8729    133.9028
  1135.9000      8.1037      2.5476      0.0647      6.2035     28.7465    130.7203
  1136.0000      8.1066      2.5408      0.0514      6.6208     28.8774    130.5802
  1136.1000      8.1066      2.5263      0.0285      7.4991     29.1321    135.4223
  1136.2000      8.1066      2.5223      0.0163      7.7381     29.0555    142.1268
  1136.3000      8.1099      2.5394      0.0234      6.7049     28.6228    147.5589
  1136.4000      8.1099      2.5632      0.0693      5.2631     28.1471    150.8633
  1136.5000      8.1122      2.5729      0.0654      4.6756     27.8664    151.7299
  1136.6000      8.1122      2.5688      0.0825      4.9191     27.8114    149.7657
  1136.7000      8.1122      2.5693      0.0343      4.8924     27.8024    145.5606
  1136.8000      8.1133      2.5819      0.0613      4.1296     27.7369    140.9627
  1136.9000      8.1133      2.5929      0.0763      3.4612     27.7292    136.4089
  1137.0000      8.1142      2.5955      0.0493      3.3046     27.8448    132.1450
  1137.1000      8.1142      2.5942      0.0902      3.3836     27.9026    129.5574
  1137.2000      8.1142      2.5833      0.0751      4.0410     27.8659    129.6700
  1137.3000      8.1133      2.5586      0.0930      5.5382     27.9657    133.6042
  1137.4000      8.1133      2.5332      0.0664      7.0798     28.0220    136.3680
  1137.5000      8.1115      2.5229      0.0800      7.7031     27.7020    131.5746
  1137.6000      8.1115      2.5242      0.0989      7.6263     27.3433    122.4120
  1137.7000      8.1115      2.5227      0.0783      7.7146     27.4573    116.3357
  1137.8000      8.1108      2.5140      0.0598      8.2437     27.9783    117.1983
  1137.9000      8.1108      2.4963      0.0631      9.3170     28.4746    125.2896
  1138.0000      8.1122      2.4713      0.0023     10.8329     28.6744    136.5155
  1138.1000      8.1122      2.4548      0.0464     11.8330     28.6321    142.4069
  1138.2000      8.1122      2.4598      0.0476     11.5273     28.3328    141.6720
  1138.3000      8.1134      2.4809      0.0544     10.2491     27.6453    141.5921
  1138.4000      8.1134      2.5011      0.0991      9.0215     26.8754    143.6337
  1138.5000      8.1132      2.5043      0.1079      8.8323     26.5922    141.7497
  1138.6000      8.1132      2.4821      0.0684     10.1762     26.8431    134.5553
  1138.7000      8.1132      2.4288      0.0976     13.4089     27.0184    128.5250
  1138.8000      8.1124      2.3416      0.0179     18.6902     26.6579    129.3873
  1138.9000      8.1124      2.2419     -0.0270     24.7360     26.0076    134.9327
  1139.0000      8.1115      2.1635     -0.0629     29.4849     25.4620    137.6638
  1139.1000      8.1115      2.1207     -0.0452     32.0786     25.0254    134.0072
  1139.2000      8.1115      2.0937      0.0141     33.7138     24.3152    129.8940
  1139.3000      8.1099      2.0557     -0.0066     36.0184     23.0752    131.0907
  1139.4000      8.1099      2.0064     -0.0174     39.0068     21.6124    135.7498
  1139.5000      8.1081      1.9622     -0.0222     41.6836     20.2915    137.6544
  1139.6000      8.1081      1.9347      0.0257     43.3543     19.2041    134.7260
  1139.7000      8.1081      1.9324      0.0708     43.4939     18.2486    131.8643
  1139.8000      8.1069      1.9668      0.1366     41.4066     17.3263    130.7290
  1139.9000      8.1069      2.0400      0.1587     36.9706     16.5699    128.4771
  1140.0000      8.1079      2.1352      0.1583     31.2021     16.2004    127.9023
  1140.1000      8.1079      2.2281      0.1746     25.5697     16.1632    133.9974
  1140.2000      8.1079      2.3093      0.1568     20.6500     16.2805    143.8338
  1140.3000      8.1101      2.3789      0.1957     16.4276     16.5155    148.8634
  1140.4000      8.1101      2.4248      0.2401     13.6461     16.8361    145.6230
  1140.5000      8.1102      2.4346      0.2354     13.0523     17.1760    138.5432
  1140.6000      8.1102      2.4285      0.1760     13.4244     17.4900    133.5520
  1140.7000      8.1102      2.4507      0.1634     12.0761     17.9482    133.1350
  1140.8000      8.1088      2.5110      0.2727      8.4242     18.7887    133.8915
  1140.9000      8.1088      2.5705      0.2691      4.8202     19.7871    133.1602
  1141.0000      8.1090      2.5973      0.2311      3.1936     20.4341    132.3123
  1141.1000      8.1090      2.5992      0.1647      3.0816     20.9251    133.1269
  1141.2000      8.1090      2.6011      0.0928      2.9621     21.8793    136.2697
  1141.3000      8.1117      2.6082      0.1362      2.5314     23.4019    139.0735
  1141.4000      8.1117      2.6113      0.1081      2.3445     24.9465    138.3739
  1141.5000      8.1142      2.6163      0.1014      2.0408     25.7903    133.9044
  1141.6000      8.1142      2.6217      0.1372      1.7155     26.0670    128.7450
  1141.7000      8.1142      2.6023      0.1358      2.8939     26.4032    125.3990
  1141.8000      8.1145      2.5582      0.0435      5.5641     26.7291    122.7154
  1141.9000      8.1145      2.5293      0.0070      7.3126     26.6556    122.5519
  1142.0000      8.1127      2.5259      0.0889      7.5230     26.2405    128.7879
  1142.1000      8.1127      2.5182      0.0547      7.9902     25.7636    138.1278
  1142.2000      8.1127      2.5014      0.0318      9.0042     25.3811    143.7365
  1142.3000      8.1099      2.4939      0.0626      9.4634     24.8979    144.2437
  1142.4000      8.1099      2.5058      0.0583      8.7381     24.1363    141.0032
  1142.5000      8.1034      2.5548      0.0326      5.7690     23.4854    135.3449
