~Version Information
VERS.                      2.0: CWLS Log ASCII Standard - VERSION 2.0
WRAP.                       NO: One line per depth step
~Well Information Block
STRT.FT                 3.5000: 
STOP.FT              1971.5000: 
STEP.FT                 0.2500: 
NULL.                -999.2500: 
COMP.          Evergreen Operating Corporation: COMPANY
WELL.          McCullough 34-32 Tr: WELL
FLD.           Purgatorie River: FIELD
LOC.           394' FSL & 2077' FEL: LOCATION
PROV.                 Colorado: PROVINCE
CNTY.               Las Animas: COUNTRY
SRVC.                         : SERVICE COMPANY
DATE.          Fri Sep 24 11:00:22 2004: LOG DATE
UWI.           05 071 08157 00: UNIQUE WELL ID
~Curve Information Block
DEPT.FT            0 000 00 00: Depth
GR.GAPI                       : Gamma Ray
CCL.                          : Casing Collar Locator
TT3.usec                      : CBL 3' Travel Time
AMP3.mV                       : CBL 3' Amplitude
~Parameter Information Block
~A  Depth        GR         CCL         TT3         AMP3    
# ...
  1678.5000    114.0134      0.0000    593.4191      6.7953
  1678.7500    108.6172      0.0000    547.3654      6.8929
  1679.0000    102.2928      0.0000    513.1776      6.9231
  1679.2500     97.2518      0.0000    496.2871      6.8774
  1679.5000     95.0733      0.0000    493.9272      6.7871
  1679.7500     95.7813      0.0000    498.4434      6.7010
  1680.0000     97.8859      0.0000    502.5870      6.6532
  1680.2500     99.5349      0.0000    502.6749      6.6498
  1680.5000    100.0038      0.0000    498.4297      6.6750
  1680.7500    100.1795      0.0000    491.1387      6.7037
  1681.0000    101.6585      0.0000    482.6761      6.7176
  1681.2500    105.5014      0.0000    476.0851      6.7172
  1681.5000    111.5804      0.0000    476.3286      6.7221
  1681.7500    118.6137      0.0000    489.6185      6.7536
  1682.0000    124.7325      0.0000    520.7902      6.8047
  1682.2500    128.4500      0.0000    569.3996      6.8245
  1682.5000    129.4352      0.0000    627.3427      6.7525
  1682.7500    128.3013      0.0000    681.2650      6.5845
  1683.0000    125.6810      0.0000    718.7537      6.3911
  1683.2500    121.9068      0.0000    732.7502      6.2566
  1683.5000    117.7911      0.0000    721.6613      6.2127
  1683.7500    114.9901      0.0000    689.0045      6.2360
  1684.0000    114.8432      0.0000    645.5858      6.2869
  1684.2500    117.1681      0.0000    609.6786      6.3312
  1684.5000    120.7405      0.0000    599.3442      6.3412
  1684.7500    124.6130      0.0000    620.5228      6.3041
  1685.0000    128.5957      0.0000    662.5035      6.2327
  1685.2500    132.8019      0.0000    706.1452      6.1565
  1685.5000    137.2508      0.0000    736.6298      6.1039
  1685.7500    141.8432      0.0000    748.9039      6.0944
  1686.0000    146.1540      0.0000    744.8098      6.1336
  1686.2500    149.1303      0.0000    729.9398      6.2093
  1686.5000    149.5219      0.0000    713.5760      6.2940
  1686.7500    146.9697      0.0000    706.3553      6.3607
  1687.0000    142.4659      0.0000    713.0027      6.3963
  1687.2500    137.5785      0.0000    727.6795      6.3972
  1687.5000    133.5006      0.0000    738.1775      6.3605
  1687.7500    131.0334      0.0000    733.9567      6.2914
  1688.0000    131.0104      0.0000    710.7457      6.2220
  1688.2500    133.9213      0.0000    671.2209      6.2036
  1688.5000    138.8424      0.0000    623.5529      6.2640
  1688.7500    143.2592      0.0000    578.3837      6.3794
  1689.0000    144.6619      0.0000    546.3442      6.4986
  1689.2500    142.4059      0.0000    536.7469      6.5900
  1689.5000    137.7315      0.0000    554.1451      6.6573
  1689.7500    132.1984      0.0000    592.3009      6.7160
  1690.0000    126.7035      0.0000    632.5339      6.7636
  1690.2500    121.9810      0.0000    652.2739      6.7833
  1690.5000    119.3292      0.0000    639.2912      6.7751
  1690.7500    120.2606      0.0000    599.6464      6.7681
  1691.0000    125.1587      0.0000    552.3699      6.7885
  1691.2500    132.1370      0.0000    516.3004      6.8205
  1691.5000    137.4842      0.0000    500.7779      6.8127
  1691.7500    137.8705      0.0000    505.8423      6.7249
  1692.0000    132.5685      0.0000    526.7162      6.5633
  1692.2500    123.7532      0.0000    556.1618      6.3755
  1692.5000    115.0521      0.0000    585.7668      6.2197
  1692.7500    109.8772      0.0000    609.6018      6.1312
  1693.0000    110.3569      0.0000    627.1996      6.1062
  1693.2500    116.7604      0.0000    641.0615      6.1185
  1693.5000    127.3076      0.0000    651.5619      6.1532
  1693.7500    138.5999      0.0000    656.0342      6.2193
  1694.0000    147.1085      0.0000    652.8520      6.3275
  1694.2500    151.2790      0.0000    645.3425      6.4653
  1694.5000    152.4321      0.0000    640.6268      6.6046
  1694.7500    153.2012      0.0000    643.6987      6.7272
  1695.0000    155.0086      0.0000    653.1319      6.8261
  1695.2500    157.2022      0.0000    663.4456      6.8866
  1695.5000    158.3583      0.0000    670.6005      6.8929
  1695.7500    157.9108      0.0000    674.1880      6.8534
  1696.0000    156.2274      0.0000    675.7067      6.7940
  1696.2500    153.5205      0.0000    676.4946      6.7273
  1696.5000    149.5852      0.0000    677.1867      6.6481
  1696.7500    144.8111      0.0000    678.1516      6.5644
  1697.0000    140.6841      0.0000    679.9837      6.5092
  1697.2500    138.7704      0.0000    683.5490      6.5074
  1697.5000    139.4218      0.0000    689.2956      6.5346
  1697.7500    141.5209      0.0000    696.5391      6.5280
  1698.0000    143.2829      0.0000    703.9235      6.4482
  1698.2500    143.4723      0.0000    710.6897      6.3192
  1698.5000    142.2435      0.0000    716.5496      6.2027
  1698.7500    140.8537      0.0000    720.3380      6.1409
  1699.0000    140.6370      0.0000    720.4388      6.1309
  1699.2500    142.3223      0.0000    716.8436      6.1413
  1699.5000    145.9162      0.0000    711.1547      6.1485
  1699.7500    150.6987      0.0000    704.5870      6.1581
  1700.0000    155.4217      0.0000    697.7005      6.1932
  1700.2500    158.9226      0.0000    692.0330      6.2655
  1700.5000    160.4861      0.0000    690.2545      6.3602
  1700.7500    159.6276      0.0000    694.2334      6.4457
  1701.0000    156.0320      0.0000    703.6048      6.4964
  1701.2500    150.1633      0.0000    716.3146      6.5100
  1701.5000    143.6794      0.0000    730.0629      6.5063
  1701.7500    138.6545      0.0000    742.8878      6.5056
  1702.0000    136.2807      0.0000    752.8267      6.5115
  1702.2500    136.6319      0.0000    757.8178      6.5148
  1702.5000    139.4965      0.0000    756.1451      6.5095
  1702.7500    144.6651      0.0000    747.0929      6.5008
  1703.0000    151.3653      0.0000    731.8304      6.4972
  1703.2500    158.1492      0.0000    713.8592      6.4971
  1703.5000    163.6100      0.0000    697.6973      6.4792
  1703.7500    166.9928      0.0000    686.3810      6.4141
  1704.0000    168.3461      0.0000    680.1870      6.2941
  1704.2500    168.4977      0.0000    677.5536      6.1513
  1704.5000    168.7269      0.0000    676.7090      6.0375
  1704.7500    169.9892      0.0000    676.5380      5.9860
  1705.0000    172.2759      0.0000    676.5791      5.9962
  1705.2500    174.7012      0.0000    676.7187      6.0440
  1705.5000    176.0887      0.0000    676.9417      6.0977
  1705.7500    175.6227      0.0000    677.2135      6.1288
  1706.0000    173.3564      0.0000    677.4766      6.1198
  1706.2500    170.2460      0.0000    677.7088      6.0636
  1706.5000    167.4479      0.0000    678.0579      5.9537
  1706.7500    165.4195      0.0000    679.0297      5.7801
  1707.0000    163.8807      0.0000    681.5435      5.5546
  1707.2500    162.6621      0.0000    686.4221      5.3466
  1707.5000    162.0508      0.0000    693.2928      5.2638
  1707.7500    161.8893      0.0000    700.1263      5.3605
  1708.0000    160.7023      0.0000    704.6546      5.5791
  1708.2500    156.5181      0.0000    706.2363      5.8096
  1708.5000    148.8822      0.0000    705.4991      5.9852
  1708.7500    139.7614      0.0000    702.8315      6.0980
  1709.0000    132.1861      0.0000    698.9331      6.1647
  1709.2500    128.0350      0.0000    695.9519      6.2091
  1709.5000    127.1570      0.0000    695.5032      6.2568
  1709.7500    128.1476      0.0000    696.0483      6.3277
  1710.0000    129.5555      0.0000    694.7510      6.4433
  1710.2500    130.7118      0.0000    691.8104      6.6218
  1710.5000    132.1343      0.0000    690.9846      6.8309
  1710.7500    135.2074      0.0000    695.4660      6.9681
  1711.0000    141.0493      0.0000    703.9654      6.9438
  1711.2500    149.2197      0.0000    711.1321      6.7724
  1711.5000    157.3844      0.0000    712.2115      6.5461
  1711.7500    162.6853      0.0000    707.7525      6.3479
