~Version Information
 VERS.                                  2.0 : CWLS LAS VERSION
 WRAP.                                   NO : WRAPING MODE
 SWARE .                 MController 2.5.0J : SOFTWARE VERSION
~Well Information
 WELL.                         Schedler9-23R: WELL
 COMP.                             Petrogulf: COMPANY
 FLD.                      Purgatoire River : FIELD
 LOC.                 NE/SW Sec.9 T33s R67w : LOCATION
 DATE.                              10/31/04: DATE(S) LOGGED
 SRVC.                    Blanco Geological : SERVICE COMPANY
 STAT.                                   CO : STATE
 CNTY.                           Las Animas : COUNTY
 CTRY.                                  USA: COUNTRY
 API.                           05-071-08040: API NUMBER
 STRT.FT                             713.00 : START DEPTH
 STOP.FT                            2080.00 : STOP DEPTH
 STEP.FT                               1.00 : DEPTH INCREMENT
 NULL.                                -9999 : NULL VALUE
~Curve information
 DEPTH.FT                                   :
 ROP.MIN/FT                                 :
 GAS.UNITS                                  :
~ASCII Log data
       713.0     -9999.00          6.8 
       714.0         0.10          6.8 
       715.0         0.30          6.6 
       716.0         0.10          6.6 
       717.0         0.10          5.6 
       718.0         0.10          5.6 
       719.0         0.10          5.6 
       720.0         0.20          6.1 
       721.0         0.10          6.1 
       722.0         0.10          6.1 
       723.0         0.10          6.3 
       724.0         2.08          7.2 
       725.0         0.13          7.1 
       726.0         0.13          6.6 
       727.0         0.13          6.6 
       728.0         0.43          6.8 
       729.0         0.32          6.5 
       730.0         0.10          6.1 
       731.0         0.40          6.8 
       732.0         0.10          6.8 
       733.0         7.00         11.0 
       734.0         1.53         11.3 
       735.0         0.10         10.4 
       736.0         0.37         10.5 
       737.0         1.42         10.9 
       738.0         0.70          9.6 
       739.0         0.53          6.9 
       740.0         1.12          6.5 
       741.0         0.43          5.4 
       742.0         1.73          5.7 
       743.0         6.23         10.8 
       744.0         0.50         10.3 
       745.0         5.90         11.4 
       746.0         3.18         11.8 
       747.0         0.53         11.2 
       748.0         0.10         11.4 
       749.0         0.37         10.9 
       750.0         0.20         10.6 
       751.0         0.37          9.8 
       752.0         0.37         11.1 
       753.0         0.22         10.8 
       754.0         0.10          9.9 
       755.0         0.10          9.9 
       756.0         0.10          9.9 
       757.0         0.80         10.5 
       758.0         0.93         13.8 
       759.0         0.20         16.9 
       760.0         0.47         13.3 
       761.0         0.47         17.6 
       762.0         0.22          0.6 
       763.0         0.27          6.9 
       764.0         0.27         10.0 
       765.0         0.73         10.6 
       766.0         0.27         11.1 
       767.0         0.47         11.4 
       768.0         0.17         11.4 
       769.0         0.13         11.4 
       770.0         0.33         11.2 
       771.0         0.10         10.8 
       772.0         0.10         11.2 
       773.0         0.23         11.9 
       774.0         1.15         12.1 
       775.0         0.83         11.8 
       776.0         0.13         11.8 
       777.0         0.13         12.0 
       778.0         0.13         11.4 
       779.0         0.13         11.4 
       780.0         0.17         10.7 
       781.0         0.13         11.5 
       782.0         0.10         11.1 
       783.0         0.13         11.1 
       784.0         0.10         31.0 
       785.0         0.17         15.1 
       786.0         0.28         17.2 
       787.0         0.23         21.6 
       788.0         0.20         22.0 
       789.0         0.20         21.5 
       790.0         0.20         21.5 
       791.0         0.17         24.3 
       792.0         0.17         17.1 
       793.0         0.17         17.1 
       794.0         0.20          3.9 
       795.0         0.17         14.0 
       796.0         0.17         14.0 
       797.0         0.17         11.3 
       798.0         0.20          4.4 
       799.0         0.17          4.4 
       800.0         0.23         12.5 
       801.0         0.17         12.1 
       802.0         0.20         12.1 
       803.0         3.38         12.5 
       804.0         0.13         12.1 
       805.0         0.85         11.9 
       806.0         0.23         12.1 
       807.0         1.30         12.1 
       808.0         0.23         12.3 
       809.0         0.23         12.3 
       810.0         0.20         12.4 
       811.0         0.20         11.7 
       812.0         0.20         11.9 
       813.0         0.18         11.5 
       814.0         0.17         11.6 
       815.0         0.17         11.8 
       816.0         0.17         11.3 
       817.0         0.17         11.0 
       818.0         0.17         11.1 
       819.0         0.17          6.3 
       820.0         0.17         11.3 
       821.0         0.13         11.1 
       822.0         0.17         11.6 
       823.0         0.17         12.0 
       824.0         0.13         12.0 
       825.0         0.13         11.8 
       826.0         0.17         11.8 
       827.0         0.17         11.3 
       828.0         0.17         11.5 
       829.0         0.17         11.5 
       830.0         0.17         12.1 
       831.0         0.17         11.4 
       832.0         0.17         11.4 
       833.0         0.15         12.0 
       834.0         0.17         11.3 
       835.0         0.13         11.3 
       836.0         0.23         11.7 
       837.0         0.23         11.8 
       838.0         1.23         11.4 
       839.0         0.53         10.4 
       840.0         0.23          9.3 
       841.0         0.23          9.3 
       842.0         0.13          9.3 
       843.0         0.22          9.7 
       844.0         0.17          9.9 
       845.0         0.17          9.9 
       846.0         0.17         10.1 
       847.0         0.17          9.8 
       848.0         0.13          9.8 
       849.0         0.17          8.9 
       850.0         0.13          8.9 
       851.0         0.17          9.2 
       852.0         0.13          9.2 
       853.0         0.13          9.9 
       854.0         0.17          9.9 
       855.0         6.00         28.2 
       856.0         0.27          8.3 
       857.0         0.27          7.9 
       858.0         0.27          7.9 
       859.0         0.27          9.0 
       860.0         0.27          6.9 
       861.0         0.33          7.2 
       862.0         0.27          7.2 
       863.0         0.20          7.4 
       864.0         0.22          7.8 
       865.0         0.30          7.9 
       866.0         0.90          7.8 
       867.0         0.40          7.6 
       868.0         0.33          7.2 
       869.0         0.17          7.5 
       870.0         0.10          7.5 
       871.0         0.17          7.8 
       872.0         0.23          7.9 
       873.0         0.20          8.6 
       874.0         0.23          7.8 
       875.0         0.17          7.5 
       876.0         0.13          7.6 
       877.0         0.13          7.6 
       878.0         0.15          7.2 
       879.0         0.27          5.3 
       880.0         0.13          4.5 
       881.0         0.27          3.7 
       882.0         0.17          3.7 
       883.0         0.27         39.9 
       884.0         0.13         13.0 
       885.0         0.17         12.7 
       886.0         0.23         11.6 
       887.0         0.27         11.2 
       888.0         0.20         11.6 
       889.0         0.17         13.3 
       890.0         0.17         16.2 
       891.0         0.17         20.0 
       892.0         0.20         22.6 
       893.0         0.20         25.3 
       894.0         0.23         27.4 
       895.0         0.25         28.9 
       896.0         0.30         28.0 
       897.0         0.27         26.6 
       898.0         0.27         22.8 
       899.0         0.27         23.5 
       900.0         0.17         20.2 
       901.0         0.17         20.5 
       902.0         0.17         19.0 
       903.0         0.18         18.5 
       904.0         0.13         18.9 
       905.0         0.20         19.4 
       906.0         0.17         20.8 
       907.0         0.13         20.8 
       908.0         0.30         21.0 
       909.0         0.17         21.6 
       910.0         0.20         19.4 
       911.0         0.20         19.4 
       912.0         0.13         18.5 
