~Version Information
 VERS.                                  2.0 : CWLS LAS VERSION
 WRAP.                                   NO : WRAPING MODE
 SWARE .                 MController 2.5.0J : SOFTWARE VERSION
~Well Information
 WELL.                         Sebring42-29 : WELL
 COMP.    Pioneer Natural Resources USA Inc : COMPANY
 FLD.                      Purgatoire River : FIELD
 LOC.                SE/NE Sec 29 T32S R67W : LOCATION
 DATE.                             08/12/05 : DATE(S) LOGGED
 SRVC.       BLANCO Geological Services LLC : SERVICE COMPANY
 STAT.                                   CO : STATE
 CNTY.                           Las Animas : COUNTY
 CTRY.                                  USA : COUNTRY
 API.                       05-071-08293-00 : API NUMBER
 STRT.FT                             750.00 : START DEPTH
 STOP.FT                            2880.00 : STOP DEPTH
 STEP.FT                               1.00 : DEPTH INCREMENT
 NULL.                                -9999 : NULL VALUE
~Curve information
 DEPTH.FT                                   :
 ROP.MIN/FT                                 :
 GAS.UNITS                                  :
~ASCII Log data
# ...
      2150.0         0.50         43.1 
      2151.0         0.47         46.6 
      2152.0         0.47         46.5 
      2153.0         0.43         43.0 
      2154.0         0.47         43.1 
      2155.0         0.45         46.7 
      2156.0         0.70         50.0 
      2157.0         0.70         48.7 
      2158.0         0.53         42.0 
      2159.0         0.33         48.0 
      2160.0         0.20         55.0 
      2161.0         4.70        310.9 
      2162.0         2.18        303.1 
      2163.0         1.10        184.2 
      2164.0         0.27        175.9 
      2165.0         0.52        171.5 
      2166.0         0.43        168.4 
      2167.0         0.62        171.5 
      2168.0         0.80        228.2 
      2169.0         0.63        253.6 
      2170.0         0.47        206.1 
      2171.0         0.33         90.3 
      2172.0         0.33         45.8 
      2173.0         0.35         26.5 
      2174.0         0.30         18.5 
      2175.0         0.30         16.2 
      2176.0         0.33         15.4 
      2177.0         0.30         15.1 
      2178.0         0.37         15.3 
      2179.0         0.47         16.9 
      2180.0         0.60         20.4 
      2181.0         0.53         23.2 
      2182.0         0.38         24.1 
      2183.0         0.30         26.8 
      2184.0         0.30         34.2 
      2185.0         0.27         46.4 
      2186.0         0.27         61.1 
      2187.0         0.27         73.8 
      2188.0         0.27         84.6 
      2189.0         0.23         93.7 
      2190.0         0.53        109.1 
      2191.0         8.92        229.2 
      2192.0         2.02        241.7 
      2193.0         1.17        237.7 
      2194.0         0.53        237.9 
      2195.0         0.37        236.8 
      2196.0         0.40        233.5 
      2197.0         0.33        230.7 
      2198.0         0.28        231.3 
      2199.0         0.33        235.8 
      2200.0         0.30        240.7 
      2201.0         0.30        244.1 
      2202.0         0.30        246.6 
      2203.0         0.30        247.6 
      2204.0         0.33        245.6 
      2205.0         0.40        241.9 
      2206.0         0.47        235.6 
      2207.0         0.43        221.1 
      2208.0         0.52        130.7 
      2209.0         0.47         51.2 
      2210.0         0.50         26.8 
      2211.0         0.57         19.2 
      2212.0         0.60         16.6 
      2213.0         0.60         15.5 
      2214.0         0.82         20.6 
      2215.0         0.63         24.5 
      2216.0         0.47         26.3 
      2217.0         0.37         27.2 
      2218.0         0.43         27.9 
      2219.0         0.43         28.6 
      2220.0         0.58         30.1 
      2221.0         3.98        136.0 
      2222.0         4.75        289.9 
      2223.0         0.23        112.0 
      2224.0         0.67        137.8 
      2225.0         0.62        158.9 
      2226.0         0.67        162.5 
      2227.0         0.83        170.2 
      2228.0         0.23        169.2 
      2229.0         0.23        151.9 
      2230.0         0.30        109.3 
      2231.0         0.37         60.4 
      2232.0         0.32         32.1 
      2233.0         0.33         22.1 
      2234.0         0.30         17.8 
      2235.0         0.27         16.3 
      2236.0         0.30         15.6 
      2237.0         0.33         15.7 
      2238.0         0.57         16.0 
      2239.0         0.60         17.5 
      2240.0         0.30         19.4 
      2241.0         0.48         23.4 
      2242.0         0.53         26.3 
      2243.0         0.53         35.5 
      2244.0         0.50         40.1 
      2245.0         0.53         40.2 
      2246.0         0.40         42.0 
      2247.0         0.30         44.6 
      2248.0         0.32         44.7 
      2249.0         0.30         40.8 
      2250.0         0.27         35.9 
      2251.0         9.07       1148.7 
      2252.0         0.65         72.3 
      2253.0         0.40         81.9 
      2254.0         0.40         90.3 
      2255.0         0.30         97.2 
      2256.0         0.30        100.5 
      2257.0         0.40         97.8 
      2258.0         0.40         69.5 
      2259.0         0.43         40.4 
      2260.0         0.65         31.5 
      2261.0         0.63         34.2 
      2262.0         0.67         34.0 
      2263.0         0.73         25.1 
      2264.0         0.60         17.5 
      2265.0         0.48         16.2 
      2266.0         0.37         17.3 
      2267.0         0.40         26.5 
      2268.0         0.43         40.5 
      2269.0         0.47         52.8 
      2270.0         0.43         61.2 
      2271.0         0.47         76.4 
      2272.0         0.43         87.0 
      2273.0         0.62         86.1 
      2274.0         0.43         58.4 
      2275.0         0.40         47.0 
      2276.0         0.83         42.8 
      2277.0         0.60         31.9 
      2278.0         0.57         25.1 
      2279.0         0.52         22.0 
      2280.0         0.07         19.8 
      2281.0         9.43        226.3 
      2282.0         5.00        239.4 
      2283.0         0.43        167.9 
      2284.0         0.47        176.5 
      2285.0         0.53        180.6 
      2286.0         0.72        178.7 
      2287.0         0.57        157.8 
      2288.0         0.50        148.9 
      2289.0         0.40        149.0 
      2290.0         0.40        131.5 
      2291.0         0.43         76.1 
      2292.0         0.43         35.2 
      2293.0         0.48         20.5 
      2294.0         0.47         20.2 
      2295.0         0.47         25.8 
      2296.0         0.50         28.7 
      2297.0         0.60         33.5 
      2298.0         0.70         35.4 
      2299.0         0.58         31.1 
      2300.0         0.37         19.9 
      2301.0         0.33         16.4 
      2302.0         0.30         16.3 
      2303.0         0.27         23.6 
      2304.0         0.37         39.2 
      2305.0         0.23         50.9 
      2306.0         0.30         68.1 
      2307.0         0.47         91.2 
      2308.0         0.40        104.2 
      2309.0         0.45        112.6 
      2310.0         0.47        121.0 
      2311.0         2.88        152.9 
      2312.0         4.78        104.1 
      2313.0         0.43         29.6 
      2314.0         0.50         45.1 
      2315.0         0.57         59.2 
      2316.0         0.52         63.4 
      2317.0         0.43         65.8 
      2318.0         0.53         65.7 
      2319.0         0.53         46.5 
      2320.0         0.40         27.2 
      2321.0         0.27         25.4 
      2322.0         0.30         25.9 
      2323.0         0.33         23.9 
      2324.0         0.32         25.2 
      2325.0         0.37         32.3 
      2326.0         0.33         40.4 
      2327.0         0.47         52.9 
      2328.0         0.37         65.9 
      2329.0         0.40         78.2 
      2330.0         0.33         79.5 
      2331.0         0.33         78.2 
      2332.0         0.33         74.5 
      2333.0         0.38         60.8 
      2334.0         0.33         40.0 
      2335.0         0.30         27.4 
      2336.0         0.30         21.3 
      2337.0         0.37         20.0 
      2338.0         0.40         23.0 
      2339.0         0.40         30.0 
      2340.0         0.30         35.0 
      2341.0         3.35         61.8 
      2342.0         5.13        242.8 
      2343.0         2.48        234.5 
      2344.0         0.83        175.7 
      2345.0         0.30        177.1 
      2346.0         0.50        180.6 
      2347.0         0.40        184.6 
      2348.0         0.30        188.7 
      2349.0         0.27        191.4 
