~Version Information
VERS.                      2.0: CWLS Log ASCII Standard - VERSION 2.0
WRAP.                       NO: One line per depth step
~Well Information Block
STRT.FT               250.0000: 
STOP.FT              1573.7500: 
STEP.FT                 0.2500: 
NULL.                -999.2500: 
COMP.          Pioneer Natural Resources: COMPANY
WELL.          Big Cat Federal 44-1: WELL
FLD.           Purgatoire River: FIELD
LOC.           197' FSL & 973' FEL--: LOCATION
CNTY.               Las Animas: COUNTY
SRVC.                Patterson: SERVICE COMPANY
DATE.          Sun Apr 23 14:54:11 2006: LOG DATE
UWI.           05 071 08042 00: UNIQUE WELL ID
STAT.                 Colorado: STATE
~Curve Information Block
DEPT.FT            0 000 00 00: Depth
DIR.Ohm-m                     : IEL Induction Resistivity
GR.GAPI                       : Gamma Ray
~Parameter Information Block
~A  Depth       DIR          GR     
# ...
   584.5000      0.6673    130.9648
   584.7500      1.4859    131.8524
   585.0000      3.0013    133.9762
   585.2500      4.0785    135.3681
   585.5000      3.5076    136.0320
   585.7500      2.6917    134.8640
   586.0000      2.2696    130.5280
   586.2500      2.2244    126.6012
   586.5000      2.5900    121.1910
   586.7500      3.7415    118.8431
   587.0000      7.9219    117.3765
   587.2500 100000.0000    117.2593
   587.5000 100000.0000    117.7497
   587.7500 100000.0000    118.5716
   588.0000 100000.0000    120.5813
   588.2500 100000.0000    121.9855
   588.5000 100000.0000    122.9831
   588.7500 100000.0000    122.5603
   589.0000 100000.0000    120.7487
   589.2500 100000.0000    119.2812
   589.5000 100000.0000    117.1901
   589.7500 100000.0000    115.8843
   590.0000 100000.0000    114.1303
   590.2500 100000.0000    113.3526
   590.5000 100000.0000    113.3284
   590.7500     21.0039    114.2072
   591.0000     11.2513    116.5200
   591.2500      8.6570    118.2161
   591.5000      7.7821    119.9417
   591.7500      7.6186    120.1406
   592.0000      7.8239    119.0967
   592.2500      8.2213    117.9877
   592.5000      8.6853    116.7820
   592.7500      9.1219    116.7323
   593.0000      9.4752    117.9122
   593.2500      9.7316    119.3064
   593.5000      9.9059    121.9022
   593.7500     10.0218    123.8468
   594.0000     10.0989    126.7202
   594.2500     10.1487    128.1277
   594.5000     10.1776    128.5580
   594.7500     10.1907    127.5186
   595.0000     10.1938    124.5007
   595.2500     10.1932    122.1868
   595.5000     10.1949    119.4521
   595.7500     10.2035    118.5226
   596.0000     10.2224    118.4114
   596.2500     10.2528    118.8126
   596.5000     10.2935    119.3517
   596.7500     10.3402    119.3951
   597.0000     10.3862    118.9794
   597.2500     10.4233    118.5548
   597.5000     10.4420    118.1155
   597.7500     10.4330    118.2573
   598.0000     10.3896    119.6821
   598.2500     10.3125    121.5994
   598.5000     10.2138    125.4834
   598.7500     10.1164    128.0814
   599.0000     10.0473    130.7897
   599.2500     10.0306    131.4144
   599.5000     10.0808    130.5337
   599.7500     10.2014    128.9009
   600.0000     10.3844    125.1971
   600.2500     10.6111    122.0157
   600.5000     10.8549    116.3281
   600.7500     11.0838    112.1262
   601.0000     11.2642    106.0433
   601.2500     11.3658    102.9517
   601.5000     11.3672    101.2264
   601.7500     11.2613    102.3305
   602.0000     11.0560    106.2379
   602.2500     10.7678    109.0877
   602.5000     10.4138    112.1990
   602.7500     10.0083    113.4358
   603.0000      9.5669    114.7384
   603.2500      9.1129    115.5244
   603.5000      8.6785    116.3887
   603.7500      8.3006    116.4935
   604.0000      8.0138    116.1125
   604.2500      7.8459    116.1191
   604.5000      7.8172    117.4980
   604.7500      7.9424    119.0206
   605.0000      8.2312    119.8426
   605.2500      8.6895    117.7488
   605.5000      9.3177    109.2383
   605.7500     10.1085    100.5016
   606.0000     11.0455     85.5529
   606.2500     12.1016     76.4052
   606.5000     13.2382     66.8300
   606.7500     14.4050     64.1148
   607.0000     15.5421     65.7952
   607.2500     16.5890     70.4790
   607.5000     17.4980     81.9484
   607.7500     18.2449     91.6363
   608.0000     18.8299    106.8272
   608.2500     19.2711    115.7116
   608.5000     19.5986    124.3864
   608.7500     19.8557    125.8217
   609.0000     20.1040    120.8442
   609.2500     20.4266    113.7081
   609.5000     20.9234    100.6725
   609.7500     21.7001     92.5908
   610.0000     22.8489     83.8651
   610.2500     24.4243     80.7860
   610.5000     26.4095     79.8452
   610.7500     28.6800     81.0412
   611.0000     30.9863     84.2610
   611.2500     32.9928     86.5998
   611.5000     34.3953     89.3670
   611.7500     35.0641     90.3662
   612.0000     35.0978     90.4663
   612.2500     34.7374     89.7520
   612.5000     34.2251     87.8512
   612.7500     33.7181     86.1178
   613.0000     33.2822     82.9902
   613.2500     32.9246     80.8643
   613.5000     32.6275     78.1133
   613.7500     32.3622     76.4736
   614.0000     32.0837     73.8438
   614.2500     31.7193     72.0943
   614.5000     31.1739     70.4992
   614.7500     30.3608     70.7575
   615.0000     29.2379     73.6737
   615.2500     27.8180     77.2554
   615.5000     26.1535     84.3098
   615.7500     24.3219     89.3235
   616.0000     22.4246     95.9652
   616.2500     20.5786     99.5558
   616.5000     18.8898    104.3381
   616.7500     17.4227    107.6750
   617.0000     16.1880    113.1383
   617.2500     15.1527    116.7143
   617.5000     14.2636    121.0141
   617.7500     13.4701    122.7365
   618.0000     12.7393    123.4219
   618.2500     12.0589    122.9255
   618.5000     11.4319    121.8370
   618.7500     10.8680    121.5149
   619.0000     10.3767    122.1105
   619.2500      9.9627    123.0885
   619.5000      9.6246    124.8975
   619.7500      9.3550    126.1450
   620.0000      9.1420    128.0680
   620.2500      8.9714    129.3215
   620.5000      8.8292    130.5895
   620.7500      8.7047    130.6158
   621.0000      8.5923    129.4010
   621.2500      8.4917    128.3374
   621.5000      8.4053    127.7330
   621.7500      8.3354    128.3887
   622.0000      8.2832    130.5487
   622.2500      8.2474    132.2775
   622.5000      8.2242    134.8149
   622.7500      8.2082    136.3687
   623.0000      8.1942    138.1771
   623.2500      8.1812    138.7688
   623.5000      8.1736    138.5929
   623.7500      8.1820    137.9851
   624.0000      8.2199    136.9857
   624.2500      8.3001    136.6066
   624.5000      8.4309    136.8151
   624.7500      8.6142    137.4648
   625.0000      8.8457    138.7092
   625.2500      9.1193    139.1925
   625.5000      9.4319    138.5764
   625.7500      9.7858    137.2105
   626.0000     10.1893    134.5669
   626.2500     10.6542    133.0660
   626.5000     11.1944    131.5187
   626.7500     11.8261    130.4645
   627.0000     12.5670    127.5524
   627.2500     13.4351    124.1558
   627.5000     14.4480    116.3719
   627.7500     15.6245    109.2732
   628.0000     16.9879     96.2137
   628.2500     18.5679     86.8461
   628.5000     20.3956     74.2560
   628.7500     22.4873     68.0592
   629.0000     24.8185     62.8363
   629.2500     27.2975     61.7694
   629.5000     29.7565     62.5754
   629.7500     31.9771     63.9390
   630.0000     33.7525     66.3337
   630.2500     34.9644     68.0294
   630.5000     35.6293     70.7990
   630.7500     35.8860     72.7231
   631.0000     35.9351     75.2645
   631.2500     35.9661     76.4574
   631.5000     36.0998     77.2976
   631.7500     36.3495     77.2123
   632.0000     36.6041     76.1350
   632.2500     36.6439     74.9396
   632.5000     36.2161     73.2172
   632.7500     35.1606     72.8042
   633.0000     33.5142     74.3663
   633.2500     31.5041     77.1966
   633.5000     29.4342     84.0037
   633.7500     27.5563     89.7532
   634.0000     26.0060     98.7355
   634.2500     24.8088    103.9706
   634.5000     23.9234    109.2995
   634.7500     23.2907    110.7451
   635.0000     22.8731    109.6656
   635.2500     22.6734    106.9468
   635.5000     22.7323    100.3652
   635.7500     23.1128     94.7846
   636.0000     23.8830     85.7566
   636.2500     25.1045     79.9243
   636.5000     26.8236     72.1582
   636.7500     29.0587     67.9324
   637.0000     31.7716     63.5312
   637.2500     34.8173     62.0864
   637.5000     37.8856     62.1269
   637.7500     40.4920     63.3731
   638.0000     42.0904     66.1824
   638.2500     42.3020     68.0274
   638.5000     41.1098     70.2673
   638.7500     38.8580     71.8427
   639.0000     36.0686     75.6992
   639.2500     33.2293     79.7187
   639.5000     30.6704     87.5742
   639.7500     28.5448     93.4127
   640.0000     26.8686    101.7096
