~Version Information
VERS.                      2.0: CWLS Log ASCII Standard - VERSION 2.0
WRAP.                       NO: One line per depth step
~Well Information Block
STRT.FT               765.4000: 
STOP.FT              2581.2000: 
STEP.FT                 0.1000: 
NULL.                -999.2500: 
COMP.          Petrogulf Corporation: COMPANY
WELL.            Montoya 7-12V: WELL
FLD.           Purgatorie River: FIELD
LOC.           728' FWL & 1764' FNL: LOCATION
CNTY.               Las Animas: COUNTY
SRVC.                         : SERVICE COMPANY
DATE.          Fri Feb 20 09:23:58 2004: LOG DATE
UWI.           05-071-07887-00: UNIQUE WELL ID
STAT.                 Colorado: STATE
~Curve Information Block
DEPT.FT            0 000 00 00: Depth
DCAL.in                       : CDL Caliper
RHOB.g/cc                     : CDL Bulk Density
RHOC.g/cc                     : CDL Density Correction
DPOR.pu                       : CDL Density Porosity
GR.GAPI                       : Gamma Ray
NPOR.pu                       : Neutron Porosity
~Parameter Information Block
~A  Depth       DCAL        RHOB        RHOC        DPOR         GR         NPOR    
# ...
  1015.0000      8.0456      2.6244     -0.0022      1.5530     52.4366      5.2922
  1015.1000      8.0456      2.6044     -0.0052      2.7622     50.6062      5.4445
  1015.2000      8.0456      2.5919      0.0027      3.5197     49.8668      5.2001
  1015.3000      8.0598      2.5874     -0.0069      3.7928     49.3646      5.3774
  1015.4000      8.0598      2.5951      0.0354      3.3298     44.8392      6.3366
  1015.5000      8.1195      2.6064      0.0174      2.6420     38.8022      7.7649
  1015.6000      8.1195      2.6136      0.0280      2.2048     38.4637      9.3067
  1015.7000      8.1195      2.6189      0.0709      1.8874     44.1932     10.5805
  1015.8000      8.1186      2.6315      0.0116      1.1190     47.5364     11.5103
  1015.9000      8.1186      2.6524      0.0962     -0.1442     45.1574     12.6933
  1016.0000      8.1071      2.6624      0.1322     -0.7505     43.1805     14.5374
  1016.1000      8.1071      2.6565      0.0997     -0.3921     46.6538     16.7778
  1016.2000      8.1071      2.6580      0.1132     -0.4822     56.9630     18.8966
  1016.3000      8.1188      2.6701      0.2176     -1.2200     73.6807     21.0415
  1016.4000      8.1188      2.6654      0.2115     -0.9341     87.7035     23.5260
  1016.5000      8.1456      2.6427      0.1255      0.4428     89.7253     25.5401
  1016.6000      8.1456      2.6242      0.1719      1.5617     85.9191     26.6747
  1016.7000      8.1456      2.6135      0.1498      2.2134     85.4708     27.7150
  1016.8000      8.1611      2.6043      0.1826      2.7702     90.8721     29.2826
  1016.9000      8.1611      2.5992      0.1584      3.0798     97.1248     30.8444
  1017.0000      8.1749      2.6062      0.1883      2.6560     95.1683     31.7174
  1017.1000      8.1749      2.6233      0.1897      1.6203     89.7309     32.1615
  1017.2000      8.1749      2.6408      0.2046      0.5560     89.9391     32.2217
  1017.3000      8.2043      2.6580      0.1725     -0.4865     88.3121     31.5139
  1017.4000      8.2043      2.6746      0.1699     -1.4903     79.1852     30.3495
  1017.5000      8.2466      2.6855      0.1861     -2.1505     77.5590     29.4441
  1017.6000      8.2466      2.6841      0.1761     -2.0655     88.0408     29.1777
  1017.7000      8.2466      2.6584      0.2044     -0.5092     91.9008     29.3743
  1017.8000      8.2531      2.6106      0.0987      2.3884     83.3254     29.5602
  1017.9000      8.2531      2.5699      0.0430      4.8520     79.5072     29.5608
  1018.0000      8.2259      2.5599      0.0156      5.4622     87.9844     29.4239
  1018.1000      8.2259      2.5731      0.0343      4.6600     95.1928     29.2737
  1018.2000      8.2259      2.5881      0.0354      3.7498     94.6430     29.4238
  1018.3000      8.2017      2.5968      0.0636      3.2257     95.1219     30.1011
  1018.4000      8.2017      2.6087      0.0956      2.5033     97.5778     30.5712
  1018.5000      8.2073      2.6346      0.1307      0.9328     98.2956     30.3615
  1018.6000      8.2073      2.6716      0.1748     -1.3084    100.3259     30.2074
  1018.7000      8.2073      2.7063      0.2038     -3.4143    101.9228     30.5736
  1018.8000      8.2109      2.7278      0.2584     -4.7170     97.2003     31.2154
  1018.9000      8.2109      2.7386      0.1686     -5.3701     89.7524     31.7422
  1019.0000      8.2166      2.7539      0.0850     -6.2961     87.6501     32.1025
  1019.1000      8.2166      2.7673      0.1675     -7.1080     90.8403     32.3383
  1019.2000      8.2166      2.7558      0.1129     -6.4112     92.1236     32.3839
  1019.3000      8.2648      2.7268      0.1731     -4.6538     85.6056     32.4386
  1019.4000      8.2648      2.6936      0.1335     -2.6448     78.1497     32.5681
  1019.5000      8.2437      2.6530      0.0998     -0.1806     82.3864     32.4929
  1019.6000      8.2437      2.6077      0.0698      2.5612     90.3182     31.9961
  1019.7000      8.2437      2.5703     -0.0031      4.8283     87.8531     31.4462
  1019.8000      8.2424      2.5517      0.0079      5.9556     82.8620     31.2282
  1019.9000      8.2424      2.5618     -0.0212      5.3456     86.2948     30.7994
  1020.0000      8.2539      2.5938      0.0650      3.4033     94.4651     29.7253
  1020.1000      8.2539      2.6142      0.0996      2.1715    100.4296     28.6187
  1020.2000      8.2539      2.6040      0.0586      2.7881     97.6383     28.0729
  1020.3000      8.2930      2.5751      0.0819      4.5381     85.8988     27.8346
  1020.4000      8.2930      2.5498      0.0040      6.0753     77.1855     27.4725
  1020.5000      8.2710      2.5585     -0.0051      5.5438     78.4323     26.8156
  1020.6000      8.2710      2.6053      0.0312      2.7100     82.5400     25.8685
  1020.7000      8.2710      2.6446      0.0973      0.3249     82.8814     24.9252
  1020.8000      8.2735      2.6362      0.0718      0.8388     80.1339     24.0968
  1020.9000      8.2735      2.5987     -0.0293      3.1063     75.1679     23.3955
  1021.0000      8.2799      2.5815     -0.0463      4.1544     67.6493     23.2788
  1021.1000      8.2799      2.6094     -0.1214      2.4623     61.9532     23.8120
  1021.2000      8.2799      2.6531      0.0764     -0.1886     59.4755     24.1223
  1021.3000      8.2833      2.6545      0.0926     -0.2722     61.2197     23.8819
  1021.4000      8.2833      2.6214     -0.0075      1.7338     71.4057     23.8003
  1021.5000      8.2899      2.6148     -0.0402      2.1336     84.1561     24.1827
  1021.6000      8.2899      2.6329      0.0832      1.0383     88.9827     24.8018
  1021.7000      8.2899      2.6253      0.0336      1.4999     87.6142     25.8298
  1021.8000      8.2967      2.5880     -0.0025      3.7561     88.5793     27.3870
  1021.9000      8.2967      2.5553     -0.0646      5.7385     96.6495     28.8685
  1022.0000      8.2953      2.5526     -0.0615      5.9006    103.0701     29.8316
  1022.1000      8.2953      2.5771      0.0222      4.4175     98.4188     30.2967
  1022.2000      8.2953      2.5972      0.0524      3.1977     88.2577     30.3577
  1022.3000      8.2999      2.5828      0.0782      4.0726     77.5181     30.1277
  1022.4000      8.2999      2.5319     -0.0387      7.1552     67.6254     29.8971
  1022.5000      8.3100      2.4698     -0.0009     10.9230     67.1813     29.9731
  1022.6000      8.3100      2.4170     -0.0363     14.1194     75.1126     30.3933
  1022.7000      8.3100      2.3897     -0.0553     15.7748     76.3708     30.9967
  1022.8000      8.3230      2.3912     -0.0118     15.6856     69.4699     31.7447
  1022.9000      8.3230      2.3926     -0.0054     15.5996     66.6437     32.2011
  1023.0000      8.3922      2.3755     -0.0282     16.6354     68.0397     32.0820
  1023.1000      8.3922      2.3596     -0.0271     17.6014     65.6151     32.1014
  1023.2000      8.3922      2.3545      0.0116     17.9068     59.6226     32.5336
  1023.3000      8.4151      2.3428      0.0994     18.6169     58.5164     32.9204
  1023.4000      8.4151      2.3289      0.1479     19.4588     69.3279     33.1916
  1023.5000      8.4357      2.3385      0.2551     18.8783     84.3166     33.4338
  1023.6000      8.4357      2.3628      0.3492     17.4049     90.7217     33.7167
  1023.7000      8.4357      2.3760      0.3332     16.6062     88.9050     34.1894
  1023.8000      8.5473      2.3813      0.3242     16.2846     86.2617     34.7649
  1023.9000      8.5473      2.3950      0.3279     15.4555     87.4465     35.2226
  1024.0000      8.6859      2.4250      0.3181     13.6391     91.5948     35.3771
  1024.1000      8.6859      2.4701      0.3637     10.9057     95.8857     35.1400
  1024.2000      8.6859      2.5146      0.3980      8.2078     96.4062     34.7667
  1024.3000      8.5979      2.5514      0.3336      5.9748     90.8440     34.7846
  1024.4000      8.5979      2.5938      0.3823      3.4065     84.9221     35.1815
  1024.5000      8.5647      2.6431      0.3446      0.4157     85.1101     35.3467
