~Version Information
VERS.                      2.0: CWLS Log ASCII Standard - VERSION 2.0
WRAP.                       NO: One line per depth step
~Well Information Block
STRT.FT               480.1000: 
STOP.FT              2029.0000: 
STEP.FT                 0.1000: 
NULL.                -999.2500: 
COMP.          Petrogulf Corporation: COMPANY
WELL.            Montoya 7-12R: WELL
FLD.           Purgatorie River: FIELD
LOC.           1769' FNL & 658' FWL: LOCATION
CNTY.               Las Animas: COUNTY
SRVC.                         : SERVICE COMPANY
DATE.          Mon Nov 22 07:21:54 2004: LOG DATE
UWI.           05 071 08240 00: UNIQUE WELL ID
STAT.                 Colorado: STATE
~Curve Information Block
DEPT.FT            0 000 00 00: Depth
DCAL.in                       : CDL Caliper
RHOB.g/cc                     : CDL Bulk Density
RHOC.g/cc                     : CDL Density Correction
DPOR.pu                       : CDL Density Porosity
GR.GAPI                       : Gamma Ray
NPOR.pu                       : Neutron Porosity
~Parameter Information Block
~A  Depth       DCAL        RHOB        RHOC        DPOR         GR         NPOR    
# ...
   806.5000      8.0374      2.6114     -0.0454      2.3377    107.8557     25.9977
   806.6000      8.0374      2.6082      0.0222      2.5335    105.8745     25.7094
   806.7000      8.0374      2.5940     -0.0670      3.3935    104.4334     25.5574
   806.8000      8.0174      2.5837     -0.0300      4.0173    101.1332     25.4528
   806.9000      8.0174      2.5778      0.0371      4.3762     98.9491     25.2234
   807.0000      8.0011      2.5601     -0.0029      5.4468    100.1792     24.8261
   807.1000      8.0011      2.5415     -0.0107      6.5757    103.0721     24.4883
   807.2000      8.0011      2.5381      0.0124      6.7805    105.1423     25.1662
   807.3000      8.0067      2.5471      0.0170      6.2373    107.3468     26.4315
   807.4000      8.0067      2.5694      0.0360      4.8867    109.5622     26.5836
   807.5000      8.0110      2.6028      0.1004      2.8603    110.0897     26.1216
   807.6000      8.0110      2.6297      0.1063      1.2309    111.0029     26.5710
   807.7000      8.0110      2.6435      0.1292      0.3941    113.4980     27.6186
   807.8000      7.9886      2.6498      0.1287      0.0146    113.3045     28.4986
   807.9000      7.9886      2.6544      0.1232     -0.2657    108.9258     28.6458
   808.0000      7.9757      2.6694      0.0800     -1.1763    107.8595     28.2834
   808.1000      7.9757      2.6990      0.1526     -2.9683    114.0044     28.5000
   808.2000      7.9757      2.7256      0.1356     -4.5819    119.0441     29.4155
   808.3000      8.0076      2.7404      0.1264     -5.4791    115.4599     30.0448
   808.4000      8.0076      2.7508      0.1532     -6.1075    110.3913     29.6428
   808.5000      7.9971      2.7556      0.1805     -6.4020    113.0966     28.5547
   808.6000      7.9971      2.7493      0.1500     -6.0191    121.0425     27.7210
   808.7000      7.9971      2.7372      0.0969     -5.2864    125.0576     27.8135
   808.8000      8.0264      2.7173      0.1049     -4.0790    118.3286     29.1359
   808.9000      8.0264      2.6803      0.0356     -1.8380    107.3090     30.9387
   809.0000      8.0189      2.6409      0.0057      0.5533    104.9416     31.7892
   809.1000      8.0189      2.6139      0.0177      2.1899    110.1748     31.4895
   809.2000      8.0189      2.5936     -0.0750      3.4167    115.3025     31.3211
   809.3000      8.1059      2.5743     -0.0499      4.5891    120.7861     31.3560
   809.4000      8.1059      2.5555     -0.0004      5.7266    125.9445     30.2888
   809.5000      8.1644      2.5450     -0.0596      6.3637    127.3406     28.6678
   809.6000      8.1644      2.5486     -0.0485      6.1453    127.0902     28.2642
   809.7000      8.1644      2.5581     -0.0185      5.5691    127.3915     29.4179
   809.8000      8.2122      2.5644      0.0321      5.1862    125.3864     31.0082
   809.9000      8.2122      2.5674     -0.0311      5.0053    119.1298     31.5794
   810.0000      8.2556      2.5683      0.0125      4.9507    113.5979     30.6683
   810.1000      8.2556      2.5652     -0.0010      5.1416    114.7438     29.2354
   810.2000      8.2556      2.5656     -0.0097      5.1177    119.5868     28.5388
   810.3000      8.2694      2.5865     -0.0713      3.8514    119.7792     29.2538
   810.4000      8.2694      2.6309      0.0893      1.1546    115.1923     30.5581
   810.5000      8.2433      2.6714      0.0924     -1.2985    113.1325     30.5967
   810.6000      8.2433      2.6834      0.0704     -2.0230    114.0386     29.6280
   810.7000      8.2433      2.6751      0.0683     -1.5192    113.3993     29.5194
   810.8000      8.2471      2.6706      0.0449     -1.2459    112.9263     29.9642
   810.9000      8.2471      2.6842      0.0762     -2.0708    115.6235     29.7840
   811.0000      8.3262      2.7151      0.0402     -3.9444    119.0154     29.5397
   811.1000      8.3262      2.7649      0.0311     -6.9641    118.2528     29.6469
   811.2000      8.3262      2.8304      0.0663    -10.9333    114.0828     29.1727
   811.3000      8.3737      2.8849      0.0815    -14.2385    110.7128     27.9330
   811.4000      8.3737      2.9031      0.0859    -15.3422    109.4366     27.2061
   811.5000      8.3262      2.8992      0.0335    -15.1060    108.9867     27.5702
   811.6000      8.3262      2.8967     -0.0057    -14.9516    108.9068     28.3635
   811.7000      8.3262      2.8745      0.0077    -13.6071    108.9335     29.0756
   811.8000      8.3201      2.8008     -0.0656     -9.1367    108.1278     29.1228
   811.9000      8.3201      2.6950     -0.1259     -2.7290    109.2802     28.3439
   812.0000      8.3065      2.6152     -0.1762      2.1106    113.4241     27.7049
   812.1000      8.3065      2.5872     -0.0780      3.8050    115.7972     28.0104
   812.2000      8.3065      2.5867      0.0191      3.8361    116.3479     28.9628
   812.3000      8.3437      2.5898     -0.0038      3.6486    118.7598     29.8173
   812.4000      8.3437      2.5919      0.0253      3.5187    121.6054     29.9313
   812.5000      8.3365      2.5884      0.0727      3.7328    120.5410     29.1565
   812.6000      8.3365      2.5791     -0.0043      4.2967    117.2615     28.6430
   812.7000      8.3365      2.5716      0.0033      4.7505    117.7199     29.3764
   812.8000      8.3204      2.5681     -0.0113      4.9619    120.6311     30.3874
   812.9000      8.3204      2.5723     -0.0244      4.7069    121.4110     30.2570
   813.0000      8.2800      2.5817      0.0930      4.1406    120.5688     29.0369
   813.1000      8.2800      2.5806     -0.0240      4.2082    119.9406     27.9297
   813.2000      8.2800      2.5580      0.0203      5.5780    119.6826     27.8372
   813.3000      8.2833      2.5231     -0.0309      7.6927    119.4646     28.2663
   813.4000      8.2833      2.5004     -0.0001      9.0692    119.4858     28.6262
   813.5000      8.3214      2.4910      0.0223      9.6335    119.7176     28.8807
   813.6000      8.3214      2.4774      0.0079     10.4593    117.5859     28.4845
   813.7000      8.3214      2.4581     -0.0258     11.6303    114.2023     27.6767
   813.8000      8.2860      2.4417     -0.0317     12.6261    115.3404     27.8437
   813.9000      8.2860      2.4374     -0.0022     12.8878    122.1728     29.1869
   814.0000      8.2700      2.4501      0.0319     12.1138    127.7915     30.6726
   814.1000      8.2700      2.4703      0.0292     10.8894    126.6727     31.5488
   814.2000      8.2700      2.4827      0.0913     10.1420    122.6130     31.7072
   814.3000      8.3037      2.4859      0.0379      9.9473    120.8451     31.6352
   814.4000      8.3037      2.4941      0.0012      9.4511    121.8816     31.6577
   814.5000      8.2915      2.5130      0.0704      8.3043    122.6587     31.5697
   814.6000      8.2915      2.5285      0.0990      7.3632    118.6435     31.1826
   814.7000      8.2915      2.5241      0.0584      7.6288    112.3183     30.6081
   814.8000      8.3013      2.5024      0.0681      8.9472    111.0497     30.3312
   814.9000      8.3013      2.4812      0.0034     10.2299    114.4965     30.6324
   815.0000      8.2687      2.4544      0.0894     11.8556    118.2495     31.4269
   815.1000      8.2687      2.4039     -0.0283     14.9171    122.0675     32.1949
   815.2000      8.2687      2.3674     -0.0759     17.1261    125.1619     32.1024
   815.3000      8.2730      2.3935     -0.0367     15.5427    125.0063     31.3563
   815.4000      8.2730      2.4633      0.0145     11.3131    122.2612     31.2400
   815.5000      8.2792      2.5182      0.1092      7.9866    120.1767     32.1395
   815.6000      8.2792      2.5346      0.0746      6.9925    117.7773     33.0933
   815.7000      8.2792      2.5370      0.0824      6.8469    114.2674     33.0021
   815.8000      8.2863      2.5406      0.1146      6.6274    111.6810     31.7988
   815.9000      8.2863      2.5419      0.0686      6.5531    109.3529     30.3799
   816.0000      8.3048      2.5440      0.0380      6.4267    107.4507     29.3713
