~Version Information
VERS.                      2.0: CWLS Log ASCII Standard - VERSION 2.0
WRAP.                       NO: One line per depth step
~Well Information Block
STRT.FT               270.0000: 
STOP.FT              1771.7000: 
STEP.FT                 0.1000: 
NULL.                -999.2500: 
COMP.          Pioneer Natural Resources: COMPANY
WELL.           Labrador 34-30: WELL
FLD.           Purgatoire River: FIELD
LOC.           926' FSL & 2080' FEL: LOCATION
PROV.                 Colorado: PROVINCE
CNTY.               Las Animas: COUNTRY
SRVC.                Patterson: SERVICE COMPANY
DATE.          Mon Dec 06 08:24:34 2004: LOG DATE
UWI.           05 071 08202 00: UNIQUE WELL ID
~Curve Information Block
DEPT.FT            0 000 00 00: Depth
DCAL.in                       : CDL Caliper
RHOB.g/cc                     : CDL Bulk Density
RHOC.g/cc                     : CDL Density Correction
DPOR.pu                       : CDL Density Porosity
NPOR.pu                       : Neutron Porosity
GR.GAPI                       : Gamma Ray
~Parameter Information Block
~A  Depth       DCAL        RHOB        RHOC        DPOR        NPOR         GR     
# ...
  1057.2000      8.0294      2.4615      0.0731     11.4250     16.5322     71.2157
  1057.3000      8.0362      2.4483      0.0547     12.2251     16.4674     67.2782
  1057.4000      8.0362      2.4282      0.0440     13.4436     16.6416     64.2055
  1057.5000      8.0396      2.3961      0.0069     15.3876     17.0359     62.3205
  1057.6000      8.0396      2.3770     -0.0473     16.5470     17.2647     63.7998
  1057.7000      8.0396      2.3915     -0.0042     15.6650     17.2747     71.7548
  1057.8000      8.0398      2.4245      0.0393     13.6674     17.2950     82.5174
  1057.9000      8.0398      2.4473      0.0832     12.2851     17.2616     89.7691
  1058.0000      8.0384      2.4528      0.0510     11.9532     17.0771     93.5299
  1058.1000      8.0384      2.4538      0.0581     11.8902     16.9882     97.7140
  1058.2000      8.0384      2.4594      0.0612     11.5524     17.2407    100.6416
  1058.3000      8.0368      2.4717      0.0751     10.8071     17.7371     99.3390
  1058.4000      8.0368      2.4902      0.1108      9.6832     18.0446     96.3460
  1058.5000      8.0359      2.5148      0.0925      8.1945     17.8277     95.2312
  1058.6000      8.0359      2.5456      0.0845      6.3291     17.6481     96.2436
  1058.7000      8.0359      2.5719      0.0961      4.7334     18.1794     96.2831
  1058.8000      8.0353      2.5792      0.1247      4.2890     19.1138     95.4710
  1058.9000      8.0353      2.5697      0.1323      4.8664     19.9574     97.5350
  1059.0000      8.0374      2.5640      0.0453      5.2142     20.5123     99.6089
  1059.1000      8.0374      2.5764      0.0733      4.4614     20.6270     96.9099
  1059.2000      8.0374      2.5881      0.1282      3.7512     20.4055     91.7067
  1059.3000      8.0458      2.5743      0.1258      4.5863     20.0139     88.9098
  1059.4000      8.0458      2.5457      0.0248      6.3233     19.6297     90.0007
  1059.5000      8.0555      2.5249      0.0573      7.5843     19.5616     92.5752
  1059.6000      8.0555      2.5154     -0.0155      8.1553     19.7482     92.5808
  1059.7000      8.0555      2.5136      0.0032      8.2675     19.9688     90.2064
  1059.8000      8.0568      2.5123      0.0478      8.3467     20.2165     87.7812
  1059.9000      8.0568      2.5120     -0.0416      8.3621     20.4067     85.8668
  1060.0000      8.0499      2.5144     -0.0030      8.2179     20.5511     86.5796
  1060.1000      8.0499      2.5079     -0.0194      8.6100     20.6925     90.8565
  1060.2000      8.0499      2.4963     -0.0142      9.3163     20.7709     95.3218
  1060.3000      8.0432      2.5016     -0.0550      8.9954     20.8949     99.8093
  1060.4000      8.0432      2.5278      0.0088      7.4044     21.1116    104.5005
  1060.5000      8.0430      2.5462      0.0505      6.2886     21.3668    105.0880
  1060.6000      8.0430      2.5397     -0.0171      6.6819     21.5915    102.9527
  1060.7000      8.0430      2.5283     -0.0069      7.3730     21.6347    103.0746
  1060.8000      8.0455      2.5265     -0.0271      7.4831     21.5461    104.0792
  1060.9000      8.0455      2.5284      0.0404      7.3720     21.7359    102.5801
  1061.0000      8.0438      2.5340     -0.0011      7.0288     22.4628     99.4161
  1061.1000      8.0438      2.5553      0.0033      5.7423     23.3114     97.0789
  1061.2000      8.0438      2.5845      0.0867      3.9685     23.8378     97.0255
  1061.3000      8.0379      2.6000      0.0450      3.0287     24.1379     98.6918
  1061.4000      8.0379      2.5949      0.0705      3.3373     24.3642    102.4042
  1061.5000      8.0325      2.5742      0.0306      4.5912     24.6095    105.9004
  1061.6000      8.0325      2.5509      0.0176      6.0039     24.9332    104.4639
  1061.7000      8.0325      2.5369     -0.0054      6.8551     25.2807     99.4327
  1061.8000      8.0342      2.5385      0.0025      6.7570     25.5877     95.8860
  1061.9000      8.0342      2.5561      0.0240      5.6922     25.8095     95.9057
  1062.0000      8.0379      2.5813      0.0450      4.1618     25.9436     98.7296
  1062.1000      8.0379      2.6022      0.0672      2.8952     26.0751    102.8115
  1062.2000      8.0379      2.6131      0.0340      2.2383     26.2543    104.8122
  1062.3000      8.0392      2.6154      0.0278      2.0970     26.3866    101.5429
  1062.4000      8.0392      2.6096      0.0672      2.4497     26.3135     96.2359
  1062.5000      8.0396      2.5961      0.0292      3.2680     26.0224     95.1632
  1062.6000      8.0396      2.5783      0.0508      4.3431     25.7822    100.9863
  1062.7000      8.0396      2.5539      0.0575      5.8260     25.6952    112.3663
  1062.8000      8.0399      2.5210     -0.0008      7.8189     25.5763    125.7524
  1062.9000      8.0399      2.4884     -0.0094      9.7930     25.5166    135.4913
  1063.0000      8.0452      2.4661     -0.0238     11.1462     25.7736    138.1614
  1063.1000      8.0452      2.4559     -0.0021     11.7645     26.1535    137.5418
  1063.2000      8.0452      2.4506      0.0316     12.0870     26.3361    138.8314
  1063.3000      8.0587      2.4513     -0.0224     12.0451     26.3593    140.9269
  1063.4000      8.0587      2.4698      0.0353     10.9207     26.3239    141.6950
  1063.5000      8.0647      2.4986      0.0627      9.1734     26.2565    141.7194
  1063.6000      8.0647      2.5173      0.0872      8.0409     25.9660    143.0565
  1063.7000      8.0647      2.5234      0.0722      7.6725     25.3306    148.1739
  1063.8000      8.0536      2.5246      0.1056      7.6023     24.7047    152.2241
  1063.9000      8.0536      2.5217      0.1144      7.7779     24.3697    151.0889
  1064.0000      8.0483      2.5133      0.1268      8.2830     24.3373    148.2622
  1064.1000      8.0483      2.5029      0.0732      8.9143     24.7943    146.9918
  1064.2000      8.0483      2.5003      0.0617      9.0720     25.6157    148.8956
  1064.3000      8.0565      2.5126      0.0403      8.3272     26.1508    152.6089
  1064.4000      8.0565      2.5445      0.0509      6.3963     26.1226    152.0175
  1064.5000      8.0665      2.5862      0.1114      3.8642     25.9496    147.2796
  1064.6000      8.0665      2.6096      0.1166      2.4483     26.1731    147.3057
  1064.7000      8.0665      2.6063      0.0583      2.6465     26.6828    153.2960
  1064.8000      8.0711      2.5921      0.0949      3.5097     26.8614    156.8602
  1064.9000      8.0711      2.5756      0.0861      4.5084     26.6057    153.4751
  1065.0000      8.0686      2.5648      0.0804      5.1625     26.4097    145.9251
  1065.1000      8.0686      2.5604      0.1292      5.4306     26.3386    140.1835
  1065.2000      8.0686      2.5489      0.0824      6.1256     26.2759    142.1006
  1065.3000      8.0656      2.5328      0.0625      7.1031     26.4514    150.7694
  1065.4000      8.0656      2.5306      0.0635      7.2382     26.7693    157.7176
  1065.5000      8.0643      2.5517      0.0358      5.9573     26.9352    154.1940
  1065.6000      8.0643      2.5798      0.0960      4.2566     26.9021    142.9211
  1065.7000      8.0643      2.5908      0.0739      3.5905     26.7056    136.9915
  1065.8000      8.0642      2.5916      0.0746      3.5416     26.5039    139.4695
  1065.9000      8.0642      2.5892      0.1061      3.6830     26.4821    142.4207
  1066.0000      8.0657      2.5711      0.0692      4.7813     26.4829    142.1194
  1066.1000      8.0657      2.5392      0.0537      6.7124     26.2911    141.8837
  1066.2000      8.0657      2.5090      0.0325      8.5465     25.9607    142.5486
  1066.3000      8.0628      2.4853      0.0496      9.9825     25.6645    139.5788
  1066.4000      8.0628      2.4671     -0.0390     11.0874     25.3437    133.9034
  1066.5000      8.0461      2.4607      0.0280     11.4739     24.9523    131.8863
  1066.6000      8.0461      2.4752     -0.0183     10.5951     24.6427    133.2708
  1066.7000      8.0461      2.5132      0.0494      8.2926     24.5508    133.4402
