~Version Information
 VERS.                                  2.0 : CWLS LAS VERSION
 WRAP.                                   NO : WRAPING MODE
 SWARE .                 MController 2.5.0I : SOFTWARE VERSION
~Well Information
 WELL.                        Montoya 1-44v : WELL
 COMP.                       Petrogulf Corp : COMPANY
 FLD.                      Purgatorie River : FIELD
 LOC.                 SE/SE Sec 1 T33S R68W : LOCATION
 DATE.                           8/24-25/04 : DATE(S) LOGGED
 SRVC.       Blanco Geological services LLC : SERVICE COMPANY
 STAT.                                   CO : STATE
 CNTY.                           Las Animas : COUNTY
 CTRY.                                  USA : COUNTRY
 API.                       05-071-08142-00 : API NUMBER
 STRT.FT                             556.00 : START DEPTH
 STOP.FT                            2600.00 : STOP DEPTH
 STEP.FT                               1.00 : DEPTH INCREMENT
 NULL.                                -9999 : NULL VALUE
~Curve information
 DEPTH.FT                                   :
 ROP.MIN/FT                                 :
 GAS.UNITS                                  :
~ASCII Log data
# ...
       756.0          0.2          7.7 
       757.0          0.2          7.7 
       758.0          0.2          7.5 
       759.0          0.2          7.9 
       760.0          0.2          7.9 
       761.0          0.2          8.0 
       762.0          0.2          8.0 
       763.0          0.1          8.0 
       764.0          0.1          8.0 
       765.0          0.1          8.3 
       766.0          0.1          8.4 
       767.0          0.1          8.3 
       768.0          0.2          8.3 
       769.0          0.3          8.3 
       770.0          0.3          8.4 
       771.0          0.2          8.4 
       772.0          0.3          7.9 
       773.0          0.4          7.7 
       774.0          0.3          7.4 
       775.0          0.3          7.4 
       776.0          0.3          7.2 
       777.0          0.3          7.6 
       778.0          1.0          7.9 
       779.0          0.3          7.9 
       780.0          0.5          7.6 
       781.0          0.4          7.7 
       782.0          0.4          7.7 
       783.0          0.3          8.1 
       784.0          0.3          8.2 
       785.0          0.3          8.4 
       786.0          0.2          8.3 
       787.0          0.2          8.1 
       788.0          0.2          8.1 
       789.0          0.2          8.2 
       790.0          0.2          8.1 
       791.0          0.2          8.0 
       792.0          0.2          7.9 
       793.0          0.2          8.3 
       794.0          0.1          8.1 
       795.0          0.1          8.0 
       796.0          0.2          8.2 
       797.0          0.2          8.0 
       798.0          0.2          7.9 
       799.0          0.1          7.9 
       800.0          0.1          8.0 
       801.0          0.1          8.0 
       802.0          0.3          8.2 
       803.0          0.3          8.1 
       804.0          0.2          7.8 
       805.0          0.2          7.7 
       806.0          0.3          7.9 
       807.0          0.2          7.6 
       808.0          6.3          8.3 
       809.0          4.9          8.5 
       810.0          0.6          9.1 
       811.0          0.8          8.2 
       812.0          0.4          7.1 
       813.0          0.4          7.2 
       814.0          0.4          7.1 
       815.0          0.3          7.0 
       816.0          0.9          7.3 
       817.0          0.2          7.2 
       818.0          0.6          7.3 
       819.0          0.1          7.1 
       820.0          0.1          7.0 
       821.0          0.4          7.0 
       822.0          0.5          6.9 
       823.0          0.7          7.0 
       824.0          0.5          7.0 
       825.0          0.3          7.1 
       826.0          0.3          7.4 
       827.0          0.3          7.2 
       828.0          0.2          7.5 
       829.0          0.2          7.0 
       830.0          0.2          7.0 
       831.0          0.3          7.4 
       832.0          0.2          7.1 
       833.0          0.2          7.3 
       834.0          0.2          7.0 
       835.0          0.2          7.0 
       836.0          0.2          7.2 
       837.0          0.2          7.1 
       838.0          2.8          7.5 
       839.0          0.3          6.9 
       840.0          0.2          7.0 
       841.0          0.2          7.1 
       842.0          0.2          7.4 
       843.0          0.2          7.4 
       844.0          0.2          7.6 
       845.0          0.3          7.8 
       846.0          0.2          7.6 
       847.0          0.2          7.7 
       848.0          0.2          7.5 
       849.0          0.2          7.8 
       850.0          0.2          7.6 
       851.0          0.2          7.6 
       852.0          0.2          7.5 
       853.0          0.2          7.7 
       854.0          0.2          7.6 
       855.0          0.2          7.8 
       856.0          0.2          7.9 
       857.0          0.2          7.9 
       858.0          0.2          8.1 
       859.0          0.2          8.2 
       860.0          0.2          8.2 
       861.0          0.2          7.8 
       862.0          0.2          8.1 
       863.0          0.2          8.1 
       864.0          0.2          8.1 
       865.0          0.2          8.3 
       866.0          0.2          8.1 
       867.0          0.2          7.9 
       868.0          2.2         55.5 
       869.0          0.3         56.1 
       870.0          0.4         49.6 
       871.0          0.3         30.4 
       872.0          0.4         21.6 
       873.0          0.4         14.7 
       874.0          0.4         11.0 
       875.0          0.3          9.2 
       876.0          0.4          8.5 
       877.0          0.4          8.0 
       878.0          0.3          7.9 
       879.0          0.3          8.1 
       880.0          0.3          8.1 
       881.0          0.3          8.3 
       882.0          0.3          8.5 
       883.0          0.3          8.8 
       884.0          0.3          8.7 
       885.0          0.3          8.8 
       886.0          0.3          8.7 
       887.0          0.2          8.6 
       888.0          0.2          8.7 
       889.0          0.2          8.7 
       890.0          0.2          8.9 
       891.0          0.2          8.8 
       892.0          0.2          8.8 
       893.0          0.2          8.9 
       894.0          0.2          8.9 
       895.0          0.3          9.4 
       896.0          0.3          8.9 
       897.0          0.3          9.1 
       898.0          5.8         48.2 
       899.0          0.6         50.4 
       900.0          0.2         30.4 
       901.0          0.2         22.1 
       902.0          0.2         15.9 
       903.0          0.2         13.6 
       904.0          0.2         11.2 
       905.0          0.2          9.5 
       906.0          0.2          8.8 
       907.0          0.2          8.3 
       908.0          0.2          8.2 
       909.0          0.2          7.9 
       910.0          0.2          8.5 
       911.0          0.2          8.1 
       912.0          0.2          8.1 
       913.0          0.2          8.0 
       914.0          0.2          8.2 
       915.0          0.2          8.1 
       916.0          0.2          8.2 
       917.0          0.2          8.1 
       918.0          0.2          8.3 
       919.0          0.2          8.5 
       920.0          0.1          8.5 
       921.0          0.1          8.6 
       922.0          0.2          8.6 
       923.0          0.2          8.6 
       924.0          0.2          8.4 
       925.0          0.2          8.8 
       926.0          0.2          8.6 
       927.0          0.2          8.8 
       928.0          2.4         37.2 
       929.0          0.3         29.8 
       930.0          0.2         21.8 
       931.0          0.2         16.2 
       932.0          0.2         13.8 
       933.0          0.3         11.7 
       934.0          0.2          9.8 
       935.0          0.2          9.4 
       936.0          0.2          8.4 
       937.0          0.2          8.2 
       938.0          0.2          8.0 
       939.0          0.2          8.2 
       940.0          0.2          8.3 
       941.0          0.2          8.1 
       942.0          0.2          7.7 
       943.0          0.2          8.0 
       944.0          0.2          8.1 
       945.0          0.2          8.2 
       946.0          0.1          8.3 
       947.0          0.2          8.3 
       948.0          0.2          8.2 
       949.0          0.2          8.5 
       950.0          0.1          8.6 
       951.0          0.1          8.3 
       952.0          0.1          8.5 
       953.0          0.1          8.5 
       954.0          0.1          8.3 
       955.0          0.2          8.5 
