~Version Information
VERS.                      2.0: CWLS Log ASCII Standard - VERSION 2.0
WRAP.                       NO: One line per depth step
~Well Information Block
STRT.FT                -5.5000: 
STOP.FT              1979.7500: 
STEP.FT                 0.2500: 
NULL.                -999.2500: 
COMP.          Pioneer Natural Resources: COMPANY
WELL.          Bucksnort 41-35: WELL
FLD.           Purgatorie River: FIELD
LOC.           117' FNL & 463' FEL: LOCATION
PROV.                 Colorado: PROVINCE
CNTY.               Las Animas: COUNTRY
SRVC.                Patterson: SERVICE COMPANY
DATE.          Fri Jul 29 10:31:46 2005: LOG DATE
UWI.                          : UNIQUE WELL ID
~Curve Information Block
DEPT.FT            0 000 00 00: Depth
GR.GAPI                       : Gamma Ray
CCL.                          : Casing Collar Locator
TT3.usec                      : CBL 3' Travel Time
AMP3.mV                       : CBL 3' Amplitude
~Parameter Information Block
~A  Depth        GR         CCL         TT3         AMP3    
# ...
  1803.5000     77.1301      0.0000    687.6104      6.3471
  1803.7500     76.0739      0.0000    682.9164      6.0499
  1804.0000     75.4314      0.0000    670.6852      5.5202
  1804.2500     75.3792      0.0000    653.3596      4.9941
  1804.5000     75.8521      0.0000    637.8937      4.7732
  1804.7500     76.8075      0.0000    632.3069      4.8327
  1805.0000     78.2890      0.0000    641.0939      4.7786
  1805.2500     80.1130      0.0000    661.4432      4.4265
  1805.5000     81.6142      0.0000    683.5786      4.1349
  1805.7500     81.9647      0.0000    697.4470      4.2411
  1806.0000     80.9850      0.0000    700.5993      4.5704
  1806.2500     79.5359      0.0000    699.8275      4.7463
  1806.5000     78.8580     -2.0000    701.7368      4.5858
  1806.7500     79.6216      0.0000    702.7178      4.1171
  1807.0000     81.6356      0.0000    695.2130      3.5398
  1807.2500     84.0197      0.0000    682.1633      3.1581
  1807.5000     85.4894      0.0000    675.6432      3.0931
  1807.7500     84.9842      0.0000    682.9751      3.1414
  1808.0000     82.2896      0.0000    699.2302      3.1652
  1808.2500     77.8857      0.0000    710.7429      3.3845
  1808.5000     72.3790      0.0000    709.2529      3.9561
  1808.7500     66.4931      0.0000    700.5276      4.6342
  1809.0000     61.3969      0.0000    693.6869      5.1015
  1809.2500     58.5023      0.0000    690.8885      5.2952
  1809.5000     58.7119      0.0000    690.1614      5.3272
  1809.7500     61.8066      0.0000    690.0236      5.3120
  1810.0000     66.4677      0.0000    689.6616      5.3016
  1810.2500     71.0393      0.0000    687.6413      5.2855
  1810.5000     74.5890      0.0000    681.7172      5.2297
  1810.7500     77.3049      0.0000    670.5228      5.1427
  1811.0000     79.7568      0.0000    652.6014      5.0841
  1811.2500     81.9793      0.0000    619.8887      5.0984
  1811.5000     83.5482      0.0000    563.4224      5.1695
  1811.7500     84.4215      0.0000    494.1132      5.2503
  1812.0000     85.2902      0.0000    438.4467      5.3142
  1812.2500     86.8261      0.0000    408.7513      5.3666
  1812.5000     88.6924      0.0000    396.3927      5.4155
  1812.7500     89.6489      0.0000    388.6389      5.4516
  1813.0000     88.6473      0.0000    379.0652      5.4694
  1813.2500     85.6744      0.0000    368.0352      5.4797
  1813.5000     81.7155      0.0000    359.0887      5.4972
  1813.7500     78.1467      0.0000    353.9456      5.5311
  1814.0000     75.9969      0.0000    351.4560      5.5777
  1814.2500     75.5336      0.0000    350.0543      5.6047
  1814.5000     76.3882      0.0000    349.0137      5.5686
  1814.7500     77.8993      0.0000    348.0896      5.4745
  1815.0000     79.2908      0.0000    347.1597      5.3900
  1815.2500     79.8669      0.0000    346.1413      5.3770
  1815.5000     79.4435      0.0000    345.0009      5.4358
  1815.7500     78.5845      0.0000    343.7951      5.5230
  1816.0000     78.1584      0.0000    342.6304      5.5989
  1816.2500     78.5270      0.0000    341.5992      5.6483
  1816.5000     79.1709      0.0000    340.8095      5.6698
  1816.7500     79.1708      0.0000    340.3275      5.6652
  1817.0000     78.1308      0.0000    340.0256      5.6550
  1817.2500     76.6271      0.0000    339.6732      5.6782
  1817.5000     75.5463      0.0000    339.2155      5.7385
  1817.7500     74.8459      0.0000    338.8161      5.7885
  1818.0000     73.2476      0.0000    338.6394      5.7932
  1818.2500     69.5758      0.0000    338.7157      5.7588
  1818.5000     64.3253      0.0000    338.9768      5.7040
  1818.7500     59.5044      0.0000    339.3261      5.6544
  1819.0000     56.8972      0.0000    339.6708      5.6454
  1819.2500     56.6918      0.0000    339.9537      5.6929
  1819.5000     57.7297      0.0000    340.2159      5.7782
  1819.7500     58.8538      0.0000    340.6320      5.8671
  1820.0000     59.9671      0.0000    341.5952      5.9262
  1820.2500     61.8448      0.0000    344.0829      5.9390
  1820.5000     65.0520      0.0000    349.8657      5.9202
  1820.7500     69.2226      0.0000    360.0075      5.9031
  1821.0000     73.2731      0.0000    372.3170      5.9341
  1821.2500     76.1134      0.0000    382.4008      6.0652
  1821.5000     77.3285      0.0000    388.0858      6.2969
  1821.7500     77.4375      0.0000    390.5398      6.5578
  1822.0000     77.4056      0.0000    391.6409      6.7707
  1822.2500     77.7870      0.0000    392.4567      6.9022
  1822.5000     78.3310      0.0000    394.3647      6.9627
  1822.7500     78.3373      0.0000    401.4644      6.9803
  1823.0000     77.3334      0.0000    419.4364      6.9630
  1823.2500     75.4510      0.0000    443.7705      6.9071
  1823.5000     73.2081      0.0000    452.6456      6.8519
  1823.7500     70.9955      0.0000    433.5847      6.8560
  1824.0000     68.9176      0.0000    411.9550      6.9274
  1824.2500     67.1281      0.0000    429.5684      7.0531
  1824.5000     66.0369      0.0000    501.7920      7.2509
  1824.7500     66.0011      0.0000    600.0002      7.5456
  1825.0000     66.8971      0.0000    677.4791      7.9305
  1825.2500     68.0474      0.0000    717.4895      8.3390
  1825.5000     68.4579      0.0000    736.8795      8.6627
  1825.7500     67.2043      0.0000    748.7845      8.8244
  1826.0000     63.9916      0.0000    753.2919      8.8057
  1826.2500     59.6705      0.0000    752.3744      8.6176
  1826.5000     56.0606      0.0000    751.3419      8.2931
  1826.7500     54.8271      0.0000    753.3189      7.8852
  1827.0000     56.2940      0.0000    757.2584      7.4457
  1827.2500     59.2692      0.0000    755.3605      7.0127
  1827.5000     61.9514      0.0000    735.5785      6.6181
  1827.7500     63.2377      0.0000    696.8034      6.2934
  1828.0000     63.4979      0.0000    659.6018      6.0720
  1828.2500     64.1492      0.0000    648.4619      5.9853
  1828.5000     66.4261      0.0000    664.6570      6.0325
  1828.7500     70.5031      0.0000    687.2057      6.1550
  1829.0000     75.5087      0.0000    697.1658      6.2835
  1829.2500     80.1832      0.0000    693.3740      6.3977
  1829.5000     83.7866      0.0000    685.5283      6.5012
  1829.7500     86.6405      0.0000    682.4866      6.5682
  1830.0000     89.6281      0.0000    687.6966      6.5341
  1830.2500     92.9974      0.0000    697.3082      6.3258
  1830.5000     95.8804      0.0000    703.7953      5.9304
  1830.7500     97.0926      0.0000    704.9329      5.4594
  1831.0000     96.1308      0.0000    706.3307      5.0916
  1831.2500     93.2690      0.0000    711.3697      4.9245
  1831.5000     89.0190      0.0000    713.9252      4.9069
  1831.7500     83.8271      0.0000    708.1735      4.9133
  1832.0000     78.1211      0.0000    698.3944      4.8850
  1832.2500     72.3760      0.0000    691.5357      4.8855
  1832.5000     67.1928      0.0000    688.7841      4.9889
  1832.7500     63.4350      0.0000    688.1343      5.1673
  1833.0000     62.0989      0.0000    688.1949      5.3192
  1833.2500     63.7671      0.0000    688.3813      5.3616
  1833.5000     68.0208      0.0000    688.5285      5.2959
  1833.7500     73.3500      0.0000    688.8080      5.2180
  1834.0000     77.8359      0.0000    689.3620      5.2419
  1834.2500     80.2412      0.0000    690.0170      5.3782
  1834.5000     80.7034      0.0000    690.9001      5.5136
  1834.7500     80.4873      0.0000    693.6535      5.5375
  1835.0000     81.0221      0.0000    700.7755      5.4851
  1835.2500     82.9365      0.0000    709.3470      5.5032
  1835.5000     85.6619      0.0000    703.8613      5.6535
  1835.7500     87.8239      0.0000    665.8815      5.8450
  1836.0000     88.3560      0.0000    601.4952      5.9848
  1836.2500     87.4173      0.0000    550.9048      6.0715
  1836.5000     85.9068      0.0000    552.6201      6.1346
  1836.7500     84.1821      0.0000    599.3249      6.1773
