~Version Information
VERS.                      2.0: CWLS Log ASCII Standard - VERSION 2.0
WRAP.                       NO: One line per depth step
~Well Information Block
STRT.FT               481.5000: 
STOP.FT              2033.5000: 
STEP.FT                 0.2500: 
NULL.                -999.2500: 
COMP.          Petrogulf Corporation: COMPANY
WELL.            Montoya 7-12R: WELL
FLD.           Purgatorie River: FIELD
LOC.           1769' FNL & 658' FWL: LOCATION
CNTY.               Las Animas: COUNTY
SRVC.                         : SERVICE COMPANY
DATE.          Sat Nov 20 02:31:05 2004: LOG DATE
UWI.           05 071 08240 00: UNIQUE WELL ID
STAT.                 Colorado: STATE
~Curve Information Block
DEPT.FT            0 000 00 00: Depth
SP.mV                         : DIL Spontaneous Potential
RILD.Ohm-m                    : DIL Deep Resistivity
RILM.Ohm-m                    : DIL Medium Resistivity
RLL3.Ohm-m                    : DIL Shallow Resistivity
GR.GAPI                       : Gamma Ray
~Parameter Information Block
~A  Depth        SP         RILD        RILM        RLL3         GR     
# ...
  1489.5000    -36.8747     12.1259     13.5041     12.6092    111.3130
  1489.7500    -38.0638     11.9353     13.2199     12.4274    111.8427
  1490.0000    -39.1538     11.7620     12.9686     12.2898    112.2817
  1490.2500    -40.0475     11.6123     12.7496     12.1823    112.1168
  1490.5000    -40.7394     11.4927     12.5630     12.0899    111.3644
  1490.7500    -41.3173     11.4096     12.4102     12.0022    110.9576
  1491.0000    -41.9313     11.3677     12.2945     11.9188    111.3033
  1491.2500    -42.7433     11.3696     12.2210     11.8500    112.2947
  1491.5000    -43.8599     11.4149     12.1962     11.8156    114.1295
  1491.7500    -45.2888     11.5001     12.2272     11.8436    114.8005
  1492.0000    -46.9181     11.6197     12.3215     11.9685    114.2813
  1492.2500    -48.5411     11.7666     12.4864     12.2311    113.2147
  1492.5000    -49.9077     11.9332     12.7282     12.6768    111.4709
  1492.7500    -50.7914     12.1125     13.0520     13.3488    110.3905
  1493.0000    -51.0439     12.2984     13.4605     14.2782    108.4356
  1493.2500    -50.6265     12.4854     13.9521     15.4682    106.6207
  1493.5000    -49.6107     12.6685     14.5190     16.8834    103.1348
  1493.7500    -48.1452     12.8419     15.1439     18.4471    100.4859
  1494.0000    -46.4148     12.9978     15.7972     20.0499     96.1556
  1494.2500    -44.5922     13.1268     16.4347     21.5669     93.0272
  1494.5000    -42.8066     13.2173     16.9978     22.8758     88.3698
  1494.7500    -41.1280     13.2575     17.4198     23.8686     85.8112
  1495.0000    -39.5769     13.2370     17.6371     24.4559     83.4554
  1495.2500    -38.1401     13.1487     17.6043     24.5691     82.8093
  1495.5000    -36.8016     12.9908     17.3083     24.1659     82.7463
  1495.7500    -35.5600     12.7671     16.7728     23.2443     83.2370
  1496.0000    -34.4385     12.4868     16.0521     21.8581     85.1951
  1496.2500    -33.4833     12.1626     15.2160     20.1244     87.6246
  1496.5000    -32.7499     11.8096     14.3345     18.2112     93.0848
  1496.7500    -32.2851     11.4427     13.4656     16.3059     97.6975
  1497.0000    -32.1203     11.0760     12.6509     14.5729    105.1770
  1497.2500    -32.2628     10.7215     11.9156     13.1188    109.8119
  1497.5000    -32.7017     10.3894     11.2719     11.9775    115.0475
  1497.7500    -33.4173     10.0873     10.7225     11.1212    117.0547
  1498.0000    -34.3845      9.8204     10.2644     10.4882    118.2479
  1498.2500    -35.5695      9.5917      9.8915     10.0155    118.4672
  1498.5000    -36.9206      9.4021      9.5962      9.6622    118.9015
  1498.7500    -38.3571      9.2501      9.3706      9.4154    119.4813
  1499.0000    -39.7645      9.1325      9.2070      9.2830    120.6885
  1499.2500    -41.0098      9.0449      9.0981      9.2769    121.5171
  1499.5000    -41.9594      8.9820      9.0368      9.3969    122.2126
  1499.7500    -42.5144      8.9384      9.0163      9.6214    121.9276
  1500.0000    -42.6284      8.9095      9.0294      9.9080    120.1878
  1500.2500    -42.3279      8.8918      9.0689     10.2038    118.4825
  1500.5000    -41.7010      8.8827      9.1270     10.4607    116.0721
  1500.7500    -40.8809      8.8811      9.1955     10.6487    114.9992
  1501.0000    -40.0167      8.8861      9.2659     10.7623    114.3947
  1501.2500    -39.2532      8.8967      9.3293     10.8168    114.5281
  1501.5000    -38.7054      8.9114      9.3774     10.8360    115.1455
  1501.7500    -38.4498      8.9279      9.4030     10.8389    115.5811
  1502.0000    -38.5201      8.9430      9.4007     10.8290    115.8962
  1502.2500    -38.8969      8.9532      9.3682     10.7947    115.8365
  1502.5000    -39.5145      8.9550      9.3061     10.7167    115.6227
  1502.7500    -40.2635      8.9460      9.2186     10.5814    115.5425
  1503.0000    -41.0055      8.9247      9.1121     10.3916    115.3923
  1503.2500    -41.5915      8.8915      8.9949     10.1687    115.0728
  1503.5000    -41.8985      8.8481      8.8754      9.9463    113.9432
  1503.7500    -41.8478      8.7973      8.7616      9.7567    112.5356
  1504.0000    -41.4288      8.7428      8.6600      9.6199    109.0969
  1504.2500    -40.7044      8.6885      8.5755      9.5371    106.0555
  1504.5000    -39.7997      8.6380      8.5116      9.4942    101.5037
  1504.7500    -38.8773      8.5945      8.4707      9.4699     99.3498
  1505.0000    -38.1048      8.5605      8.4544      9.4463     98.3988
  1505.2500    -37.6188      8.5379      8.4636      9.4157     99.3615
  1505.5000    -37.4997      8.5278      8.4988      9.3817    102.7182
  1505.7500    -37.7635      8.5313      8.5599      9.3581    105.6983
  1506.0000    -38.3636      8.5495      8.6459      9.3633    110.0999
  1506.2500    -39.2190      8.5845      8.7552      9.4158    112.4091
  1506.5000    -40.2416      8.6387      8.8853      9.5278    114.7305
  1506.7500    -41.3550      8.7157      9.0334      9.7020    115.9015
  1507.0000    -42.4997      8.8196      9.1966      9.9298    118.0269
  1507.2500    -43.6273      8.9541      9.3730     10.1937    119.9909
  1507.5000    -44.6765      9.1221      9.5621     10.4730    123.4009
  1507.7500    -45.5674      9.3249      9.7657     10.7512    125.2887
  1508.0000    -46.2073      9.5621      9.9880     11.0215    126.2223
  1508.2500    -46.5182      9.8314     10.2353     11.2902    125.3517
  1508.5000    -46.4633     10.1295     10.5159     11.5772    122.8518
  1508.7500    -46.0756     10.4532     10.8394     11.9183    121.2954
  1509.0000    -45.4524     10.8006     11.2160     12.3715    119.7003
  1509.2500    -44.7377     11.1725     11.6564     13.0243    118.8319
  1509.5000    -44.0828     11.5721     12.1719     13.9995    117.4745
  1509.7500    -43.6143     12.0047     12.7738     15.4500    116.7023
  1510.0000    -43.4125     12.4766     13.4743     17.5380    115.6115
  1510.2500    -43.5027     12.9932     14.2866     20.3984    114.1289
  1510.5000    -43.8648     13.5562     15.2239     24.0982    108.9629
  1510.7500    -44.4354     14.1626     16.2981     28.6041    103.0569
  1511.0000    -45.1186     14.8027     17.5174     33.7776     91.1858
  1511.2500    -45.7927     15.4592     18.8807     39.3976     82.2887
  1511.5000    -46.3313     16.1081     20.3703     45.2025     69.5357
  1511.7500    -46.6222     16.7200     21.9431     50.9335     62.4877
  1512.0000    -46.6016     17.2621     23.5218     56.3555     55.2334
  1512.2500    -46.2701     17.7025     24.9920     61.2462     52.7476
  1512.5000    -45.6987     18.0121     26.2094     65.3642     51.8637
  1512.7500    -45.0066     18.1687     27.0231     68.4196     52.4170
  1513.0000    -44.3276     18.1591     27.3088     70.0785     53.7365
  1513.2500    -43.7639     17.9812     27.0052     70.0171     54.6182
  1513.5000    -43.3573     17.6441     26.1326     68.0161     56.0987
  1513.7500    -43.0820     17.1679     24.7871     64.0611     57.4813
  1514.0000    -42.8596     16.5809     23.1143     58.4024     60.8196
  1514.2500    -42.5958     15.9163     21.2737     51.5423     64.4201
  1514.5000    -42.2079     15.2076     19.4083     44.1413     72.6672
  1514.7500    -41.6517     14.4856     17.6262     36.8762     79.9858
  1515.0000    -40.9178     13.7756     15.9972     30.2995     92.2332
  1515.2500    -40.0209     13.0969     14.5567     24.7493     99.9767
  1515.5000    -38.9853     12.4627     13.3149     20.3316    109.3507
  1515.7500    -37.8410     11.8813     12.2655     16.9693    113.9223
  1516.0000    -36.6246     11.3572     11.3935     14.4829    118.9102
  1516.2500    -35.3920     10.8922     10.6803     12.6712    121.4267
  1516.5000    -34.2186     10.4866     10.1071     11.3657    124.2860
  1516.7500    -33.1893     10.1396      9.6565     10.4521    125.5757
  1517.0000    -32.3727      9.8502      9.3134      9.8648    126.6541
  1517.2500    -31.7969      9.6172      9.0649      9.5661    126.9260
