~Version Information
VERS.                      2.0: CWLS Log ASCII Standard - VERSION 2.0
WRAP.                       NO: One line per depth step
~Well Information Block
STRT.FT               259.0000: 
STOP.FT              2379.0000: 
STEP.FT                 0.2500: 
NULL.                -999.2500: 
COMP.          Pioneer Natural Resources: COMPANY
WELL.          Foothills 12-36: WELL
FLD.           Purgatoire River: FIELD
LOC.           2450' FNL & 201' FWL: LOCATION
PROV.                 Colorado: PROVINCE
CNTY.               Las Animas: COUNTRY
SRVC.                Patterson: SERVICE COMPANY
DATE.          Thu Apr 21 09:19:57 2005: LOG DATE
UWI.           05 071 08339 00: UNIQUE WELL ID
~Curve Information Block
DEPT.FT            0 000 00 00: Depth
DCAL.in                       : CDL Caliper
RHOB.g/cc                     : CDL Bulk Density
RHOC.g/cc                     : CDL Density Correction
DPOR.pu                       : CDL Density Porosity
GR.GAPI                       : Gamma Ray
NPOR.pu                       : Neutron Porosity
~Parameter Information Block
~A  Depth       DCAL        RHOB        RHOC        DPOR         GR         NPOR    
# ...
   667.0000      8.0004      2.4936     -0.0493      9.4794    144.0455     26.1883
   667.2500      8.0003      2.4854     -0.0018      9.9782    132.3773     27.0928
   667.5000      8.0004      2.4883      0.0595      9.7987    143.6022     27.5839
   667.7500      8.0012      2.4747      0.1216     10.6251    146.8306     25.0791
   668.0000      8.0022      2.4822      0.0569     10.1703    112.1866     23.9167
   668.2500      8.0022      2.5180      0.1129      8.0003    118.0041     25.2734
   668.5000      8.0010      2.5184      0.1459      7.9776    114.7457     25.7706
   668.7500      8.0001      2.4310      0.0575     13.2712    111.0425     26.3956
   669.0000      8.0002      2.4664      0.1250     11.1294    110.3139     27.0601
   669.2500      7.9998      2.5054      0.1505      8.7607    108.6503     26.7289
   669.5000      7.9983      2.5416      0.1647      6.5691    110.4571     26.7824
   669.7500      7.9975      2.5303      0.1312      7.2564    115.0046     26.4280
   670.0000      7.9985      2.5136      0.0783      8.2681    112.5122     27.0264
   670.2500      7.9989      2.5557      0.1126      5.7153    110.7839     28.5241
   670.5000      7.9988      2.6673      0.2058     -1.0507    109.7052     31.2939
   670.7500      7.9995      2.6425      0.1873      0.4562    109.3528     30.9466
   671.0000      8.0029      2.6387      0.1015      0.6822    109.7846     29.5361
   671.2500      8.0059      2.6328      0.0559      1.0421     96.4699     29.9110
   671.5000      8.0025      2.5844      0.0555      3.9746    116.1929     28.7074
   671.7500      7.9967      2.5892      0.1186      3.6830    113.8815     28.9974
   672.0000      7.9927      2.6063      0.0866      2.6496    113.9294     28.4589
   672.2500      7.9923      2.6268      0.0953      1.4047    115.3158     27.2759
   672.5000      7.9953      2.6047      0.0423      2.7428    115.5324     27.6325
   672.7500      7.9975      2.5657      0.0708      5.1065    124.3910     29.1455
   673.0000      7.9975      2.5593      0.0809      5.4996    115.8340     27.5085
   673.2500      7.9968      2.5595      0.0812      5.4862    119.1276     27.8040
   673.5000      7.9970      2.5558      0.0977      5.7084    127.4285     29.0270
   673.7500      7.9979      2.5524      0.0615      5.9149    123.6142     28.8816
   674.0000      7.9984      2.6167      0.1590      2.0164    116.1814     28.7036
   674.2500      7.9974      2.6125      0.0847      2.2726    108.9432     29.4595
   674.5000      7.9938      2.5685      0.0128      4.9372    112.8359     28.3402
   674.7500      7.9857      2.5616      0.1096      5.3552    107.0927     28.1100
   675.0000      7.9699      2.4803      0.0864     10.2832    102.8799     27.5409
   675.2500      7.9523      2.4854      0.0603      9.9756    103.7943     27.0633
   675.5000      7.9476      2.6542      0.2146     -0.2556     94.1315     26.7352
   675.7500      7.9614      2.6913      0.2893     -2.5024    101.7467     23.7057
   676.0000      7.9842      2.5133      0.1112      8.2873    119.5061     20.2193
   676.2500      7.9978      2.4475      0.0530     12.2726    119.3992     20.5213
   676.5000      8.0021      2.4505      0.1313     12.0893    126.3319     22.8070
   676.7500      8.0051      2.4883      0.2083      9.7990    137.4594     23.9725
   677.0000      8.0079      2.4774      0.1884     10.4594    135.3592     26.9033
   677.2500      8.0074      2.4778      0.2079     10.4386    138.6342     28.6881
   677.5000      8.0055      2.5053      0.1352      8.7685    127.6138     29.7228
   677.7500      8.0043      2.5530      0.1969      5.8812    125.0847     31.1272
   678.0000      8.0035      2.7016      0.2280     -3.1292    119.6771     30.2846
   678.2500      8.0026      2.7814      0.1588     -7.9628    118.4177     30.1932
   678.5000      8.0017      2.7289      0.1004     -4.7831    125.8581     28.1662
   678.7500      8.0014      2.6522      0.0181     -0.1351    121.7522     27.8473
   679.0000      8.0016      2.6486      0.0597      0.0842    128.1181     27.2721
   679.2500      8.0013      2.6756      0.0860     -1.5536    123.2682     28.4705
   679.5000      8.0004      2.6848      0.1026     -2.1086    128.7498     26.3588
   679.7500      7.9984      2.6815      0.0861     -1.9080    124.9166     26.5565
   680.0000      7.9965      2.5778      0.0324      4.3776    127.0255     28.4829
   680.2500      7.9970      2.5536      0.1110      5.8428    111.6630     29.2010
   680.5000      7.9951      2.6002      0.1501      3.0197    114.9563     31.9445
   680.7500      7.9845      2.6665      0.1836     -0.9994    119.8520     31.9982
   681.0000      7.9713      2.6787      0.1495     -1.7372    104.5379     28.8625
   681.2500      7.9699      2.6548      0.0927     -0.2883    101.1455     27.4179
   681.5000      7.9805      2.6338      0.0672      0.9823    111.3426     28.8285
   681.7500      7.9942      2.6224      0.0346      1.6736    106.5253     28.9527
   682.0000      8.0025      2.6069      0.0671      2.6099    100.2270     30.5165
   682.2500      8.0051      2.6296      0.1108      1.2355    101.0200     29.5535
   682.5000      8.0054      2.6886      0.0927     -2.3414     95.8660     26.7325
   682.7500      8.0057      2.6925      0.0844     -2.5760    107.0104     25.8836
   683.0000      8.0062      2.6205      0.0698      1.7869    137.1371     24.6097
   683.2500      8.0060      2.5787      0.0341      4.3220    133.8080     23.9185
   683.5000      8.0054      2.5976      0.0517      3.1771    127.5998     25.0656
   683.7500      8.0050      2.6303      0.1310      1.1911    131.0744     25.3964
   684.0000      8.0048      2.6046      0.0962      2.7486    128.3109     26.0026
   684.2500      8.0048      2.5891      0.0955      3.6903    140.4265     28.3621
   684.5000      8.0048      2.6428      0.1575      0.4336    136.7868     28.2656
   684.7500      8.0044      2.6009      0.0544      2.9751    141.3334     28.3758
   685.0000      8.0026      2.6000      0.0608      3.0281    135.0074     28.6714
   685.2500      8.0009      2.6446      0.0727      0.3263    144.0947     30.1523
   685.5000      8.0021      2.6394      0.0921      0.6419    128.0184     29.9404
   685.7500      8.0036      2.6155      0.0884      2.0932    124.9792     28.7994
   686.0000      8.0038      2.5635      0.0304      5.2429    135.1295     30.2799
   686.2500      8.0047      2.5374      0.0010      6.8254    144.9697     30.9021
   686.5000      8.0085      2.5960      0.0773      3.2751    139.0035     32.3066
   686.7500      8.0111      2.6530      0.0901     -0.1832    137.9147     29.8351
   687.0000      8.0078      2.7014      0.1331     -3.1148    139.5459     29.8016
   687.2500      8.0041      2.6106     -0.0010      2.3900    129.7987     30.3852
   687.5000      8.0029      2.5093     -0.0760      8.5303    137.9491     29.7222
   687.7500      8.0014      2.5475      0.0058      6.2134    138.7456     29.9505
   688.0000      7.9995      2.5331      0.0314      7.0868    154.1839     32.7935
   688.2500      7.9976      2.5171      0.0232      8.0569    140.4810     31.9421
   688.5000      7.9948      2.5559      0.0698      5.7027    140.5339     31.8851
   688.7500      7.9901      2.5742      0.0772      4.5956    139.9413     31.6857
   689.0000      7.9810      2.5296      0.0333      7.2963    139.0448     29.3680
   689.2500      7.9672      2.4855     -0.0079      9.9673    139.8904     29.3613
   689.5000      7.9561      2.5336      0.0135      7.0517    137.7223     28.8549
   689.7500      7.9502      2.5747      0.1737      4.5637    138.8717     27.0570
   690.0000      7.9452      2.4980      0.1154      9.2124    143.7110     27.2068
   690.2500      7.9440      2.4353      0.0718     13.0135    150.5494     25.7108
   690.5000      7.9510      2.4232      0.1180     13.7454    142.5134     25.9373
   690.7500      7.9665      2.4987      0.1958      9.1688    137.0296     26.8200
