~Version Information
 VERS.                                  2.0 : CWLS LAS VERSION
 WRAP.                                   NO : WRAPING MODE
 SWARE .                 MController 2.5.0J : SOFTWARE VERSION
~Well Information
 WELL.                        Rancher 12-35 : WELL
 COMP.        Pioneer Natural Resources Inc : COMPANY
 FLD.                      PURGATOIRE RIVER : FIELD
 LOC.                    SW/NW 35 T32S R67W : LOCATION
 DATE.                             10/11/04 : DATE(S) LOGGED
 SRVC.       BLANCO GEOLOGICAL SERVICES LLC : SERVICE COMPANY
 STAT.                             COLORADO : STATE
 CNTY.                           LAS ANIMAS : COUNTY
 CTRY.                                  USA : COUNTRY
 API.                       05-071-08179-00 : API NUMBER
 STRT.FT                             449.00 : START DEPTH
 STOP.FT                            2520.00 : STOP DEPTH
 STEP.FT                               1.00 : DEPTH INCREMENT
 NULL.                                -9999 : NULL VALUE
~Curve information
 DEPTH.FT                                   :
 ROP.MIN/FT                                 :
 GAS.UNITS                                  :
~ASCII Log data
# ...
      1449.0         0.20       2517.9 
      1450.0         0.27       2180.7 
      1451.0         0.17       2019.0 
      1452.0         0.30       1813.8 
      1453.0         0.22       1715.7 
      1454.0         0.17       1648.3 
      1455.0         0.27       1562.4 
      1456.0         0.37       1515.9 
      1457.0         0.33       1508.5 
      1458.0         0.30       1476.2 
      1459.0         0.40       1373.1 
      1460.0         0.37       1259.2 
      1461.0         0.27       1230.6 
      1462.0         0.33       1239.0 
      1463.0         0.30       1241.4 
      1464.0         0.15       1238.3 
      1465.0         0.10       1243.4 
      1466.0         0.10       1255.5 
      1467.0         0.10       1269.0 
      1468.0         0.17       1294.2 
      1469.0         0.27       1310.4 
      1470.0         0.27       3325.8 
      1471.0         0.27       3960.3 
      1472.0         0.27       4345.7 
      1473.0         0.37       4289.8 
      1474.0         0.37       3549.9 
      1475.0         0.27       3094.0 
      1476.0         0.25       2724.8 
      1477.0         0.23       2379.8 
      1478.0         0.23       2103.2 
      1479.0         0.20       1912.5 
      1480.0         0.20       1760.5 
      1481.0         0.23       1631.2 
      1482.0         0.20       1546.9 
      1483.0         0.20       1490.0 
      1484.0         0.20       1462.0 
      1485.0         0.20       1451.6 
      1486.0         0.23       1445.2 
      1487.0         0.30       1435.4 
      1488.0         0.18       1427.3 
      1489.0         0.17       1417.6 
      1490.0         0.17       1405.8 
      1491.0         0.17       1392.0 
      1492.0         0.17       1379.5 
      1493.0         0.17       1364.7 
      1494.0         0.17       1350.9 
      1495.0         0.13       1337.0 
      1496.0         0.10       1327.6 
      1497.0         0.10       1321.2 
      1498.0         0.20       1303.0 
      1499.0         0.20       1282.1 
      1500.0         0.27       4165.1 
      1501.0         0.23       4208.9 
      1502.0         0.30       3727.1 
      1503.0         0.27       3312.0 
      1504.0         0.10       3168.8 
      1505.0         0.17       2921.2 
      1506.0         0.23       2564.4 
      1507.0         0.27       2218.4 
      1508.0         0.17       2028.7 
      1509.0         0.13       1882.2 
      1510.0         0.27       1554.0 
      1511.0         0.28       1356.2 
      1512.0         0.27       1303.7 
      1513.0         0.33       1339.1 
      1514.0         0.20       1358.6 
      1515.0         0.23       1375.4 
      1516.0         0.23       1375.1 
      1517.0         0.17       1388.2 
      1518.0         0.20       1429.7 
      1519.0         0.17       1472.5 
      1520.0         0.23       1519.6 
      1521.0         0.25       1558.4 
      1522.0         0.17       1575.9 
      1523.0         0.20       1585.0 
      1524.0         0.20       1585.0 
      1525.0         0.20       1573.2 
      1526.0         0.17       1560.4 
      1527.0         0.20       1545.6 
      1528.0         0.20       1527.1 
      1529.0         0.20       1503.1 
      1530.0         0.20       2837.3 
      1531.0         0.23       3058.3 
      1532.0         0.33       3021.6 
      1533.0         0.27       2805.6 
      1534.0         0.32       2700.9 
      1535.0         0.27       2625.7 
      1536.0         0.27       2463.7 
      1537.0         0.27       2234.9 
      1538.0         0.23       2037.8 
      1539.0         0.20       1892.9 
      1540.0         0.23       1759.5 
      1541.0         0.20       1677.7 
      1542.0         0.17       1618.4 
      1543.0         0.23       1570.5 
      1544.0         0.17       1554.0 
      1545.0         0.20       1541.9 
      1546.0         0.23       1520.7 
      1547.0         0.20       1505.2 
      1548.0         0.23       1489.7 
      1549.0         0.25       1474.8 
      1550.0         0.20       1456.0 
      1551.0         0.23       1436.1 
      1552.0         0.23       1421.3 
      1553.0         0.23       1413.2 
      1554.0         0.23       1404.8 
      1555.0         0.23       1389.3 
      1556.0         0.23       1364.3 
      1557.0         0.23       1334.3 
      1558.0         0.20       1316.8 
      1559.0         0.27       1294.9 
      1560.0         0.27       3478.1 
      1561.0         0.20       3496.0 
      1562.0         0.33       3042.2 
      1563.0         0.30       2713.7 
      1564.0         0.27       2595.1 
      1565.0         0.23       2500.4 
      1566.0         0.23       2333.3 
      1567.0         0.23       2139.6 
      1568.0         0.20       1974.5 
      1569.0         0.17       1855.2 
      1570.0         0.20       1734.3 
      1571.0         0.22       1642.6 
      1572.0         0.20       1573.9 
      1573.0         0.13       1543.9 
      1574.0         0.13       1523.0 
      1575.0         0.10       1512.2 
      1576.0         0.17       1497.7 
      1577.0         0.13       1490.0 
      1578.0         0.13       1484.6 
      1579.0         0.20       1479.6 
      1580.0         0.27       1473.8 
      1581.0         0.27       1445.5 
      1582.0         0.23       1412.2 
      1583.0         0.17       1384.5 
      1584.0         0.17       1349.8 
      1585.0         0.20       1320.5 
      1586.0         0.20       1314.8 
      1587.0         0.17       1317.8 
      1588.0         0.17       1321.5 
      1589.0         0.28       1323.6 
      1590.0         0.27       3553.9 
      1591.0         0.27       3406.7 
      1592.0         0.23       3115.3 
      1593.0         0.30       2888.2 
      1594.0         0.27       2733.5 
      1595.0         0.13       2632.8 
      1596.0         0.20       2443.5 
      1597.0         0.30       2162.1 
      1598.0         0.37       1890.2 
      1599.0         0.30       1744.0 
      1600.0         0.20       1666.2 
      1601.0         0.18       1614.3 
      1602.0         0.13       1575.6 
      1603.0         0.23       1524.0 
      1604.0         0.20       1508.5 
      1605.0         0.20       1502.5 
      1606.0         0.20       1491.7 
      1607.0         0.27       1456.6 
      1608.0         0.23       1409.8 
      1609.0         0.30       1377.1 
      1610.0         0.20       1353.9 
      1611.0         0.20       1329.6 
      1612.0         0.13       1312.1 
      1613.0         0.13       1296.9 
      1614.0         0.17       1279.8 
      1615.0         0.13       1269.0 
      1616.0         0.20       1259.9 
      1617.0         0.20       1254.5 
      1618.0         0.25       1255.2 
      1619.0         0.27       1257.2 
      1620.0         0.27       3350.1 
      1621.0         0.27       3569.8 
      1622.0         0.33       3331.9 
      1623.0         0.27       2925.6 
      1624.0         0.33       2693.1 
      1625.0         0.27       2561.4 
      1626.0         0.15       2464.7 
      1627.0         0.33       2174.9 
      1628.0         0.30       1942.1 
      1629.0         0.43       1692.1 
      1630.0         0.33       1547.3 
      1631.0         0.23       1486.0 
      1632.0         0.23       1449.9 
      1633.0         0.20       1437.1 
      1634.0         0.20       1428.7 
      1635.0         0.20       1418.2 
      1636.0         0.20       1393.0 
      1637.0         0.23       1342.8 
      1638.0         0.32       1296.9 
      1639.0         0.23       1296.9 
      1640.0         0.23       1306.4 
      1641.0         0.30       1308.4 
      1642.0         0.20       1302.3 
      1643.0         0.27       1291.2 
      1644.0         0.20       1281.8 
      1645.0         0.20       1272.7 
      1646.0         0.30       1255.5 
      1647.0         0.30       1235.6 
      1648.0         0.23       1223.5 
