~Version Information
VERS.                      2.0: CWLS Log ASCII Standard - VERSION 2.0
WRAP.                       NO: One line per depth step
~Well Information Block
STRT.FT                39.7500: 
STOP.FT              1484.0000: 
STEP.FT                 0.2500: 
NULL.                -999.2500: 
COMP.          Evergreen Operating Corporation: COMPANY
WELL.              Chase 21-10: WELL
FLD.           Purgatoire River: FIELD
LOC.           1122' FNL & 1544' FWL: LOCATION
PROV.                       CO: PROVINCE
CNTY.               Las Animas: COUNTRY
SRVC.                         : SERVICE COMPANY
DATE.          Fri May 28 15:54:16 2004: LOG DATE
UWI.           05 071 08006 00: UNIQUE WELL ID
~Curve Information Block
DEPT.FT            0 000 00 00: Depth
TT3.usec                      : CBL 3' Travel Time
AMP3.mV                       : CBL 3' Amplitude
GR.GAPI                       : Gamma Ray
CCL.                          : Casing Collar Locator
~Parameter Information Block
~A  Depth       TT3         AMP3         GR         CCL     
# ...
   877.2500    768.0000     10.4103    112.9928      0.0000
   877.5000    768.0000     10.1786    110.3176      0.0000
   877.7500    768.0000      9.9793    111.6732      0.0000
   878.0000    768.0000      9.8135    116.4392      0.0000
   878.2500    768.0000      9.6687    121.9398      0.0000
   878.5000    768.0000      9.5419    125.3716      0.0000
   878.7500    768.0000      9.4432    125.7754      0.0000
   879.0000    768.0000      9.3804    124.3289      0.0000
   879.2500    768.0000      9.3451    122.8403      0.0000
   879.5000    768.0000      9.3155    122.1359      0.0000
   879.7500    768.0000      9.2668    121.8054      0.0000
   880.0000    768.0000      9.1846    121.0287      0.0000
   880.2500    768.0000      9.0745    119.4001      0.0000
   880.5000    768.0000      8.9564    117.1609      0.0000
   880.7500    768.0000      8.8494    114.8123      0.0000
   881.0000    768.0000      8.7640    112.5498      0.0000
   881.2500    768.0000      8.7067    110.2486      0.0000
   881.5000    768.0000      8.6838    108.1267      0.0000
   881.7500    768.0000      8.6970    107.2093      0.0000
   882.0000    768.0000      8.7380    108.6265      0.0000
   882.2500    768.0000      8.7900    112.2745      0.0000
   882.5000    768.0000      8.8349    116.5130      0.0000
   882.7500    768.0000      8.8655    119.4260      0.0000
   883.0000    768.0000      8.8952    120.2103      0.0000
   883.2500    768.0000      8.9490    119.3028      0.0000
   883.5000    768.0000      9.0409    117.5074      0.0000
   883.7500    768.0000      9.1607    115.2113      0.0000
   884.0000    768.0000      9.2846    112.2759      0.0000
   884.2500    768.0000      9.3958    108.4471      0.0000
   884.5000    768.0000      9.4914    103.8694      0.0000
   884.7500    768.0000      9.5759     99.1917      0.0000
   885.0000    768.0000      9.6562     95.0924      0.0000
   885.2500    768.0000      9.7422     91.8332      0.0000
   885.5000    768.0000      9.8434     89.4866      0.0000
   885.7500    768.0000      9.9600     88.3987      0.0000
   886.0000    768.0000     10.0774     89.0552      0.0000
   886.2500    768.0000     10.1694     91.5013      0.0000
   886.5000    768.0000     10.2069     95.1885      0.0000
   886.7500    768.0000     10.1700     99.6370      0.0000
   887.0000    768.0000     10.0587    104.9890      0.0000
   887.2500    768.0000      9.8933    111.4717      0.0000
   887.5000    768.0000      9.7011    118.4241      0.0000
   887.7500    768.0000      9.4986    124.3399      0.0000
   888.0000    768.0000      9.2856    127.8872      0.0000
   888.2500    768.0000      9.0514    128.5811      0.0000
   888.5000    768.0000      8.7906    126.5356      0.0000
   888.7500    767.9982      8.5164    121.9377      0.0000
   889.0000    767.9886      8.2591    115.0000      0.0000
   889.2500    767.9376      8.0483    106.3595      0.0000
   889.5000    767.7354      7.8960     97.3175      0.0000
   889.7500    767.0989      7.7949     89.5196      0.0000
   890.0000    765.4719      7.7280     84.2158      0.0000
   890.2500    762.0121      7.6805     81.5893      0.0000
   890.5000    755.7598      7.6504     80.7554      0.0000
   890.7500    746.0802      7.6516     80.5430      0.0000
   891.0000    733.4155      7.7021     80.2879      0.0000
   891.2500    719.8326      7.8103     79.8937      0.0000
   891.5000    708.4579      7.9794     79.4537      0.0000
   891.7500    701.8053      8.2219     79.1993      0.0000
   892.0000    700.4281      8.5563     79.5985      0.0000
   892.2500    703.1149      8.9800     80.8757      0.0000
   892.5000    708.2905      9.4514     82.1887      0.0000
   892.7500    715.0211      9.9032     81.7569      0.0000
   893.0000    722.4725     10.2749     78.3671      0.0000
   893.2500    729.0172     10.5396     72.7120      0.0000
   893.5000    733.1880     10.7037     66.9073      0.0000
   893.7500    735.5367     10.7832     62.7826      0.0000
   894.0000    738.1503     10.7805     60.8758      0.0000
   894.2500    741.9389     10.6908     60.8073      0.0000
   894.5000    745.4880     10.5327     62.0818      0.0000
   894.7500    747.0685     10.3600     64.2657      0.0000
   895.0000    747.0408     10.2345     66.5572      0.0000
   895.2500    747.6371     10.1879     67.7062      0.0000
   895.5000    750.6079     10.2110     66.8995      0.0000
   895.7500    755.5824     10.2744     64.7852      0.0000
   896.0000    760.6746     10.3549     63.1676      0.0000
   896.2500    764.1532     10.4414     63.3352      0.0000
   896.5000    765.2835     10.5164     64.7805      0.0000
   896.7500    764.0602     10.5447     65.8079      0.0000
   897.0000    760.8717     10.5022     65.3164      0.0000
   897.2500    756.4457     10.4292     63.6393      0.0000
   897.5000    751.4197     10.4473     61.6572      0.0000
   897.7500    745.6265     10.6943     59.7498      0.0000
   898.0000    738.4499     11.2170     58.0262      0.0000
   898.2500    730.3629     11.9137     57.0294      0.0000
   898.5000    723.6224     12.5842     57.4104      0.0000
   898.7500    721.0080     13.0561     58.9035      0.0000
   899.0000    723.9658     13.2774     60.2318      0.0000
   899.2500    731.7357     13.2995     60.4231      0.0000
   899.5000    741.7423     13.1833     60.1976      0.0000
   899.7500    750.8379     12.9336     61.8667      0.0000
   900.0000    756.4903     12.5167     67.6077      0.0000
   900.2500    757.2639     11.9190     77.5543      0.0000
   900.5000    753.0009     11.1825     89.4458      0.0000
   900.7500    745.1843     10.3873    100.1688      0.0000
   901.0000    736.6627      9.6115    107.8122      0.0000
   901.2500    729.9604      8.9085    112.6053      0.0000
   901.5000    725.5605      8.3082    116.2235      0.0000
   901.7500    722.3790      7.8170    120.0733      0.0000
   902.0000    720.1451      7.4123    123.8175      0.0000
   902.2500    720.4500      7.0631    125.3931      0.0000
   902.5000    724.6675      6.7668    122.6898      0.0000
   902.7500    731.7026      6.5516    115.5756      3.0000
   903.0000    739.1238      6.4469    106.5135     -3.0000
   903.2500    745.8341      6.4652     99.1096     -3.0000
   903.5000    752.2004      6.6033     95.7618      3.0000
   903.7500    758.2129      6.8536     96.5045      0.0000
   904.0000    762.9918      7.2086     99.7924      0.0000
   904.2500    765.8860      7.6400    103.9330      0.0000
   904.5000    767.0376      8.0693    107.7939      0.0000
   904.7500    766.8588      8.3992    110.6696      0.0000
   905.0000    765.5116      8.6118    111.8425      0.0000
   905.2500    763.0539      8.7957    110.5490      0.0000
   905.5000    759.9350      9.0387    106.7234      0.0000
   905.7500    757.0965      9.3312    101.6682      0.0000
   906.0000    755.3849      9.6024     97.3681      0.0000
   906.2500    754.8303      9.8040     94.8709      0.0000
   906.5000    754.6978      9.9282     93.7329      0.0000
   906.7500    754.4410      9.9799     93.1824      0.0000
   907.0000    754.5217      9.9699     93.2523      0.0000
   907.2500    755.9319      9.9316     94.5229      0.0000
   907.5000    758.8847      9.9151     97.3744      0.0000
   907.7500    762.4004      9.9464    101.8980      0.0000
   908.0000    765.2510      9.9913    108.0384      0.0000
   908.2500    766.9302      9.9810    115.3321      0.0000
   908.5000    767.6717      9.8786    122.7816      0.0000
   908.7500    767.9206      9.7122    129.2792      0.0000
   909.0000    767.9849      9.5412    134.0329      0.0000
   909.2500    767.9980      9.3997    136.7153      0.0000
   909.5000    768.0000      9.2786    137.6066      0.0000
   909.7500    768.0000      9.1534    137.4881      0.0000
   910.0000    768.0000      9.0156    136.9690      0.0000
   910.2500    768.0000      8.8750    135.9734      0.0000
   910.5000    768.0000      8.7421    134.1080      0.0000
