~Version Information
VERS.                      2.0: CWLS Log ASCII Standard - VERSION 2.0
WRAP.                       NO: One line per depth step
~Well Information Block
STRT.FT               258.0000: 
STOP.FT              1001.0000: 
STEP.FT                 0.2500: 
NULL.                -999.2500: 
COMP.          Pioneer Natural Resources: COMPANY
WELL.          Piggyback 33-25: WELL
FLD.           Purgatoire River: FIELD
LOC.           1600' FSL & 1800' FEL: LOCATION
PROV.                 Colorado: PROVINCE
CNTY.               Las Animas: COUNTRY
SRVC.                Patterson: SERVICE COMPANY
DATE.          Fri Apr 29 14:22:38 2005: LOG DATE
UWI.           05 071 08233 00: UNIQUE WELL ID
~Curve Information Block
DEPT.FT            0 000 00 00: Depth
SN.Ohm-m                      : IEL Short Normal
SP.mV                         : IEL Spontaneous Potential
DIR.Ohm-m                     : IEL Induction Resistivity
GR.GAPI                       : Gamma Ray
~Parameter Information Block
~A  Depth        SN          SP         DIR          GR     
   258.0000   2000.0000   2000.0000     87.8114    129.0283
   258.2500   2000.0000   2000.0000     88.9494    129.8625
   258.5000   2000.0000   2000.0000     89.4803    129.7123
   258.7500   2000.0000   2000.0000     89.5774    129.3445
   259.0000   2000.0000   2000.0000     89.5683    130.2775
   259.2500   2000.0000   2000.0000     89.9189    132.5877
   259.5000   2000.0000   2000.0000     91.2580    137.9529
   259.7500   2000.0000   2000.0000     94.3180    141.4059
   260.0000   2000.0000   2000.0000     99.6540    143.5830
   260.2500   2000.0000   2000.0000    107.0438    142.0968
   260.5000   2000.0000   2000.0000    114.7235    136.1116
   260.7500   2000.0000   2000.0000    119.5101    131.0773
   261.0000   2000.0000   2000.0000    119.1473    124.8192
   261.2500   2000.0000   2000.0000    114.6860    122.6022
   261.5000   2000.0000   2000.0000    109.1837    122.5598
   261.7500   2000.0000   2000.0000    104.9111    124.2373
   262.0000   2000.0000   2000.0000    102.4996    127.8887
   262.2500   2000.0000   2000.0000    101.5181    130.0132
   262.5000   2000.0000   2000.0000    101.2109    130.5857
   262.7500   2000.0000   2000.0000    100.9936    128.2200
   263.0000   2000.0000   2000.0000    100.6093    120.5967
   263.2500   2000.0000   2000.0000    100.0603    114.0466
   263.5000   2000.0000   2000.0000     99.4905    104.9818
   263.7500   2000.0000   2000.0000     99.2374    100.6701
   264.0000   2000.0000   2000.0000     99.8959     97.1777
   264.2500   2000.0000   2000.0000    102.2715     96.3122
   264.5000   2000.0000   2000.0000    107.0537     96.2340
   264.7500   2000.0000   2000.0000    114.2872     96.8342
   265.0000   2000.0000   2000.0000    122.7800     99.0167
   265.2500   2000.0000   2000.0000    130.0998    101.4185
   265.5000   2000.0000   2000.0000    133.9028    105.8590
   265.7500   2000.0000   2000.0000    133.4928    108.6482
   266.0000   2000.0000   2000.0000    129.5412    111.4404
   266.2500   2000.0000   2000.0000    122.9294    112.2152
   266.5000   2000.0000   2000.0000    114.6964    112.2570
   266.7500   2000.0000   2000.0000    106.3567    111.8521
   267.0000   2000.0000   2000.0000     99.4129    110.7543
   267.2500   2000.0000   2000.0000     94.6720    109.8090
   267.5000   2000.0000   2000.0000     92.1482    108.6689
   267.7500   2000.0000   2000.0000     91.3580    108.4632
   268.0000   2000.0000   2000.0000     91.6535    109.1180
   268.2500   2000.0000   2000.0000     92.4802    110.0709
   268.5000   2000.0000   2000.0000     93.4923    112.2267
   268.7500   2000.0000   2000.0000     94.5111    114.2645
   269.0000   2000.0000   2000.0000     95.3507    118.6118
   269.2500   2000.0000   2000.0000     95.7144    122.7337
   269.5000   2000.0000   2000.0000     95.3131    131.0449
   269.7500   2000.0000   2000.0000     94.1807    137.3244
   270.0000   2000.0000   2000.0000     92.8532    145.1571
   270.2500   2000.0000   2000.0000     92.1749    147.8850
   270.5000   2000.0000   2000.0000     92.8161    147.9469
   270.7500   2000.0000   2000.0000     94.7464    146.2824
   271.0000   2000.0000   2000.0000     96.8276    142.9700
   271.2500   2000.0000   2000.0000     96.9643    140.4689
   271.5000   2000.0000   2000.0000     93.3279    135.5523
   271.7500   2000.0000   2000.0000     85.8958    131.0169
   272.0000   2000.0000   2000.0000     76.4337    122.3215
   272.2500   2000.0000   2000.0000     67.1852    115.8591
   272.5000   2000.0000   2000.0000     60.0005    106.7700
   272.7500   2000.0000   2000.0000     56.2982    102.0688
   273.0000   2000.0000   2000.0000     57.5999     98.3073
   273.2500   2000.0000   2000.0000     66.8884     98.2665
   273.5000   2000.0000   2000.0000     92.5142    101.2211
   273.7500   2000.0000   2000.0000    164.1960    104.3730
   274.0000   2000.0000   2000.0000    437.1729    109.9784
   274.2500   2000.0000   2000.0000   2272.0576    114.3892
   274.5000   2000.0000   2000.0000   1503.5922    122.2331
   274.7500   2000.0000   2000.0000    436.6190    119.5470
   275.0000   2000.0000   2000.0000    230.0187    126.2577
   275.2500   2000.0000   2000.0000    165.5663    129.4005
   275.5000   2000.0000   2000.0000    143.9130    132.3467
   275.7500   2000.0000   2000.0000    143.0626    124.4284
   276.0000   2000.0000   2000.0000    156.3837    125.8783
   276.2500   2000.0000   2000.0000    170.3925    126.7808
   276.5000   2000.0000   2000.0000    148.0757    128.5511
   276.7500   2000.0000   2000.0000     93.1967    120.7013
   277.0000   2000.0000   2000.0000     53.2072    124.2715
   277.2500   2000.0000   2000.0000     33.5044    127.2873
   277.5000   2000.0000   2000.0000     25.0089    132.8589
   277.7500   2000.0000   2000.0000     22.9106    126.5996
   278.0000   2000.0000   2000.0000     27.6286    135.2461
   278.2500   2000.0000   2000.0000     61.8566    142.3925
   278.5000   2000.0000   2000.0000 100000.0000    153.6364
   278.7500   2000.0000   2000.0000 100000.0000    145.9560
   279.0000   2000.0000   2000.0000 100000.0000    150.6802
   279.2500   2000.0000   2000.0000 100000.0000    151.1918
   279.5000   2000.0000   2000.0000 100000.0000    149.4910
   279.7500   2000.0000   2000.0000 100000.0000    133.6662
   280.0000   2000.0000   2000.0000     58.9974    131.1290
   280.2500   2000.0000   2000.0000      8.7425    129.1643
   280.5000   2000.0000   2000.0000      4.9258    125.2365
   280.7500   2000.0000   2000.0000      3.9306    121.8956
   281.0000   2000.0000   2000.0000      3.8370    116.5848
   281.2500   2000.0000   2000.0000      4.2846    113.7442
   281.5000   2000.0000   2000.0000      5.2404    112.0917
   281.7500   2000.0000   2000.0000      6.8666    113.1845
   282.0000   2000.0000   2000.0000      9.7076    117.7830
   282.2500   2000.0000   2000.0000     15.4204    122.1300
   282.5000   2000.0000   2000.0000     29.5079    129.0666
   282.7500   2000.0000   2000.0000     70.6514    133.2056
   283.0000   2000.0000   2000.0000    119.7263    137.9959
   283.2500   2000.0000   2000.0000     63.5747    140.2551
   283.5000   2000.0000   2000.0000     31.2932    142.6723
   283.7500   2000.0000   2000.0000     19.7098    143.8681
   284.0000   2000.0000   2000.0000     14.9639    145.0938
   284.2500   2000.0000   2000.0000     12.8128    145.4192
   284.5000   2000.0000   2000.0000     11.7769    145.0665
   284.7500   2000.0000   2000.0000     11.2378    144.3641
   285.0000   2000.0000   2000.0000     10.9214    143.0168
   285.2500   2000.0000   2000.0000     10.7218    142.2618
   285.5000   2000.0000   2000.0000     10.6210    141.8796
   285.7500   2000.0000   2000.0000     10.6537    142.2294
   286.0000   2000.0000   2000.0000     10.8868    143.2639
   286.2500   2000.0000   2000.0000     11.3930    143.7168
   286.5000   2000.0000   2000.0000     12.2054    142.6226
   286.7500   2000.0000   2000.0000     13.2579    139.9702
   287.0000   2000.0000   2000.0000     14.3517    132.7919
   287.2500   2000.0000   2000.0000     15.2310    126.3190
   287.5000   2000.0000   2000.0000     15.7633    115.3355
   287.7500   2000.0000   2000.0000     16.0279    107.9620
   288.0000   2000.0000   2000.0000     16.2056     98.3518
   288.2500   2000.0000   2000.0000     16.4321     93.8311
   288.5000   2000.0000   2000.0000     16.7563     90.9545
   288.7500   2000.0000   2000.0000     17.1821     91.7127
   289.0000   2000.0000   2000.0000     17.7230     96.0230
   289.2500   2000.0000   2000.0000     18.4278    100.1460
   289.5000   2000.0000   2000.0000     19.3623    106.4025
   289.7500   2000.0000   2000.0000     20.5662    109.5210
   290.0000   2000.0000   2000.0000     22.0099    111.0731
   290.2500   2000.0000   2000.0000     23.5734    109.6843
   290.5000   2000.0000   2000.0000     25.0635    104.8301
   290.7500   2000.0000   2000.0000     26.2732    100.9416
   291.0000   2000.0000   2000.0000     27.0581     96.2570
   291.2500   2000.0000   2000.0000     27.3826     94.5335
