~Version Information
VERS.                      2.0: CWLS Log ASCII Standard - VERSION 2.0
WRAP.                       NO: One line per depth step
~Well Information Block
STRT.FT               840.0000: 
STOP.FT              2020.0000: 
STEP.FT                 0.1000: 
NULL.                -999.2500: 
COMP.          Petrogulf Corporation: COMPANY
WELL.           Lavedure 7-44R: WELL
FLD.           Purgatorie River: FIELD
LOC.           946' FSL & 521' FEL: LOCATION
PROV.                 Colorado: PROVINCE
CNTY.               Las Animas: COUNTRY
SRVC.                Patterson: SERVICE COMPANY
DATE.          Mon Sep 26 08:30:48 2005: LOG DATE
UWI.                          : UNIQUE WELL ID
~Curve Information Block
DEPT.FT            0 000 00 00: Depth
DCAL.in                       : CDL Caliper
RHOB.g/cc                     : CDL Bulk Density
RHOC.g/cc                     : CDL Density Correction
DPOR.pu                       : CDL Density Porosity
GR.GAPI                       : Gamma Ray
NPOR.pu                       : Neutron Porosity
~Parameter Information Block
~A  Depth       DCAL        RHOB        RHOC        DPOR         GR         NPOR    
   840.0000      8.1355      1.9557     -0.4737     42.0816     79.2019     38.5830
   840.1000      8.1355      1.9513     -0.4725     42.3439     77.5915     38.8127
   840.2000      8.1355      1.9513     -0.4683     42.3425     78.3207     39.0731
   840.3000      8.1360      1.9475     -0.4761     42.5759     81.3465     39.1720
   840.4000      8.1360      1.9448     -0.5223     42.7408     84.0466     39.1182
   840.5000      8.1342      1.9476     -0.4342     42.5708     86.4618     39.0702
   840.6000      8.1342      1.9439     -0.4514     42.7942     89.5847     39.1503
   840.7000      8.1342      1.9340     -0.4818     43.3965     93.4031     39.3119
   840.8000      8.1357      1.9245     -0.4520     43.9722     96.6872     39.5388
   840.9000      8.1357      1.9078     -0.4812     44.9817     98.3554     39.8470
   841.0000      8.1397      1.8809     -0.4834     46.6096     98.6949     40.1507
   841.1000      8.1397      1.8586     -0.5628     47.9662     97.8209     40.4469
   841.2000      8.1397      1.8575     -0.5341     48.0319     96.4366     40.7464
   841.3000      8.1310      1.8739     -0.5006     47.0379     96.3225     41.0278
   841.4000      8.1310      1.8884     -0.4908     46.1559     98.6259     41.2650
   841.5000      8.1298      1.8828     -0.4476     46.4950    100.5733     41.3399
   841.6000      8.1298      1.8555     -0.5267     48.1509     98.9446     41.3848
   841.7000      8.1298      1.8239     -0.5293     50.0666     95.4296     41.5797
   841.8000      8.1383      1.8029     -0.5360     51.3383     93.4598     41.7643
   841.9000      8.1383      1.7962     -0.5231     51.7479     93.9320     41.7366
   842.0000      8.1413      1.8028     -0.5330     51.3465     95.1748     41.5413
   842.1000      8.1413      1.8167     -0.5299     50.5000     94.5124     41.4090
   842.2000      8.1413      1.8197     -0.4784     50.3239     92.3868     41.3849
   842.3000      8.1324      1.8044     -0.5185     51.2503     91.7125     41.3475
   842.4000      8.1324      1.7913     -0.5524     52.0433     92.5030     41.3003
   842.5000      8.1319      1.7954     -0.5674     51.7947     93.6660     41.2890
   842.6000      8.1319      1.8091     -0.5256     50.9614     95.7632     41.3483
   842.7000      8.1319      1.8183     -0.4880     50.4074     97.5456     41.4827
   842.8000      8.1376      1.8120     -0.4896     50.7893     97.9108     41.4962
   842.9000      8.1376      1.7877     -0.5063     52.2615     98.0519     41.2687
   843.0000      8.1412      1.7574     -0.5487     54.0941     99.1184     41.0149
   843.1000      8.1412      1.7414     -0.5912     55.0672    100.1960     41.0418
   843.2000      8.1412      1.7477     -0.5350     54.6843     99.3318     41.3306
   843.3000      8.1335      1.7683     -0.5768     53.4383     97.8422     41.5810
   843.4000      8.1335      1.7962     -0.5409     51.7465     98.2576     41.7778
   843.5000      8.1400      1.8312     -0.5438     49.6253    100.0548     42.0107
   843.6000      8.1400      1.8760     -0.5526     46.9099    101.1888     42.2514
   843.7000      8.1400      1.9286     -0.4960     43.7228    100.3320     42.5615
   843.8000      8.1373      1.9771     -0.5118     40.7812     98.3742     42.8447
   843.9000      8.1373      2.0038     -0.4833     39.1660     96.5461     42.8571
   844.0000      8.1381      2.0018     -0.5405     39.2863     94.5320     42.6701
   844.1000      8.1381      1.9893     -0.5673     40.0442     92.4674     42.6203
   844.2000      8.1381      1.9771     -0.5482     40.7826     90.4374     42.7957
   844.3000      8.1330      1.9522     -0.5793     42.2929     87.6636     42.9604
   844.4000      8.1330      1.9051     -0.5641     45.1470     84.6265     42.9249
   844.5000      8.1317      1.8478     -0.6589     48.6201     81.9181     42.7509
   844.6000      8.1317      1.8013     -0.6420     51.4355     78.6914     42.7164
   844.7000      8.1317      1.7718     -0.6383     53.2255     74.8038     42.9363
   844.8000      8.1333      1.7598     -0.6600     53.9512     72.1234     43.1574
   844.9000      8.1333      1.7663     -0.6528     53.5601     71.4109     43.0979
   845.0000      8.1243      1.7808     -0.6917     52.6787     71.0994     42.8766
   845.1000      8.1243      1.7901     -0.6465     52.1136     70.3215     42.8514
   845.2000      8.1243      1.7959     -0.7140     51.7626     70.3133     43.0179
   845.3000      8.1307      1.8141     -0.6959     50.6631     71.4588     43.2620
   845.4000      8.1307      1.8460     -0.6331     48.7276     71.3916     43.5952
   845.5000      8.1354      1.8743     -0.6354     47.0113     68.0493     43.7766
   845.6000      8.1354      1.8915     -0.5942     45.9714     63.7687     43.7075
   845.7000      8.1354      1.9119     -0.6165     44.7308     63.7338     43.6283
   845.8000      8.1327      1.9463     -0.5493     42.6488     69.2187     43.5940
   845.9000      8.1327      1.9799     -0.5083     40.6136     75.2550     43.4417
   846.0000      8.1314      1.9955     -0.5455     39.6651     78.1336     43.2590
   846.1000      8.1314      1.9922     -0.5186     39.8645     80.1616     43.2892
   846.2000      8.1314      1.9796     -0.5860     40.6324     83.6123     43.4323
   846.3000      8.1327      1.9597     -0.5150     41.8393     87.8994     43.4262
   846.4000      8.1327      1.9271     -0.5679     43.8127     93.0441     43.1753
   846.5000      8.1356      1.8948     -0.6364     45.7702     97.7889     42.8050
   846.6000      8.1356      1.8823     -0.6137     46.5279    100.1007     42.6259
   846.7000      8.1356      1.8912     -0.5930     45.9893    100.2363     42.6548
   846.8000      8.1332      1.9090     -0.5912     44.9096     98.2766     42.6322
   846.9000      8.1332      1.9258     -0.5791     43.8879     96.5267     42.5087
   847.0000      8.1359      1.9382     -0.5401     43.1388     96.6693     42.4160
   847.1000      8.1359      1.9385     -0.5125     43.1186     97.3768     42.4974
   847.2000      8.1359      1.9235     -0.5713     44.0286     98.8587     42.7327
   847.3000      8.1437      1.9035     -0.5559     45.2434     99.9080     42.9605
   847.4000      8.1437      1.8862     -0.5370     46.2932     98.3314     43.0357
   847.5000      8.1386      1.8800     -0.5991     46.6645     95.5724     42.9260
   847.6000      8.1386      1.8998     -0.5685     45.4688     94.4553     42.7990
   847.7000      8.1386      1.9363     -0.4610     43.2542     96.1174     42.9049
   847.8000      8.1380      1.9632     -0.4796     41.6231     98.7913     43.2326
   847.9000      8.1380      1.9734     -0.4843     41.0079     99.7816     43.5367
   848.0000      8.1399      1.9752     -0.4698     40.8999     99.6208     43.6495
   848.1000      8.1399      1.9728     -0.4488     41.0415     99.4423     43.5188
   848.2000      8.1399      1.9712     -0.5005     41.1382     99.2820     43.2573
   848.3000      8.1396      1.9773     -0.4513     40.7678     98.5763     43.0743
   848.4000      8.1396      1.9879     -0.4786     40.1302     97.4773     42.9832
   848.5000      8.1424      1.9933     -0.4637     39.7992     97.8705     42.8804
   848.6000      8.1424      1.9897     -0.4563     40.0185    100.0841     42.8023
   848.7000      8.1424      1.9845     -0.4868     40.3363    102.2098     42.9051
   848.8000      8.1418      1.9810     -0.4728     40.5450    103.8693     43.0491
   848.9000      8.1418      1.9683     -0.4909     41.3165    104.3462     43.0342
   849.0000      8.1411      1.9450     -0.5333     42.7279    103.3291     43.0292
   849.1000      8.1411      1.9287     -0.5585     43.7124    103.0676     43.0724
   849.2000      8.1411      1.9297     -0.5063     43.6545    104.2787     42.9663
   849.3000      8.1371      1.9422     -0.5569     42.8953    106.4120     42.6732
   849.4000      8.1371      1.9582     -0.4866     41.9259    108.9513     42.3551
   849.5000      8.1393      1.9639     -0.4953     41.5835    108.9256     42.2610
