~Version Information
VERS.                      2.0: CWLS Log ASCII Standard - VERSION 2.0
WRAP.                       NO: One line per depth step
~Well Information Block
STRT.FT               580.0000: 
STOP.FT              2729.7500: 
STEP.FT                 0.2500: 
NULL.                -999.2500: 
COMP.          Pioneer Natural Resources: COMPANY
WELL.          Sand Pebbles 13-33: WELL
FLD.           Purgatoire River: FIELD
LOC.           1883' FSL & 63' FWL----: LOCATION
PROV.                 Colorado: PROVINCE
CNTY.               Las Animas: COUNTRY
SRVC.                Patterson: SERVICE COMPANY
DATE.          Fri Mar 11 13:47:45 2005: LOG DATE
UWI.           05 071 08224 00: UNIQUE WELL ID
~Curve Information Block
DEPT.FT            0 000 00 00: Depth
SN.Ohm-m                      : IEL Short Normal
SP.mV                         : IEL Spontaneous Potential
DIR.Ohm-m                     : IEL Induction Resistivity
GR.GAPI                       : Gamma Ray
~Parameter Information Block
~A  Depth        SN          SP         DIR          GR     
# ...
  2422.5000     11.2732     29.9072 100000.0000     83.6286
  2422.7500     11.2919     28.9834 100000.0000     82.8433
  2423.0000     11.3435     28.0716 100000.0000     81.1958
  2423.2500     11.4073     27.2408 100000.0000     80.0893
  2423.5000     11.4591     26.5658 100000.0000     78.4790
  2423.7500     11.4821     26.1014 100000.0000     77.4754
  2424.0000     11.4737     25.8569 100000.0000     76.6139
  2424.2500     11.4499     25.7800     41.3779     76.7879
  2424.5000     11.4399     25.7631     17.6940     77.9322
  2424.7500     11.4726     25.6700     11.9221     78.7477
  2425.0000     11.5583     25.3739      8.7633     79.3857
  2425.2500     11.6790     24.7895      6.4697     79.5351
  2425.5000     11.7923     23.8845      4.8446     80.0664
  2425.7500     11.8482     22.6640      3.8491     80.9139
  2426.0000     11.8099     21.1381      3.4164     82.8650
  2426.2500     11.6663     19.2881      3.5976     84.4260
  2426.5000     11.4314     17.0480      5.0317     86.8487
  2426.7500     11.1316     14.3107     15.5207     88.3604
  2427.0000     10.7907     10.9528 100000.0000     90.3839
  2427.2500     10.4183      6.8647 100000.0000     91.6857
  2427.5000     10.0021      1.9552 100000.0000     93.6808
  2427.7500      9.5044     -3.8845 100000.0000     94.8374
  2428.0000      8.8718    -10.8576 100000.0000     95.7764
  2428.2500      8.0663    -19.3406      1.6994     95.7169
  2428.5000      7.1066    -29.8913      0.4804     94.5565
  2428.7500      6.0823    -43.1175      0.1676     93.0053
  2429.0000      5.1175    -59.4037      0.0619     89.2854
  2429.2500      4.3083    -78.5891      0.0302     85.6708
  2429.5000      3.6884    -99.7731      0.0226     78.1201
  2429.7500      3.2411   -121.3982      0.0270     71.6692
  2430.0000      2.9329   -141.6320      0.0499     60.8705
  2430.2500      2.7333   -158.8915      0.1265     53.9265
  2430.5000      2.6170   -172.2677      0.3467     45.3315
  2430.7500      2.5595   -181.6661      0.9675     41.1418
  2431.0000      2.5368   -187.6445      4.0243     36.9986
  2431.2500      2.5290   -191.0848 100000.0000     35.4518
  2431.5000      2.5244   -192.8752 100000.0000     34.6817
  2431.7500      2.5200   -193.7171 100000.0000     35.0059
  2432.0000      2.5179   -194.0734 100000.0000     36.1598
  2432.2500      2.5197   -194.2054     51.5413     37.0257
  2432.5000      2.5227   -194.2423     28.8125     38.2466
  2432.7500      2.5232   -194.2400 100000.0000     39.1170
  2433.0000      2.5238   -194.2180 100000.0000     40.8446
  2433.2500      2.5356   -194.1786 100000.0000     42.4633
  2433.5000      2.5732   -194.1063 100000.0000     45.8786
  2433.7500      2.6429   -193.9492 100000.0000     48.9746
  2434.0000      2.7338   -193.5853      4.1649     55.0962
  2434.2500      2.8199   -192.7690      0.9209     60.1793
  2434.5000      2.8791   -191.0727      0.3367     68.7309
  2434.7500      2.9243   -187.8612      0.1282     74.3052
  2435.0000      3.0285   -182.3476      0.0517     81.1367
  2435.2500      3.3318   -173.7682      0.0261     84.2988
  2435.5000      4.0119   -161.6530      0.0181     87.2026
  2435.7500      5.2057   -146.0902      0.0180     88.3162
  2436.0000      6.9021   -127.8444      0.0259     89.4262
  2436.2500      8.8847   -108.2390      0.0530     90.1322
  2436.5000     10.7980    -88.8336      0.1378     91.7007
  2436.7500     12.3109    -71.0416      0.3693     93.3142
  2437.0000     13.2547    -55.8554      0.9910     96.3763
  2437.2500     13.6456    -43.7700      3.5406     98.2564
  2437.5000     13.6103    -34.8824    121.9889     99.4626
  2437.7500     13.2929    -29.0683 100000.0000     98.6785
  2438.0000     12.7941    -26.1397 100000.0000     95.3867
  2438.2500     12.1515    -25.9368 100000.0000     92.5282
  2438.5000     11.3543    -28.3596 100000.0000     88.6690
  2438.7500     10.3841    -33.3773 100000.0000     86.8195
  2439.0000      9.2574    -41.0301 100000.0000     84.9802
  2439.2500      8.0415    -51.4068 100000.0000     84.0415
  2439.5000      6.8337    -64.5522      7.0902     82.5700
  2439.7500      5.7259    -80.3072      1.5145     81.3464
  2440.0000      4.7799    -98.1285      0.5345     78.9821
  2440.2500      4.0221   -117.0071      0.2043     77.1834
  2440.5000      3.4480   -135.5775      0.0767     74.6184
  2440.7500      3.0327   -152.4167      0.0340     73.0218
  2441.0000      2.7428   -166.4133      0.0207     70.1315
  2441.2500      2.5475   -177.0335      0.0176     67.4855
  2441.5000      2.4252   -184.3687      0.0198     62.5495
  2441.7500      2.3629   -188.9720      0.0262     59.0168
  2442.0000      2.3557   -191.5944      0.0366     54.0390
  2442.2500      2.4045   -192.9503      0.0491     51.3233
  2442.5000      2.5082   -193.5868      0.0621     49.0541
  2442.7500      2.6455   -193.8580      0.0767     49.2365
  2443.0000      2.7629   -193.9635      0.0978     52.2157
  2443.2500      2.7899   -194.0023      0.1346     55.6712
  2443.5000      2.6836   -194.0185      0.2004     62.2567
  2443.7500      2.4627   -194.0292      0.3107     67.1093
  2444.0000      2.1966   -194.0397      0.4726     74.1510
  2444.2500      1.9569   -194.0503      0.6494     78.1922
  2444.5000      1.7792   -194.0589      0.7208     83.0899
  2444.7500      1.6616   -194.0636      0.6122     85.8694
  2445.0000      1.5881   -194.0638      0.4263     89.7594
  2445.2500      1.5451   -194.0602      0.2642     92.0684
  2445.5000      1.5233   -194.0547      0.1507     94.4976
  2445.7500      1.5153   -194.0499      0.0814     95.1719
  2446.0000      1.5167   -194.0479      0.0441     94.8368
  2446.2500      1.5272   -194.0499      0.0253     93.8702
  2446.5000      1.5500   -194.0551      0.0160     91.3469
  2446.7500      1.5897   -194.0609      0.0110     88.9699
  2447.0000      1.6505   -194.0634      0.0082     84.8525
  2447.2500      1.7316   -194.0580      0.0066     82.2304
  2447.5000      1.8230   -194.0412      0.0059     79.3305
  2447.7500      1.9081   -194.0107      0.0063     78.5175
  2448.0000      1.9717   -193.9669      0.0082     79.2222
  2448.2500      2.0087   -193.9129      0.0142     80.5332
  2448.5000      2.0263   -193.8552      0.0323     82.5282
  2448.7500      2.0371   -193.8032      0.0902     83.5757
  2449.0000      2.0525   -193.7667      0.2532     85.0983
  2449.2500      2.0779   -193.7531      0.6315     86.1679
  2449.5000      2.1115   -193.7647      1.4867     87.0149
  2449.7500      2.1457   -193.7978      2.5871     86.3446
  2450.0000      2.1724   -193.8446      1.9844     82.7412
  2450.2500      2.1890   -193.8961      1.0293     78.6169
  2450.5000      2.2012   -193.9451      0.5618     70.5767
  2450.7500      2.2207   -193.9874      0.3495     64.7904
  2451.0000      2.2596   -194.0218      0.2594     57.0947
  2451.2500      2.3229   -194.0482      0.2444     53.2900
  2451.5000      2.4014   -194.0643      0.3002     49.8330
  2451.7500      2.4706   -194.0609      0.4708     48.8051
  2452.0000      2.4997   -194.0082      0.9500     48.6441
  2452.2500      2.4702   -193.8291      3.4683     49.2411
  2452.5000      2.3905   -193.3527 100000.0000     51.1870
  2452.7500      2.2911   -192.2496 100000.0000     53.4280
  2453.0000      2.2043   -189.9697 100000.0000     58.7126
  2453.2500      2.1500   -185.7282 100000.0000     63.4859
  2453.5000      2.1447   -178.5990 100000.0000     71.4567
  2453.7500      2.2223   -167.7461 100000.0000     76.2702
  2454.0000      2.4506   -152.7480 100000.0000     81.0732
  2454.2500      2.9222   -133.8842 100000.0000     82.1707
  2454.5000      3.7122   -112.2200    140.2366     81.0181
  2454.7500      4.8201    -89.4003      3.9405     79.2077
  2455.0000      6.1452    -67.2156      2.2775     76.6742
  2455.2500      7.5274    -47.1291      2.1704     75.8371
  2455.5000      8.8226    -29.9746      3.2125     76.0842
  2455.7500      9.9540    -15.9282     12.7529     76.7444
