~Version Information
VERS.                      2.0: CWLS Log ASCII Standard - VERSION 2.0
WRAP.                       NO: One line per depth step
~Well Information Block
STRT.FT               400.0000: 
STOP.FT              2201.0000: 
STEP.FT                 0.1000: 
NULL.                -999.2500: 
COMP.          Evergreen Operating Corporation: COMPANY
WELL.            Triumph 13-10: WELL
FLD.           Purgatorie River: FIELD
LOC.           1551' FSL & 522' FWL: LOCATION
PROV.                 Colorado: PROVINCE
CNTY.               Las Animas: COUNTRY
SRVC.                Patterson: SERVICE COMPANY
DATE.          Mon Jul 26 07:55:18 2004: LOG DATE
UWI.           05 071 08108 00: UNIQUE WELL ID
~Curve Information Block
DEPT.FT            0 000 00 00: Depth
DCAL.in                       : CDL Caliper
RHOB.g/cc                     : CDL Bulk Density
RHOC.g/cc                     : CDL Density Correction
DPOR.pu                       : CDL Density Porosity
NPOR.pu                       : Neutron Porosity
GR.GAPI                       : Gamma Ray
~Parameter Information Block
~A  Depth       DCAL        RHOB        RHOC        DPOR        NPOR         GR     
# ...
   640.0000      8.2533      2.5694      0.0297      4.8845     25.8180    130.3162
   640.1000      8.2533      2.5924      0.0168      3.4913     25.8250    123.0829
   640.2000      8.2533      2.6084      0.0592      2.5220     26.0255    119.2376
   640.3000      8.2537      2.6075      0.0393      2.5764     26.3956    126.7488
   640.4000      8.2537      2.6023      0.0113      2.8932     26.8943    136.4697
   640.5000      8.2356      2.6081      0.0205      2.5412     27.3922    136.1001
   640.6000      8.2356      2.6246      0.0335      1.5423     27.7838    126.5254
   640.7000      8.2356      2.6386      0.0523      0.6924     28.2732    116.0503
   640.8000      8.2142      2.6406      0.0307      0.5699     29.0547    108.6972
   640.9000      8.2142      2.6448     -0.0258      0.3144     29.9959    105.9578
   641.0000      8.2041      2.6672     -0.0480     -1.0425     31.1507    108.0974
   641.1000      8.2041      2.6824      0.1093     -1.9646     32.4069    111.3159
   641.2000      8.2041      2.6597     -0.0081     -0.5861     33.2193    111.7109
   641.3000      8.2103      2.6194      0.0159      1.8571     33.5930    110.4210
   641.4000      8.2103      2.5980     -0.0359      3.1486     33.7631    110.5021
   641.5000      8.2164      2.6069     -0.0064      2.6112     33.5263    110.7141
   641.6000      8.2164      2.6319     -0.0026      1.0950     32.9444    109.5332
   641.7000      8.2164      2.6530      0.0129     -0.1789     32.3833    112.1677
   641.8000      8.2206      2.6521      0.0458     -0.1259     31.8212    121.3166
   641.9000      8.2206      2.6282      0.0083      1.3201     31.1541    128.5479
   642.0000      8.2193      2.6056     -0.0038      2.6938     30.6382    128.9974
   642.1000      8.2193      2.6035      0.0275      2.8190     30.4714    129.7186
   642.2000      8.2193      2.6103      0.0608      2.4035     30.4398    132.7800
   642.3000      8.2217      2.6045      0.0639      2.7592     30.1822    133.2614
   642.4000      8.2217      2.5924      0.0403      3.4921     29.5933    131.5424
   642.5000      8.2325      2.5859      0.0801      3.8837     28.7745    131.8830
   642.6000      8.2325      2.5751      0.0143      4.5393     28.0778    136.6131
   642.7000      8.2325      2.5537      0.0092      5.8355     27.8311    141.3746
   642.8000      8.2237      2.5245      0.0131      7.6082     27.6922    141.3610
   642.9000      8.2237      2.4997     -0.0373      9.1113     27.3124    142.3885
   643.0000      8.2349      2.4913      0.0408      9.6169     26.9581    149.3528
   643.1000      8.2349      2.4940      0.0222      9.4518     26.6677    156.4298
   643.2000      8.2349      2.5125     -0.0483      8.3349     26.3258    159.3981
   643.3000      8.2247      2.5511      0.0387      5.9946     26.1664    157.2441
   643.4000      8.2247      2.5838      0.1022      4.0129     26.2309    148.7512
   643.5000      8.2106      2.5947      0.0308      3.3494     26.3089    137.0147
   643.6000      8.2106      2.6020      0.0322      2.9081     26.3330    128.4187
   643.7000      8.2106      2.6142      0.0697      2.1708     26.5442    124.2943
   643.8000      8.2065      2.6213      0.0883      1.7408     27.1515    122.0628
   643.9000      8.2065      2.6248      0.0423      1.5261     27.7483    121.4412
   644.0000      8.2134      2.6310      0.0650      1.1503     27.9639    123.1906
   644.1000      8.2134      2.6338      0.0700      0.9844     27.9889    127.4960
   644.2000      8.2134      2.6274      0.0768      1.3690     28.0737    131.3846
   644.3000      8.2423      2.6189      0.0320      1.8874     28.3625    131.0014
   644.4000      8.2423      2.6155      0.0350      2.0910     28.8298    126.5630
   644.5000      8.2076      2.6183      0.0385      1.9198     29.1803    119.7098
   644.6000      8.2076      2.6296      0.0355      1.2366     29.3116    113.5023
   644.7000      8.2076      2.6438      0.0507      0.3741     29.4487    111.9013
   644.8000      8.1700      2.6467      0.0261      0.2002     29.6080    113.9661
   644.9000      8.1700      2.6334      0.0435      1.0081     29.6171    117.6827
   645.0000      8.2013      2.6144      0.0138      2.1598     29.5222    125.2479
   645.1000      8.2013      2.6045     -0.0219      2.7585     29.5010    137.0134
   645.2000      8.2013      2.6052      0.0503      2.7176     29.5250    144.7507
   645.3000      8.2100      2.6200     -0.0282      1.8185     29.3955    138.9522
   645.4000      8.2100      2.6642     -0.0108     -0.8615     29.2380    124.2206
   645.5000      8.2101      2.7217      0.1009     -4.3434     29.4847    112.2408
   645.6000      8.2101      2.7538      0.1439     -6.2921     30.1767    105.7018
   645.7000      8.2101      2.7560      0.0466     -6.4263     30.7616     99.8979
   645.8000      8.2074      2.7392      0.0757     -5.4088     30.7431     93.1762
   645.9000      8.2074      2.6976      0.0473     -2.8837     30.1607     91.3463
   646.0000      8.2057      2.6503     -0.0627     -0.0183     29.3384     97.8108
   646.1000      8.2057      2.6267     -0.0282      1.4098     28.5371    107.0836
   646.2000      8.2057      2.6183     -0.0595      1.9202     28.0784    113.0282
   646.3000      8.1913      2.6119     -0.0562      2.3117     27.9271    113.1715
   646.4000      8.1913      2.6066     -0.0410      2.6284     27.7646    107.7665
   646.5000      8.2073      2.6017     -0.0400      2.9267     27.7369    101.1588
   646.6000      8.2073      2.5939      0.0420      3.4017     27.8322     98.1391
   646.7000      8.2073      2.5809     -0.0289      4.1856     27.5721     99.8549
   646.8000      8.2028      2.5713      0.0265      4.7691     27.1727    100.5268
   646.9000      8.2028      2.5710     -0.0089      4.7857     27.3617     96.2834
   647.0000      8.1833      2.5776     -0.0225      4.3884     27.9206     93.5367
   647.1000      8.1833      2.5793      0.0385      4.2824     28.0058     95.0719
   647.2000      8.1833      2.5644     -0.0126      5.1850     27.4267     96.5551
   647.3000      8.1675      2.5432      0.0205      6.4746     26.5784     96.3020
   647.4000      8.1675      2.5305      0.0609      7.2426     25.6336     96.0923
   647.5000      8.1642      2.5280     -0.0115      7.3966     24.7455     96.9251
   647.6000      8.1642      2.5309      0.0264      7.2208     24.2308     96.4138
   647.7000      8.1642      2.5254      0.0245      7.5504     24.0821     91.4670
   647.8000      8.1664      2.5006     -0.0048      9.0521     23.9940     85.2658
   647.9000      8.1664      2.4679     -0.0293     11.0392     23.7357     84.3414
   648.0000      8.1646      2.4535     -0.1061     11.9105     23.4303     87.2846
   648.1000      8.1646      2.4633      0.0085     11.3181     23.2421     87.6223
   648.2000      8.1646      2.4796     -0.0150     10.3279     23.2407     85.1651
   648.3000      8.1703      2.4964      0.0180      9.3083     23.4644     82.7891
   648.4000      8.1703      2.5056      0.0389      8.7509     23.7600     80.7156
   648.5000      8.1804      2.4949     -0.0085      9.4021     23.9152     79.1855
   648.6000      8.1804      2.4808     -0.0506     10.2551     23.9890     78.6381
   648.7000      8.1804      2.4914      0.0263      9.6114     24.0987     81.0659
   648.8000      8.1728      2.5236      0.0554      7.6599     24.2192     85.4281
   648.9000      8.1728      2.5541      0.1053      5.8145     24.3949     85.9848
   649.0000      8.1606      2.5700      0.0798      4.8502     24.5809     82.7847
   649.1000      8.1606      2.5690      0.0948      4.9098     24.4692     81.6206
   649.2000      8.1606      2.5529      0.0925      5.8856     23.9991     85.0394
   649.3000      8.1549      2.5340      0.0670      7.0277     23.6539     90.4806
   649.4000      8.1549      2.5220      0.0992      7.7568     23.7374     94.1695
   649.5000      8.1653      2.5183      0.0205      7.9828     23.8660     95.4849
