~Version Information
VERS.                      2.0: CWLS Log ASCII Standard - VERSION 2.0
WRAP.                       NO: One line per depth step
~Well Information Block
STRT.FT               454.0000: 
STOP.FT              1389.0000: 
STEP.FT                 0.1000: 
NULL.                -999.2500: 
COMP.          Pioneer Natural Resources: COMPANY
WELL.          Lorencito 6-3-34-66: WELL
FLD.           Purgatoire River: FIELD
LOC.           2545' FNL & 1914' FWL: LOCATION
STAT.                 Colorado: State
CNTY.               Las Animas: COUNTY
CTRY. USA : Country
SECT. 3 : Section
TOWN. 34S : Township
RANG. 66W : Range
SRVC.                Patterson: SERVICE COMPANY
DATE.          Mon Sep 12 07:20:37 2005: LOG DATE
API.        05 071 08369 00: UNIQUE WELL ID
~Curve Information Block
DEPT.FT            0 000 00 00: Depth
DCAL.in                       : CDL Caliper
RHOB.g/cc                     : CDL Bulk Density
RHOC.g/cc                     : CDL Density Correction
DPOR.pu                       : CDL Density Porosity
GR.GAPI                       : Gamma Ray
NPOR.pu                       : Neutron Porosity
~Parameter Information Block
~A  Depth       DCAL        RHOB        RHOC        DPOR         GR         NPOR    
# ...
   578.8000      8.2292      2.5671      0.0917      5.0240    143.1510     24.5702
   578.9000      8.2292      2.5804      0.0796      4.2212    135.8390     24.4737
   579.0000      8.1796      2.5901      0.1147      3.6279    136.5684     24.3423
   579.1000      8.1796      2.5970      0.1332      3.2118    142.5647     24.2725
   579.2000      8.1796      2.5909      0.1147      3.5836    148.3049     24.4817
   579.3000      8.1135      2.5702      0.1186      4.8373    151.0343     24.9752
   579.4000      8.1135      2.5509      0.0730      6.0075    147.1373     25.7658
   579.5000      8.0839      2.5453      0.0331      6.3446    136.4229     26.3232
   579.6000      8.0839      2.5445      0.0549      6.3919    124.5006     25.8119
   579.7000      8.0839      2.5420      0.0347      6.5440    116.8288     24.6200
   579.8000      8.0980      2.5486      0.0183      6.1455    115.1142     23.7344
   579.9000      8.0980      2.5657      0.0537      5.1061    115.0118     23.3840
   580.0000      8.1426      2.5840      0.0090      3.9984    114.2493     23.5147
   580.1000      8.1426      2.6023      0.0754      2.8925    114.6282     23.9360
   580.2000      8.1426      2.6173      0.0842      1.9839    113.3711     24.2866
   580.3000      8.1548      2.6272      0.0671      1.3813    109.2290     24.2561
   580.4000      8.1548      2.6363      0.0872      0.8328    107.3141     23.7146
   580.5000      8.1048      2.6380      0.0710      0.7268    108.5840     23.0326
   580.6000      8.1048      2.6263      0.0453      1.4362    107.6873     22.8331
   580.7000      8.1048      2.6122      0.0591      2.2932    102.9379     23.1667
   580.8000      8.0798      2.6089      0.0449      2.4906     99.5783     23.5861
   580.9000      8.0798      2.6117      0.0782      2.3200    100.0929     23.8042
   581.0000      8.1335      2.6042      0.0497      2.7739    101.9989     23.8171
   581.1000      8.1335      2.5840      0.0316      4.0017    104.0291     23.7000
   581.2000      8.1335      2.5652     -0.0064      5.1410    108.4050     23.5018
   581.3000      8.1400      2.5589      0.0133      5.5232    115.4059     23.4157
   581.4000      8.1400      2.5639      0.0198      5.2159    120.2253     23.6446
   581.5000      8.1805      2.5789      0.0036      4.3103    120.6299     23.9504
   581.6000      8.1805      2.5978      0.0430      3.1663    119.7981     23.9702
   581.7000      8.1805      2.6018      0.0604      2.9203    118.8218     23.9601
   581.8000      8.1878      2.5839      0.0375      4.0088    115.8273     24.2447
   581.9000      8.1878      2.5591     -0.0005      5.5068    108.4618     24.4255
   582.0000      8.2137      2.5395     -0.0376      6.6972     99.4297     24.2448
   582.1000      8.2137      2.5271     -0.0160      7.4473     96.9182     24.2185
   582.2000      8.2137      2.5260     -0.0234      7.5169    101.0636     24.4737
   582.3000      8.1951      2.5438      0.0017      6.4391    105.0859     24.4569
   582.4000      8.1951      2.5797      0.0364      4.2626    105.5408     24.2171
   582.5000      8.2064      2.6166      0.0651      2.0220    102.6746     24.0101
   582.6000      8.2064      2.6374      0.0432      0.7627    101.0824     23.6941
   582.7000      8.2064      2.6355      0.0866      0.8803    104.8439     23.3309
   582.8000      8.1993      2.6155      0.0487      2.0905    109.5352     23.1047
   582.9000      8.1993      2.6015      0.0148      2.9404    108.3169     22.9619
   583.0000      8.2653      2.6062      0.0677      2.6567    102.6890     22.7694
   583.1000      8.2653      2.6107      0.0341      2.3840     98.3501     22.5198
   583.2000      8.2653      2.6007      0.0014      2.9857     97.6227     22.2979
   583.3000      8.1981      2.5777     -0.0062      4.3820    100.0753     22.1353
   583.4000      8.1981      2.5480     -0.0310      6.1847    102.3687     21.9847
   583.5000      8.1873      2.5231     -0.0210      7.6925    102.4342     21.9417
   583.6000      8.1873      2.5168     -0.0639      8.0699    103.9116     22.3379
   583.7000      8.1873      2.5372     -0.0066      6.8339    107.9840     23.0865
   583.8000      8.1873      2.5719      0.0653      4.7334    111.0071     23.7446
   583.9000      8.1873      2.5965      0.0758      3.2435    110.7754     24.2041
   584.0000      8.1827      2.6029      0.0424      2.8518    107.5957     24.5741
   584.1000      8.1827      2.5994      0.0183      3.0672    103.7702     24.7259
   584.2000      8.1827      2.5905      0.0440      3.6076    100.3978     24.5739
   584.3000      8.1903      2.5777      0.0373      4.3833     97.7508     24.5147
   584.4000      8.1903      2.5726     -0.0018      4.6934     98.0069     24.8500
   584.5000      8.1696      2.5857      0.0247      3.8981    102.0751     25.1884
   584.6000      8.1696      2.5979      0.0403      3.1558    106.4885     25.0207
   584.7000      8.1696      2.5826      0.0582      4.0829    109.8646     24.5148
   584.8000      8.1109      2.5514     -0.0375      5.9734    117.5692     24.1982
   584.9000      8.1109      2.5371     -0.0027      6.8406    129.4849     24.1709
   585.0000      8.1388      2.5441     -0.0026      6.4174    135.7736     24.2987
   585.1000      8.1388      2.5545      0.0332      5.7869    134.4494     24.5697
   585.2000      8.1388      2.5579      0.0092      5.5802    133.1375     24.6604
   585.3000      8.0894      2.5490      0.0726      6.1237    136.8774     24.2606
   585.4000      8.0894      2.5259      0.0254      7.5183    143.7884     23.7968
   585.5000      8.1223      2.5062     -0.0029      8.7152    149.3570     23.7740
   585.6000      8.1223      2.4967      0.0471      9.2923    152.9294     24.0378
   585.7000      8.1223      2.4765      0.0189     10.5174    157.4956     24.2209
   585.8000      8.1302      2.4444     -0.0261     12.4624    161.5103     24.3180
   585.9000      8.1302      2.4304      0.0065     13.3088    161.7386     24.5763
   586.0000      8.1535      2.4531      0.0011     11.9362    161.5582     25.2153
   586.1000      8.1535      2.5048      0.0087      8.7984    165.4547     26.0475
   586.2000      8.1535      2.5662      0.0989      5.0798    172.8893     26.4835
   586.3000      8.1532      2.6247      0.0770      1.5330    179.6904     26.4337
   586.4000      8.1532      2.6816      0.1234     -1.9141    184.1539     26.3391
   586.5000      8.1533      2.7298      0.2066     -4.8351    183.9070     26.3846
   586.6000      8.1533      2.7487      0.2056     -5.9846    175.7852     26.3686
   586.7000      8.1533      2.7291      0.1517     -4.7957    167.8734     26.2432
   586.8000      8.1446      2.6840      0.0537     -2.0596    168.9363     26.1596
   586.9000      8.1446      2.6363      0.0116      0.8295    172.4957     26.1772
   587.0000      8.1466      2.5975      0.0159      3.1828    172.9614     26.1999
   587.1000      8.1466      2.5655     -0.0213      5.1188    171.7261     26.1435
   587.2000      8.1466      2.5390     -0.0177      6.7300    172.1332     26.0372
   587.3000      8.1514      2.5184      0.0446      7.9777    176.0480     25.9068
   587.4000      8.1514      2.5076      0.0448      8.6291    180.0642     25.6555
   587.5000      8.1804      2.5013      0.0562      9.0105    185.3851     25.3379
   587.6000      8.1804      2.4869      0.0620      9.8841    195.9770     25.2056
   587.7000      8.1804      2.4819     -0.0007     10.1851    206.6842     25.2535
   587.8000      8.1353      2.5078      0.0859      8.6178    211.2674     25.2389
   587.9000      8.1353      2.5361      0.1496      6.9014    212.4225     25.0417
   588.0000      8.1426      2.5417      0.0578      6.5638    211.7713     24.6858
   588.1000      8.1426      2.5446      0.1293      6.3873    204.9106     24.3338
   588.2000      8.1426      2.5516      0.1946      5.9635    196.8151     24.2267
   588.3000      8.1143      2.5450      0.1987      6.3610    195.6894     24.3709
