~Version Information
VERS.                      2.0: CWLS Log ASCII Standard - VERSION 2.0
WRAP.                       NO: One line per depth step
~Well Information Block
STRT.FT               802.1000: 
STOP.FT              1915.0000: 
STEP.FT                 0.1000: 
NULL.                -999.2500: 
COMP.          Petrogulf Corporation: COMPANY
WELL.             State 16-32R: WELL
FLD.           Purgatorie River: FIELD
LOC.           1849' FNL & 1677' FEL: LOCATION
CNTY.               Las Animas: COUNTY
SRVC.                         : SERVICE COMPANY
DATE.          Thu May 13 18:17:16 2004: LOG DATE
UWI.           05 071 08033 00: UNIQUE WELL ID
STAT.                 Colorado: STATE
~Curve Information Block
DEPT.FT            0 000 00 00: Depth
DCAL.in                       : CDL Caliper
RHOB.g/cc                     : CDL Bulk Density
RHOC.g/cc                     : CDL Density Correction
DPOR.pu                       : CDL Density Porosity
GR.GAPI                       : Gamma Ray
NPOR.pu                       : Neutron Porosity
~Parameter Information Block
~A  Depth       DCAL        RHOB        RHOC        DPOR         GR         NPOR    
# ...
   917.3000      7.8628      2.4059      0.0118     14.7933     53.5088     18.8284
   917.4000      7.8628      2.4447      0.0812     12.4418     48.1570     19.8598
   917.5000      7.8483      2.4690      0.0513     10.9723     48.9815     20.7208
   917.6000      7.8483      2.4872      0.0998      9.8697     50.5873     20.8537
   917.7000      7.8483      2.4948      0.1115      9.4077     45.0165     20.6323
   917.8000      7.8628      2.4761      0.0879     10.5390     38.4784     20.5856
   917.9000      7.8628      2.4334      0.1151     13.1258     35.7752     20.7007
   918.0000      7.8836      2.3823      0.0661     16.2225     33.3528     20.8211
   918.1000      7.8836      2.3399      0.1193     18.7938     32.7878     20.7908
   918.2000      7.8836      2.3192     -0.0474     20.0512     37.5092     20.1879
   918.3000      7.8839      2.3234      0.0074     19.7917     43.3561     19.0452
   918.4000      7.8839      2.3447      0.0150     18.5035     42.9890     18.2800
   918.5000      7.8542      2.3775      0.0543     16.5176     37.5225     18.3149
   918.6000      7.8542      2.4194      0.1119     13.9744     33.1924     18.6266
   918.7000      7.8542      2.4659      0.1681     11.1566     33.4904     18.9017
   918.8000      7.8547      2.5057      0.2757      8.7466     37.6874     18.8933
   918.9000      7.8547      2.5407      0.2086      6.6257     41.4134     18.4037
   919.0000      7.7965      2.5861      0.2963      3.8697     41.4122     18.0844
   919.1000      7.7965      2.6306      0.3013      1.1750     37.6665     18.5259
   919.2000      7.7965      2.6466      0.2897      0.2066     33.2933     19.1482
   919.3000      7.7353      2.6309      0.1595      1.1558     32.2186     19.3239
   919.4000      7.7353      2.6002      0.1982      3.0192     35.0199     19.1949
   919.5000      7.7448      2.5718      0.1426      4.7368     39.9551     19.1639
   919.6000      7.7448      2.5645      0.1304      5.1827     43.5275     19.6041
   919.7000      7.7448      2.5675      0.2038      5.0009     45.3624     20.3019
   919.8000      7.8161      2.5537      0.1664      5.8360     49.0700     20.6524
   919.9000      7.8161      2.5412      0.0464      6.5944     51.2534     20.7685
   920.0000      7.8510      2.5610      0.1304      5.3933     48.5435     21.2281
   920.1000      7.8510      2.5899      0.1054      3.6396     47.1262     22.1596
   920.2000      7.8510      2.5940      0.1066      3.3963     50.7585     23.1547
   920.3000      7.8712      2.5869      0.0409      3.8264     54.4884     23.8971
   920.4000      7.8712      2.5974      0.1621      3.1893     57.1675     24.4282
   920.5000      7.8787      2.6199      0.0985      1.8218     64.2025     24.8282
   920.6000      7.8787      2.6318      0.1458      1.1008     73.8330     25.2353
   920.7000      7.8787      2.6251      0.1117      1.5066     78.1212     25.7504
   920.8000      7.8538      2.6215      0.1295      1.7270     77.3576     26.2167
   920.9000      7.8538      2.6425      0.1813      0.4528     77.3673     26.5751
   921.0000      7.8457      2.6822      0.1803     -1.9495     78.3310     26.8728
   921.1000      7.8457      2.7111      0.2093     -3.7034     78.9775     27.0740
   921.2000      7.8457      2.7059      0.1828     -3.3875     79.3819     27.1920
   921.3000      7.8381      2.6778      0.1361     -1.6843     76.8161     27.2441
   921.4000      7.8381      2.6564      0.0632     -0.3870     73.8807     27.2017
   921.5000      7.8216      2.6472      0.1571      0.1697     77.9267     27.0497
   921.6000      7.8216      2.6230      0.1459      1.6377     84.3858     27.0215
   921.7000      7.8216      2.5709      0.1184      4.7916     81.9417     27.3867
   921.8000      7.8213      2.5344     -0.0010      7.0086     71.9790     27.8147
   921.9000      7.8213      2.5665      0.0788      5.0581     65.8152     27.7395
   922.0000      7.8245      2.6339      0.1719      0.9728     71.3943     27.3566
   922.1000      7.8245      2.6451      0.1111      0.2951     85.0356     27.1813
   922.2000      7.8245      2.5818      0.0332      4.1361     91.9694     27.1630
   922.3000      7.7629      2.5129      0.0025      8.3069     85.6038     27.1101
   922.4000      7.7629      2.4829     -0.0508     10.1248     75.9994     27.1763
   922.5000      7.8664      2.4854     -0.0942      9.9741     71.3434     27.2386
   922.6000      7.8664      2.5021     -0.0182      8.9648     72.6496     26.8315
   922.7000      7.8664      2.5117      0.0467      8.3849     78.0391     26.0791
   922.8000      7.8798      2.5058     -0.0539      8.7378     82.8424     25.5255
   922.9000      7.8798      2.4849      0.0226     10.0065     86.4166     25.6078
   923.0000      7.8832      2.4360      0.0564     12.9702     91.2274     26.4704
   923.1000      7.8832      2.3793     -0.1457     16.4033     92.8464     27.6430
   923.2000      7.8832      2.3641     -0.0655     17.3295     88.1990     28.4833
   923.3000      7.9132      2.3886      0.0321     15.8413     82.1329     29.0820
   923.4000      7.9132      2.4194      0.1122     13.9752     79.1195     29.8600
   923.5000      7.8888      2.4455      0.0624     12.3940     81.2115     30.6435
   923.6000      7.8888      2.4694      0.1007     10.9444     89.9967     31.0053
   923.7000      7.8888      2.4926      0.0355      9.5409    102.7970     30.9644
   923.8000      7.9111      2.5360      0.0103      6.9067    109.9258     30.8134
   923.9000      7.9111      2.6047      0.1375      2.7443    106.3289     30.6957
   924.0000      7.9209      2.6640      0.2402     -0.8501     97.3697     30.7367
   924.1000      7.9209      2.6955      0.2318     -2.7596     91.2911     31.2045
   924.2000      7.9209      2.7034      0.2849     -3.2393     89.6293     31.8996
   924.3000      7.9074      2.6921      0.1692     -2.5495     91.0074     32.3057
   924.4000      7.9074      2.6794      0.1047     -1.7797     97.5860     32.3831
   924.5000      7.8875      2.6769      0.0244     -1.6286    103.6559     32.4373
   924.6000      7.8875      2.6738      0.0275     -1.4453    101.1269     32.5889
   924.7000      7.8875      2.6547      0.0034     -0.2856     94.4412     32.5047
   924.8000      7.8969      2.6055      0.0316      2.6952     92.3619     31.7875
   924.9000      7.8969      2.5429     -0.1022      6.4886     93.0991     30.7730
   925.0000      7.9155      2.5042      0.0336      8.8348     92.8176     30.1895
   925.1000      7.9155      2.4745      0.0108     10.6349     92.8783     30.2225
   925.2000      7.9155      2.4325     -0.0487     13.1831     93.1765     30.5062
   925.3000      7.9223      2.4087     -0.0735     14.6263     94.8259     30.5696
   925.4000      7.9223      2.4225     -0.0276     13.7884    101.2319     30.2194
   925.5000      7.9278      2.4513      0.0066     12.0424    112.4678     29.7791
   925.6000      7.9278      2.4676      0.1233     11.0532    127.5783     29.4991
   925.7000      7.9278      2.4638      0.1700     11.2864    143.1617     29.2537
   925.8000      7.9351      2.4585      0.0885     11.6038    152.0430     28.8228
   925.9000      7.9351      2.4569      0.1925     11.7005    145.9654     28.0865
   926.0000      7.9277      2.4331      0.1498     13.1471    127.5808     27.2110
   926.1000      7.9277      2.3906      0.1208     15.7240    111.7775     26.3028
   926.2000      7.9277      2.3489      0.0976     18.2493    105.1650     25.0044
   926.3000      7.9270      2.2977      0.1497     21.3497     99.0510     23.3221
   926.4000      7.9270      2.2316      0.1219     25.3551     90.2311     21.9076
   926.5000      7.9116      2.1742      0.1024     28.8335     88.5214     20.9745
   926.6000      7.9116      2.1317      0.2165     31.4145     97.8837     20.3763
   926.7000      7.9116      2.0789      0.1960     34.6136    104.3794     20.3137
   926.8000      7.9339      2.0158      0.1746     38.4345     95.7334     20.8171
