~Version Information
 VERS.                                  2.0 : CWLS LAS VERSION
 WRAP.                                   NO : WRAPING MODE
 SWARE .                 MController 2.5.0J : SOFTWARE VERSION
~Well Information
 WELL.                          Silva 6-22V : WELL
 COMP.                       Petrogulf Corp : COMPANY
 FLD.                      Purgatoire River : FIELD
 LOC.                 SE/NW Sec 6 T33S R67W : LOCATION
 DATE.                            11/7-9/04 : DATE(S) LOGGED
 SRVC.       Blanco Geological Services LLC : SERVICE COMPANY
 STAT.                                   CO : STATE
 CNTY.                           Las Animas : COUNTY
 CTRY.                                  USA : COUNTRY
 API.                       05-071-08143-00 : API NUMBER
 STRT.FT                              35.00 : START DEPTH
 STOP.FT                            2732.00 : STOP DEPTH
 STEP.FT                               1.00 : DEPTH INCREMENT
 NULL.                                -9999 : NULL VALUE
~Curve information
 DEPTH.FT                                   :
 ROP.MIN/FT                                 :
 GAS.UNITS                                  :
~ASCII Log data
# ...
      1635.0         0.23        508.9 
      1636.0         0.27        510.2 
      1637.0         0.40        507.6 
      1638.0         0.68        501.3 
      1639.0         0.57        502.3 
      1640.0         0.47        501.3 
      1641.0         0.27        500.0 
      1642.0         0.27        501.3 
      1643.0         0.33        500.4 
      1644.0         0.47        500.4 
      1645.0         0.53        497.1 
      1646.0         0.48        616.8 
      1647.0         0.50        782.4 
      1648.0         0.50        787.9 
      1649.0         0.43        640.7 
      1650.0         0.83        563.5 
      1651.0         0.53        523.3 
      1652.0         0.47        512.8 
      1653.0         0.50        506.9 
      1654.0         0.53        504.3 
      1655.0         0.55        500.7 
      1656.0         0.43        495.8 
      1657.0         0.57        498.1 
      1658.0         0.73        496.4 
      1659.0         0.93        495.1 
      1660.0         0.65        494.2 
      1661.0         0.33        493.5 
      1662.0         0.37        494.2 
      1663.0         0.47        495.8 
      1664.0         0.30        494.5 
      1665.0         0.27        493.8 
      1666.0         0.27        493.8 
      1667.0         0.33        492.5 
      1668.0         0.30        491.9 
      1669.0         0.30        490.2 
      1670.0         0.32        490.2 
      1671.0         0.20        489.6 
      1672.0         0.20        491.5 
      1673.0         0.20        491.5 
      1674.0         0.50        490.9 
      1675.0         0.43        513.1 
      1676.0         0.57        564.2 
      1677.0         0.53        568.4 
      1678.0         0.40        523.3 
      1679.0         0.55        517.1 
      1680.0         0.37        504.9 
      1681.0         0.40        506.6 
      1682.0         0.27        504.3 
      1683.0         0.40        503.3 
      1684.0         0.47        497.1 
      1685.0         0.37        493.8 
      1686.0         0.33        495.1 
      1687.0         0.23        495.1 
      1688.0         0.30        493.8 
      1689.0         0.38        494.5 
      1690.0         0.33        492.8 
      1691.0         0.47        491.9 
      1692.0         0.70        489.6 
      1693.0         0.27        487.0 
      1694.0         0.37        487.0 
      1695.0         0.43        488.6 
      1696.0         0.40        488.6 
      1697.0         0.48        488.9 
      1698.0         0.67        488.9 
      1699.0         0.60        489.6 
      1700.0         0.63        487.6 
      1701.0         0.50        487.6 
      1702.0         0.52        487.0 
      1703.0         0.60        486.6 
      1704.0         0.50        486.0 
      1705.0         0.43        486.3 
      1706.0         0.50        587.7 
      1707.0         0.80        549.8 
      1708.0         0.62        497.1 
      1709.0         0.33        500.0 
      1710.0         0.40        500.7 
      1711.0         0.40        497.1 
      1712.0         0.67        495.5 
      1713.0         0.65        494.8 
      1714.0         0.63        485.3 
      1715.0         0.80        482.4 
      1716.0         0.60        500.4 
      1717.0         0.23        501.3 
      1718.0         0.20        501.3 
      1719.0         0.27        502.7 
      1720.0         0.28        503.0 
      1721.0         0.23        503.0 
      1722.0         0.27        507.2 
      1723.0         0.27        505.9 
      1724.0         0.30        486.6 
      1725.0         0.60        490.6 
      1726.0         0.57        492.5 
      1727.0         0.43        490.2 
      1728.0         0.43        489.9 
      1729.0         0.48        487.6 
      1730.0         0.30        507.9 
      1731.0         0.77        506.9 
      1732.0         0.50        487.6 
      1733.0         0.50        487.3 
      1734.0         0.53        487.0 
      1735.0         0.35        587.4 
      1736.0         0.23        536.4 
      1737.0         0.53        506.9 
      1738.0         0.63        490.2 
      1739.0         0.53        484.3 
      1740.0         0.47        484.0 
      1741.0         0.27        483.0 
      1742.0         0.23        480.4 
      1743.0         0.27        477.5 
      1744.0         0.23        476.8 
      1745.0         0.20        475.2 
      1746.0         0.30        474.2 
      1747.0         0.27        474.8 
      1748.0         0.23        472.9 
      1749.0         0.17        472.9 
      1750.0         0.30        471.3 
      1751.0         0.28        471.3 
      1752.0         0.60        473.9 
      1753.0         0.37        473.9 
      1754.0         0.23        473.9 
      1755.0         0.43        470.3 
      1756.0         0.53        471.3 
      1757.0         0.67        469.6 
      1758.0         0.55        472.6 
      1759.0         0.50        472.6 
      1760.0         0.47        474.2 
      1761.0         0.53        474.5 
      1762.0         0.57        475.8 
      1763.0         0.50        474.8 
      1764.0         0.47        473.9 
      1765.0         0.48        472.9 
      1766.0         0.47        595.2 
      1767.0         0.50        483.4 
      1768.0         0.47        486.0 
      1769.0         0.67        485.0 
      1770.0         0.53        479.8 
      1771.0         0.27        474.8 
      1772.0         0.57        475.8 
      1773.0         0.27        477.1 
      1774.0         0.30        476.5 
      1775.0         0.43        476.5 
      1776.0         0.43        477.8 
      1777.0         0.52        476.8 
      1778.0         0.40        476.2 
      1779.0         0.40        476.2 
      1780.0         0.20        476.8 
      1781.0         0.40        476.5 
      1782.0         0.40        477.1 
      1783.0         0.57        478.4 
      1784.0         0.62        475.8 
      1785.0         0.53        475.8 
      1786.0         0.63        475.8 
      1787.0         0.40        476.8 
      1788.0         0.50        475.8 
      1789.0         0.57        476.2 
      1790.0         0.75        477.1 
      1791.0         0.70        476.8 
      1792.0         0.53        476.2 
      1793.0         0.57        476.5 
      1794.0         0.47        474.2 
      1795.0         0.30        719.2 
      1796.0         0.30        700.3 
      1797.0         0.55        612.3 
      1798.0         0.53        521.3 
      1799.0         0.53        485.3 
      1800.0         0.33        484.7 
      1801.0         0.27        486.0 
      1802.0         0.33        484.3 
      1803.0         0.50        484.3 
      1804.0         0.35        482.7 
      1805.0         0.43        480.7 
      1806.0         0.40        476.2 
      1807.0         0.43        474.5 
      1808.0         0.60        475.8 
      1809.0         0.83        479.1 
      1810.0         0.40        478.4 
      1811.0         0.35        479.8 
      1812.0         0.23        480.1 
      1813.0         0.17        479.4 
      1814.0         0.30        477.5 
      1815.0         0.43        478.1 
      1816.0         0.23        479.8 
      1817.0         0.23        479.8 
      1818.0         0.20        479.8 
      1819.0         0.27        480.1 
      1820.0         0.47        486.3 
      1821.0         0.75        487.9 
      1822.0         0.63        752.9 
      1823.0         0.33        662.0 
      1824.0         0.33        501.3 
      1825.0         0.30        490.2 
      1826.0         0.27        478.8 
      1827.0         0.30        480.1 
      1828.0         0.33        486.6 
      1829.0         0.27        489.2 
      1830.0         0.27        487.9 
      1831.0         0.28        489.9 
      1832.0         0.27        487.3 
      1833.0         0.30        484.3 
      1834.0         0.27        485.3 
