~Version Information
VERS.                      2.0: CWLS Log ASCII Standard - VERSION 2.0
WRAP.                       NO: One line per depth step
~Well Information Block
STRT.FT               472.0000: 
STOP.FT              2430.5000: 
STEP.FT                 0.2500: 
NULL.                -999.2500: 
COMP.          Pioneer Natural Resources: COMPANY
WELL.          Flying Horse 12-11: WELL
FLD.           Purgatoire River: FIELD
LOC.           2428' FNL & 308' FWL: LOCATION
PROV.                 Colorado: PROVINCE
CNTY.               Las Animas: COUNTRY
SRVC.                Patterson: SERVICE COMPANY
DATE.          Sun May 29 11:58:35 2005: LOG DATE
UWI.           05 071 08378 00: UNIQUE WELL ID
~Curve Information Block
DEPT.FT            0 000 00 00: Depth
SN.Ohm-m                      : IEL Short Normal
SP.mV                         : IEL Spontaneous Potential
DIR.Ohm-m                     : IEL Induction Resistivity
GR.GAPI                       : Gamma Ray
~Parameter Information Block
~A  Depth        SN          SP         DIR          GR     
# ...
   740.0000   2000.0000   2000.0000     31.8532     73.0822
   740.2500   2000.0000   2000.0000     31.4563     73.3490
   740.5000   2000.0000   2000.0000     31.0109     74.1798
   740.7500   2000.0000   2000.0000     30.4400     75.7651
   741.0000   2000.0000   2000.0000     29.6772     80.7072
   741.2500   2000.0000   2000.0000     28.7118     85.9096
   741.5000   2000.0000   2000.0000     27.6106     96.4175
   741.7500   2000.0000   2000.0000     26.4923    105.0078
   742.0000   2000.0000   2000.0000     25.4673    119.4064
   742.2500   2000.0000   2000.0000     24.5906    128.9414
   742.5000   2000.0000   2000.0000     23.8528    140.6709
   742.7500   2000.0000   2000.0000     23.2055    145.6762
   743.0000   2000.0000   2000.0000     22.6022    148.7898
   743.2500   2000.0000   2000.0000     22.0286    148.7391
   743.5000   2000.0000   2000.0000     21.5049    147.2141
   743.7500   2000.0000   2000.0000     21.0660    145.9551
   744.0000   2000.0000   2000.0000     20.7419    144.4768
   744.2500   2000.0000   2000.0000     20.5564    144.1835
   744.5000   2000.0000   2000.0000     20.5333    145.2578
   744.7500   2000.0000   2000.0000     20.6919    146.7114
   745.0000   2000.0000   2000.0000     21.0276    148.2726
   745.2500   2000.0000   2000.0000     21.4912    147.5501
   745.5000   2000.0000   2000.0000     21.9859    142.2523
   745.7500   2000.0000   2000.0000     22.3892    135.9757
   746.0000   2000.0000   2000.0000     22.5956    124.2359
   746.2500   2000.0000   2000.0000     22.5604    116.4746
   746.5000   2000.0000   2000.0000     22.3209    107.8420
   746.7500   2000.0000   2000.0000     21.9775    105.4983
   747.0000   2000.0000   2000.0000     21.6459    108.1496
   747.2500   2000.0000   2000.0000     21.4073    113.4776
   747.5000   2000.0000   2000.0000     21.2802    124.2539
   747.7500   2000.0000   2000.0000     21.2196    131.6456
   748.0000   2000.0000   2000.0000     21.1432    141.2113
   748.2500   2000.0000   2000.0000     20.9734    146.1407
   748.5000   2000.0000   2000.0000     20.6775    151.1694
   748.7500   2000.0000   2000.0000     20.2806    153.0093
   749.0000   2000.0000   2000.0000     19.8449    154.0318
   749.2500   2000.0000   2000.0000     19.4371    154.0834
   749.5000   2000.0000   2000.0000     19.1029    153.9552
   749.7500   2000.0000   2000.0000     18.8619    153.7370
   750.0000   2000.0000   2000.0000     18.7166    152.5152
   750.2500   2000.0000   2000.0000     18.6671    150.6579
   750.5000   2000.0000   2000.0000     18.7220    146.0713
   750.7500   2000.0000   2000.0000     18.8973    142.0443
   751.0000   2000.0000   2000.0000     19.2053    135.4732
   751.2500   2000.0000   2000.0000     19.6422    131.4161
   751.5000   2000.0000   2000.0000     20.1881    126.6961
   751.7500   2000.0000   2000.0000     20.8224    124.5921
   752.0000   2000.0000   2000.0000     21.5451    122.5357
   752.2500   2000.0000   2000.0000     22.3841    121.3128
   752.5000   2000.0000   2000.0000     23.3789    118.7490
   752.7500   2000.0000   2000.0000     24.5459    116.5582
   753.0000   2000.0000   2000.0000     25.8510    113.7192
   753.2500   2000.0000   2000.0000     27.2109    112.8449
   753.5000   2000.0000   2000.0000     28.5330    113.1234
   753.7500   2000.0000   2000.0000     29.7719    113.8196
   754.0000   2000.0000   2000.0000     30.9592    114.8691
   754.2500   2000.0000   2000.0000     32.1764    115.6335
   754.5000   2000.0000   2000.0000     33.4802    117.4490
   754.7500   2000.0000   2000.0000     34.8284    119.1598
   755.0000   2000.0000   2000.0000     36.0737    121.6933
   755.2500   2000.0000   2000.0000     37.0678    122.7739
   755.5000   2000.0000   2000.0000     37.8087    123.1423
   755.7500   2000.0000   2000.0000     38.4709    122.7510
   756.0000   2000.0000   2000.0000     39.2634    121.5676
   756.2500   2000.0000   2000.0000     40.2474    120.3757
   756.5000   2000.0000   2000.0000     41.2650    117.6098
   756.7500   2000.0000   2000.0000     42.0329    114.7598
   757.0000   2000.0000   2000.0000     42.3427    108.3523
   757.2500   2000.0000   2000.0000     42.2048    102.4857
   757.5000   2000.0000   2000.0000     41.8074     91.7036
   757.7500   2000.0000   2000.0000     41.3780     83.9111
   758.0000   2000.0000   2000.0000     41.1058     72.9944
   758.2500   2000.0000   2000.0000     41.1452     67.0819
   758.5000   2000.0000   2000.0000     41.6358     60.9275
   758.7500   2000.0000   2000.0000     42.6762     58.5292
   759.0000   2000.0000   2000.0000     44.2624     56.7777
   759.2500   2000.0000   2000.0000     46.2256     56.3228
   759.5000   2000.0000   2000.0000     48.2161     55.9336
   759.7500   2000.0000   2000.0000     49.7918     55.5909
   760.0000   2000.0000   2000.0000     50.6139     54.9759
   760.2500   2000.0000   2000.0000     50.6147     54.8387
   760.5000   2000.0000   2000.0000     49.9760     55.6488
   760.7500   2000.0000   2000.0000     48.9647     56.7364
   761.0000   2000.0000   2000.0000     47.8048     57.9880
   761.2500   2000.0000   2000.0000     46.6627     57.9026
   761.5000   2000.0000   2000.0000     45.6718     56.5109
   761.7500   2000.0000   2000.0000     44.9182     55.4453
   762.0000   2000.0000   2000.0000     44.4133     54.7277
   762.2500   2000.0000   2000.0000     44.1078     55.0234
   762.5000   2000.0000   2000.0000     43.9382     56.6505
   762.7500   2000.0000   2000.0000     43.8560     58.7152
   763.0000   2000.0000   2000.0000     43.7975     63.8123
   763.2500   2000.0000   2000.0000     43.6446     68.6796
   763.5000   2000.0000   2000.0000     43.2376     77.8181
   763.7500   2000.0000   2000.0000     42.4440     84.5627
   764.0000   2000.0000   2000.0000     41.2252     94.2053
   764.2500   2000.0000   2000.0000     39.6522     99.4846
   764.5000   2000.0000   2000.0000     37.8720    105.1868
   764.7500   2000.0000   2000.0000     36.0575    108.0374
   765.0000   2000.0000   2000.0000     34.3618    112.5316
   765.2500   2000.0000   2000.0000     32.8821    116.3532
   765.5000   2000.0000   2000.0000     31.6430    123.2590
   765.7500   2000.0000   2000.0000     30.6013    128.0378
   766.0000   2000.0000   2000.0000     29.6719    134.2675
   766.2500   2000.0000   2000.0000     28.7668    137.3920
   766.5000   2000.0000   2000.0000     27.8304    140.5414
   766.7500   2000.0000   2000.0000     26.8577    141.7962
   767.0000   2000.0000   2000.0000     25.8881    142.3736
   767.2500   2000.0000   2000.0000     24.9808    141.5573
   767.5000   2000.0000   2000.0000     24.1874    138.1524
   767.7500   2000.0000   2000.0000     23.5335    134.8916
   768.0000   2000.0000   2000.0000     23.0150    130.6092
   768.2500   2000.0000   2000.0000     22.6041    129.4118
   768.5000   2000.0000   2000.0000     22.2586    130.6154
   768.7500   2000.0000   2000.0000     21.9263    132.5114
   769.0000   2000.0000   2000.0000     21.5513    134.6006
   769.2500   2000.0000   2000.0000     21.0927    134.5730
   769.5000   2000.0000   2000.0000     20.5476    132.4722
   769.7500   2000.0000   2000.0000     19.9552    130.3750
   770.0000   2000.0000   2000.0000     19.3734    127.4437
   770.2500   2000.0000   2000.0000     18.8481    126.1680
   770.5000   2000.0000   2000.0000     18.4040    125.7681
   770.7500   2000.0000   2000.0000     18.0520    126.5332
   771.0000   2000.0000   2000.0000     17.8003    128.9023
   771.2500   2000.0000   2000.0000     17.6550    131.0409
   771.5000   2000.0000   2000.0000     17.6150    134.6669
   771.7500   2000.0000   2000.0000     17.6699    137.0161
   772.0000   2000.0000   2000.0000     17.8053    139.5075
   772.2500   2000.0000   2000.0000     18.0149    139.9507
   772.5000   2000.0000   2000.0000     18.3085    138.6285
   772.7500   2000.0000   2000.0000     18.7134    136.8272
   773.0000   2000.0000   2000.0000     19.2655    133.4163
   773.2500   2000.0000   2000.0000     19.9987    130.6174
