~Version Information
VERS.                      2.0: CWLS Log ASCII Standard - VERSION 2.0
WRAP.                       NO: One line per depth step
~Well Information Block
STRT.FT               595.0000: 
STOP.FT              1508.7500: 
STEP.FT                 0.2500: 
NULL.                -999.2500: 
COMP.          Pioneer Natural Resources: COMPANY
WELL.          Sumatra 34-22 Tr: WELL
FLD.           Purgatoire River: FIELD
LOC.           443' FSL & 2424' FEL--: LOCATION
PROV.                 Colorado: PROVINCE
CNTY.               Las Animas: COUNTRY
SRVC.                Patterson: SERVICE COMPANY
DATE.          Wed Jun 08 23:53:01 2005: LOG DATE
UWI.           05 071 08383 00: UNIQUE WELL ID
~Curve Information Block
DEPT.FT            0 000 00 00: Depth
SN.Ohm-m                      : IEL Short Normal
SP.mV                         : IEL Spontaneous Potential
DIR.Ohm-m                     : IEL Induction Resistivity
GR.GAPI                       : Gamma Ray
~Parameter Information Block
~A  Depth        SN          SP         DIR          GR     
# ...
   762.5000    682.8896   -529.3949      7.4235    142.9397
   762.7500    682.8896   -529.3906      7.4170    140.2104
   763.0000    682.8896   -529.3864      7.4464    135.5071
   763.2500    682.8896   -529.3819      7.5117    132.4687
   763.5000    682.8896   -529.3768      7.6111    128.4523
   763.7500    682.8896   -529.3707      7.7432    126.1405
   764.0000    682.8896   -529.3636      7.9082    123.0297
   764.2500    682.8896   -529.3553      8.1090    120.9210
   764.5000    682.8896   -529.3458      8.3511    117.1901
   764.7500    682.8896   -529.3353      8.6425    114.5073
   765.0000    682.8896   -529.3242      8.9926    112.0117
   765.2500    682.8896   -529.3127      9.4101    112.7724
   765.5000    682.8896   -529.3015      9.8978    118.3988
   765.7500    682.8879   -529.2909     10.4461    124.1626
   766.0000    682.8785   -529.2816     11.0292    132.8757
   766.2500    682.8336   -529.2740     11.6074    137.3501
   766.5000    682.6679   -529.2682     12.1388    141.0773
   766.7500    682.2068   -529.2645     12.5953    141.6780
   767.0000    681.2517   -529.2627     12.9733    140.8045
   767.2500    679.8297   -529.2629     13.2951    139.8861
   767.5000    678.4374   -529.2650     13.6004    138.9556
   767.7500    677.8447   -529.2692     13.9339    138.6434
   768.0000    678.4374   -529.2753     14.3354    138.0224
   768.2500    679.8297   -529.2832     14.8349    136.9243
   768.5000    681.2517   -529.2929     15.4536    132.9198
   768.7500    682.2068   -529.3040     16.2069    128.0062
   769.0000    682.6679   -529.3159     17.1085    117.2276
   769.2500    682.8336   -529.3282     18.1724    108.5716
   769.5000    682.8785   -529.3400     19.4190     95.5319
   769.7500    682.8879   -529.3509     20.8798     87.9040
   770.0000    682.8896   -529.3603     22.5967     78.8102
   770.2500    682.8896   -529.3678     24.6050     74.0444
   770.5000    682.8896   -529.3734     26.9013     68.0174
   770.7500    682.8896   -529.3771     29.4045     64.5380
   771.0000    682.8896   -529.3792     31.9343     60.2840
   771.2500    682.8896   -529.3797     34.2342     58.1454
   771.5000    682.8896   -529.3790     36.0478     55.7047
   771.7500    682.8896   -529.3772     37.2206     54.3759
   772.0000    682.8896   -529.3743     37.7657     52.7293
   772.2500    682.8896   -529.3705     37.8483     51.8998
   772.5000    682.8896   -529.3660     37.7021     50.9616
   772.7500    682.8896   -529.3612     37.5349     50.3947
   773.0000    682.8896   -529.3564     37.4730     49.5956
   773.2500    682.8896   -529.3518     37.5534     49.2853
   773.5000    682.8896   -529.3480     37.7476     49.3873
   773.7500    682.8896   -529.3449     37.9964     49.6059
   774.0000    682.8896   -529.3428     38.2404     49.2983
   774.2500    682.8896   -529.3416     38.4336     48.4025
   774.5000    682.8896   -529.3411     38.5426     46.7232
   774.7500    682.8896   -529.3411     38.5449     46.2616
   775.0000    682.8896   -529.3413     38.4388     47.7344
   775.2500    682.8896   -529.3415     38.2505     50.2563
   775.5000    682.8896   -529.3414     38.0255     55.8097
   775.7500    682.8896   -529.3409     37.8070     60.3796
   776.0000    682.8896   -529.3400     37.6154     68.2801
   776.2500    682.8896   -529.3386     37.4377     74.0133
   776.5000    682.8896   -529.3370     37.2250     82.2739
   776.7500    682.8896   -529.3353     36.9057     86.7323
   777.0000    682.8896   -529.3339     36.4151     91.0700
   777.2500    682.8896   -529.3329     35.7289     92.6653
   777.5000    682.8896   -529.3325     34.8745     94.4425
   777.7500    682.8896   -529.3326     33.9159     96.0155
   778.0000    682.8896   -529.3333     32.9232     99.7731
   778.2500    682.8896   -529.3344     31.9485    103.2536
   778.5000    682.8896   -529.3357     31.0156    109.3833
   778.7500    682.8896   -529.3373     30.1282    113.6061
   779.0000    682.8896   -529.3392     29.2844    119.5196
   779.2500    682.8896   -529.3417     28.4863    122.9293
   779.5000    682.8896   -529.3449     27.7353    126.7127
   779.7500    682.8896   -529.3489     27.0261    127.9917
   780.0000    682.8896   -529.3538     26.3457    127.8756
   780.2500    682.8896   -529.3594     25.6831    126.7873
   780.5000    682.8896   -529.3654     25.0357    124.5495
   780.7500    682.8896   -529.3712     24.4055    122.9895
   781.0000    682.8896   -529.3762     23.7898    120.8328
   781.2500    682.8896   -529.3801     23.1787    119.8595
   781.5000    682.8896   -529.3823     22.5624    119.9044
   781.7500    682.8896   -529.3829     21.9404    121.0382
   782.0000    682.8896   -529.3819     21.3186    123.5556
   782.2500    682.8896   -529.3796     20.6980    125.1229
   782.5000    682.8896   -529.3762     20.0667    126.7032
   782.7500    682.8896   -529.3723     19.4071    127.2207
   783.0000    682.8896   -529.3679     18.7127    127.4350
   783.2500    682.8896   -529.3634     17.9981    127.4479
   783.5000    682.8896   -529.3587     17.2947    127.7035
   783.7500    682.8896   -529.3539     16.6356    128.1385
   784.0000    682.8896   -529.3493     16.0441    129.0399
   784.2500    682.8896   -529.3450     15.5292    129.7267
   784.5000    682.8896   -529.3416     15.0881    131.1771
   784.7500    682.8896   -529.3394     14.7125    132.8167
   785.0000    682.8878   -529.3389     14.3950    136.6346
   785.2500    682.8781   -529.3403     14.1341    139.6661
   785.5000    682.8309   -529.3438     13.9373    143.2028
   785.7500    682.6573   -529.3490     13.8204    143.9400
   786.0000    682.1741   -529.3556     13.8048    142.4145
   786.2500    681.1732   -529.3630     13.9137    140.3062
   786.5000    679.6830   -529.3705     14.1691    136.6083
   786.7500    678.2240   -529.3779     14.5900    133.8301
   787.0000    677.6028   -529.3846     15.1925    128.4767
   787.2500    678.2240   -529.3906     15.9903    123.6723
   787.5000    679.6830   -529.3958     16.9977    114.1939
   787.7500    681.1732   -529.4001     18.2303    106.3451
   788.0000    682.1741   -529.4038     19.7043     92.9240
   788.2500    682.6573   -529.4067     21.4337     83.7485
   788.5000    682.8309   -529.4087     23.4296     71.5120
   788.7500    682.8781   -529.4099     25.6997     65.1929
   789.0000    682.8878   -529.4102     28.2415     58.9089
   789.2500    682.8896   -529.4096     31.0276     56.5874
   789.5000    682.8896   -529.4085     33.9839     54.9748
   789.7500    682.8896   -529.4070     36.9686     54.5480
   790.0000    682.8896   -529.4055     39.7655     54.0292
   790.2500    682.8896   -529.4041     42.1109     53.4109
   790.5000    682.8896   -529.4030     43.7697     51.8031
   790.7500    682.8896   -529.4022     44.6184     50.4289
   791.0000    682.8896   -529.4019     44.6558     48.7186
   791.2500    682.8896   -529.4020     43.9295     48.3385
   791.5000    682.8896   -529.4023     42.4604     49.2341
   791.7500    682.8896   -529.4026     40.2464     50.5965
   792.0000    682.8896   -529.4028     37.3423     53.3499
   792.2500    682.8896   -529.4028     33.9337     55.7591
   792.5000    682.8896   -529.4023     30.3213     61.0940
   792.7500    682.8896   -529.4014     26.8177     66.3742
   793.0000    682.8896   -529.4001     23.6437     77.2941
   793.2500    682.8896   -529.3986     20.8960     86.3180
   793.5000    682.8896   -529.3972     18.5784    101.3206
   793.7500    682.8896   -529.3959     16.6490    111.4304
   794.0000    682.8896   -529.3949     15.0539    125.4099
   794.2500    682.8896   -529.3943     13.7419    133.3972
   794.5000    682.8896   -529.3939     12.6681    142.7722
   794.7500    682.8896   -529.3938     11.7945    147.0212
   795.0000    682.8896   -529.3936     11.0905    150.2584
   795.2500    682.8896   -529.3931     10.5322    150.5551
   795.5000    682.8896   -529.3921     10.1007    148.9570
   795.7500    682.8896   -529.3904      9.7789    146.9611
