~Version Information
VERS.                      2.0: CWLS Log ASCII Standard - VERSION 2.0
WRAP.                       NO: One line per depth step
~Well Information Block
STRT.FT                 8.7500: 
STOP.FT              2723.0000: 
STEP.FT                 0.2500: 
NULL.                -999.2500: 
COMP.          Pioneer Natural Resources: COMPANY
WELL.           Desoto 13-7 Tr: WELL
FLD.           Purgatoire River: FIELD
LOC.           1404' FSL & 1115' FWL: LOCATION
PROV.                 Colorado: PROVINCE
CNTY.               Las Animas: COUNTRY
SRVC.                Patterson: SERVICE COMPANY
DATE.          Wed Mar 16 18:00:51 2005: LOG DATE
UWI.           05 071 08216 00: UNIQUE WELL ID
~Curve Information Block
DEPT.FT            0 000 00 00: Depth
GR.GAPI                       : Gamma Ray
CCL.                          : Casing Collar Locator
TT3.usec                      : CBL 3' Travel Time
AMP3.mV                       : CBL 3' Amplitude
AMP5.mV                       : CBL 5' Amplitude
~Parameter Information Block
~A  Depth        GR         CCL         TT3         AMP3        AMP5    
# ...
  1072.7500    102.8789      0.0000   1109.4344     22.8105      4.2291
  1073.0000    103.0274      0.0000   1045.7527     22.4869      3.9981
  1073.2500    103.5599      0.0000   1011.9564     22.0699      3.8099
  1073.5000    103.1009      0.0000   1008.4138     21.4394      3.6481
  1073.7500    101.1219      0.0000   1019.7173     20.5899      3.4981
  1074.0000     98.4670      0.0000   1025.5663     19.6164      3.3490
  1074.2500     96.9047      0.0000   1014.9985     18.6352      3.1936
  1074.5000     97.7161      0.0000    992.3468     17.7064      3.0334
  1074.7500    100.4539      0.0000    969.8643     16.8259      2.8846
  1075.0000    103.4766      0.0000    956.8568     15.9761      2.7707
  1075.2500    105.6607      0.0000    956.7437     15.1673      2.7061
  1075.5000    107.1554      0.0000    970.1736     14.4393      2.6869
  1075.7500    108.6409      0.0000    995.8741     13.8534      2.6984
  1076.0000    110.4454      0.0000   1029.2124     13.4871      2.7240
  1076.2500    112.4179      0.0000   1065.2396     13.4055      2.7461
  1076.5000    114.2924      0.0000   1105.0900     13.6153      2.7422
  1076.7500    116.0934      0.0000   1154.3702     14.0540      2.6900
  1077.0000    118.0494      0.0000   1212.1533     14.6437      2.5865
  1077.2500    119.7131      0.0000   1265.9825     15.3533      2.4559
  1077.5000    119.4507      0.0000   1300.6288     16.1891      2.3292
  1077.7500    115.7862      0.0000   1309.2690     17.1004      2.2190
  1078.0000    109.5038      0.0000   1297.0479     17.8916      2.1264
  1078.2500    103.6485      0.0000   1278.4329     18.2668      2.0618
  1078.5000    101.0601      0.0000   1269.9249     18.0393      2.0409
  1078.7500    102.2112      0.0000   1279.4879     17.3410      2.0653
  1079.0000    105.3709      0.0000   1301.5411     16.5754      2.1182
  1079.2500    108.2363      0.0000   1323.9692     16.0934      2.1799
  1079.5000    109.2499      0.0000   1338.6542     15.9245      2.2408
  1079.7500    108.0077      0.0000   1344.3057     15.8426      2.3020
  1080.0000    105.2046      2.3572   1342.0385     15.6452      2.3640
  1080.2500    102.3794      0.0000   1331.4634     15.3483      2.4153
  1080.5000    101.1244      0.0000   1311.0881     15.1914      2.4341
  1080.7500    101.9015      0.0000   1281.1097     15.4911      2.4070
  1081.0000    103.7098      0.0000   1244.2986     16.3743      2.3451
  1081.2500    105.2193      0.0000   1203.4061     17.5484      2.2826
  1081.5000    106.1272      0.0000   1158.4430     18.4198      2.2637
  1081.7500    107.2070      0.0000   1108.3497     18.5535      2.3244
  1082.0000    109.0992      0.0000   1055.7184     17.9942      2.4683
  1082.2500    111.1935      0.0000   1007.9166     17.1183      2.6459
  1082.5000    111.8061      0.0000    971.9024     16.2739      2.7713
  1082.7500    109.6010      0.0000    948.9142     15.6063      2.7817
  1083.0000    104.9749      0.0000    935.1231     15.1219      2.6823
  1083.2500     99.9652      0.0000    925.9199     14.7960      2.5308
  1083.5000     96.6766      0.0000    918.5516     14.6007      2.3856
  1083.7500     95.9100      0.0000    912.1854     14.4858      2.2732
  1084.0000     97.2047      0.0000    907.0311     14.3869      2.1922
  1084.2500     99.7150      0.0000    903.5081     14.2591      2.1338
  1084.5000    102.7099      0.0000    901.5767     14.0998      2.0955
  1084.7500    105.5260      0.0000    900.7228     13.9363      2.0791
  1085.0000    107.6272      0.0000    900.3414     13.7940      2.0808
  1085.2500    108.9219      0.0000    900.0673     13.6761      2.0888
  1085.5000    109.6557      0.0000    899.8073     13.5749      2.0904
  1085.7500    109.7447      0.0000    899.5935     13.4929      2.0800
  1086.0000    108.6777      0.0000    899.4554     13.4403      2.0593
  1086.2500    106.4852      0.0000    899.3804     13.4122      2.0329
  1086.5000    104.3447      0.0000    899.3487     13.3845      2.0052
  1086.7500    103.6478      0.0000    899.3465     13.3380      1.9801
  1087.0000    104.6684      0.0000    899.3483     13.2820      1.9600
  1087.2500    106.5261      0.0000    899.3210     13.2450      1.9432
  1087.5000    108.2955      0.0000    899.2635     13.2472      1.9258
  1087.7500    109.8208      0.0000    899.2532     13.2879      1.9073
  1088.0000    111.3895      0.0000    899.4750     13.3547      1.8924
  1088.2500    112.9162      0.0000    900.2371     13.4324      1.8861
  1088.5000    113.8672      0.0000    901.8541     13.5015      1.8880
  1088.7500    114.0801      0.0000    904.2593     13.5386      1.8936
  1089.0000    114.2634      0.0000    906.6536     13.5300      1.9001
  1089.2500    115.1843      0.0000    907.8933     13.4829      1.9087
  1089.5000    116.2459      0.0000    907.6327     13.4157      1.9217
  1089.7500    115.4407      0.0000    906.8530     13.3405      1.9399
  1090.0000    111.4891      0.0000    906.8192     13.2641      1.9655
  1090.2500    105.9159      0.0000    907.6564     13.2015      2.0040
  1090.5000    102.2517      0.0000    908.5004     13.1805      2.0605
  1090.7500    102.8229      0.0000    909.0171     13.2293      2.1345
  1091.0000    106.5491      0.0000    910.1289     13.3641      2.2174
  1091.2500    109.9668      0.0000    912.9883     13.5871      2.2974
  1091.5000    110.2992      0.0000    917.7558     13.8896      2.3653
  1091.7500    107.6078      0.0000    923.6249     14.2487      2.4158
  1092.0000    104.2421      0.0000    929.5021     14.6211      2.4425
  1092.2500    102.5076      0.0000    934.4310     14.9444      2.4386
  1092.5000    103.0586      0.0000    937.8389     15.1553      2.4052
  1092.7500    105.2700      0.0000    939.7271     15.2134      2.3576
  1093.0000    108.3165      0.0000    940.5411     15.1149      2.3198
  1093.2500    111.2635      0.0000    940.7907     14.8986      2.3080
  1093.5000    112.6555      0.0000    940.8053     14.6466      2.3193
  1093.7500    111.2010      0.0000    940.7266     14.4596      2.3381
  1094.0000    107.1862      0.0000    940.6032     14.3972      2.3541
  1094.2500    102.6022      0.0000    940.4645     14.4293      2.3721
  1094.5000     99.7793      0.0000    940.3565     14.4605      2.4053
  1094.7500    100.2042      0.0000    940.3239     14.4141      2.4597
  1095.0000    104.1663      0.0000    940.3733     14.2900      2.5249
  1095.2500    110.5705      0.0000    940.4577     14.1499      2.5775
  1095.5000    117.0409      0.0000    940.5057     14.0615      2.5954
  1095.7500    120.9932      0.0000    940.4684     14.0514      2.5710
  1096.0000    121.1428      0.0000    940.3417     14.0885      2.5136
  1096.2500    118.0733      0.0000    940.1495     14.1058      2.4400
  1096.5000    113.5718      0.0000    939.9176     14.0487      2.3645
  1096.7500    109.6181      0.0000    939.6689     13.9108      2.2960
  1097.0000    107.6069      0.0000    939.4425     13.7241      2.2385
  1097.2500    107.7534      0.0000    939.2949     13.5261      2.1917
  1097.5000    109.0564      0.0000    939.2618     13.3455      2.1516
  1097.7500    110.1288      0.0000    939.3181     13.2095      2.1129
  1098.0000    110.0139      0.0000    939.3890     13.1445      2.0713
  1098.2500    108.1820      0.0000    939.4146     13.1581      2.0265
  1098.5000    104.4215      0.0000    939.4000     13.2188      1.9819
  1098.7500     99.2917      0.0000    939.3987     13.2572      1.9408
  1099.0000     94.2719      0.0000    939.4457     13.2001      1.9044
  1099.2500     90.8990      0.0000    939.5135     13.0164      1.8731
  1099.5000     89.8090      0.0000    939.5363     12.7333      1.8490
  1099.7500     90.7577      0.0000    939.4792     12.4076      1.8346
  1100.0000     93.2316      0.0000    939.3848     12.0882      1.8282
  1100.2500     96.7820      0.0000    939.3467     11.8053      1.8222
  1100.5000    101.1667      0.0000    939.4271     11.5873      1.8065
