~Version Information
VERS.                      2.0: CWLS Log ASCII Standard - VERSION 2.0
WRAP.                       NO: One line per depth step
~Well Information Block
STRT.FT                15.0000: 
STOP.FT              2409.7500: 
STEP.FT                 0.2500: 
NULL.                -999.2500: 
COMP.          Pioneer Natural Resources: COMPANY
WELL.          Oink Oink 14-36: WELL
FLD.           Purgatoire River: FIELD
LOC.           216' FSL & 263' FWL: LOCATION
PROV.                 Colorado: PROVINCE
CNTY.               Las Animas: COUNTRY
SRVC.                Patterson: SERVICE COMPANY
DATE.          Wed Jun 22 11:05:26 2005: LOG DATE
UWI.           05 071 08394 00: UNIQUE WELL ID
~Curve Information Block
DEPT.FT            0 000 00 00: Depth
GR.GAPI                       : Gamma Ray
CCL.                          : Casing Collar Locator
TT3.usec                      : CBL 3' Travel Time
AMP3.mV                       : CBL 3' Amplitude
~Parameter Information Block
~A  Depth        GR         CCL         TT3         AMP3    
# ...
   316.5000     69.4267      0.0000    714.0205      6.7885
   316.7500     65.7386      0.0000    715.8330      6.7900
   317.0000     63.4063      0.0000    712.8300      6.7753
   317.2500     62.0049      0.0000    705.5878      6.7482
   317.5000     61.5664      0.0000    694.7922      6.7015
   317.7500     61.8281      0.0000    681.4374      6.6127
   318.0000     61.9427      0.0000    667.2740      6.4618
   318.2500     61.3011      0.0000    655.0394      6.2497
   318.5000     60.2618      0.0000    647.4846      5.9955
   318.7500     59.7421      0.0000    645.4952      5.7300
   319.0000     60.3200      0.0000    647.3265      5.4971
   319.2500     61.9662      0.0000    650.0125      5.3396
   319.5000     64.3274      0.0000    651.3165      5.2684
   319.7500     66.8661      0.0000    650.2899      5.2539
   320.0000     68.8609      2.1410    646.5263      5.2557
   320.2500     69.7112      3.0000    639.6548      5.2568
   320.5000     69.3498     -2.4509    629.8244      5.2788
   320.7500     68.2097      0.0000    618.7607      5.3766
   321.0000     66.8738      0.0000    610.5281      5.6039
   321.2500     65.9551      0.0000    610.7448      5.9533
   321.5000     66.2374      0.0000    623.1288      6.3311
   321.7500     68.5489      0.0000    645.2659      6.6179
   322.0000     73.1525      0.0000    668.8840      6.7593
   322.2500     79.1383      0.0000    685.9470      6.7851
   322.5000     84.6234      0.0000    693.8210      6.7561
   322.7500     87.8587      0.0000    694.1487      6.7169
   323.0000     88.2287      0.0000    689.0148      6.6910
   323.2500     86.4218      0.0000    679.9775      6.6907
   323.5000     84.2154      0.0000    669.2692      6.7186
   323.7500     83.9784      0.0000    659.6203      6.7621
   324.0000     87.1608      0.0000    652.5665      6.7970
   324.2500     92.6177      0.0000    647.7969      6.7996
   324.5000     97.1997      0.0000    644.3181      6.7605
   324.7500     98.5799      0.0000    641.8891      6.6856
   325.0000     97.0510      0.0000    641.0992      6.5902
   325.2500     94.4390      0.0000    642.2399      6.4934
   325.5000     92.0179      0.0000    644.5477      6.4124
   325.7500     89.8053      0.0000    646.7478      6.3552
   326.0000     87.4328      0.0000    648.0614      6.3217
   326.2500     85.2726      0.0000    648.4895      6.3139
   326.5000     84.5054      0.0000    648.4100      6.3406
   326.7500     85.9436      0.0000    648.1794      6.4091
   327.0000     88.9325      0.0000    648.0140      6.5145
   327.2500     91.6096      0.0000    648.1049      6.6365
   327.5000     92.1860      0.0000    648.9274      6.7468
   327.7500     89.8999      0.0000    651.6631      6.8255
   328.0000     85.0638      0.0000    658.2231      6.8779
   328.2500     78.6878      0.0000    670.1697      6.9309
   328.5000     72.1340      0.0000    686.6707      7.0039
   328.7500     66.6281      0.0000    703.4039      7.0856
   329.0000     62.6140      0.0000    714.4675      7.1429
   329.2500     59.6624      0.0000    716.1959      7.1494
   329.5000     57.3895      0.0000    709.1636      7.1023
   329.7500     56.3371      0.0000    696.7747      7.0159
   330.0000     57.3756      0.0000    682.8231      6.9056
   330.2500     60.2222      0.0000    670.5818      6.7822
   330.5000     63.1768      0.0000    663.1009      6.6586
   330.7500     64.5138      0.0000    663.0950      6.5552
   331.0000     63.8208      0.0000    671.8242      6.4918
   331.2500     61.9949      0.0000    687.5934      6.4734
   331.5000     60.2728      0.0000    705.3770      6.4883
   331.7500     59.2562      0.0000    718.9858      6.5211
   332.0000     58.7429      0.0000    724.6858      6.5645
   332.2500     58.4427      0.0000    723.0249      6.6158
   332.5000     58.5514      0.0000    717.3120      6.6706
   332.7500     59.2370      0.0000    710.7606      6.7226
   333.0000     59.8470      0.0000    705.0524      6.7678
   333.2500     59.3157      0.0000    700.6939      6.8045
   333.5000     57.5600      0.0000    697.7355      6.8288
   333.7500     55.9923      0.0000    696.0065      6.8325
   334.0000     56.2062      0.0000    695.1473      6.8090
   334.2500     58.4226      0.0000    694.7406      6.7609
   334.5000     61.8625      0.0000    694.4610      6.6992
   334.7500     66.5790      0.0000    694.0093      6.6315
   335.0000     74.1229      0.0000    692.7686      6.5569
   335.2500     86.0156      0.0000    689.3398      6.4744
   335.5000    101.8647      0.0000    681.5781      6.3908
   335.7500    119.0147      0.0000    667.9673      6.3131
   336.0000    133.7575      0.0000    650.1438      6.2419
   336.2500    143.0567      0.0000    634.1435      6.1778
   336.5000    145.7923      0.0000    627.5868      6.1293
   336.7500    142.9773      0.0000    634.0441      6.1036
   337.0000    137.0075      0.0000    650.0238      6.0950
   337.2500    130.3290      0.0000    667.8871      6.0895
   337.5000    124.2718      0.0000    681.4348      6.0809
   337.7500    119.0660      0.0000    688.6230      6.0782
   338.0000    115.0607      0.0000    690.0623      6.0954
   338.2500    113.4929      0.0000    686.4174      6.1382
   338.5000    115.5512      0.0000    677.7775      6.1974
   338.7500    121.0000      0.0000    665.3080      6.2529
   339.0000    128.2113      0.0000    652.9358      6.2845
   339.2500    135.0718      0.0000    646.3064      6.2856
   339.5000    139.5056      0.0000    648.9835      6.2710
   339.7500    140.0180      0.0000    659.4696      6.2673
   340.0000    136.6023      0.0000    672.4538      6.2910
   340.2500    130.7904      0.0000    683.0213      6.3359
   340.5000    124.5374      0.0000    689.4663      6.3805
   340.7500    119.5245      0.0000    692.7489      6.4093
   341.0000    117.3639      0.0000    694.4816      6.4219
   341.2500    119.2770      0.0000    695.6883      6.4245
   341.5000    125.0268      0.0000    696.6329      6.4153
   341.7500    132.6879      0.0000    697.0261      6.3859
   342.0000    139.8341      0.0000    696.1616      6.3344
   342.2500    144.8853      0.0000    693.0647      6.2742
   342.5000    147.4482      0.0000    686.8796      6.2238
   342.7500    147.7356      0.0000    677.4796      6.1914
   343.0000    145.8885      0.0000    665.6407      6.1704
   343.2500    141.9160      0.0000    652.2616      6.1498
   343.5000    136.2166      0.0000    637.5485      6.1255
   343.7500    129.9842      0.0000    621.6689      6.1018
   344.0000    124.9224      0.0000    606.3591      6.0816
   344.2500    122.4134      0.0000    595.0512      6.0600
   344.5000    122.8666      0.0000    590.9571      6.0300
   344.7500    125.7279      0.0000    595.3484      5.9979
   345.0000    129.9466      0.0000    607.1011      5.9865
   345.2500    134.2939      0.0000    621.9675      6.0164
   345.5000    137.3481      0.0000    631.6021      6.0833
   345.7500    137.7385      0.0000    625.5859      6.1603
   346.0000    135.0647      0.0000    597.6753      6.2222
   346.2500    130.6230      0.0000    551.7340      6.2661
   346.5000    126.7107      0.0000    501.1769      6.3088
   346.7500    124.8295      0.0000    461.6553      6.3675
   347.0000    124.6081      0.0000    443.3398      6.4449
   347.2500    124.4037      0.0000    448.1167      6.5284
   347.5000    122.6108      0.0000    470.8626      6.5999
   347.7500    118.5928      0.0000    502.2597      6.6466
   348.0000    113.0340      0.0000    532.9266      6.6674
   348.2500    107.4785      0.0000    557.5385      6.6718
   348.5000    103.1001      0.0000    575.6003      6.6747
   348.7500     99.9833      0.0000    588.6742      6.6899
   349.0000     97.9360      0.0000    597.8474      6.7243
   349.2500     97.5198      0.0000    603.5869      6.7750
   349.5000     99.4775      0.0000    606.4572      6.8293
   349.7500    103.4512      0.0000    607.0530      6.8694
