~Version Information
VERS.                      2.0: CWLS Log ASCII Standard - VERSION 2.0
WRAP.                       NO: One line per depth step
~Well Information Block
STRT.FT                -5.2500: 
STOP.FT               769.5000: 
STEP.FT                 0.2500: 
NULL.                -999.2500: 
COMP.          Pioneer Natural Resources: COMPANY
WELL.          HG Duran 34-27 Tr: WELL
FLD.           Purgatorie River: FIELD
LOC.           1076' FSL & 1465' FEL: LOCATION
PROV.                 Colorado: PROVINCE
CNTY.               Las Animas: COUNTRY
SRVC.          Patterson Wireline: SERVICE COMPANY
DATE.          Mon Apr 18 09:19:17 2005: LOG DATE
UWI.           05-071-08218-00: UNIQUE WELL ID
~Curve Information Block
DEPT.FT            0 000 00 00: Depth
CCL.                          : Casing Collar Locator
TT3.usec                      : CBL 3' Travel Time
AMP3.mV                       : CBL 3' Amplitude
GR.GAPI                       : Gamma Ray
~Parameter Information Block
~A  Depth       CCL         TT3         AMP3         GR     
# ...
   731.7500      0.0000    802.1504      6.7469     58.2840
   732.0000      0.0000    797.0902      6.8095     60.3173
   732.2500      0.0000    796.3973      7.3318     62.8428
   732.5000      0.0000    793.9556      8.4724     65.4914
   732.7500      0.0000    786.7097     10.0602     68.1686
   733.0000      0.0000    776.0349     11.5463     71.0559
   733.2500      0.0000    765.1948     12.3874     74.0278
   733.5000      0.0000    756.6205     12.4902     76.4701
   733.7500      0.0000    750.6743     12.1982     77.9097
   734.0000      0.0000    745.2607     11.9238     78.4637
   734.2500      0.0000    735.4261     11.9016     78.3120
   734.5000      0.0000    713.6827     12.2017     77.0586
   734.7500      0.0000    673.2474     12.8025     74.1192
   735.0000      0.0000    614.2188     13.5990     69.7396
   735.2500      0.0000    547.1103     14.4151     65.3862
   735.5000      0.0000    487.6748     15.0885     62.9914
   735.7500      0.0000    446.5944     15.5571     63.6311
   736.0000      0.0000    424.3842     15.8548     66.6291
   736.2500      0.0000    415.0445     16.0390     69.8875
   736.5000      0.0000    412.5465     16.1522     71.3846
   736.7500      0.0000    414.5602     16.2321     70.6915
   737.0000      0.0000    423.3748     16.3076     69.1394
   737.2500      0.0000    445.0801     16.3690     68.4403
   737.5000      0.0000    485.8176     16.3690     69.0613
   737.7500      0.0000    545.1870     16.2722     69.9042
   738.0000      0.0000    612.5255     16.0959     69.4420
   738.2500      0.0000    671.9907     15.8962     67.0919
   738.5000      0.0000    712.8438     15.7255     63.6112
   738.7500      0.0000    734.3128     15.6151     60.4581
   739.0000      0.0000    741.4664     15.5884     58.8023
   739.2500      0.0000    738.5084     15.6727     58.7225
   739.5000      0.0000    726.6773     15.8911     59.0849
   739.7500      0.0000    707.9164     16.2335     58.4584
   740.0000      0.0000    689.3488     16.6279     56.4093
   740.2500      0.0000    681.3995     16.9560     53.7724
   740.5000      0.0000    689.2941     17.1258     51.6636
   740.7500      0.0000    707.8912     17.1363     50.6340
   741.0000      0.0000    726.8972     17.0479     50.7891
   741.2500      0.0000    739.6531     16.8998     52.1128
   741.5000      0.0000    745.7764     16.6964     54.3298
   741.7500      0.0000    747.8915     16.4745     56.7226
   742.0000      0.0000    748.3157     16.3333     58.4176
   742.2500      0.0000    748.2112     16.3627     58.9831
   742.5000      0.0000    748.0397     16.5438     58.7648
   742.7500      0.0000    748.0183     16.7317     58.5215
   743.0000      0.0000    748.3970     16.7459     58.6276
   743.2500      0.0000    749.5777     16.4960     58.7051
   743.5000      0.0000    752.0732     16.0409     58.2898
   743.7500      0.0000    756.0384     15.5357     58.0009
   744.0000      0.0000    760.5842     15.1180     59.8263
   744.2500      0.0000    763.8009     14.8298     65.7856
   744.5000      0.0000    764.1478     14.6393     76.1383
   744.7500      0.0000    762.1523     14.5449     89.0109
   745.0000      0.0000    760.4585     14.6483    101.7783
   745.2500      0.0000    761.9282     15.0926    112.8765
   745.5000      0.0000    767.6232     15.8959    122.5776
   745.7500      0.0000    776.3191     16.8419    132.2164
   746.0000      0.0000    785.4875     17.5538    142.3678
   746.2500      0.0000    792.6330     17.7134    151.5619
   746.5000      0.0000    796.2565     17.2529    157.2277
   746.7500      0.0000    796.3597     16.3552    158.3546
   747.0000      0.0000    794.2707     15.2787    156.8639
   747.2500      0.0000    791.6774     14.1925    155.8045
   747.5000      0.0000    789.6278     13.1669    156.4281
   747.7500      0.0000    788.3315     12.2728    157.4983
   748.0000      0.0000    787.5828     11.6339    157.0764
   748.2500      0.0000    787.1508     11.3683    154.4744
   748.5000      0.0000    786.9075     11.4817    150.8657
   748.7500      0.0000    786.8586     11.8156    148.3839
   749.0000      0.0000    787.1976     12.1275    148.4579
   749.2500      0.0000    788.3673     12.2609    150.7916
   749.5000      0.0000    790.9666     12.2452    153.6339
   749.7500      0.0000    795.2155     12.2126    154.9626
   750.0000      0.0000    800.1638     12.2372    153.9023
   750.2500      0.0000    803.6552     12.2758    151.4180
   750.5000      0.0000    803.7609     12.2428    149.5309
   750.7500      0.0000    800.5007     12.1099    149.8039
   751.0000      0.0000    795.8628     11.9445    152.4283
   751.2500      0.0000    792.1307     11.8636    156.1168
   751.5000      0.0000    790.5068     11.9366    158.5899
   751.7500      0.0000    791.0570     12.1240    157.9763
   752.0000      0.0000    793.1533     12.3095    154.5361
   752.2500      0.0000    795.7079     12.3776    150.6339
   752.5000      0.0000    797.6788     12.2647    148.2762
   752.7500      0.0000    798.9924     11.9795    146.8371
   753.0000      0.0000    800.6213     11.5934    143.3524
   753.2500      0.0000    803.1431     11.1893    134.3132
   753.5000      0.0000    805.5854     10.8035    117.1605
   753.7500      0.0000    806.3828     10.4322     91.8940
   754.0000      0.0000    805.1275     10.0932     62.5273
   754.2500      0.0000    802.6040      9.8463     35.7728
   754.5000      0.0000    799.4884      9.7439     16.8039
   754.7500      0.0000    795.9717      9.7848      6.3736
   755.0000      0.0000    792.4466      9.9257      1.9300
   755.2500      0.0000    789.6387     10.1132      0.4623
   755.5000      0.0000    787.9805     10.3013      0.0868
   755.7500      0.0000    787.3002     10.4583      0.0119
   756.0000      0.0000    787.1377     10.5710      0.0000
   756.2500      0.0000    787.1279     10.6354   -999.2500
   756.5000      0.0000    787.1089     10.6440   -999.2500
   756.7500      0.0000    787.0469     10.5921   -999.2500
   757.0000      0.0000    786.9482     10.4968   -999.2500
   757.2500      0.0000    786.7776     10.3920   -999.2500
   757.5000      0.0000    786.3364     10.2929   -999.2500
   757.7500      0.0000    784.5623     10.1732   -999.2500
   758.0000      0.0000    777.7147      9.9771   -999.2500
   758.2500      0.0000    756.5554      9.6014   -999.2500
   758.5000      0.0000    705.6513      8.8396   -999.2500
   758.7500      0.0000    610.4530      7.4320   -999.2500
   759.0000      0.0000    471.9162      5.3152   -999.2500
   759.2500      0.0000    314.9445      2.8347   -999.2500
   759.5000      0.0000    176.4291      0.5917   -999.2500
   759.7500      0.0000     81.2329     -0.9744   -999.2500
   760.0000      0.0000     30.2781     -1.8206   -999.2500
   760.2500      0.0000      9.0363     -2.1753   -999.2500
   760.5000      0.0000      2.1398     -2.2908   -999.2500
   760.7500      0.0000      0.3960     -2.3201   -999.2500
   761.0000      0.0000      0.0527     -2.3258   -999.2500
   761.2500      0.0000   -999.2500   -999.2500   -999.2500
   761.5000      0.0000   -999.2500   -999.2500   -999.2500
   761.7500      0.0000   -999.2500   -999.2500   -999.2500
   762.0000      0.0000   -999.2500   -999.2500   -999.2500
   762.2500      0.0000   -999.2500   -999.2500   -999.2500
   762.5000      0.0000   -999.2500   -999.2500   -999.2500
   762.7500      0.0000   -999.2500   -999.2500   -999.2500
   763.0000      0.0000   -999.2500   -999.2500   -999.2500
   763.2500      0.0000   -999.2500   -999.2500   -999.2500
   763.5000      0.0000   -999.2500   -999.2500   -999.2500
   763.7500      0.0000   -999.2500   -999.2500   -999.2500
   764.0000      0.0000   -999.2500   -999.2500   -999.2500
   764.2500      0.0000   -999.2500   -999.2500   -999.2500
   764.5000      0.0000   -999.2500   -999.2500   -999.2500
   764.7500      0.0000   -999.2500   -999.2500   -999.2500
   765.0000      0.0000   -999.2500   -999.2500   -999.2500
