~Version Information
VERS.                      2.0: CWLS Log ASCII Standard - VERSION 2.0
WRAP.                       NO: One line per depth step
~Well Information Block
STRT.FT               768.0000: 
STOP.FT              2635.5000: 
STEP.FT                 0.1000: 
NULL.                -999.2500: 
COMP.          Pioneer Natural Resources: COMPANY
WELL.               Zink 44-10: WELL
FLD.           Purgatoire River: FIELD
LOC.           548' FSL & 473' FEL: LOCATION
PROV.                 Colorado: PROVINCE
CNTY.               Las Animas: COUNTRY
SRVC.                Patterson: SERVICE COMPANY
DATE.          Tue May 31 07:05:25 2005: LOG DATE
UWI.           05 071 08380 00: UNIQUE WELL ID
~Curve Information Block
DEPT.FT            0 000 00 00: Depth
DCAL.in                       : CDL Caliper
RHOB.g/cc                     : CDL Bulk Density
RHOC.g/cc                     : CDL Density Correction
DPOR.pu                       : CDL Density Porosity
GR.GAPI                       : Gamma Ray
NPOR.pu                       : Neutron Porosity
~Parameter Information Block
~A  Depth       DCAL        RHOB        RHOC        DPOR         GR         NPOR    
# ...
  2131.2000      8.1796      2.2108      0.0887     26.6167    103.2458     33.9671
  2131.3000      8.1506      2.2858      0.1271     22.0750    105.3764     32.7568
  2131.4000      8.1506      2.3486      0.1325     18.2665    106.3208     32.1287
  2131.5000      8.1303      2.3838      0.1417     16.1354    106.9990     32.0698
  2131.6000      8.1303      2.4008      0.0994     15.1039    111.0137     32.0816
  2131.7000      8.1303      2.4250      0.1059     13.6364    118.0096     31.8546
  2131.8000      8.1002      2.4599      0.1586     11.5234    124.2605     31.6296
  2131.9000      8.1002      2.4778      0.1721     10.4337    129.1238     31.7279
  2132.0000      8.0892      2.4642      0.0818     11.2576    132.6626     31.8649
  2132.1000      8.0892      2.4370      0.0660     12.9109    129.8350     31.9112
  2132.2000      8.0892      2.4194      0.0801     13.9785    119.3867     31.9150
  2132.3000      8.0991      2.4231      0.0856     13.7535    108.2831     31.8314
  2132.4000      8.0991      2.4473      0.0773     12.2828    104.4026     31.7604
  2132.5000      8.1501      2.4793      0.1249     10.3458    111.0838     31.8040
  2132.6000      8.1501      2.4981      0.1668      9.2058    122.5403     31.8461
  2132.7000      8.1501      2.5022      0.0967      8.9553    127.5549     31.9290
  2132.8000      8.1866      2.5137      0.1575      8.2619    124.4497     31.9956
  2132.9000      8.1866      2.5354      0.1968      6.9428    122.0073     31.7970
  2133.0000      8.2276      2.5557      0.2019      5.7141    125.0218     31.6492
  2133.1000      8.2276      2.5670      0.2048      5.0320    127.7091     31.5966
  2133.2000      8.2276      2.5596      0.1756      5.4805    124.7057     31.1735
  2133.3000      8.2515      2.5314      0.1758      7.1898    120.3885     30.8509
  2133.4000      8.2515      2.5049      0.0688      8.7943    118.9498     30.7221
  2133.5000      8.2719      2.5106      0.0903      8.4499    120.9562     30.0348
  2133.6000      8.2719      2.5426      0.1267      6.5085    127.2081     29.0422
  2133.7000      8.2719      2.5714      0.1182      4.7634    132.5813     28.6224
  2133.8000      8.3013      2.5849      0.0977      3.9460    131.8660     28.6009
  2133.9000      8.3013      2.5851      0.1045      3.9319    128.2348     28.3286
  2134.0000      8.2392      2.5792      0.0449      4.2932    126.8703     28.0133
  2134.1000      8.2392      2.5776      0.0756      4.3902    129.1362     28.0034
  2134.2000      8.2392      2.5778      0.0804      4.3743    130.3445     28.5796
  2134.3000      8.2178      2.5770      0.0604      4.4272    125.4582     29.8080
  2134.4000      8.2178      2.5786      0.0656      4.3261    117.7837     30.6050
  2134.5000      8.1419      2.5743      0.0738      4.5906    114.5544     29.9786
  2134.6000      8.1419      2.5674      0.0123      5.0088    114.6914     28.5877
  2134.7000      8.1419      2.5795      0.0791      4.2732    112.0124     27.5460
  2134.8000      8.0937      2.5990      0.1059      3.0915    110.2433     27.2215
  2134.9000      8.0937      2.6000      0.0546      3.0305    115.4793     27.4221
  2135.0000      8.0580      2.5931      0.0140      3.4507    122.0792     27.9447
  2135.1000      8.0580      2.6013      0.0341      2.9525    122.7693     28.4821
  2135.2000      8.0580      2.6184      0.0634      1.9168    121.5266     28.2408
  2135.3000      8.0552      2.6184      0.0426      1.9170    123.9670     26.9378
  2135.4000      8.0552      2.5960      0.0419      3.2743    125.8278     25.6382
  2135.5000      8.0200      2.5737      0.0448      4.6215    124.2752     25.3635
  2135.6000      8.0200      2.5709      0.0512      4.7963    124.9161     25.9179
  2135.7000      8.0200      2.5824      0.0246      4.0953    128.3390     26.4967
  2135.8000      7.9945      2.5890      0.0626      3.6954    130.4079     26.5292
  2135.9000      7.9945      2.5780      0.0875      4.3620    130.8995     26.3680
  2136.0000      7.9881      2.5553      0.0580      5.7382    132.5615     26.4896
  2136.1000      7.9881      2.5331      0.0523      7.0864    138.0422     26.7833
  2136.2000      7.9881      2.5186      0.0484      7.9637    143.7228     27.1950
  2136.3000      7.9978      2.5157      0.0037      8.1387    143.6771     27.6759
  2136.4000      7.9978      2.5176      0.0879      8.0230    143.4624     27.8570
  2136.5000      7.9457      2.5186      0.0311      7.9620    147.9489     28.1635
  2136.6000      7.9457      2.5329      0.0446      7.0993    152.8047     28.8555
  2136.7000      7.9457      2.5598      0.0737      5.4651    157.2565     29.0028
  2136.8000      7.9442      2.5757      0.1324      4.5053    162.1637     28.3994
  2136.9000      7.9442      2.5702      0.1105      4.8388    164.6427     28.1767
  2137.0000      8.0151      2.5549      0.0823      5.7660    163.1636     28.6636
  2137.1000      8.0151      2.5402      0.0875      6.6570    157.1967     28.9792
  2137.2000      8.0151      2.5279      0.0805      7.3972    148.2456     28.6956
  2137.3000      8.0104      2.5195      0.0709      7.9088    143.6071     28.2711
  2137.4000      8.0104      2.5179      0.0554      8.0047    145.1281     27.9790
  2137.5000      8.0409      2.5318      0.0600      7.1628    147.5137     27.7542
  2137.6000      8.0409      2.5641      0.0343      5.2044    148.4010     27.9516
  2137.7000      8.0409      2.5908      0.0989      3.5882    149.0598     28.5680
  2137.8000      8.0532      2.5834      0.0844      4.0344    150.8348     28.8711
  2137.9000      8.0532      2.5569      0.0335      5.6442    151.3463     28.6489
  2138.0000      8.0988      2.5535      0.0227      5.8501    148.5425     28.3918
  2138.1000      8.0988      2.5788      0.1255      4.3131    146.7470     28.3648
  2138.2000      8.0988      2.6019      0.0559      2.9181    149.0530     28.3417
  2138.3000      8.1070      2.6033      0.1018      2.8304    149.7847     28.1453
  2138.4000      8.1070      2.5824      0.0489      4.0968    143.9977     27.9119
  2138.5000      8.0559      2.5573     -0.0255      5.6184    136.6912     27.9482
  2138.6000      8.0559      2.5482     -0.0087      6.1706    134.3594     28.3899
  2138.7000      8.0559      2.5450      0.0203      6.3666    137.6406     28.5642
  2138.8000      8.0516      2.5290      0.0158      7.3333    142.9371     28.0682
  2138.9000      8.0516      2.5028     -0.0255      8.9198    148.8501     27.5050
  2139.0000      8.0330      2.4742      0.0035     10.6527    153.3670     27.1037
  2139.1000      8.0330      2.4520     -0.0651     11.9982    154.5613     26.6463
  2139.2000      8.0330      2.4492     -0.0640     12.1709    153.6415     26.6683
  2139.3000      8.0160      2.4637      0.0203     11.2891    149.8393     27.5130
  2139.4000      8.0160      2.4880     -0.0277      9.8156    142.8167     28.5961
  2139.5000      8.0386      2.5211      0.0243      7.8140    136.1047     29.2176
  2139.6000      8.0386      2.5531      0.0501      5.8701    133.7203     29.2472
  2139.7000      8.0386      2.5704      0.0737      4.8266    134.3088     29.1416
  2139.8000      8.0304      2.5680      0.0641      4.9699    135.1578     29.1171
  2139.9000      8.0304      2.5517      0.0713      5.9580    136.3471     29.1821
  2140.0000      8.0330      2.5349      0.0229      6.9728    136.5222     29.4857
  2140.1000      8.0330      2.5352      0.0342      6.9573    136.6158     29.8900
  2140.2000      8.0330      2.5568      0.0327      5.6501    140.6729     29.9140
  2140.3000      8.0426      2.5871      0.0784      3.8137    145.4788     29.3349
  2140.4000      8.0426      2.6082      0.0922      2.5350    144.9364     28.7111
  2140.5000      8.0362      2.6123      0.0457      2.2875    139.7264     28.4936
  2140.6000      8.0362      2.6124      0.0819      2.2782    133.2052     28.3343
  2140.7000      8.0362      2.6176      0.1446      1.9611    129.2440     28.1279
