~Version Information
VERS.                      2.0: CWLS Log ASCII Standard - VERSION 2.0
WRAP.                       NO: One line per depth step
~Well Information Block
STRT.FT               545.0000: 
STOP.FT              1922.0000: 
STEP.FT                 0.2500: 
NULL.                -999.2500: 
COMP.          Pioneer Natural Resources: COMPANY
WELL.            Summers 21-19: WELL
FLD.           Purgatoire River: FIELD
LOC.           900' FNL & 1950' FWL: LOCATION
PROV.                 Colorado: PROVINCE
CNTY.               Las Animas: COUNTRY
SRVC.                Patterson: SERVICE COMPANY
DATE.          Sat Oct 15 03:34:13 2005: LOG DATE
UWI.           05 071 08315 00: UNIQUE WELL ID
~Curve Information Block
DEPT.FT            0 000 00 00: Depth
SN.Ohm-m                      : IEL Short Normal
SP.mV                         : IEL Spontaneous Potential
DIR.Ohm-m                     : IEL Induction Resistivity
GR.GAPI                       : Gamma Ray
~Parameter Information Block
~A  Depth        SN          SP         DIR          GR     
# ...
   712.5000   2000.0000   2000.0000     18.0466    125.1795
   712.7500   2000.0000   2000.0000     17.9486    131.5408
   713.0000   2000.0000   2000.0000     17.8483    138.8420
   713.2500   2000.0000   2000.0000     17.7684    142.1953
   713.5000   2000.0000   2000.0000     17.7262    144.8505
   713.7500   2000.0000   2000.0000     17.7243    145.1122
   714.0000   2000.0000   2000.0000     17.7521    143.5914
   714.2500   2000.0000   2000.0000     17.7927    141.4421
   714.5000   2000.0000   2000.0000     17.8270    136.7207
   714.7500   2000.0000   2000.0000     17.8342    132.9346
   715.0000   2000.0000   2000.0000     17.7936    127.2692
   715.2500   2000.0000   2000.0000     17.6932    123.9618
   715.5000   2000.0000   2000.0000     17.5404    120.1984
   715.7500   2000.0000   2000.0000     17.3655    118.8286
   716.0000   2000.0000   2000.0000     17.2130    119.0842
   716.2500   2000.0000   2000.0000     17.1224    120.7301
   716.5000   2000.0000   2000.0000     17.1093    124.2175
   716.7500   2000.0000   2000.0000     17.1557    126.2810
   717.0000   2000.0000   2000.0000     17.2159    127.8939
   717.2500   2000.0000   2000.0000     17.2351    127.7870
   717.5000   2000.0000   2000.0000     17.1720    126.1189
   717.7500   2000.0000   2000.0000     17.0114    124.5338
   718.0000   2000.0000   2000.0000     16.7641    123.0407
   718.2500   2000.0000   2000.0000     16.4580    123.5477
   718.5000   2000.0000   2000.0000     16.1297    126.8166
   718.7500   2000.0000   2000.0000     15.8147    129.8725
   719.0000   2000.0000   2000.0000     15.5363    134.0425
   719.2500   2000.0000   2000.0000     15.2971    136.0884
   719.5000   2000.0000   2000.0000     15.0811    138.1258
   719.7500   2000.0000   2000.0000     14.8649    138.7870
   720.0000   2000.0000   2000.0000     14.6291    138.4088
   720.2500   2000.0000   2000.0000     14.3622    137.2470
   720.5000   2000.0000   2000.0000     14.0599    134.8575
   720.7500   2000.0000   2000.0000     13.7253    133.4565
   721.0000   2000.0000   2000.0000     13.3681    132.5924
   721.2500   2000.0000   2000.0000     13.0024    133.1751
   721.5000   2000.0000   2000.0000     12.6423    135.7592
   721.7500   2000.0000   2000.0000     12.2997    138.2091
   722.0000   2000.0000   2000.0000     11.9837    141.8496
   722.2500   2000.0000   2000.0000     11.7007    143.6441
   722.5000   2000.0000   2000.0000     11.4542    144.9464
   722.7500   2000.0000   2000.0000     11.2458    145.0581
   723.0000   2000.0000   2000.0000     11.0767    144.8241
   723.2500   2000.0000   2000.0000     10.9490    144.9014
   723.5000   2000.0000   2000.0000     10.8654    146.0155
   723.7500   2000.0000   2000.0000     10.8250    147.2945
   724.0000   2000.0000   2000.0000     10.8192    148.4056
   724.2500   2000.0000   2000.0000     10.8316    147.3535
   724.5000   2000.0000   2000.0000     10.8448    142.3433
   724.7500   2000.0000   2000.0000     10.8493    137.6527
   725.0000   2000.0000   2000.0000     10.8455    131.6520
   725.2500   2000.0000   2000.0000     10.8410    130.0009
   725.5000   2000.0000   2000.0000     10.8449    132.1674
   725.7500   2000.0000   2000.0000     10.8650    136.0954
   726.0000   2000.0000   2000.0000     10.9076    143.2483
   726.2500   2000.0000   2000.0000     10.9764    147.3619
   726.5000   2000.0000   2000.0000     11.0721    150.8865
   726.7500   2000.0000   2000.0000     11.1919    151.2266
   727.0000   2000.0000   2000.0000     11.3319    149.6518
   727.2500   2000.0000   2000.0000     11.4905    148.3190
   727.5000   2000.0000   2000.0000     11.6699    147.5556
   727.7500   2000.0000   2000.0000     11.8723    148.1146
   728.0000   2000.0000   2000.0000     12.0922    149.8078
   728.2500   2000.0000   2000.0000     12.3105    150.7978
   728.5000   2000.0000   2000.0000     12.4981    150.8609
   728.7500   2000.0000   2000.0000     12.6273    149.3436
   729.0000   2000.0000   2000.0000     12.6820    144.1935
   729.2500   2000.0000   2000.0000     12.6630    139.0346
   729.5000   2000.0000   2000.0000     12.5853    130.0215
   729.7500   2000.0000   2000.0000     12.4736    124.3740
   730.0000   2000.0000   2000.0000     12.3559    118.6600
   730.2500   2000.0000   2000.0000     12.2586    117.5759
   730.5000   2000.0000   2000.0000     12.2020    120.1042
   730.7500   2000.0000   2000.0000     12.1980    123.7092
   731.0000   2000.0000   2000.0000     12.2475    129.8276
   731.2500   2000.0000   2000.0000     12.3393    133.4673
   731.5000   2000.0000   2000.0000     12.4502    138.2522
   731.7500   2000.0000   2000.0000     12.5479    141.5630
   732.0000   2000.0000   2000.0000     12.5997    146.9959
   732.2500   2000.0000   2000.0000     12.5849    150.1954
   732.5000   2000.0000   2000.0000     12.5031    152.4393
   732.7500   2000.0000   2000.0000     12.3712    151.5728
   733.0000   2000.0000   2000.0000     12.2123    147.0706
   733.2500   2000.0000   2000.0000     12.0433    142.7233
   733.5000   2000.0000   2000.0000     11.8720    135.7430
   733.7500   2000.0000   2000.0000     11.7016    131.5932
   734.0000   2000.0000   2000.0000     11.5394    127.2773
   734.2500   2000.0000   2000.0000     11.3993    126.1279
   734.5000   2000.0000   2000.0000     11.2989    127.0517
   734.7500   2000.0000   2000.0000     11.2531    129.0189
   735.0000   2000.0000   2000.0000     11.2699    132.9697
   735.2500   2000.0000   2000.0000     11.3514    135.8312
   735.5000   2000.0000   2000.0000     11.4955    140.3766
   735.7500   2000.0000   2000.0000     11.6965    143.7846
   736.0000   2000.0000   2000.0000     11.9435    149.3354
   736.2500   2000.0000   2000.0000     12.2201    152.5337
   736.5000   2000.0000   2000.0000     12.5089    154.4855
   736.7500   2000.0000   2000.0000     12.7998    153.1638
   737.0000   2000.0000   2000.0000     13.0954    148.0223
   737.2500   2000.0000   2000.0000     13.4112    143.8231
   737.5000   2000.0000   2000.0000     13.7724    138.5819
   737.7500   2000.0000   2000.0000     14.2093    136.4787
   738.0000   2000.0000   2000.0000     14.7539    135.5256
   738.2500   2000.0000   2000.0000     15.4350    135.9375
   738.5000   2000.0000   2000.0000     16.2746    136.6662
   738.7500   2000.0000   2000.0000     17.2851    136.2318
   739.0000   2000.0000   2000.0000     18.4681    133.3758
   739.2500   2000.0000   2000.0000     19.8151    130.3824
   739.5000   2000.0000   2000.0000     21.3070    125.6771
   739.7500   2000.0000   2000.0000     22.9120    122.9007
   740.0000   2000.0000   2000.0000     24.5814    118.8566
   740.2500   2000.0000   2000.0000     26.2472    115.6305
   740.5000   2000.0000   2000.0000     27.8288    109.6808
   740.7500   2000.0000   2000.0000     29.2455    105.4714
   741.0000   2000.0000   2000.0000     30.4339     99.9476
   741.2500   2000.0000   2000.0000     31.3741     97.1076
   741.5000   2000.0000   2000.0000     32.1168     93.9946
   741.7500   2000.0000   2000.0000     32.7828     92.4759
   742.0000   2000.0000   2000.0000     33.5110     90.6652
   742.2500   2000.0000   2000.0000     34.3804     89.5830
   742.5000   2000.0000   2000.0000     35.3640     87.9873
   742.7500   2000.0000   2000.0000     36.3554     86.9427
   743.0000   2000.0000   2000.0000     37.2580     85.4279
   743.2500   2000.0000   2000.0000     38.0629     84.4777
   743.5000   2000.0000   2000.0000     38.8448     83.2793
   743.7500   2000.0000   2000.0000     39.6846     82.7166
   744.0000   2000.0000   2000.0000     40.5915     82.1834
   744.2500   2000.0000   2000.0000     41.4817     81.8695
   744.5000   2000.0000   2000.0000     42.2065     81.0483
   744.7500   2000.0000   2000.0000     42.6103     80.0863
   745.0000   2000.0000   2000.0000     42.6050     78.1394
   745.2500   2000.0000   2000.0000     42.2266     76.8829
   745.5000   2000.0000   2000.0000     41.6246     75.7491
   745.7500   2000.0000   2000.0000     40.9590     75.5303
