~Version Information
VERS.                      2.0: CWLS Log ASCII Standard - VERSION 2.0
WRAP.                       NO: One line per depth step
~Well Information Block
STRT.FT                -8.8000: 
STOP.FT              2006.2000: 
STEP.FT                 0.1000: 
NULL.                -999.2500: 
COMP.          Petrogulf Corporation: COMPANY
WELL.             J & P 12-33V: WELL
FLD.           Purgatorie River: FIELD
LOC.           2005' FSL & 1928' FEL: LOCATION
CNTY.               Las Animas: COUNTY
SRVC.                         : SERVICE COMPANY
DATE.          Fri Jul 29 13:37:28 2005: LOG DATE
UWI.                          : UNIQUE WELL ID
STAT.                 Colorado: STATE
~Curve Information Block
DEPT.FT            0 000 00 00: Depth
GR.GAPI                       : Gamma Ray
CCL.                          : Casing Collar Locator
TT3.usec                      : CBL 3' Travel Time
AMP3.mV                       : CBL 3' Amplitude
~Parameter Information Block
~A  Depth        GR         CCL         TT3         AMP3    
# ...
  1317.8000    135.2344      0.0000    270.7669     55.0825
  1317.9000    135.2344      0.0000    270.7669     55.0825
  1318.0000    141.5567      0.0000    264.6664     61.1513
  1318.1000    141.5567      0.0000    264.6664     61.1513
  1318.2000    141.5567      0.0000    264.6664     61.1513
  1318.3000    144.5230      0.0000    259.9390     66.0148
  1318.4000    144.5230      0.0000    259.9390     66.0148
  1318.5000    143.2284      0.0000    257.5481     69.1283
  1318.6000    143.2284      0.0000    257.5481     69.1283
  1318.7000    143.2284      0.0000    257.5481     69.1283
  1318.8000    139.0470      0.0000    256.6166     71.0561
  1318.9000    139.0470      0.0000    256.6166     71.0561
  1319.0000    134.6405      0.0000    256.3182     72.2313
  1319.1000    134.6405      0.0000    256.3182     72.2313
  1319.2000    134.6405      0.0000    256.3182     72.2313
  1319.3000    132.1005      0.0000    256.2355     72.9376
  1319.4000    132.1005      0.0000    256.2355     72.9376
  1319.5000    131.7939      0.0000    256.2062     73.3132
  1319.6000    131.7939      0.0000    256.2062     73.3132
  1319.7000    131.7939      0.0000    256.2062     73.3132
  1319.8000    132.7328      0.0000    256.1996     73.4084
  1319.9000    132.7328      0.0000    256.1996     73.4084
  1320.0000    133.6149      0.0000    256.2209     73.3185
  1320.1000    133.6149      0.0000    256.2209     73.3185
  1320.2000    133.6149      0.0000    256.2209     73.3185
  1320.3000    133.2633      0.0000    256.2570     73.1703
  1320.4000    133.2633      0.0000    256.2570     73.1703
  1320.5000    130.4802      0.0000    256.2842     73.0603
  1320.6000    130.4802      0.0000    256.2842     73.0603
  1320.7000    130.4802      0.0000    256.2842     73.0603
  1320.8000    124.4312      0.0000    256.2917     73.0420
  1320.9000    124.4312      0.0000    256.2917     73.0420
  1321.0000    115.8094      0.0000    256.2866     73.1232
  1321.1000    115.8094      0.0000    256.2866     73.1232
  1321.2000    115.8094      0.0000    256.2866     73.1232
  1321.3000    107.0990      0.0000    256.2805     73.2656
  1321.4000    107.0990      0.0000    256.2805     73.2656
  1321.5000    100.8855      0.0000    256.2726     73.4100
  1321.6000    100.8855      0.0000    256.2726     73.4100
  1321.7000    100.8855      0.0000    256.2726     73.4100
  1321.8000     98.0588      0.0000    256.2541     73.5035
  1321.9000     98.0588      0.0000    256.2541     73.5035
  1322.0000     98.0765      0.0000    256.2245     73.5204
  1322.1000     98.0765      0.0000    256.2245     73.5204
  1322.2000     98.0765      0.0000    256.2245     73.5204
  1322.3000    100.4034      0.0000    256.1973     73.4705
  1322.4000    100.4034      0.0000    256.1973     73.4705
  1322.5000    104.8558      0.0000    256.1881     73.3816
  1322.6000    104.8558      0.0000    256.1881     73.3816
  1322.7000    104.8558      0.0000    256.1881     73.3816
  1322.8000    110.7434      0.0000    256.1985     73.2823
  1322.9000    110.7434      0.0000    256.1985     73.2823
  1323.0000    116.4669      0.0000    256.2141     73.1972
  1323.1000    116.4669      0.0000    256.2141     73.1972
  1323.2000    116.4669      0.0000    256.2141     73.1972
  1323.3000    120.2669      0.0000    256.2200     73.1427
  1323.4000    120.2669      0.0000    256.2200     73.1427
  1323.5000    121.3599      0.0000    256.2120     73.1339
  1323.6000    121.3599      0.0000    256.2120     73.1339
  1323.7000    121.3599      0.0000    256.2120     73.1339
  1323.8000    120.4713      0.0000    256.1960     73.1819
  1323.9000    120.4713      0.0000    256.1960     73.1819
  1324.0000    119.2984      0.0000    256.1755     73.2805
  1324.1000    119.2984      0.0000    256.1755     73.2805
  1324.2000    119.2984      0.0000    256.1755     73.2805
  1324.3000    119.4053      0.0000    256.1463     73.4120
  1324.4000    119.4053      0.0000    256.1463     73.4120
  1324.5000    121.4071      0.0000    256.1132     73.5488
  1324.6000    121.4071      0.0000    256.1132     73.5488
  1324.7000    121.4071      0.0000    256.1132     73.5488
  1324.8000    124.7695      0.0000    256.0928     73.6511
  1324.9000    124.7695      0.0000    256.0928     73.6511
  1325.0000    128.1428      0.0000    256.0947     73.6956
  1325.1000    128.1428      0.0000    256.0947     73.6956
  1325.2000    128.1428      0.0000    256.0947     73.6956
  1325.3000    130.1296      0.0000    256.1126     73.7014
  1325.4000    130.1296      0.0000    256.1126     73.7014
  1325.5000    130.0704      0.0000    256.1339     73.7015
  1325.6000    130.0704      0.0000    256.1339     73.7015
  1325.7000    130.0704      0.0000    256.1339     73.7015
  1325.8000    128.2984      0.0000    256.1493     73.6961
  1325.9000    128.2984      0.0000    256.1493     73.6961
  1326.0000    125.7336      0.0000    256.1543     73.6684
  1326.1000    125.7336      0.0000    256.1543     73.6684
  1326.2000    125.7336      0.0000    256.1543     73.6684
  1326.3000    123.2082      0.0000    256.1517     73.6274
  1326.4000    123.2082      0.0000    256.1517     73.6274
  1326.5000    121.2221      0.0000    256.1465     73.5998
  1326.6000    121.2221      0.0000    256.1465     73.5998
  1326.7000    121.2221      0.0000    256.1465     73.5998
  1326.8000    120.3592      0.0000    256.1400     73.5934
  1326.9000    120.3592      0.0000    256.1400     73.5934
  1327.0000    121.5720      0.0000    256.1329     73.5945
  1327.1000    121.5720      0.0000    256.1329     73.5945
  1327.2000    121.5720      0.0000    256.1329     73.5945
  1327.3000    125.4079      0.0000    256.1249     73.6104
  1327.4000    125.4079      0.0000    256.1249     73.6104
  1327.5000    130.7908      0.0000    256.1117     73.6763
  1327.6000    130.7908      0.0000    256.1117     73.6763
  1327.7000    130.7908      0.0000    256.1117     73.6763
  1327.8000    135.1709      0.0000    256.0970     73.7859
  1327.9000    135.1709      0.0000    256.0970     73.7859
  1328.0000    136.4743      0.0000    256.0953     73.8703
  1328.1000    136.4743      0.0000    256.0953     73.8703
  1328.2000    136.4743      0.0000    256.0953     73.8703
  1328.3000    134.8796      0.0000    256.1093     73.8880
  1328.4000    134.8796      0.0000    256.1093     73.8880
  1328.5000    132.3779      0.0000    256.1237     73.8749
  1328.6000    132.3779      0.0000    256.1237     73.8749
  1328.7000    132.3779      0.0000    256.1237     73.8749
  1328.8000    130.6521      0.0000    256.1281     73.8755
  1328.9000    130.6521      0.0000    256.1281     73.8755
  1329.0000    129.6779      0.0000    256.1255     73.8860
  1329.1000    129.6779      0.0000    256.1255     73.8860
  1329.2000    129.6779      0.0000    256.1255     73.8860
  1329.3000    128.3113      0.0000    256.1158     73.8828
  1329.4000    128.3113      0.0000    256.1158     73.8828
  1329.5000    125.7685      0.0000    256.0957     73.8589
  1329.6000    125.7685      0.0000    256.0957     73.8589
  1329.7000    125.7685      0.0000    256.0957     73.8589
  1329.8000    122.3343      0.0000    256.0762     73.8193
  1329.9000    122.3343      0.0000    256.0762     73.8193
  1330.0000    118.7987      0.0000    256.0654     73.7856
  1330.1000    118.7987      0.0000    256.0654     73.7856
  1330.2000    118.7987      0.0000    256.0654     73.7856
  1330.3000    115.4750      0.0000    256.0495     73.7911
  1330.4000    115.4750      0.0000    256.0495     73.7911
  1330.5000    112.1271      0.0000    256.0260     73.8319
  1330.6000    112.1271      0.0000    256.0260     73.8319
  1330.7000    112.1271      0.0000    256.0260     73.8319
  1330.8000    108.8358      0.0000    256.0128     73.8673
  1330.9000    108.8358      0.0000    256.0128     73.8673
  1331.0000    106.3190      0.0000    256.0152     73.8669
  1331.1000    106.3190      0.0000    256.0152     73.8669
