~Version Information
VERS.                      2.0: CWLS Log ASCII Standard - VERSION 2.0
WRAP.                       NO: One line per depth step
~Well Information Block
STRT.FT               519.6000: 
STOP.FT              2727.5000: 
STEP.FT                 0.1000: 
NULL.                -999.2500: 
COMP.          Petrogulf Corporation: COMPANY
WELL.              Silva 6-22V: WELL
FLD.           Purgatorie River: FIELD
LOC.           1936' FNL & 1798' FWL: LOCATION
CNTY.               Las Animas: COUNTY
SRVC.                         : SERVICE COMPANY
DATE.          Tue Nov 09 12:21:27 2004: LOG DATE
UWI.           05 071 08143 00: UNIQUE WELL ID
STAT.                 Colorado: STATE
~Curve Information Block
DEPT.FT            0 000 00 00: Depth
DCAL.in                       : CDL Caliper
RHOB.g/cc                     : CDL Bulk Density
RHOC.g/cc                     : CDL Density Correction
DPOR.pu                       : CDL Density Porosity
GR.GAPI                       : Gamma Ray
NPOR.pu                       : Neutron Porosity
~Parameter Information Block
~A  Depth       DCAL        RHOB        RHOC        DPOR         GR         NPOR    
# ...
  1556.4000      7.9505      2.5216      0.0068      7.7811    140.0122     24.4220
  1556.5000      7.9471      2.5119      0.0413      8.3687    136.9052     25.1784
  1556.6000      7.9471      2.4960     -0.0049      9.3337    137.5047     25.3347
  1556.7000      7.9471      2.4917     -0.0125      9.5940    136.0416     25.6385
  1556.8000      7.9461      2.5141      0.0109      8.2392    132.4956     25.9320
  1556.9000      7.9461      2.5610      0.0688      5.3955    131.7122     25.8307
  1557.0000      7.9528      2.6157      0.0716      2.0770    134.2167     25.9770
  1557.1000      7.9528      2.6592      0.1144     -0.5550    136.1832     26.7472
  1557.2000      7.9528      2.6833      0.1242     -2.0161    132.4669     27.4394
  1557.3000      7.9610      2.6941      0.1420     -2.6710    123.0112     27.6626
  1557.4000      7.9610      2.6996      0.1312     -3.0082    114.7950     27.5696
  1557.5000      7.9665      2.7000      0.1239     -3.0311    117.5348     27.1676
  1557.6000      7.9665      2.6874      0.1064     -2.2651    134.5132     26.4657
  1557.7000      7.9665      2.6562      0.0270     -0.3777    153.6217     25.4677
  1557.8000      7.9647      2.6115     -0.0209      2.3317    161.2152     24.5376
  1557.9000      7.9647      2.5720     -0.0389      4.7273    160.3675     24.2363
  1558.0000      7.9551      2.5638     -0.0210      5.2249    161.0073     24.5821
  1558.1000      7.9551      2.5887      0.0993      3.7150    164.4626     25.2725
  1558.2000      7.9551      2.6178      0.1294      1.9540    165.2530     25.7639
  1558.3000      7.9463      2.6301      0.1404      1.2053    162.4053     25.6041
  1558.4000      7.9463      2.6246      0.1587      1.5404    161.8516     24.9328
  1558.5000      7.9404      2.6116      0.0884      2.3264    165.5328     24.4347
  1558.6000      7.9404      2.5996      0.0963      3.0572    168.4897     24.4850
  1558.7000      7.9404      2.5835      0.0875      4.0277    170.6640     25.3093
  1558.8000      7.9418      2.5652      0.0444      5.1377    170.8921     26.8114
  1558.9000      7.9418      2.5574      0.0393      5.6141    164.8272     27.7219
  1559.0000      7.9576      2.5615      0.0521      5.3660    158.9426     27.1858
  1559.1000      7.9576      2.5667      0.0612      5.0474    161.4522     25.7838
  1559.2000      7.9576      2.5663      0.0533      5.0757    169.6750     24.7804
  1559.3000      7.9815      2.5608      0.0489      5.4076    176.3808     25.1007
  1559.4000      7.9815      2.5525      0.0446      5.9115    178.3163     26.1523
  1559.5000      7.9911      2.5404      0.0344      6.6404    177.1781     26.7028
  1559.6000      7.9911      2.5223      0.0658      7.7414    175.7647     26.6944
  1559.7000      7.9911      2.5016      0.0008      8.9956    174.3060     26.7577
  1559.8000      7.9800      2.4825      0.0279     10.1525    170.5674     27.0145
  1559.9000      7.9800      2.4595      0.0288     11.5439    165.7434     27.0772
  1560.0000      7.9750      2.4342      0.0094     13.0775    165.7811     26.9362
  1560.1000      7.9750      2.4194      0.0134     13.9769    169.1832     27.0329
  1560.2000      7.9750      2.4241     -0.0067     13.6886    168.1074     27.2391
  1560.3000      7.9828      2.4466      0.0389     12.3267    161.7602     27.0853
  1560.4000      7.9828      2.4731      0.0390     10.7208    155.6121     27.0362
  1560.5000      7.9879      2.4887      0.0569      9.7738    153.2553     27.3341
  1560.6000      7.9879      2.4906      0.0777      9.6605    152.1134     27.2557
  1560.7000      7.9879      2.4954      0.0718      9.3669    150.9078     26.7525
  1560.8000      7.9885      2.5176      0.0977      8.0227    151.9597     26.4702
  1560.9000      7.9885      2.5418      0.1439      6.5555    156.2558     26.7139
  1561.0000      7.9909      2.5497      0.1361      6.0791    162.0811     27.4592
  1561.1000      7.9909      2.5501      0.1358      6.0560    165.2437     28.1756
  1561.2000      7.9909      2.5532      0.1895      5.8675    166.0501     28.6063
  1561.3000      7.9945      2.5581      0.1646      5.5723    167.0130     29.3462
  1561.4000      7.9945      2.5731      0.1788      4.6595    165.1204     30.0123
  1561.5000      7.9968      2.5980      0.2069      3.1497    160.2448     29.7113
  1561.6000      7.9968      2.6112      0.1726      2.3524    158.7200     28.8549
  1561.7000      7.9968      2.5979      0.1101      3.1602    162.3032     28.3229
  1561.8000      7.9908      2.5647      0.0937      5.1673    164.4155     28.0755
  1561.9000      7.9908      2.5316      0.0912      7.1756    163.6599     27.5623
  1562.0000      7.9725      2.5132      0.0785      8.2922    165.2633     26.7491
  1562.1000      7.9725      2.5059      0.1023      8.7325    166.5385     26.1595
  1562.2000      7.9725      2.4963      0.0852      9.3158    166.8613     26.2481
  1562.3000      7.9628      2.4709      0.1032     10.8556    169.0544     27.0036
  1562.4000      7.9628      2.4176      0.0578     14.0821    168.9325     27.4386
  1562.5000      7.9703      2.3341      0.0160     19.1446    161.9858     27.1607
  1562.6000      7.9703      2.2435     -0.0356     24.6337    149.9326     27.2687
  1562.7000      7.9703      2.1810      0.0128     28.4256    141.2025     28.1281
  1562.8000      7.9857      2.1535      0.0054     30.0908    138.5434     29.0930
  1562.9000      7.9857      2.1481     -0.0169     30.4185    134.9088     29.5157
  1563.0000      7.9922      2.1607     -0.0175     29.6516    130.0646     28.9068
  1563.1000      7.9922      2.1994      0.0043     27.3082    129.3226     27.2631
  1563.2000      7.9922      2.2719      0.0772     22.9175    131.2363     26.0303
  1563.3000      7.9831      2.3686      0.2000     17.0556    129.0216     26.1255
  1563.4000      7.9831      2.4668      0.1756     11.1032    120.4171     26.1545
  1563.5000      7.9707      2.5519      0.1627      5.9484    114.3307     25.0103
  1563.6000      7.9707      2.6121      0.1690      2.2992    115.7155     23.2186
  1563.7000      7.9707      2.6390      0.0853      0.6680    117.7614     21.4800
  1563.8000      7.9701      2.6389      0.0766      0.6709    113.7521     20.4299
  1563.9000      7.9701      2.6196      0.0540      1.8430    104.0638     20.3969
  1564.0000      7.9761      2.5938      0.0060      3.4070     95.9104     20.9885
  1564.1000      7.9761      2.5819      0.0171      4.1261     93.1812     21.5574
  1564.2000      7.9761      2.5823      0.0686      4.1056     94.6223     21.4993
  1564.3000      7.9760      2.5795      0.0277      4.2757    101.1404     20.9987
  1564.4000      7.9760      2.5737      0.0396      4.6238    110.6162     20.6332
  1564.5000      7.9680      2.5654      0.0506      5.1302    115.2936     20.3408
  1564.6000      7.9680      2.5448      0.0691      6.3766    112.1878     20.2941
  1564.7000      7.9680      2.5136     -0.0060      8.2659    108.3811     20.8555
  1564.8000      7.9686      2.4896     -0.0176      9.7227    111.0695     21.8629
  1564.9000      7.9686      2.4844      0.0023     10.0370    115.1634     23.2952
  1565.0000      7.9702      2.4936      0.0254      9.4807    114.6103     24.8379
  1565.1000      7.9702      2.5066      0.0375      8.6885    114.7397     25.3973
  1565.2000      7.9702      2.5184      0.0431      7.9773    119.2146     24.6684
  1565.3000      7.9594      2.5289      0.0334      7.3410    123.3233     24.0935
  1565.4000      7.9594      2.5389      0.0514      6.7327    125.1853     24.6336
  1565.5000      7.9448      2.5466      0.0958      6.2672    125.6614     24.9491
  1565.6000      7.9448      2.5461      0.0851      6.2990    125.2550     24.2890
  1565.7000      7.9448      2.5341      0.0675      7.0224    124.8725     23.7777
  1565.8000      7.9437      2.5191      0.0455      7.9345    125.1429     23.5533
  1565.9000      7.9437      2.5231     -0.0079      7.6931    129.9031     23.2043
