~Version Information
VERS.                      2.0: CWLS Log ASCII Standard - VERSION 2.0
WRAP.                       NO: One line per depth step
~Well Information Block
STRT.FT                -8.0000: 
STOP.FT              2410.0000: 
STEP.FT                 0.2500: 
NULL.                -999.2500: 
COMP.          Petrogulf Corporation: COMPANY
WELL.            Torcom 17-33V: WELL
FLD.           Purgatorie River: FIELD
LOC.           1544' FSL & 1746' FEL--: LOCATION
PROV.                       CO: PROVINCE
CNTY.               Las Animas: COUNTRY
SRVC.          Patterson Wireline: SERVICE COMPANY
DATE.          Wed Dec 10 17:24:27 2003: LOG DATE
UWI.                          : UNIQUE WELL ID
~Curve Information Block
DEPT.FT            0 000 00 00: Depth
CCL.                          : Casing Collar Locator
TT3.usec                      : CBL 3' Travel Time
AMP3.mV                       : CBL 3' Amplitude
GR.GAPI                       : Gamma Ray
~Parameter Information Block
~A  Depth       CCL         TT3         AMP3         GR     
# ...
  1566.5000      0.0000    714.5974      1.2387    149.7756
  1566.7500      0.0000    719.9308      1.3251    142.8698
  1567.0000      0.0000    724.4785      1.3942    136.5073
  1567.2500      0.0000    729.1257      1.4353    130.3292
  1567.5000      0.0000    733.5464      1.4543    123.9380
  1567.7500      0.0000    737.3221      1.4540    117.4265
  1568.0000      0.0000    740.0104      1.4298    111.6366
  1568.2500      0.0000    740.8154      1.3824    107.9508
  1568.5000      0.0000    739.2954      1.3249    107.7156
  1568.7500      0.0000    736.1713      1.2755    111.3711
  1569.0000      0.0000    732.7880      1.2462    117.6530
  1569.2500      0.0000    730.0156      1.2371    123.8394
  1569.5000      0.0000    728.0238      1.2375    127.4243
  1569.7500      0.0000    726.7867      1.2370    127.8973
  1570.0000      0.0000    726.3757      1.2355    126.8924
  1570.2500      0.0000    726.8708      1.2390    126.5760
  1570.5000      0.0000    728.1441      1.2477    127.9431
  1570.7500      0.0000    729.3931      1.2561    130.6216
  1571.0000      0.0000    728.6682      1.2610    133.9018
  1571.2500      0.0000    723.6712      1.2640    137.4167
  1571.5000      0.0000    714.1625      1.2692    140.8000
  1571.7500      0.0000    703.6372      1.2818    143.4077
  1572.0000      0.0000    697.7681      1.3059    144.8204
  1572.2500      0.0000    700.4111      1.3386    145.1002
  1572.5000      0.0000    710.5835      1.3719    144.1356
  1572.7500      0.0000    723.1443      1.3997    141.2923
  1573.0000      0.0000    732.5691      1.4246    136.2987
  1573.2500      0.0000    735.9643      1.4549    130.0935
  1573.5000      0.0000    732.9017      1.4964    124.1862
  1573.7500      0.0000    724.6948      1.5414    119.1727
  1574.0000      0.0000    715.1452      1.5684    114.2222
  1574.2500      0.0000    709.5714      1.5568    108.1873
  1574.5000      0.0000    710.3759      1.5090    101.1503
  1574.7500      0.0000    714.2101      1.4512     94.7337
  1575.0000      0.0000    715.2070      1.4064     91.0061
  1575.2500      0.0000    710.9016      1.3726     91.2624
  1575.5000      0.0000    704.3516      1.3341     95.6788
  1575.7500      0.0000    701.1548      1.2916    103.6455
  1576.0000      0.0000    705.1453      1.2688    113.8905
  1576.2500      0.0000    716.0622      1.2874    124.1567
  1576.5000      0.0000    729.8163      1.3389    131.5317
  1576.7500      1.7426    740.6688      1.3879    134.1671
  1577.0000      2.0000    744.2872      1.4024    132.5957
  1577.2500      0.0000    739.8722      1.3799    128.6507
  1577.5000      0.0000    730.2919      1.3439    123.4512
  1577.7500      0.0000    720.7400      1.3158    117.1694
  1578.0000      0.0000    716.1328      1.2980    110.3390
  1578.2500      0.0000    717.7418      1.2815    104.4876
  1578.5000      0.0000    722.3212      1.2598    101.1363
  1578.7500      0.0000    725.8648      1.2342    100.3993
  1579.0000      0.0000    727.8489      1.2145    100.8952
  1579.2500      0.0000    730.9344      1.2170    100.8753
  1579.5000      0.0000    737.2770      1.2503     99.0866
  1579.7500      0.0000    745.9848      1.2991     94.9160
  1580.0000      0.0000    753.8666      1.3309     88.6604
  1580.2500      0.0000    758.3491      1.3293     82.0199
  1580.5000      0.0000    759.3392      1.3109     77.7719
  1580.7500      0.0000    757.8954      1.3015     78.2894
  1581.0000      0.0000    754.0933      1.3047     84.1179
  1581.2500      0.0000    747.5572      1.3079     93.8288
  1581.5000      0.0000    739.6556      1.3102    104.8762
  1581.7500      0.0000    733.5050      1.3306    114.6412
  1582.0000      0.0000    731.2979      1.3788    121.5263
  1582.2500      0.0000    732.1716      1.4279    125.5707
  1582.5000      0.0000    733.1076      1.4273    127.5575
  1582.7500      0.0000    731.7858      1.3504    127.4630
  1583.0000      0.0000    728.4833      1.2272    124.5145
  1583.2500      0.0000    725.5679      1.1256    118.9007
  1583.5000      0.0000    725.3969      1.0958    112.5163
  1583.7500      0.0000    728.1874      1.1323    107.4968
  1584.0000      0.0000    731.4314      1.1894    104.5227
  1584.2500      0.0000    731.9426      1.2281    102.9270
  1584.5000      0.0000    728.7711      1.2467    101.9084
  1584.7500      0.0000    723.4072      1.2749    101.0891
  1585.0000      0.0000    717.3615      1.3424    100.3194
  1585.2500      0.0000    710.9839      1.4455     99.5902
  1585.5000      0.0000    704.6975      1.5462     99.0635
  1585.7500      0.0000    699.8525      1.6038     98.8538
  1586.0000      0.0000    697.9579      1.6051     98.8128
  1586.2500      0.0000    699.8825      1.5650     98.7799
  1586.5000      0.0000    705.8190      1.5091     98.9852
  1586.7500      0.0000    715.3997      1.4587     99.8265
  1587.0000      0.0000    727.4567      1.4232    101.1601
  1587.2500      0.0000    739.0259      1.3992    102.2646
  1587.5000      0.0000    744.7834      1.3781    102.6898
  1587.7500      0.0000    739.7514      1.3578    102.6855
  1588.0000      0.0000    724.3918      1.3455    102.5755
  1588.2500      0.0000    706.0318      1.3453    102.2904
  1588.5000      0.0000    693.8743      1.3491    101.9075
  1588.7500      0.0000    692.5552      1.3449    102.0568
  1589.0000      0.0000    700.1108      1.3274    103.1275
  1589.2500      0.0000    710.8812      1.2971    104.3035
  1589.5000      0.0000    720.1192      1.2617    104.0072
  1589.7500      0.0000    726.3824      1.2395    101.4094
  1590.0000      0.0000    729.8533      1.2473     97.1667
  1590.2500      0.0000    729.4283      1.2789     92.7722
  1590.5000      0.0000    723.1223      1.3030     89.7433
  1590.7500      0.0000    711.0854      1.2902     89.3733
  1591.0000      0.0000    696.4623      1.2444     92.2757
  1591.2500      0.0000    683.1029      1.2042     97.5159
  1591.5000      0.0000    673.4551      1.2077    102.6312
  1591.7500      0.0000    668.4670      1.2575    105.3497
  1592.0000      0.0000    668.5676      1.3285    105.5586
  1592.2500      0.0000    674.2881      1.3976    105.2927
  1592.5000      0.0000    685.6769      1.4528    106.7416
  1592.7500      0.0000    700.8622      1.4838    110.4927
  1593.0000      0.0000    715.8647      1.4813    115.4566
  1593.2500      0.0000    726.9771      1.4457    120.0005
  1593.5000      0.0000    733.4370      1.3941    123.0464
  1593.7500      0.0000    737.0588      1.3567    124.3215
  1594.0000      0.0000    739.4141      1.3580    123.9563
  1594.2500      0.0000    740.1343      1.3933    122.4245
  1594.5000      0.0000    737.9221      1.4293    120.9574
  1594.7500      0.0000    732.5568      1.4296    121.3472
  1595.0000      0.0000    725.8084      1.3844    124.7335
  1595.2500      0.0000    720.8087      1.3193    130.5721
  1595.5000      0.0000    720.2935      1.2770    136.9417
  1595.7500      0.0000    724.5749      1.2855    141.8441
  1596.0000      0.0000    730.7474      1.3420    144.3335
  1596.2500      0.0000    734.1733      1.4219    144.7796
  1596.5000      0.0000    731.6344      1.4921    144.4256
  1596.7500      0.0000    723.7631      1.5205    144.7171
  1597.0000      0.0000    714.2922      1.4934    146.5790
  1597.2500      0.0000    706.5887      1.4244    149.7744
  1597.5000      0.0000    701.1888      1.3423    152.8209
  1597.7500      0.0000    697.0805      1.2749    153.9328
  1598.0000      0.0000    694.6808      1.2394    152.5450
  1598.2500      0.0000    696.1290      1.2349    150.0438
  1598.5000      0.0000    702.0942      1.2427    148.6495
  1598.7500      0.0000    709.1509      1.2439    149.4027
  1599.0000      0.0000    711.5427      1.2327    151.4865
  1599.2500      0.0000    706.0938      1.2133    153.3072
  1599.5000      0.0000    694.9865      1.1940    153.4776
  1599.7500      0.0000    683.5012      1.1819    150.8483
