~Version Information
VERS.                      2.0: CWLS Log ASCII Standard - VERSION 2.0
WRAP.                       NO: One line per depth step
~Well Information Block
STRT.FT               350.0000: 
STOP.FT              1391.5000: 
STEP.FT                 0.2500: 
NULL.                -999.2500: 
COMP.          Petrogulf Corporation: COMPANY
WELL.             Leier 17-42R: WELL
FLD.           Purgatorie River: FIELD
LOC.           2398' FNL & 1109' FEL: LOCATION
PROV.                 Colorado: PROVINCE
CNTY.               Las Animas: COUNTRY
SRVC.                Patterson: SERVICE COMPANY
DATE.          Mon Oct 17 09:42:26 2005: LOG DATE
UWI.                          : UNIQUE WELL ID
~Curve Information Block
DEPT.FT            0 000 00 00: Depth
SP.mV                         : DIL Spontaneous Potential
RILD.Ohm-m                    : DIL Deep Resistivity
RILM.Ohm-m                    : DIL Medium Resistivity
RLL3.Ohm-m                    : DIL Shallow Resistivity
GR.GAPI                       : Gamma Ray
~Parameter Information Block
~A  Depth        SP         RILD        RILM        RLL3         GR     
# ...
   406.0000    172.0241     18.5538     19.0210     20.1144    103.6813
   406.2500    171.8039     18.7197     19.3033     20.3632    100.0489
   406.5000    171.5890     18.8999     19.6337     20.8362     94.0145
   406.7500    171.3877     19.0883     20.0063     21.5463     91.3702
   407.0000    171.2116     19.2842     20.4085     22.4688     90.3183
   407.2500    171.0732     19.4953     20.8229     23.5305     90.7745
   407.5000    170.9869     19.7345     21.2314     24.5879     91.6304
   407.7500    170.9679     20.0140     21.6187     25.4398     92.0523
   408.0000    171.0259     20.3400     21.9775     25.8979     92.7471
   408.2500    171.1578     20.7100     22.3096     25.8756     93.3938
   408.5000    171.3474     21.1129     22.6260     25.4392     94.6363
   408.7500    171.5747     21.5299     22.9426     24.7893     95.5049
   409.0000    171.8293     21.9389     23.2761     24.1991     96.3438
   409.2500    172.1154     22.3208     23.6383     23.9494     96.2765
   409.5000    172.4464     22.6643     24.0333     24.2559     95.1894
   409.7500    172.8314     22.9661     24.4556     25.1702     94.1592
   410.0000    173.2665     23.2260     24.8919     26.5083     92.9015
   410.2500    173.7342     23.4425     25.3233     27.9073     92.3378
   410.5000    174.2086     23.6134     25.7289     29.0056     91.3532
   410.7500    174.6625     23.7414     26.0895     29.6038     90.3307
   411.0000    175.0763     23.8385     26.3894     29.6863     88.6884
   411.2500    175.4451     23.9235     26.6179     29.3459     88.1648
   411.5000    175.7805     24.0129     26.7698     28.7141     88.9536
   411.7500    176.1024     24.1108     26.8444     27.9277     90.3235
   412.0000    176.4294     24.2042     26.8454     27.1063     92.3937
   412.2500    176.7717     24.2657     26.7794     26.3326     92.9188
   412.5000    177.1339     24.2617     26.6538     25.6473     91.5514
   412.7500    177.5191     24.1614     26.4755     25.0526     89.4549
   413.0000    177.9314     23.9453     26.2482     24.5185     86.4589
   413.2500    178.3747     23.6116     25.9710     24.0025     86.0211
   413.5000    178.8519     23.1791     25.6380     23.4923     89.0906
   413.7500    179.3668     22.6824     25.2394     23.0413     93.1745
   414.0000    179.9235     22.1607     24.7654     22.7467     99.9344
   414.2500    180.5249     21.6455     24.2101     22.6607    103.5561
   414.5000    181.1663     21.1535     23.5761     22.7075    107.3376
   414.7500    181.8305     20.6883     22.8764     22.7047    109.5383
   415.0000    182.4874     20.2474     22.1334     22.4935    113.5035
   415.2500    183.0999     19.8291     21.3752     22.0536    116.5805
   415.5000    183.6312     19.4351     20.6303     21.4951    121.0112
   415.7500    184.0508     19.0704     19.9239     20.9486    123.2134
   416.0000    184.3414     18.7421     19.2764     20.4695    124.6686
   416.2500    184.5051     18.4591     18.7031     20.0269    124.6608
   416.5000    184.5596     18.2305     18.2166     19.5549    124.6227
   416.7500    184.5285     18.0624     17.8276     19.0021    125.1121
   417.0000    184.4318     17.9556     17.5464     18.3571    125.8521
   417.2500    184.2872     17.9059     17.3826     17.6758    125.4562
   417.5000    184.1169     17.9075     17.3438     17.1062    122.9708
   417.7500    183.9478     17.9571     17.4340     16.8550    120.5039
   418.0000    183.8056     18.0553     17.6514     17.0844    116.7547
   418.2500    183.7079     18.2058     17.9870     17.8302    114.5964
   418.5000    183.6667     18.4138     18.4232     19.0111    111.8123
   418.7500    183.6936     18.6841     18.9350     20.4801    110.1625
   419.0000    183.8011     19.0228     19.4928     22.0443    108.3830
   419.2500    183.9968     19.4378     20.0682     23.4700    107.9369
   419.5000    184.2771     19.9383     20.6395     24.5389    107.8862
   419.7500    184.6240     20.5307     21.1970     25.1501    107.6248
   420.0000    185.0028     21.2136     21.7435     25.3791    106.8630
   420.2500    185.3656     21.9729     22.2910     25.4183    106.7551
   420.5000    185.6591     22.7785     22.8554     25.4355    107.5063
   420.7500    185.8385     23.5856     23.4502     25.4791    107.9132
   421.0000    185.8797     24.3420     24.0817     25.5199    107.2784
   421.2500    185.7832     25.0001     24.7458     25.5755    106.2012
   421.5000    185.5682     25.5300     25.4279     25.7681    104.6607
   421.7500    185.2632     25.9252     26.1036     26.2511    104.0482
   422.0000    184.8991     26.1981     26.7429     27.0764    103.6097
   422.2500    184.5070     26.3688     27.3161     28.1060    103.3609
   422.5000    184.1149     26.4557     27.8000     29.0214    102.7909
   422.7500    183.7464     26.4722     28.1819     29.4553    102.3862
   423.0000    183.4203     26.4266     28.4597     29.2178    102.2452
   423.2500    183.1555     26.3218     28.6373     28.4546    102.6804
   423.5000    182.9741     26.1516     28.7169     27.5674    104.1099
   423.7500    182.9000     25.8985     28.6917     26.9584    105.4490
   424.0000    182.9527     25.5366     28.5426     26.8388    107.8272
   424.2500    183.1445     25.0429     28.2403     27.2225    109.3909
   424.5000    183.4816     24.4094     27.7534     27.9826    110.7491
   424.7500    183.9585     23.6495     27.0608     28.8415    110.4106
   425.0000    184.5477     22.7932     26.1610     29.3582    107.8555
   425.2500    185.1957     21.8767     25.0765     29.0812    105.3457
   425.5000    185.8354     20.9358     23.8496     27.8672    101.8644
   425.7500    186.4092     20.0035     22.5331     26.0846    100.3682
   426.0000    186.8887     19.1111     21.1823     24.4119     99.6341
   426.2500    187.2782     18.2873     19.8493     23.3241    100.0810
   426.5000    187.6069     17.5556     18.5807     22.7253    102.1354
   426.7500    187.9156     16.9327     17.4174     22.0707    104.4111
   427.0000    188.2474     16.4284     16.3931     20.8410    108.9427
   427.2500    188.6401     16.0462     15.5334     18.9407    112.4278
   427.5000    189.1214     15.7835     14.8554     16.7317    117.4719
   427.7500    189.7042     15.6318     14.3678     14.7720    119.9529
   428.0000    190.3859     15.5771     14.0729     13.5226    121.2757
   428.2500    191.1504     15.6015     13.9682     13.2041    120.5948
   428.5000    191.9709     15.6875     14.0485     13.7956    118.5430
   428.7500    192.8134     15.8224     14.3068     15.1061    117.3892
   429.0000    193.6434     16.0029     14.7364     16.8761    116.4543
   429.2500    194.4349     16.2372     15.3307     18.8740    115.9694
   429.5000    195.1728     16.5428     16.0844     20.9622    114.9584
   429.7500    195.8456     16.9416     16.9923     23.1608    114.4625
   430.0000    196.4349     17.4530     18.0477     25.7330    114.8708
   430.2500    196.9147     18.0868     19.2379     29.1721    115.6234
   430.5000    197.2640     18.8393     20.5390     33.9351    115.4592
   430.7500    197.4794     19.6927     21.9107     39.9922    113.4622
   431.0000    197.5780     20.6172     23.2944     46.4771    107.7146
   431.2500    197.5897     21.5751     24.6181     51.7277    103.0181
   431.5000    197.5475     22.5211     25.8092     53.8683     96.8818
   431.7500    197.4797     23.3991     26.8092     51.8049     94.6395
   432.0000    197.4032     24.1365     27.5835     46.0624     95.1342
   432.2500    197.3220     24.6459     28.1181     38.7399     97.3721
   432.5000    197.2321     24.8453     28.4060     32.4466    100.5343
   432.7500    197.1318     24.6906     28.4330     28.9573    100.8680
   433.0000    197.0309     24.2020     28.1741     28.5070     98.1201
   433.2500    196.9491     23.4592     27.6059     29.9968     94.9716
   433.5000    196.9079     22.5712     26.7296     31.7373     90.3463
   433.7500    196.9212     21.6414     25.5889     32.2617     88.3692
