~Version Information
VERS.                      2.0: CWLS Log ASCII Standard - VERSION 2.0
WRAP.                       NO: One line per depth step
~Well Information Block
STRT.FT                15.0000: 
STOP.FT              1869.0000: 
STEP.FT                 0.2500: 
NULL.                -999.2500: 
COMP.          Pioneer Natural Resources: COMPANY
WELL.          Victory 12-14 Tr: WELL
FLD.           Purgatoire River: FIELD
LOC.           2522' FNL & 276' FWL: LOCATION
PROV.                 Colorado: PROVINCE
CNTY.               Las Animas: COUNTRY
SRVC.                Patterson: SERVICE COMPANY
DATE.          Fri Jul 22 14:39:41 2005: LOG DATE
UWI.           05 071 08433 00: UNIQUE WELL ID
~Curve Information Block
DEPT.FT            0 000 00 00: Depth
GR.GAPI                       : Gamma Ray
CCL.                          : Casing Collar Locator
TT3.usec                      : CBL 3' Travel Time
AMP3.mV                       : CBL 3' Amplitude
~Parameter Information Block
~A  Depth        GR         CCL         TT3         AMP3    
# ...
  1455.5000     98.0371      0.0000    723.6234      8.1245
  1455.7500    100.1769      0.0000    722.3770      8.3695
  1456.0000    102.3373      0.0000    723.2717      8.7015
  1456.2500    104.5948      0.0000    725.6828      8.9260
  1456.5000    106.4567      0.0000    728.8786      8.9321
  1456.7500    107.5249      0.0000    731.8215      8.7567
  1457.0000    108.3099      0.0000    733.3354      8.5188
  1457.2500    109.9554      0.0000    732.9095      8.3216
  1457.5000    113.0802      0.0000    731.1814      8.2139
  1457.7500    117.0773      0.0000    729.3473      8.2044
  1458.0000    120.5050      0.0000    728.1823      8.2833
  1458.2500    121.9439      0.0000    727.7299      8.4365
  1458.5000    120.6937      0.0000    727.6725      8.6514
  1458.7500    117.1185      0.0000    727.7408      8.9116
  1459.0000    112.5113      0.0000    727.8402      9.1901
  1459.2500    108.5695      0.0000    727.9883      9.4579
  1459.5000    106.8982      0.0000    728.2075      9.6975
  1459.7500    108.6850      0.0000    728.4597      9.9019
  1460.0000    114.1209      0.0000    728.6443     10.0619
  1460.2500    121.5651      0.0000    728.5483     10.1628
  1460.5000    127.6348      0.0000    727.6077     10.1960
  1460.7500    129.1233      0.0000    724.6888     10.1697
  1461.0000    125.3469      0.0000    718.5529     10.1068
  1461.2500    118.3955      0.0000    709.2353     10.0341
  1461.5000    111.1638      0.0000    699.2156      9.9752
  1461.7500    105.6726      0.0000    692.7318      9.9493
  1462.0000    103.0743      0.0000    693.2886      9.9687
  1462.2500    103.9456      0.0000    701.2951     10.0341
  1462.5000    107.6717      0.0000    713.6025     10.1310
  1462.7500    112.1974      0.0000    725.0266     10.2353
  1463.0000    115.4477      0.0000    730.6945     10.3249
  1463.2500    117.0198      0.0000    728.0196     10.3903
  1463.5000    118.1568      0.0000    717.7422     10.4359
  1463.7500    120.3090      0.0000    703.6279     10.4721
  1464.0000    123.9565      0.0000    690.5605     10.5055
  1464.2500    128.5380      0.0000    682.1172     10.5383
  1464.5000    133.0150      0.0000    679.7121     10.5745
  1464.7500    136.3112      0.0000    683.6525     10.6224
  1465.0000    137.4841      0.0000    693.9832     10.6902
  1465.2500    136.0490      0.0000    709.6202     10.7836
  1465.5000    132.6153      0.0000    727.2719     10.9003
  1465.7500    129.1143      0.0000    742.3647     11.0198
  1466.0000    127.7773      0.0000    751.4777     11.1010
  1466.2500    129.3787      0.0000    753.6846     11.1023
  1466.5000    132.5560      0.0000    749.7607     11.0130
  1466.7500    135.0954      0.0000    740.6556     10.8690
  1467.0000    135.8409      0.0000    726.4982     10.7359
  1467.2500    135.2475      0.0000    706.5471     10.6692
  1467.5000    134.4150      0.0000    680.7565     10.6834
  1467.7500    133.9586      0.0000    652.4407     10.7585
  1468.0000    133.7035      0.0000    628.0980     10.8658
  1468.2500    133.0528      0.0000    611.8487     10.9841
  1468.5000    131.6371      0.0000    600.4903     11.0942
  1468.7500    129.8839      0.0000    587.3831     11.1753
  1469.0000    128.9039      0.0000    572.1182     11.2158
  1469.2500    129.6013      0.0000    563.6558     11.2279
  1469.5000    131.9161      0.0000    571.5420     11.2467
  1469.7500    134.9064      0.0000    594.9768     11.3077
  1470.0000    137.2051      0.0000    622.9882     11.4238
  1470.2500    137.3457      0.0000    645.0251     11.5796
  1470.5000    134.2057      0.0000    658.8165     11.7429
  1470.7500    127.6635      0.0000    667.8122     11.8819
  1471.0000    118.8639      0.0000    673.5681     11.9813
  1471.2500    109.6552      0.0000    672.1550     12.0472
  1471.5000    101.5481      0.0000    657.7505     12.0951
  1471.7500     95.0030      0.0000    630.0446     12.1306
  1472.0000     89.6963      0.0000    598.9119     12.1462
  1472.2500     85.4809      0.0000    580.6036     12.1352
  1472.5000     82.9271      0.0000    586.7369     12.0992
  1472.7500     82.8341      0.0000    615.7094     12.0417
  1473.0000     85.5031      0.0000    654.5594     11.9615
  1473.2500     90.6295      0.0000    688.5503     11.8570
  1473.5000     97.4487      0.0000    709.3739     11.7369
  1473.7500    104.5777      0.0000    716.7433     11.6198
  1474.0000    110.0680      0.0000    715.1267     11.5214
  1474.2500    112.2849      0.0000    709.9571     11.4412
  1474.5000    110.9909      0.0000    705.5510     11.3654
  1474.7500    107.6131      0.0000    704.4332     11.2794
  1475.0000    104.4730      0.0000    706.8290     11.1763
  1475.2500    103.4933      0.0000    710.2833     11.0530
  1475.5000    105.1242      0.0000    710.9265     10.9044
  1475.7500    108.1472      0.0000    706.4389     10.7266
  1476.0000    110.5020      0.0000    698.0125     10.5297
  1476.2500    110.5267      0.0000    689.1414     10.3430
  1476.5000    107.8512      0.0000    682.7247     10.2037
  1476.7500    103.6499      0.0000    679.4512     10.1335
  1477.0000    100.1198      0.0000    678.3680     10.1223
  1477.2500     99.1436      0.0000    678.2615     10.1350
  1477.5000    100.9814      0.0000    678.5172     10.1374
  1477.7500    104.1553      0.0000    679.2232     10.1191
  1478.0000    106.4979      0.0000    680.9000     10.0949
  1478.2500    106.4421      0.0000    684.0200     10.0865
  1478.5000    103.8750      0.0000    688.0972     10.1032
  1478.7500    100.0919      0.0000    690.6606     10.1403
  1479.0000     96.6902      0.0000    687.7523     10.1915
  1479.2500     94.2730      0.0000    677.1405     10.2592
  1479.5000     92.2767      0.0000    662.0605     10.3506
  1479.7500     89.9547      0.0000    650.9649     10.4666
  1480.0000     87.2118      0.0000    651.9949     10.6025
  1480.2500     84.4696      0.0000    666.6544     10.7566
  1480.5000     82.1278      0.0000    688.6412     10.9319
  1480.7500     80.3530      0.0000    708.9672     11.1259
  1481.0000     79.2299      0.0000    722.2150     11.3247
  1481.2500     78.9677      0.0000    728.2618     11.5108
  1481.5000     79.8997      0.0000    729.4632     11.6713
  1481.7500     82.1773      0.0000    727.6364     11.7959
  1482.0000     85.4644      0.0000    723.5240     11.8731
  1482.2500     89.0862      0.0000    717.8147     11.8981
  1482.5000     92.5047      0.0000    711.6193     11.8812
  1482.7500     95.4470      0.0000    705.7654     11.8438
  1483.0000     97.5350      0.0000    700.0937     11.8009
  1483.2500     98.1502      0.0000    693.9180     11.7502
  1483.5000     97.0089      0.0000    687.1997     11.6788
  1483.7500     94.7462      0.0000    680.9839     11.5784
  1484.0000     92.5589      0.0000    676.6431     11.4483
  1484.2500     91.3221      0.0000    674.9747     11.2874
  1484.5000     91.3975      0.0000    675.9692     11.0942
  1484.7500     93.1336      0.0000    678.8233     10.8776
  1485.0000     96.9317      0.0000    681.8547     10.6597
  1485.2500    102.6001      0.0000    683.0538     10.4612
  1485.5000    109.0996      0.0000    681.4748     10.2874
  1485.7500    115.3005      0.0000    678.0253     10.1293
  1486.0000    120.8177      0.0000    674.5034      9.9753
  1486.2500    125.7352      0.0000    672.0991      9.8206
  1486.5000    129.6163      0.0000    671.0405      9.6676
  1486.7500    131.2707      0.0000    671.3528      9.5199
  1487.0000    129.7193      0.0000    673.4512      9.3811
  1487.2500    125.1813      0.0000    677.8579      9.2602
  1487.5000    119.0040      0.0000    684.5196      9.1752
  1487.7500    112.8688      0.0000    692.6592      9.1426
  1488.0000    108.2329      0.0000    701.2494      9.1610
  1488.2500    106.1348      0.0000    709.3417      9.2118
  1488.5000    106.8619      0.0000    716.0455      9.2772
  1488.7500    109.6888      0.0000    720.7446      9.3490
