~Version Information
VERS.                      2.0: CWLS Log ASCII Standard - VERSION 2.0
WRAP.                       NO: One line per depth step
~Well Information Block
STRT.FT               265.0000: 
STOP.FT              1214.0000: 
STEP.FT                 0.2500: 
NULL.                -999.2500: 
COMP.          Pioneer Natural Resources: COMPANY
WELL.          Pacheco 33-27 Tr: WELL
FLD.           Purgatoire River: FIELD
LOC.           2251' FSL & 2342' FEL: LOCATION
PROV.                 Colorado: PROVINCE
CNTY.               Las Animas: COUNTRY
SRVC.                Patterson: SERVICE COMPANY
DATE.          Fri Jun 10 13:29:04 2005: LOG DATE
UWI.           05 071 08384 00: UNIQUE WELL ID
~Curve Information Block
DEPT.FT            0 000 00 00: Depth
SN.Ohm-m                      : IEL Short Normal
SP.mV                         : IEL Spontaneous Potential
DIR.Ohm-m                     : IEL Induction Resistivity
GR.GAPI                       : Gamma Ray
~Parameter Information Block
~A  Depth        SN          SP         DIR          GR     
# ...
   499.5000   2000.0000   2000.0000     14.8042     67.8151
   499.7500   2000.0000   2000.0000     15.1322     59.2931
   500.0000   2000.0000   2000.0000     15.2467     50.5344
   500.2500   2000.0000   2000.0000     15.1441     48.1020
   500.5000   2000.0000   2000.0000     14.8475     49.7132
   500.7500   2000.0000   2000.0000     14.3907     54.0586
   501.0000   2000.0000   2000.0000     13.8077     64.9911
   501.2500   2000.0000   2000.0000     13.1305     74.7065
   501.5000   2000.0000   2000.0000     12.3939     91.0633
   501.7500   2000.0000   2000.0000     11.6363    101.6561
   502.0000   2000.0000   2000.0000     10.8959    115.0039
   502.2500   2000.0000   2000.0000     10.2059    121.7927
   502.5000   2000.0000   2000.0000      9.5923    129.1553
   502.7500   2000.0000   2000.0000      9.0730    132.5151
   503.0000   2000.0000   2000.0000      8.6567    135.6450
   503.2500   2000.0000   2000.0000      8.3430    136.7014
   503.5000   2000.0000   2000.0000      8.1224    137.3347
   503.7500   2000.0000   2000.0000      7.9791    137.5696
   504.0000   2000.0000   2000.0000      7.8940    138.4109
   504.2500   2000.0000   2000.0000      7.8484    139.5544
   504.5000   2000.0000   2000.0000      7.8259    141.8511
   504.7500   2000.0000   2000.0000      7.8119    143.1377
   505.0000   2000.0000   2000.0000      7.7938    143.3667
   505.2500   2000.0000   2000.0000      7.7624    141.9659
   505.5000   2000.0000   2000.0000      7.7167    138.0848
   505.7500   2000.0000   2000.0000      7.6650    135.2952
   506.0000   2000.0000   2000.0000      7.6214    132.7749
   506.2500   2000.0000   2000.0000      7.5980    132.9549
   506.5000   2000.0000   2000.0000      7.5998    135.9776
   506.7500   2000.0000   2000.0000      7.6233    139.1206
   507.0000   2000.0000   2000.0000      7.6586    143.9856
   507.2500   2000.0000   2000.0000      7.6925    146.6684
   507.5000   2000.0000   2000.0000      7.7121    149.2771
   507.7500   2000.0000   2000.0000      7.7063    150.0210
   508.0000   2000.0000   2000.0000      7.6670    150.2846
   508.2500   2000.0000   2000.0000      7.5908    150.7670
   508.5000   2000.0000   2000.0000      7.4810    153.4557
   508.7500   2000.0000   2000.0000      7.3485    156.6902
   509.0000   2000.0000   2000.0000      7.2083    162.3523
   509.2500   2000.0000   2000.0000      7.0751    165.6147
   509.5000   2000.0000   2000.0000      6.9601    168.8548
   509.7500   2000.0000   2000.0000      6.8700    170.0905
   510.0000   2000.0000   2000.0000      6.8083    171.3528
   510.2500   2000.0000   2000.0000      6.7750    172.1102
   510.5000   2000.0000   2000.0000      6.7671    173.1429
   510.7500   2000.0000   2000.0000      6.7780    173.6038
   511.0000   2000.0000   2000.0000      6.7987    173.4887
   511.2500   2000.0000   2000.0000      6.8196    172.4773
   511.5000   2000.0000   2000.0000      6.8328    168.9744
   511.7500   2000.0000   2000.0000      6.8347    165.3088
   512.0000   2000.0000   2000.0000      6.8269    158.5263
   512.2500   2000.0000   2000.0000      6.8147    153.8385
   512.5000   2000.0000   2000.0000      6.8054    147.7993
   512.7500   2000.0000   2000.0000      6.8052    144.9541
   513.0000   2000.0000   2000.0000      6.8173    142.6819
   513.2500   2000.0000   2000.0000      6.8411    142.2676
   513.5000   2000.0000   2000.0000      6.8730    142.6664
   513.7500   2000.0000   2000.0000      6.9080    143.2639
   514.0000   2000.0000   2000.0000      6.9414    144.0975
   514.2500   2000.0000   2000.0000      6.9689    144.3648
   514.5000   2000.0000   2000.0000      6.9870    144.5014
   514.7500   2000.0000   2000.0000      6.9933    144.9171
   515.0000   2000.0000   2000.0000      6.9872    146.6933
   515.2500   2000.0000   2000.0000      6.9709    148.3384
   515.5000   2000.0000   2000.0000      6.9489    149.8936
   515.7500   2000.0000   2000.0000      6.9266    149.5326
   516.0000   2000.0000   2000.0000      6.9096    147.0364
   516.2500   2000.0000   2000.0000      6.9015    144.9146
   516.5000   2000.0000   2000.0000      6.9044    142.6140
   516.7500   2000.0000   2000.0000      6.9182    142.1296
   517.0000   2000.0000   2000.0000      6.9428    142.8121
   517.2500   2000.0000   2000.0000      6.9784    143.7829
   517.5000   2000.0000   2000.0000      7.0261    145.3047
   517.7500   2000.0000   2000.0000      7.0874    146.0646
   518.0000   2000.0000   2000.0000      7.1621    146.3363
   518.2500   2000.0000   2000.0000      7.2475    145.7480
   518.5000   2000.0000   2000.0000      7.3388    143.9510
   518.7500   2000.0000   2000.0000      7.4313    142.4850
   519.0000   2000.0000   2000.0000      7.5232    140.1346
   519.2500   2000.0000   2000.0000      7.6171    138.4818
   519.5000   2000.0000   2000.0000      7.7174    136.4660
   519.7500   2000.0000   2000.0000      7.8278    136.1131
   520.0000   2000.0000   2000.0000      7.9477    137.8303
   520.2500   2000.0000   2000.0000      8.0724    140.2695
   520.5000   2000.0000   2000.0000      8.1953    144.6276
   520.7500   2000.0000   2000.0000      8.3124    147.1282
   521.0000   2000.0000   2000.0000      8.4255    149.1358
   521.2500   2000.0000   2000.0000      8.5425    149.1261
   521.5000   2000.0000   2000.0000      8.6736    147.8135
   521.7500   2000.0000   2000.0000      8.8274    146.8887
   522.0000   2000.0000   2000.0000      9.0094    146.4506
   522.2500   2000.0000   2000.0000      9.2238    146.7051
   522.5000   2000.0000   2000.0000      9.4742    146.7759
   522.7500   2000.0000   2000.0000      9.7623    145.9687
   523.0000   2000.0000   2000.0000     10.0819    143.3263
   523.2500   2000.0000   2000.0000     10.4139    141.0573
   523.5000   2000.0000   2000.0000     10.7270    137.6158
   523.7500   2000.0000   2000.0000     10.9889    135.2092
   524.0000   2000.0000   2000.0000     11.1829    130.6201
   524.2500   2000.0000   2000.0000     11.3135    126.6415
   524.5000   2000.0000   2000.0000     11.3967    120.0569
   524.7500   2000.0000   2000.0000     11.4443    116.3544
   525.0000   2000.0000   2000.0000     11.4566    113.8129
   525.2500   2000.0000   2000.0000     11.4304    114.6881
   525.5000   2000.0000   2000.0000     11.3690    119.3642
   525.7500   2000.0000   2000.0000     11.2842    123.9123
   526.0000   2000.0000   2000.0000     11.1896    131.5077
   526.2500   2000.0000   2000.0000     11.0951    136.5561
   526.5000   2000.0000   2000.0000     11.0079    143.5368
   526.7500   2000.0000   2000.0000     10.9360    147.4194
   527.0000   2000.0000   2000.0000     10.8890    151.1454
   527.2500   2000.0000   2000.0000     10.8769    151.7215
   527.5000   2000.0000   2000.0000     10.9089    149.5674
   527.7500   2000.0000   2000.0000     10.9934    146.5037
   528.0000   2000.0000   2000.0000     11.1383    140.2632
   528.2500   2000.0000   2000.0000     11.3514    135.0914
   528.5000   2000.0000   2000.0000     11.6405    125.1216
   528.7500   2000.0000   2000.0000     12.0117    116.4811
   529.0000   2000.0000   2000.0000     12.4656    100.4796
   529.2500   2000.0000   2000.0000     12.9925     88.4804
   529.5000   2000.0000   2000.0000     13.5726     70.4496
   529.7500   2000.0000   2000.0000     14.1791     59.6008
   530.0000   2000.0000   2000.0000     14.7828     46.8662
   530.2500   2000.0000   2000.0000     15.3524     41.5849
   530.5000   2000.0000   2000.0000     15.8543     39.4188
   530.7500   2000.0000   2000.0000     16.2558     41.9150
   531.0000   2000.0000   2000.0000     16.5315     50.9200
   531.2500   2000.0000   2000.0000     16.6654     59.6646
   531.5000   2000.0000   2000.0000     16.6490     75.1186
   531.7500   2000.0000   2000.0000     16.4816     85.8312
   532.0000   2000.0000   2000.0000     16.1742    100.8536
   532.2500   2000.0000   2000.0000     15.7518    109.5652
   532.5000   2000.0000   2000.0000     15.2496    120.1132
   532.7500   2000.0000   2000.0000     14.7053    125.2875
