~Version Information
VERS.                      2.0: CWLS Log ASCII Standard - VERSION 2.0
WRAP.                       NO: One line per depth step
~Well Information Block
STRT.FT               665.0000: 
STOP.FT              1972.5000: 
STEP.FT                 0.1000: 
NULL.                -999.2500: 
COMP.          Petrogulf Corporation: COMPANY
WELL.          Great Plains 22-21V: WELL
FLD.           Purgatorie River: FIELD
LOC.           63' FNL & 1895' FWL: LOCATION
PROV.                 Colorado: PROVINCE
CNTY.               Las Animas: COUNTRY
SRVC.                Patterson: SERVICE COMPANY
DATE.          Thu Sep 01 07:39:43 2005: LOG DATE
UWI.                          : UNIQUE WELL ID
~Curve Information Block
DEPT.FT            0 000 00 00: Depth
DCAL.in                       : CDL Caliper
RHOB.g/cc                     : CDL Bulk Density
RHOC.g/cc                     : CDL Density Correction
DPOR.pu                       : CDL Density Porosity
GR.GAPI                       : Gamma Ray
NPOR.pu                       : Neutron Porosity
~Parameter Information Block
~A  Depth       DCAL        RHOB        RHOC        DPOR         GR         NPOR    
# ...
  1961.0000      8.6502      1.6995      0.1404     57.6059   -999.2500   -999.2500
  1961.1000      8.6502      1.7461      0.1768     54.7816   -999.2500   -999.2500
  1961.2000      8.6502      1.8271      0.1972     49.8737   -999.2500   -999.2500
  1961.3000      8.5974      1.9246      0.2541     43.9661   -999.2500   -999.2500
  1961.4000      8.5974      2.0288      0.2590     37.6510   -999.2500   -999.2500
  1961.5000      8.6807      2.1338      0.3258     31.2873   -999.2500   -999.2500
  1961.6000      8.6807      2.2345      0.3155     25.1797   -999.2500   -999.2500
  1961.7000      8.6807      2.3363      0.2671     19.0146   -999.2500   -999.2500
  1961.8000      8.6057      2.4368      0.2566     12.9202   -999.2500   -999.2500
  1961.9000      8.6057      2.5135      0.3464      8.2729   -999.2500   -999.2500
  1962.0000      8.3886      2.5477      0.3379      6.2013   -999.2500   -999.2500
  1962.1000      8.3886      2.5406      0.3135      6.6278   -999.2500   -999.2500
  1962.2000      8.3886      2.4894      0.3340      9.7357   -999.2500   -999.2500
  1962.3000      8.5617      2.3866      0.2393     15.9621   -999.2500   -999.2500
  1962.4000      8.5617      2.2603      0.1079     23.6157   -999.2500   -999.2500
  1962.5000      8.5108      2.1582     -0.0085     29.8034   -999.2500   -999.2500
  1962.6000      8.5108      2.0974     -0.0114     33.4880   -999.2500   -999.2500
  1962.7000      8.5108      2.0677     -0.0695     35.2901   -999.2500   -999.2500
  1962.8000      8.4325      2.0531     -0.0082     36.1739   -999.2500   -999.2500
  1962.9000      8.4325      2.0435      0.0392     36.7563   -999.2500   -999.2500
  1963.0000      8.4113      2.0503      0.0847     36.3456   -999.2500   -999.2500
  1963.1000      8.4113      2.0701      0.3184     35.1427   -999.2500   -999.2500
  1963.2000      8.4113      2.0566      0.3455     35.9654   -999.2500   -999.2500
  1963.3000      8.4295      1.9805      0.2975     40.5728   -999.2500   -999.2500
  1963.4000      8.4295      1.8653      0.2762     47.5559   -999.2500   -999.2500
  1963.5000      8.4952      1.7598      0.1775     53.9542   -999.2500   -999.2500
  1963.6000      8.4952      1.7111      0.1671     56.9007   -999.2500   -999.2500
  1963.7000      8.4952      1.7395      0.1757     55.1809   -999.2500   -999.2500
  1963.8000      8.7781      1.8212      0.2261     50.2300   -999.2500   -999.2500
  1963.9000      8.7781      1.9029      0.2439     45.2801   -999.2500   -999.2500
  1964.0000      8.6281      1.9414      0.2750     42.9429   -999.2500   -999.2500
  1964.1000      8.6281      1.9234      0.3009     44.0376   -999.2500   -999.2500
  1964.2000      8.6281      1.8704      0.2533     47.2505   -999.2500   -999.2500
  1964.3000      8.5105      1.8280      0.2255     49.8210   -999.2500   -999.2500
  1964.4000      8.5105      1.8257      0.1968     49.9570   -999.2500   -999.2500
  1964.5000      8.4462      1.8646      0.1768     47.6000   -999.2500   -999.2500
  1964.6000      8.4462      1.9347      0.1534     43.3489   -999.2500   -999.2500
  1964.7000      8.4462      2.0171      0.2470     38.3552   -999.2500   -999.2500
  1964.8000      8.4727      2.0813      0.3044     34.4642   -999.2500   -999.2500
  1964.9000      8.4727      2.1135      0.3030     32.5169   -999.2500   -999.2500
  1965.0000      8.3100      2.1281      0.3166     31.6304   -999.2500   -999.2500
  1965.1000      8.3100      2.1430      0.3171     30.7261   -999.2500   -999.2500
  1965.2000      8.3100      2.1634      0.3113     29.4926   -999.2500   -999.2500
  1965.3000      8.1995      2.1799      0.3107     28.4882   -999.2500   -999.2500
  1965.4000      8.1995      2.1765      0.2852     28.6950   -999.2500   -999.2500
  1965.5000      8.0928      2.1482      0.2206     30.4097   -999.2500   -999.2500
  1965.6000      8.0928      2.1130      0.1484     32.5427   -999.2500   -999.2500
  1965.7000      8.0928      2.0981      0.1975     33.4471   -999.2500   -999.2500
  1965.8000      8.0617      2.1116      0.2822     32.6292   -999.2500   -999.2500
  1965.9000      8.0617      2.1396      0.2926     30.9323   -999.2500   -999.2500
  1966.0000      8.0275      2.1696      0.2960     29.1180   -999.2500   -999.2500
  1966.1000      8.0275      2.2054      0.2926     26.9446   -999.2500   -999.2500
  1966.2000      8.0275      2.2574      0.3551     23.7942   -999.2500   -999.2500
  1966.3000      8.0348      2.3224      0.4086     19.8551   -999.2500   -999.2500
  1966.4000      8.0348      2.3816      0.4069     16.2656   -999.2500   -999.2500
  1966.5000      8.3014      2.4167      0.4062     14.1398   -999.2500   -999.2500
  1966.6000      8.3014      2.4257      0.3275     13.5925   -999.2500   -999.2500
  1966.7000      8.3014      2.4160      0.2958     14.1811   -999.2500   -999.2500
  1966.8000      8.3327      2.3871      0.2930     15.9337   -999.2500   -999.2500
  1966.9000      8.3327      2.3447      0.2750     18.5018   -999.2500   -999.2500
  1967.0000      8.0937      2.3053      0.2636     20.8893   -999.2500   -999.2500
  1967.1000      8.0937      2.2716      0.2679     22.9356   -999.2500   -999.2500
  1967.2000      8.0937      2.2365      0.2171     25.0618   -999.2500   -999.2500
  1967.3000      8.0849      2.2094      0.1831     26.7025   -999.2500   -999.2500
  1967.4000      8.0849      2.2116      0.1491     26.5680   -999.2500   -999.2500
  1967.5000      8.0059      2.2515      0.2347     24.1537   -999.2500   -999.2500
  1967.6000      8.0059      2.3084      0.3373     20.7012   -999.2500   -999.2500
  1967.7000      8.0059      2.3458      0.3580     18.4368   -999.2500   -999.2500
  1967.8000      7.9666      2.3426      0.3095     18.6320   -999.2500   -999.2500
  1967.9000      7.9666      2.3476      0.2027     18.3265   -999.2500   -999.2500
  1968.0000      8.0308      2.5587      0.1581      5.5337   -999.2500   -999.2500
  1968.1000      8.0308      3.2533      0.2347    -36.5618   -999.2500   -999.2500
  1968.2000      8.0308      4.1619      0.7121    -91.6298   -999.2500   -999.2500
  1968.3000      7.9232      4.0496      2.0381    -84.8232   -999.2500   -999.2500
  1968.4000      7.9232      2.4779      0.0000     10.4317   -999.2500   -999.2500
  1968.5000      5.5456      0.8699   -999.2500    107.8828   -999.2500   -999.2500
  1968.6000      5.5456      0.1679   -999.2500    150.4277   -999.2500   -999.2500
  1968.7000      5.5456      0.0175   -999.2500    159.5479   -999.2500   -999.2500
  1968.8000     -1.8191      0.0010   -999.2500    160.5481   -999.2500   -999.2500
  1968.9000     -1.8191      0.0000   -999.2500    160.6061   -999.2500   -999.2500
  1969.0000     -2.7903   -999.2500   -999.2500   -999.2500   -999.2500   -999.2500
  1969.1000     -2.7903   -999.2500   -999.2500   -999.2500   -999.2500   -999.2500
  1969.2000     -2.7903   -999.2500   -999.2500   -999.2500   -999.2500   -999.2500
  1969.3000   -999.2500   -999.2500   -999.2500   -999.2500   -999.2500   -999.2500
  1969.4000   -999.2500   -999.2500   -999.2500   -999.2500   -999.2500   -999.2500
  1969.5000   -999.2500   -999.2500   -999.2500   -999.2500   -999.2500   -999.2500
  1969.6000   -999.2500   -999.2500   -999.2500   -999.2500   -999.2500   -999.2500
  1969.7000   -999.2500   -999.2500   -999.2500   -999.2500   -999.2500   -999.2500
  1969.8000   -999.2500   -999.2500   -999.2500   -999.2500   -999.2500   -999.2500
  1969.9000   -999.2500   -999.2500   -999.2500   -999.2500   -999.2500   -999.2500
  1970.0000   -999.2500   -999.2500   -999.2500   -999.2500   -999.2500   -999.2500
  1970.1000   -999.2500   -999.2500   -999.2500   -999.2500   -999.2500   -999.2500
  1970.2000   -999.2500   -999.2500   -999.2500   -999.2500   -999.2500   -999.2500
  1970.3000   -999.2500   -999.2500   -999.2500   -999.2500   -999.2500   -999.2500
  1970.4000   -999.2500   -999.2500   -999.2500   -999.2500   -999.2500   -999.2500
  1970.5000   -999.2500   -999.2500   -999.2500   -999.2500   -999.2500   -999.2500
