~Version Information
VERS.                      2.0: CWLS Log ASCII Standard - VERSION 2.0
WRAP.                       NO: One line per depth step
~Well Information Block
STRT.FT                -8.2500: 
STOP.FT              1175.7500: 
STEP.FT                 0.2500: 
NULL.                -999.2500: 
COMP.          Evergreen Operating Corporation: COMPANY
WELL.             Justin 32-10: WELL
FLD.           Purgatorie River: FIELD
LOC.           2994' FNL & 1449' FEL: LOCATION
PROV.                 Colorado: PROVINCE
CNTY.               Las Animas: COUNTRY
SRVC.                         : SERVICE COMPANY
DATE.          Wed Sep 29 10:00:10 2004: LOG DATE
UWI.           05 071 08053 00: UNIQUE WELL ID
~Curve Information Block
DEPT.FT            0 000 00 00: Depth
GR.GAPI                       : Gamma Ray
CCL.                          : Casing Collar Locator
TT3.usec                      : CBL 3' Travel Time
AMP3.mV                       : CBL 3' Amplitude
~Parameter Information Block
~A  Depth        GR         CCL         TT3         AMP3    
# ...
  1130.7500     85.9945      0.0000    494.9682      2.2080
  1131.0000     92.0528      0.0000    508.4120      2.0645
  1131.2500     98.0130      0.0000    506.9640      1.8939
  1131.5000    102.5414      0.0000    490.2151      1.6831
  1131.7500    104.1176      0.0000    467.4813      1.4617
  1132.0000    102.1070      0.0000    449.2664      1.2764
  1132.2500     97.2976      0.0000    441.0027      1.1497
  1132.5000     91.6840      2.2229    443.7419      1.0729
  1132.7500     87.6440      1.8631    457.1170      1.0315
  1133.0000     86.8683      0.0000    479.7292      1.0260
  1133.2500     89.5927      0.0000    507.7709      1.0715
  1133.5000     94.5138      0.0000    534.9977      1.1793
  1133.7500     99.4482      0.0000    554.4861      1.3340
  1134.0000    102.3927      0.0000    560.8861      1.4906
  1134.2500    102.2765      0.0000    553.7548      1.6047
  1134.5000     98.9039      0.0000    540.4910      1.6654
  1134.7500     92.6709      0.0000    533.4160      1.6926
  1135.0000     84.9156      0.0000    541.1470      1.7087
  1135.2500     78.1790      0.0000    563.3705      1.7207
  1135.5000     74.9645      0.0000    593.7045      1.7262
  1135.7500     75.7295      0.0000    624.8254      1.7228
  1136.0000     78.4597      0.0000    650.8355      1.7086
  1136.2500     80.4734      0.0000    668.1193      1.6804
  1136.5000     80.4866      0.0000    676.0037      1.6377
  1136.7500     78.9422      0.0000    676.5001      1.5881
  1137.0000     76.8083      0.0000    673.5123      1.5490
  1137.2500     74.6007      0.0000    671.5799      1.5430
  1137.5000     72.6224      0.0000    673.7703      1.5952
  1137.7500     71.4289      0.0000    680.4714      1.7331
  1138.0000     71.3611      0.0000    690.7520      1.9851
  1138.2500     71.9099      0.0000    704.4467      2.3832
  1138.5000     72.2096      0.0000    721.8870      2.9667
  1138.7500     72.1130      0.0000    741.3610      3.7822
  1139.0000     72.3191      0.0000    755.6918      4.8784
  1139.2500     73.4351      0.0000    750.3973      6.3057
  1139.5000     75.1969      0.0000    708.8282      8.1128
  1139.7500     76.5714      0.0000    625.8456     10.3085
  1140.0000     76.4617      0.0000    517.9856     12.7925
  1140.2500     74.4366      0.0000    415.4300     15.3213
  1140.5000     71.1248      0.0000    341.4081     17.5788
  1140.7500     67.8995      0.0000    300.1992     19.3088
  1141.0000     65.8070      0.0000    282.3644     20.4004
  1141.2500     64.6913      0.0000    276.3490     20.8665
  1141.5000     63.6015      0.0000    274.7869     20.7622
  1141.7500     62.0099      0.0000    274.6003     20.1275
  1142.0000     60.3260      0.0000    275.1712     19.0061
  1142.2500     59.2667      0.0000    277.4781     17.5028
  1142.5000     59.0889      0.0000    284.6189     15.7844
  1142.7500     59.4605      0.0000    302.9871     14.0029
  1143.0000     59.8214      0.0000    341.8564     12.2346
  1143.2500     59.8682      0.0000    408.5171     10.5130
  1143.5000     59.8507      0.0000    500.1915      8.9051
  1143.7500     60.4438      0.0000    601.1522      7.5262
  1144.0000     62.2834      0.0000    692.1842      6.4792
  1144.2500     65.4790      0.0000    764.1782      5.7935
  1144.5000     69.3787      0.0000    819.3716      5.4258
  1144.7500     72.7251      0.0000    859.6501      5.3124
  1145.0000     74.3127      0.0000    879.3665      5.4164
  1145.2500     73.8840      0.0000    871.6870      5.7379
  1145.5000     72.3347      0.0000    836.2182      6.2959
  1145.7500     70.6912      0.0000    776.6199      7.1089
  1146.0000     68.9937      0.0000    695.7323      8.1750
  1146.2500     66.6414      0.0000    598.8918      9.4356
  1146.5000     63.6785      0.0000    499.7870     10.7396
  1146.7500     61.1766      0.0000    416.8372     11.8535
  1147.0000     60.4154      0.0000    362.2248     12.5308
  1147.2500     62.1122      0.0000    337.0468     12.5994
  1147.5000     66.2104      0.0000    337.7243     12.0184
  1147.7500     71.7971      0.0000    364.2216     10.8853
  1148.0000     77.1913      0.0000    419.7081      9.4023
  1148.2500     80.6684      0.0000    501.7429      7.8147
  1148.5000     81.4624      0.0000    595.7824      6.3388
  1148.7500     80.0662      0.0000    680.0579      5.1061
  1149.0000     77.6997      0.0000    737.4069      4.1509
  1149.2500     75.6929      0.0000    762.3049      3.4409
  1149.5000     75.0289      0.0000    759.6726      2.9224
  1149.7500     75.8607      0.0000    740.6764      2.5471
  1150.0000     77.4749      0.0000    717.9359      2.2797
  1150.2500     78.9061      0.0000    699.9812      2.0965
  1150.5000     79.4370      0.0000    688.5057      1.9854
  1150.7500     78.7780      0.0000    681.1617      1.9442
  1151.0000     77.2844      0.0000    676.0013      1.9734
  1151.2500     75.7815      0.0000    672.6761      2.0677
  1151.5000     74.7642      0.0000    671.1603      2.2105
  1151.7500     74.0728      0.0000    670.9070      2.3776
  1152.0000     73.6352      0.0000    671.1413      2.5416
  1152.2500     74.0970      0.0000    671.1721      2.6720
  1152.5000     76.2660      0.0000    670.3334      2.7424
  1152.7500     80.0379      0.0000    667.8019      2.7509
  1153.0000     84.0175      0.0000    662.5441      2.7294
  1153.2500     86.1967      0.0000    653.2898      2.7196
  1153.5000     85.2813      0.0000    638.6800      2.7380
  1153.7500     81.8563      0.0000    618.5648      2.7697
  1154.0000     78.4083      0.0000    596.4628      2.7885
  1154.2500     77.6970      0.0000    579.8989      2.7774
  1154.5000     80.3985      0.0000    575.6531      2.7337
  1154.7500     84.2976      0.0000    583.7990      2.6675
  1155.0000     86.2734      0.0000    597.6269      2.5954
  1155.2500     85.0882      0.0000    609.3125      2.5332
  1155.5000     81.9615      0.0000    614.2341      2.4900
  1155.7500     78.8996      0.0000    610.6576      2.4672
  1156.0000     77.1686      0.0000    598.9504      2.4621
  1156.2500     77.0591      0.0000    583.6790      2.4715
  1156.5000     78.2313      0.0000    574.4758      2.4912
  1156.7500     80.0210      0.0000    580.0216      2.5150
  1157.0000     81.7378      0.0000    599.1836      2.5361
  1157.2500     82.8363      0.0000    619.8057      2.5537
  1157.5000     82.8204      0.0000    627.0297      2.5790
  1157.7500     81.2874      0.0000    612.7441      2.6298
  1158.0000     78.5535      0.0000    579.9398      2.7119
  1158.2500     76.1016      0.0000    541.5907      2.8011
  1158.5000     75.8024      0.0000    514.4133      2.8539
  1158.7500     78.4061      0.0000    509.1245      2.8438
  1159.0000     82.8879      0.0000    523.2932      2.7846
  1159.2500     87.1854      0.0000    543.0701      2.7152
  1159.5000     89.4432      0.0000    553.0320      2.6667
  1159.7500     88.9118      0.0000    545.5395      2.6451
  1160.0000     86.3081      0.0000    521.9827      2.6349
  1160.2500     83.4159      0.0000    487.5311      2.6055
  1160.5000     82.0144      0.0000    445.2921      2.5127
  1160.7500     83.0162      0.0000    393.2730      2.3002
  1161.0000     86.3995      0.0000    326.7014      1.9208
  1161.2500     91.3934      0.0000    245.7553      1.3831
  1161.5000     96.6028      0.0000    161.1426      0.7808
  1161.7500    100.7073      0.0000     89.2544      0.2513
  1162.0000    103.4762      0.0000     40.7966     -0.1126
  1162.2500    105.5507      0.0000     15.1320     -0.3076
  1162.5000    107.0979      0.0000      4.5022     -0.3890
  1162.7500    107.4054      0.0000      1.0637     -0.4155
  1163.0000    106.0871      0.0000      0.1963     -0.4222
  1163.2500    104.1366      0.0000      0.0261     -0.4235
  1163.5000    103.2382      0.0000   -999.2500   -999.2500
  1163.7500    104.0949      0.0000   -999.2500   -999.2500
  1164.0000    105.8166      0.0000   -999.2500   -999.2500
