~Version Information
VERS.                      2.0: CWLS Log ASCII Standard - VERSION 2.0
WRAP.                       NO: One line per depth step
~Well Information Block
STRT.FT               -10.0000: 
STOP.FT              2184.0000: 
STEP.FT                 0.2500: 
NULL.                -999.2500: 
COMP.          Petrogulf Corporation: COMPANY
WELL.              Silva 1-43R: WELL
FLD.           Purgatorie River: FIELD
LOC.           1971' FSL & 526' FEL--: LOCATION
CNTY.               Las Animas: COUNTY
SRVC.          Patterson Wireline: SERVICE COMPANY
DATE.          Thu Jul 13 13:08:17 2006: LOG DATE
UWI.           05 072 08372 00: UNIQUE WELL ID
STAT.                       CO: STATE
~Curve Information Block
DEPT.FT            0 000 00 00: Depth
CCL.                          : Casing Collar Locator
TT3.usec                      : CBL 3' Travel Time
AMP3.mV                       : CBL 3' Amplitude
GR.GAPI                       : Gamma Ray
~Parameter Information Block
~A  Depth       CCL         TT3         AMP3         GR     
# ...
   995.0000      0.0000    307.9902     27.3994     98.4675
   995.2500      0.0000    314.6741     26.0968     98.4022
   995.5000      0.0000    322.2938     24.7015     94.7319
   995.7500      0.0000    329.6331     23.2678     90.2758
   996.0000      0.0000    337.2030     21.7796     88.0519
   996.2500      0.0000    348.9903     20.2101     88.0266
   996.5000      0.0000    372.4808     18.5894     87.5932
   996.7500      0.0000    415.2415     17.0080     84.8461
   997.0000      0.0000    478.4609     15.5728     80.5220
   997.2500      0.0000    552.6924     14.3606     76.8074
   997.5000      0.0000    621.7238     13.3917     74.9586
   997.7500      0.0000    672.2621     12.6338     74.3183
   998.0000      0.0000    700.2496     12.0323     73.2896
   998.2500      0.0000    709.4125     11.5464     71.0760
   998.5000      0.0000    706.5579     11.1723     68.5366
   998.7500      0.0000    698.7753     10.9441     67.4682
   999.0000      0.0000    692.2559     10.9107     69.0210
   999.2500      0.0000    690.5774     11.1015     72.5368
   999.5000      0.0000    693.2687     11.5024     75.6935
   999.7500      0.0000    696.8458     12.0544     76.0100
  1000.0000      0.0000    698.0079     12.6642     72.8133
  1000.2500      0.0000    696.4620     13.2210     68.0468
  1000.5000      0.0000    695.1095     13.6308     64.8532
  1000.7500      0.0000    697.7997     13.8589     65.0371
  1001.0000      0.0000    706.5673     13.9344     67.9426
  1001.2500      0.0000    720.1177     13.9094     71.5651
  1001.5000      0.0000    734.2502     13.8210     74.1347
  1001.7500      0.0000    744.2501     13.6903     74.7423
  1002.0000      0.0000    747.9325     13.5427     73.5624
  1002.2500      0.0000    746.4675     13.4175     72.1178
  1002.5000      0.0000    741.7201     13.3545     72.7929
  1002.7500      0.0000    733.0014     13.3653     77.4232
  1003.0000      0.0000    716.7254     13.4213     86.1510
  1003.2500      0.0000    688.5717     13.4811     97.5057
  1003.5000      0.0000    646.2535     13.5279    109.4254
  1003.7500      0.0000    592.7444     13.5679    120.3419
  1004.0000      0.0000    539.0933     13.5872    129.6271
  1004.2500      0.0000    502.6171     13.5231    137.3059
  1004.5000      0.0000    498.2638     13.2842    143.5347
  1004.7500      0.0000    528.5529     12.8025    148.1535
  1005.0000      0.0000    581.1068     12.0807    150.3250
  1005.2500      0.0000    636.6573     11.2133    148.7606
  1005.5000      0.0000    680.7114     10.3728    143.0427
  1005.7500      0.0000    709.5906      9.7527    134.9241
  1006.0000      0.0000    727.9561      9.4876    127.7919
  1006.2500      0.0000    741.4982      9.5958    124.4147
  1006.5000      0.0000    750.7698      9.9834    125.2444
  1006.7500      0.0000    750.4871     10.5129    128.8669
  1007.0000      0.0000    733.7131     11.0905    133.5801
  1007.2500      0.0000    696.5342     11.7089    138.2939
  1007.5000      0.0000    640.5070     12.4312    142.6442
  1007.7500      0.0000    572.8365     13.3572    146.9884
  1008.0000      0.0000    503.9563     14.5982    151.8435
  1008.2500      0.0000    443.0478     16.2490    156.5802
  1008.5000      0.0000    394.8394     18.3531    158.9921
  1008.7500      0.0000    359.6479     20.8725    157.1303
  1009.0000      0.0000    335.2965     23.6690    151.7923
  1009.2500      0.0000    319.0395     26.5068    146.5962
  1009.5000      0.0000    308.5934     29.1113    145.1276
  1009.7500      0.0000    302.0139     31.2806    147.9925
  1010.0000      0.0000    297.2503     32.9700    152.6741
  1010.2500      0.0000    292.3658     34.2857    155.8456
  1010.5000      0.0000    286.4061     35.4052    155.5072
  1010.7500      0.0000    279.8397     36.4823    151.5707
  1011.0000      0.0000    273.9615     37.5922    145.4748
  1011.2500      0.0000    269.7669     38.7257    139.2703
  1011.5000      0.0000    267.3584     39.8077    134.4252
  1011.7500      0.0000    266.2209     40.7325    131.4636
  1012.0000      0.0000    265.7742     41.4288    130.8372
  1012.2500      0.0000    265.6365     41.9272    133.5154
  1012.5000      0.0000    265.6034     42.3574    140.0451
  1012.7500      0.0000    265.5704     42.8496    149.3119
  1013.0000      0.0000    265.5046     43.4137    158.7060
  1013.2500      0.0000    265.4615     43.8970    165.5284
  1013.5000      0.0000    265.6454     44.0295    168.3181
  1013.7500      0.0000    266.5326     43.5033    167.1407
  1014.0000      0.0000    268.9738     42.0474    162.9498
  1014.2500      0.0000    274.0509     39.5143    157.0632
  1014.5000      0.0000    282.5445     35.9829    151.0851
  1014.7500      0.0000    294.2914     31.8136    146.3415
  1015.0000      0.0000    308.0577     27.5553    142.7355
  1015.2500      0.0000    322.6990     23.7061    138.8358
  1015.5000      0.0000    339.6221     20.4789    133.8507
  1015.7500      0.0000    365.1497     17.7599    129.0886
  1016.0000      0.0000    409.2216     15.3015    126.9395
  1016.2500      0.0000    477.6510     12.9809    128.7301
  1016.5000      0.0000    562.3646     10.9000    133.5995
  1016.7500      0.0000    641.6276      9.2628    139.1553
  1017.0000      0.0000    694.9205      8.1914    143.4607
  1017.2500      0.0000    717.7615      7.6622    146.6918
  1017.5000      0.0000    719.2060      7.5684    150.5462
  1017.7500     -2.0000    707.0958      7.7851    155.7914
  1018.0000      2.0000    680.8591      8.1967    160.6372
  1018.2500      0.0000    638.8755      8.7282    161.8399
  1018.5000      0.0000    588.2889      9.3894    157.4534
  1018.7500      0.0000    543.2290     10.2707    148.5910
  1019.0000      0.0000    511.9641     11.4615    138.6987
  1019.2500      0.0000    488.2803     12.9410    131.1483
  1019.5000      0.0000    459.3536     14.5070    127.3075
  1019.7500      0.0000    421.8622     15.8008    126.5061
  1020.0000      0.0000    387.1168     16.4510    127.2954
  1020.2500      0.0000    372.1490     16.2561    128.3659
  1020.5000      0.0000    389.9986     15.2593    128.5799
  1020.7500      0.0000    445.6799     13.6746    126.7730
  1021.0000      0.0000    532.8555     11.7657    121.9458
  1021.2500      0.0000    631.6272      9.7824    113.9086
  1021.5000      0.0000    715.3409      7.9443    103.8992
  1021.7500      0.0000    765.0125      6.4075     94.3642
  1022.0000      0.0000    778.2045      5.2240     87.7662
  1022.2500      0.0000    765.4149      4.3489     85.3116
  1022.5000      0.0000    740.8139      3.6959     86.5943
  1022.7500      0.0000    715.8369      3.1911     90.1893
  1023.0000      0.0000    697.0796      2.7950     94.3032
  1023.2500      0.0000    686.2224      2.4952     97.0088
  1023.5000      0.0000    681.0677      2.2864     96.6963
  1023.7500      0.0000    677.8711      2.1547     93.0770
  1024.0000      0.0000    674.0499      2.0781     87.5643
  1024.2500      0.0000    669.5784      2.0368     82.0402
  1024.5000      0.0000    666.4491      2.0191     77.4128
  1024.7500      0.0000    667.1517      2.0189     73.7376
  1025.0000      0.0000    672.9293      2.0294     71.2458
  1025.2500      0.0000    682.3833      2.0408     70.3626
  1025.5000      0.0000    691.5688      2.0445     70.6800
  1025.7500      0.0000    696.0012      2.0372     70.6722
  1026.0000      0.0000    693.1188      2.0221     68.9704
  1026.2500      0.0000    683.5520      2.0062     65.6357
  1026.5000      0.0000    670.7069      1.9970     61.9118
  1026.7500      0.0000    658.9576      2.0018     59.1023
  1027.0000      0.0000    651.6376      2.0265     57.9580
  1027.2500      0.0000    650.3173      2.0740     58.5986
  1027.5000      0.0000    655.3025      2.1417     60.4293
  1027.7500      0.0000    665.7963      2.2189     62.3033
  1028.0000      0.0000    679.4391      2.2895     63.2680
  1028.2500      0.0000    692.7985      2.3398     63.2395
