~Version Information
VERS.                      2.0: CWLS Log ASCII Standard - VERSION 2.0
WRAP.                       NO: One line per depth step
~Well Information Block
STRT.FT                -3.0000: 
STOP.FT              2043.2500: 
STEP.FT                 0.2500: 
NULL.                -999.2500: 
COMP.          Pioneer Natural Resources: COMPANY
WELL.           Galloway 32-13: WELL
FLD.           Purgatorie River: FIELD
LOC.           1809' FNL & 2004' FEL--: LOCATION
PROV.                       CO: PROVINCE
CNTY.               Las Animas: COUNTRY
SRVC.          Patterson Wireline: SERVICE COMPANY
DATE.          Thu Jul 14 13:02:15 2005: LOG DATE
UWI.           05 071 08423 00: UNIQUE WELL ID
~Curve Information Block
DEPT.FT            0 000 00 00: Depth
CCL.                          : Casing Collar Locator
TT3.usec                      : CBL 3' Travel Time
AMP3.mV                       : CBL 3' Amplitude
GR.GAPI                       : Gamma Ray
~Parameter Information Block
~A  Depth       CCL         TT3         AMP3         GR     
# ...
   399.0000      0.0000    811.3167      3.6532     65.9140
   399.2500      0.0000    816.3454      3.6405     66.1851
   399.5000      0.0000    822.1600      3.6193     67.3260
   399.7500      0.0000    828.4099      3.5949     69.4932
   400.0000      0.0000    834.9472      3.5693     72.4077
   400.2500      0.0000    841.9277      3.5417     75.5972
   400.5000      0.0000    850.0197      3.5104     78.5280
   400.7500      0.0000    860.1987      3.4774     80.6803
   401.0000      0.0000    872.5465      3.4499     81.7304
   401.2500      0.0000    885.1260      3.4329     81.6339
   401.5000      0.0000    894.7597      3.4186     80.3431
   401.7500      0.0000    899.6032      3.3933     77.5852
   402.0000      0.0000    901.2021      3.3540     73.3191
   402.2500      0.0000    903.7845      3.3095     68.3769
   402.5000      0.0000    910.6923      3.2682     64.3496
   402.7500      0.0000    920.6935      3.2345     62.7949
   403.0000      0.0000    928.0832      3.2153     64.2930
   403.2500      0.0000    927.1627      3.2163     67.6784
   403.5000      0.0000    916.8001      3.2336     70.2974
   403.7500      0.0000    900.6929      3.2552     69.8299
   404.0000      0.0000    883.5901      3.2679     66.2035
   404.2500      0.0000    867.2292      3.2614     61.5889
   404.5000      0.0000    849.4097      3.2338     58.7171
   404.7500      0.0000    827.1853      3.1987     59.2170
   405.0000      0.0000    801.4939      3.1802     62.7018
   405.2500      0.0000    778.9904      3.1916     66.7356
   405.5000      0.0000    769.3917      3.2223     68.2677
   405.7500      0.0000    780.2407      3.2506     66.1094
   406.0000      0.0000    811.7739      3.2653     62.1143
   406.2500      0.0000    854.6037      3.2740     59.4803
   406.5000      0.0000    893.1546      3.2928     59.7971
   406.7500      0.0000    913.9809      3.3271     61.8058
   407.0000     -1.1084    911.9574      3.3621     62.9778
   407.2500      0.0000    889.9585      3.3796     62.0848
   407.5000      0.0000    856.2081      3.3877     59.9752
   407.7500      0.0000    822.9133      3.4128     58.1497
   408.0000      0.0000    802.8014      3.4558     57.3376
   408.2500      0.0000    802.1392      3.4786     57.4296
   408.5000      0.0000    816.3053      3.4556     57.9219
   408.7500      0.0000    833.1455      3.4136     58.1305
   409.0000      0.0000    841.3690      3.3953     57.5764
   409.2500      0.0000    837.1660      3.4021     56.4214
   409.5000      0.0000    824.6044      3.3958     55.3098
   409.7500      0.0000    810.8058      3.3406     54.8009
   410.0000      0.0000    800.7348      3.2346     55.0356
   410.2500      0.0000    795.5378      3.1091     55.8483
   410.5000      0.0000    794.0712      3.0031     57.1124
   410.7500      0.0000    794.7392      2.9348     58.8569
   411.0000      0.0000    795.9269      2.8955     60.8516
   411.2500      0.0000    795.7987      2.8750     62.2145
   411.5000      0.0000    792.9744      2.8853     61.8988
   411.7500      0.0000    787.9033      2.9494     59.7026
   412.0000      0.0000    782.9327      3.0665     56.5923
   412.2500      0.0000    780.3232      3.2014     54.0686
   412.5000      0.0000    780.2532      3.3120     53.3788
   412.7500      0.0000    781.1695      3.3769     55.1094
   413.0000      0.0000    781.7618      3.3970     59.1099
   413.2500      0.0000    781.9531      3.3878     64.5887
   413.5000      0.0000    782.2927      3.3749     70.3821
   413.7500      0.0000    783.2936      3.3809     75.4940
   414.0000      0.0000    784.8587      3.4073     79.8338
   414.2500      0.0000    785.1410      3.4383     84.3011
   414.5000      0.0000    781.1266      3.4632     89.5309
   414.7500      0.0000    772.1756      3.4826     94.4723
   415.0000      0.0000    762.0159      3.4969     96.9344
   415.2500      0.0000    755.5807      3.5027     95.8344
   415.5000      0.0000    754.5243      3.4998     92.4402
   415.7500      0.0000    756.4597      3.4871     89.4060
   416.0000      0.0000    757.2762      3.4574     89.0834
   416.2500      0.0000    753.5165      3.4085     92.4909
   416.5000      0.0000    744.5016      3.3545     98.9709
   416.7500      0.0000    734.1111      3.3140    106.3805
   417.0000      0.0000    729.4805      3.2910    111.9800
   417.2500      0.0000    735.2381      3.2766    113.8456
   417.5000      0.0000    748.0782      3.2626    111.9861
   417.7500      0.0000    758.2824      3.2410    108.1928
   418.0000      0.0000    757.4252      3.1995    104.7196
   418.2500      0.0000    744.1340      3.1321    102.9710
   418.5000      0.0000    723.2079      3.0579    103.0831
   418.7500      0.0000    701.6019      3.0129    104.2415
   419.0000      0.0000    685.8294      3.0163    105.3146
   419.2500      0.0000    680.5792      3.0528    105.3857
   419.5000      0.0000    686.7264      3.0934    103.8874
   419.7500      0.0000    699.4943      3.1253    100.6166
   420.0000      0.0000    709.7050      3.1560     96.0125
   420.2500      0.0000    709.4706      3.1917     91.3061
   420.5000      0.0000    698.1175      3.2252     87.8695
   420.7500      0.0000    681.9026      3.2421     86.1656
   421.0000      0.0000    667.9494      3.2349     85.5807
   421.2500      0.0000    659.3251      3.2115     85.4024
   421.5000      0.0000    655.2352      3.1953     85.5187
   421.7500      0.0000    653.7056      3.2112     86.0431
   422.0000      0.0000    653.3021      3.2597     87.0242
   422.2500      0.0000    653.3290      3.3080     88.8371
   422.5000      0.0000    653.5027      3.3151     92.0860
   422.7500      0.0000    653.6860      3.2669     96.5995
   423.0000      0.0000    653.7709      3.1821    101.0756
   423.2500      0.0000    653.6825      3.0879    104.2066
   423.5000      0.0000    653.4550      3.0027    105.8340
   423.7500      0.0000    653.2802      2.9419    106.6150
   424.0000      0.0000    653.5199      2.9190    106.8102
   424.2500      0.0000    654.7575      2.9317    106.0959
   424.5000      0.0000    657.9265      2.9575    104.7305
   424.7500      0.0000    664.0141      2.9713    104.1641
   425.0000      0.0000    672.7643      2.9642    105.7495
   425.2500      0.0000    681.4435      2.9435    109.1133
   425.5000      0.0000    686.2885      2.9270    112.3658
   425.7500      0.0000    686.6746      2.9368    113.7844
   426.0000      0.0000    687.1219      2.9867    112.8458
   426.2500      0.0000    693.1469      3.0649    109.9513
   426.5000      0.0000    704.6932      3.1378    106.0130
   426.7500      0.0000    715.0822      3.1768    102.3947
   427.0000      0.0000    717.9235      3.1813    100.6059
   427.2500      0.0000    714.6170      3.1687    101.6152
   427.5000      0.0000    713.1536      3.1498    105.3184
   427.7500      0.0000    719.0513      3.1225    110.4602
   428.0000      0.0000    729.0951      3.0907    114.9630
   428.2500      0.0000    734.9777      3.0780    116.8294
   428.5000      0.0000    731.9307      3.1105    115.4142
   428.7500      0.0000    722.2260      3.1856    111.7905
   429.0000      0.0000    710.7153      3.2654    107.4591
   429.2500      0.0000    699.5666      3.3037    103.0010
   429.5000      0.0000    688.9778      3.2802     98.4742
   429.7500      0.0000    681.2327      3.2120     94.6865
   430.0000      0.0000    681.3999      3.1395     93.0859
   430.2500      0.0000    693.7377      3.1003     94.1943
   430.5000      0.0000    717.9564      3.1074     96.6993
   430.7500      0.0000    748.6401      3.1493     98.3865
   431.0000      0.0000    778.3665      3.2076     97.8597
   431.2500      0.0000    801.9755      3.2733     95.3998
   431.5000      0.0000    818.3806      3.3432     92.4797
   431.7500      0.0000    829.0454      3.4062     90.6372
   432.0000      0.0000    835.5694      3.4454     90.6292
   432.2500      0.0000    838.8158      3.4555     92.4962
