~Version Information
VERS.                      2.0: CWLS Log ASCII Standard - VERSION 2.0
WRAP.                       NO: One line per depth step
~Well Information Block
STRT.FT               898.0000: 
STOP.FT              2359.2000: 
STEP.FT                 0.1000: 
NULL.                -999.2500: 
COMP.          Pioneer Natural Resources: COMPANY
WELL.             Trimax 44-23: WELL
FLD.           Purgatoire River: FIELD
LOC.           527' FSL & 1064' FEL: LOCATION
PROV.                 Colorado: PROVINCE
CNTY.               Las Animas: COUNTRY
SRVC.                Patterson: SERVICE COMPANY
DATE.          Mon Mar 14 07:28:19 2005: LOG DATE
UWI.           05 071 08326 00: UNIQUE WELL ID
~Curve Information Block
DEPT.FT            0 000 00 00: Depth
DCAL.in                       : CDL Caliper
RHOB.g/cc                     : CDL Bulk Density
RHOC.g/cc                     : CDL Density Correction
DPOR.pu                       : CDL Density Porosity
GR.GAPI                       : Gamma Ray
NPOR.pu                       : Neutron Porosity
~Parameter Information Block
~A  Depth       DCAL        RHOB        RHOC        DPOR         GR         NPOR    
# ...
  1570.0000      7.8437      2.5113     -0.0083      8.4057    131.3413     23.0186
  1570.1000      7.8437      2.5231      0.0232      7.6881    128.6530     23.9184
  1570.2000      7.8437      2.5334      0.0100      7.0648    130.3904     25.0625
  1570.3000      7.8430      2.5429      0.0125      6.4899    133.0128     25.1911
  1570.4000      7.8430      2.5535      0.0227      5.8484    130.2358     24.1965
  1570.5000      7.8422      2.5720     -0.0125      4.7299    126.2777     23.2825
  1570.6000      7.8422      2.5963      0.0599      3.2560    129.0295     23.1629
  1570.7000      7.8422      2.6076      0.0668      2.5720    136.6969     23.5676
  1570.8000      7.8418      2.6032      0.0238      2.8393    140.8877     23.9246
  1570.9000      7.8418      2.6017      0.0509      2.9262    136.1247     23.9028
  1571.0000      7.8418      2.6157      0.0433      2.0792    126.0543     23.5121
  1571.1000      7.8418      2.6474      0.0088      0.1570    117.6120     22.9346
  1571.2000      7.8418      2.6872      0.0706     -2.2524    110.7007     22.6497
  1571.3000      7.8424      2.7196      0.0346     -4.2195    101.5911     22.6727
  1571.4000      7.8424      2.7423      0.0383     -5.5921     90.7034     22.5334
  1571.5000      7.8425      2.7540      0.0742     -6.3055     81.1292     22.1027
  1571.6000      7.8425      2.7486      0.0291     -5.9729     74.9526     21.4623
  1571.7000      7.8425      2.7375     -0.0016     -5.3003     71.9920     21.0820
  1571.8000      7.8420      2.7418     -0.0031     -5.5634     71.1757     21.3250
  1571.9000      7.8420      2.7449      0.0383     -5.7485     72.2473     21.6634
  1572.0000      7.8415      2.7150     -0.0162     -3.9395     74.2969     21.8393
  1572.1000      7.8415      2.6700     -0.0652     -1.2121     76.0986     22.3549
  1572.2000      7.8415      2.6392     -0.0668      0.6523     78.6874     22.9743
  1572.3000      7.8412      2.6137     -0.0538      2.2021     83.5665     22.9960
  1572.4000      7.8412      2.5858     -0.1122      3.8924     89.4928     22.4975
  1572.5000      7.8411      2.5731     -0.0737      4.6612     96.0628     21.9388
  1572.6000      7.8411      2.5759     -0.0244      4.4894    104.3035     21.5809
  1572.7000      7.8411      2.5736     -0.0320      4.6299    115.1413     21.4554
  1572.8000      7.8409      2.5552     -0.0252      5.7451    127.4353     21.4544
  1572.9000      7.8409      2.5212     -0.0103      7.8087    136.8494     22.0236
  1573.0000      7.8408      2.4840     -0.0156     10.0607    140.6589     23.5247
  1573.1000      7.8408      2.4666     -0.0290     11.1138    142.0699     25.1889
  1573.2000      7.8408      2.4707      0.0782     10.8644    145.3871     26.2609
  1573.3000      7.8472      2.4773      0.0323     10.4638    150.0887     27.0376
  1573.4000      7.8472      2.4885      0.0667      9.7858    153.4450     27.5887
  1573.5000      7.8693      2.5092      0.1093      8.5341    153.5285     27.6968
  1573.6000      7.8693      2.5256      0.1390      7.5400    154.3358     27.7228
  1573.7000      7.8693      2.5303      0.1328      7.2537    162.8983     28.0825
  1573.8000      7.9094      2.5281      0.1678      7.3879    174.0314     28.5804
  1573.9000      7.9094      2.5331      0.1276      7.0826    174.1293     28.7219
  1574.0000      7.9620      2.5608      0.1311      5.4058    161.6613     28.5329
  1574.1000      7.9620      2.6004      0.1619      3.0038    148.2039     28.3755
  1574.2000      7.9620      2.6262      0.1698      1.4420    138.3586     28.3974
  1574.3000      8.0015      2.6282      0.1247      1.3187    130.9023     28.4560
  1574.4000      8.0015      2.6124      0.1436      2.2785    129.6404     28.1755
  1574.5000      8.0163      2.5857      0.1434      3.8965    134.9994     27.6403
  1574.6000      8.0163      2.5568      0.0909      5.6510    141.3726     27.2126
  1574.7000      8.0163      2.5376      0.1119      6.8139    146.9417     26.8468
  1574.8000      8.0193      2.5299      0.1055      7.2792    150.9144     26.6019
  1574.9000      8.0193      2.5244      0.1201      7.6113    151.1469     26.8956
  1575.0000      8.0218      2.5143      0.0879      8.2269    150.8291     27.3149
  1575.1000      8.0218      2.5030      0.0696      8.9070    155.7242     27.1530
  1575.2000      8.0218      2.5006      0.0950      9.0529    164.5620     26.8962
  1575.3000      8.0225      2.5127      0.1039      8.3211    170.3708     27.2607
  1575.4000      8.0225      2.5314      0.1325      7.1850    170.7217     28.1862
  1575.5000      8.0169      2.5368      0.1721      6.8588    168.6014     28.9648
  1575.6000      8.0169      2.5195      0.1580      7.9074    166.2055     29.0221
  1575.7000      8.0169      2.5002      0.1089      9.0816    165.6374     28.5666
  1575.8000      8.0104      2.5028      0.1367      8.9211    164.1796     28.0471
  1575.9000      8.0104      2.5259      0.1332      7.5234    158.1620     27.4194
  1576.0000      8.0009      2.5560      0.1463      5.6948    153.5072     26.7385
  1576.1000      8.0009      2.5866      0.1272      3.8418    154.4994     25.9881
  1576.2000      8.0009      2.6130      0.1870      2.2413    155.3688     25.3777
  1576.3000      7.9864      2.6230      0.1582      1.6361    151.0217     25.6832
  1576.4000      7.9864      2.6156      0.1326      2.0856    144.4947     26.5880
  1576.5000      7.9733      2.6074      0.1217      2.5795    139.6617     26.7047
  1576.6000      7.9733      2.6010      0.1542      2.9697    134.7981     25.4355
  1576.7000      7.9733      2.5931      0.0837      3.4486    127.3748     23.7797
  1576.8000      7.9648      2.5998      0.0578      3.0431    121.7300     23.0020
  1576.9000      7.9648      2.6239      0.0859      1.5807    121.8681     22.8613
  1577.0000      7.9633      2.6487      0.0887      0.0786    121.7904     22.7074
  1577.1000      7.9633      2.6723      0.0682     -1.3517    116.8891     22.4339
  1577.2000      7.9633      2.7025      0.1396     -3.1794    111.9857     21.9282
  1577.3000      7.9639      2.7330      0.1630     -5.0315    111.2474     21.4156
  1577.4000      7.9639      2.7484      0.1549     -5.9614    112.6228     21.4378
  1577.5000      7.9635      2.7431      0.1341     -5.6403    110.7608     21.6556
  1577.6000      7.9635      2.7277      0.1076     -4.7086    103.3330     21.1320
  1577.7000      7.9635      2.7074      0.1142     -3.4777     95.2963     20.3450
  1577.8000      7.9627      2.6791      0.0925     -1.7607     93.2778     20.0052
  1577.9000      7.9627      2.6508      0.0661     -0.0504     97.8223     19.7946
  1578.0000      7.9625      2.6340      0.0542      0.9684    102.9111     19.8023
  1578.1000      7.9625      2.6373     -0.0175      0.7682    102.3171     20.2480
  1578.2000      7.9625      2.6584      0.0993     -0.5073     96.6491     20.4451
  1578.3000      7.9630      2.6761      0.0876     -1.5797     92.8897     19.9637
  1578.4000      7.9630      2.6831      0.0766     -2.0071     93.6700     19.1514
  1578.5000      7.9643      2.6868      0.0683     -2.2326     93.3548     18.5281
  1578.6000      7.9643      2.6824      0.1270     -1.9654     88.2127     18.6197
  1578.7000      7.9643      2.6672      0.0931     -1.0448     81.8332     19.2781
  1578.8000      7.9709      2.6516      0.0810     -0.0960     77.1929     19.7661
  1578.9000      7.9709      2.6301      0.0928      1.2052     73.6753     19.7501
  1579.0000      7.9836      2.5956      0.0004      3.2979     71.4723     19.3597
  1579.1000      7.9836      2.5752     -0.0103      4.5363     73.0213     18.6980
  1579.2000      7.9836      2.5877      0.0187      3.7772     78.4818     17.9416
  1579.3000      7.9919      2.6077      0.0031      2.5628     83.7280     17.2737
  1579.4000      7.9919      2.6108      0.0562      2.3782     86.7893     16.8276
  1579.5000      7.9939      2.6088     -0.0225      2.4989     89.1886     16.5469
