~Version Information
 VERS.                                  2.0 : CWLS LAS VERSION
 WRAP.                                   NO : WRAPING MODE
 SWARE .                 MController 2.5.0J : SOFTWARE VERSION
~Well Information
 WELL.                       Montoya 07-21R : WELL
 COMP.                Petrogulf Corporation : COMPANY
 FLD.                      Purgatoire River : FIELD
 LOC.                 NE/NW Sec 7 T33S R67W : LOCATION
 DATE.                           9/13-15/05 : DATE(S) LOGGED
 SRVC.       BLANCO Geological Services LLC : SERVICE COMPANY
 STAT.                                   CO : STATE
 CNTY.                           Las Animas : COUNTY
 CTRY.                                  USA : COUNTRY
 API.                       05-071-08435-00 : API NUMBER
 STRT.FT                             374.00 : START DEPTH
 STOP.FT                            1830.00 : STOP DEPTH
 STEP.FT                               1.00 : DEPTH INCREMENT
 NULL.                                -9999 : NULL VALUE
~Curve information
 DEPTH.FT                                   :
 ROP.MIN/FT                                 :
 GAS.UNITS                                  :
~ASCII Log data
# ...
       974.0         0.17          8.4 
       975.0         0.20          8.2 
       976.0         0.17          8.4 
       977.0         0.23          8.9 
       978.0         0.23         10.6 
       979.0         0.30         10.7 
       980.0         0.23          9.1 
       981.0         0.30          7.4 
       982.0         0.17          6.1 
       983.0         0.23          4.6 
       984.0         0.20          3.6 
       985.0         0.27          2.9 
       986.0         3.35       2034.9 
       987.0         0.48        602.5 
       988.0         0.33        112.2 
       989.0         0.40         50.3 
       990.0         0.33         21.8 
       991.0         0.23         10.7 
       992.0         0.23          6.6 
       993.0         0.20          4.1 
       994.0         0.20          3.1 
       995.0         0.23          2.7 
       996.0         0.23          3.2 
       997.0         0.23          3.0 
       998.0         0.23          3.1 
       999.0         0.27          4.2 
      1000.0         0.25          4.9 
      1001.0         0.27          4.9 
      1002.0         0.30          3.6 
      1003.0         0.23          3.2 
      1004.0         0.23          2.7 
      1005.0         0.23          2.7 
      1006.0         0.23          2.9 
      1007.0         0.20          2.8 
      1008.0         0.23          3.3 
      1009.0         0.30          3.2 
      1010.0         0.33          3.7 
      1011.0         0.20          3.6 
      1012.0         0.23          3.3 
      1013.0         0.22          3.0 
      1014.0         0.20          3.0 
      1015.0         0.23          2.6 
      1016.0         3.18       1652.4 
      1017.0         0.27        440.0 
      1018.0         0.17        121.7 
      1019.0         0.27         84.8 
      1020.0         0.53         49.0 
      1021.0         0.50         19.1 
      1022.0         0.42          6.7 
      1023.0         0.40          4.2 
      1024.0         0.37          3.9 
      1025.0         0.30          3.5 
      1026.0         0.23          3.6 
      1027.0         0.20          4.1 
      1028.0         0.20          4.2 
      1029.0         0.23          4.4 
      1030.0         0.27          4.5 
      1031.0         0.27          4.6 
      1032.0         0.23          3.4 
      1033.0         0.20          3.2 
      1034.0         0.22          2.7 
      1035.0         0.13          3.2 
      1036.0         0.23          4.3 
      1037.0         0.23          5.8 
      1038.0         0.23          6.8 
      1039.0         0.23          8.4 
      1040.0         0.23          8.9 
      1041.0         0.23          8.0 
      1042.0         0.27          8.5 
      1043.0         0.23          9.1 
      1044.0         0.23          7.9 
      1045.0         0.23          7.4 
      1046.0         3.10        210.3 
      1047.0         0.17         30.9 
      1048.0         0.37         28.8 
      1049.0         0.37         21.2 
      1050.0         0.33         11.4 
      1051.0         0.23          5.9 
      1052.0         0.27          4.2 
      1053.0         0.23          3.3 
      1054.0         0.27          2.8 
      1055.0         0.23          2.7 
      1056.0         0.17          3.4 
      1057.0         0.27          5.3 
      1058.0         0.28          6.3 
      1059.0         0.30          7.5 
      1060.0         0.30          8.8 
      1061.0         0.30          9.6 
      1062.0         0.23          9.9 
      1063.0         0.23          9.3 
      1064.0         0.23          7.9 
      1065.0         0.20          6.8 
      1066.0         0.20          6.0 
      1067.0         0.17          6.2 
      1068.0         0.23          5.5 
      1069.0         0.27          5.2 
      1070.0         0.17          4.4 
      1071.0         0.25          5.2 
      1072.0         0.27          8.4 
      1073.0         0.20          9.0 
      1074.0         0.23          9.2 
      1075.0         0.17          7.8 
      1076.0         3.25        187.6 
      1077.0         0.33         25.3 
      1078.0         0.33         21.9 
      1079.0         0.40         17.3 
      1080.0         0.37          9.8 
      1081.0         0.33          3.9 
      1082.0         0.23          2.8 
      1083.0         0.20          2.9 
      1084.0         0.22          3.0 
      1085.0         0.27          3.4 
      1086.0         0.20          2.8 
      1087.0         0.20          3.0 
      1088.0         0.27          3.9 
      1089.0         0.20          4.3 
      1090.0         0.13          5.0 
      1091.0         0.13          5.6 
      1092.0         0.17          7.8 
      1093.0         0.23         10.9 
      1094.0         0.17         12.3 
      1095.0         0.27         13.1 
      1096.0         0.27         13.2 
      1097.0         0.20         12.8 
      1098.0         0.20         11.7 
      1099.0         0.13         10.1 
      1100.0         0.22          9.7 
      1101.0         0.23         11.4 
      1102.0         0.20         12.6 
      1103.0         0.23         12.2 
      1104.0         0.23         11.0 
      1105.0         0.17          9.1 
      1106.0         0.20          6.4 
      1107.0         0.27          4.8 
      1108.0         3.08        127.7 
      1109.0         0.40         27.7 
      1110.0         0.27         20.4 
      1111.0         0.33         12.1 
      1112.0         0.27          6.1 
      1113.0         0.23          4.4 
      1114.0         0.30          6.3 
      1115.0         0.32          8.0 
      1116.0         0.23          8.8 
      1117.0         0.27          8.5 
      1118.0         0.27          8.4 
      1119.0         0.20          8.6 
      1120.0         0.27          8.3 
      1121.0         0.27          8.0 
      1122.0         0.27          8.7 
      1123.0         0.20          8.5 
      1124.0         0.27          9.5 
      1125.0         0.23          9.4 
      1126.0         0.27          9.8 
      1127.0         0.27         10.3 
      1128.0         0.28         10.6 
      1129.0         0.17          9.1 
      1130.0         0.23          9.3 
      1131.0         0.23          9.7 
      1132.0         0.23          8.8 
      1133.0         0.20          9.0 
      1134.0         0.33          7.1 
      1135.0         0.30          5.7 
      1136.0         0.43         24.9 
      1137.0         0.37         53.4 
      1138.0         1.62        133.6 
      1139.0         0.27         25.0 
      1140.0         0.27         22.0 
      1141.0         0.37         19.3 
      1142.0         0.27         13.8 
      1143.0         0.40         10.4 
      1144.0         0.33          9.4 
      1145.0         0.27          8.1 
      1146.0         0.28          7.3 
      1147.0         0.27          7.7 
      1148.0         0.23          7.9 
      1149.0         0.23          8.6 
      1150.0         0.27          8.7 
      1151.0         0.23          8.7 
      1152.0         0.27          8.5 
      1153.0         0.23          9.0 
      1154.0         0.27         10.5 
      1155.0         0.27         10.2 
      1156.0         0.23          9.9 
      1157.0         0.23         10.6 
      1158.0         0.23         10.6 
      1159.0         0.22         11.0 
      1160.0         0.27         10.8 
      1161.0         0.30          9.7 
      1162.0         0.30          9.6 
      1163.0         0.37         11.6 
      1164.0         0.23         11.8 
      1165.0         0.23         10.4 
      1166.0         0.27         10.0 
      1167.0         0.27          9.7 
      1168.0         3.18        171.1 
      1169.0         0.17         41.3 
      1170.0         0.20         30.8 
      1171.0         0.23         22.6 
      1172.0         0.17         22.6 
      1173.0         0.23         25.2 
