~Version Information
VERS.                      2.0: CWLS Log ASCII Standard - VERSION 2.0
WRAP.                       NO: One line per depth step
~Well Information Block
STRT.FT               294.0000: 
STOP.FT              1961.5000: 
STEP.FT                 0.2500: 
NULL.                -999.2500: 
COMP.          Pioneer Natural Resources: COMPANY
WELL.          Commander 43-26 Tr: WELL
FLD.           Purgatoire River: FIELD
LOC.           2439' FSL & 446' FEL: LOCATION
PROV.                 Colorado: PROVINCE
CNTY.               Las Animas: COUNTRY
SRVC.                Patterson: SERVICE COMPANY
DATE.          Thu Apr 14 18:26:07 2005: LOG DATE
UWI.           05 071 08341 00: UNIQUE WELL ID
~Curve Information Block
DEPT.FT            0 000 00 00: Depth
SN.Ohm-m                      : IEL Short Normal
SP.mV                         : IEL Spontaneous Potential
DIR.Ohm-m                     : IEL Induction Resistivity
GR.GAPI                       : Gamma Ray
~Parameter Information Block
~A  Depth        SN          SP         DIR          GR     
# ...
   729.5000   2000.0000   2000.0000     18.7764     58.0228
   729.7500   2000.0000   2000.0000     19.1606     52.5835
   730.0000   2000.0000   2000.0000     19.7171     51.1136
   730.2500   2000.0000   2000.0000     20.5097     54.1849
   730.5000   2000.0000   2000.0000     21.5785     63.3757
   730.7500   2000.0000   2000.0000     22.9284     71.4203
   731.0000   2000.0000   2000.0000     24.5113     84.5956
   731.2500   2000.0000   2000.0000     26.2142     93.3159
   731.5000   2000.0000   2000.0000     27.8662    104.7763
   731.7500   2000.0000   2000.0000     29.2612    110.1513
   732.0000   2000.0000   2000.0000     30.2043    113.1202
   732.2500   2000.0000   2000.0000     30.5790    111.6723
   732.5000   2000.0000   2000.0000     30.4011    106.0234
   732.7500   2000.0000   2000.0000     29.8151    101.0587
   733.0000   2000.0000   2000.0000     29.0219     92.8073
   733.2500   2000.0000   2000.0000     28.1928     87.1368
   733.5000   2000.0000   2000.0000     27.4174     79.6716
   733.7500   2000.0000   2000.0000     26.6997     76.4414
   734.0000   2000.0000   2000.0000     25.9868     75.6368
   734.2500   2000.0000   2000.0000     25.2182     78.1956
   734.5000   2000.0000   2000.0000     24.3705     86.7659
   734.7500   2000.0000   2000.0000     23.4714     95.3872
   735.0000   2000.0000   2000.0000     22.5804    111.7430
   735.2500   2000.0000   2000.0000     21.7536    124.0578
   735.5000   2000.0000   2000.0000     21.0181    142.6202
   735.7500   2000.0000   2000.0000     20.3668    153.7497
   736.0000   2000.0000   2000.0000     19.7690    166.8490
   736.2500   2000.0000   2000.0000     19.1913    172.7762
   736.5000   2000.0000   2000.0000     18.6212    177.7653
   736.7500   2000.0000   2000.0000     18.0785    179.0203
   737.0000   2000.0000   2000.0000     17.6084    178.7129
   737.2500   2000.0000   2000.0000     17.2615    177.2550
   737.5000   2000.0000   2000.0000     17.0717    172.7464
   737.7500   2000.0000   2000.0000     17.0443    167.8085
   738.0000   2000.0000   2000.0000     17.1558    157.9801
   738.2500   2000.0000   2000.0000     17.3630    151.1402
   738.5000   2000.0000   2000.0000     17.6168    143.3535
   738.7500   2000.0000   2000.0000     17.8786    140.6291
   739.0000   2000.0000   2000.0000     18.1330    139.1075
   739.2500   2000.0000   2000.0000     18.3894    138.3592
   739.5000   2000.0000   2000.0000     18.6672    135.9093
   739.7500   2000.0000   2000.0000     18.9708    133.3418
   740.0000   2000.0000   2000.0000     19.2713    129.0036
   740.2500   2000.0000   2000.0000     19.5145    126.2798
   740.5000   2000.0000   2000.0000     19.6483    122.7786
   740.7500   2000.0000   2000.0000     19.6504    120.9121
   741.0000   2000.0000   2000.0000     19.5364    119.1591
   741.2500   2000.0000   2000.0000     19.3476    119.0554
   741.5000   2000.0000   2000.0000     19.1375    121.1860
   741.7500   2000.0000   2000.0000     18.9653    124.3476
   742.0000   2000.0000   2000.0000     18.8922    131.1598
   742.2500   2000.0000   2000.0000     18.9693    136.0111
   742.5000   2000.0000   2000.0000     19.2190    141.1841
   742.7500   2000.0000   2000.0000     19.6222    142.1582
   743.0000   2000.0000   2000.0000     20.1248    139.8770
   743.2500   2000.0000   2000.0000     20.6659    136.4963
   743.5000   2000.0000   2000.0000     21.2111    129.3373
   743.7500   2000.0000   2000.0000     21.7645    123.1806
   744.0000   2000.0000   2000.0000     22.3564    112.1729
   744.2500   2000.0000   2000.0000     23.0271    104.3662
   744.5000   2000.0000   2000.0000     23.8254     93.5191
   744.7500   2000.0000   2000.0000     24.8161     87.4278
   745.0000   2000.0000   2000.0000     26.0742     80.1193
   745.2500   2000.0000   2000.0000     27.6645     76.3237
   745.5000   2000.0000   2000.0000     29.6176     72.0599
   745.7500   2000.0000   2000.0000     31.9206     70.0233
   746.0000   2000.0000   2000.0000     34.5164     67.6231
   746.2500   2000.0000   2000.0000     37.2987     66.0997
   746.5000   2000.0000   2000.0000     40.0950     63.8789
   746.7500   2000.0000   2000.0000     42.6662     62.7949
   747.0000   2000.0000   2000.0000     44.7571     62.2833
   747.2500   2000.0000   2000.0000     46.1924     62.5641
   747.5000   2000.0000   2000.0000     46.9558     63.2903
   747.7500   2000.0000   2000.0000     47.1961     63.8328
   748.0000   2000.0000   2000.0000     47.1607     65.1262
   748.2500   2000.0000   2000.0000     47.0875     66.5564
   748.5000   2000.0000   2000.0000     47.1143     69.2748
   748.7500   2000.0000   2000.0000     47.2481     70.9492
   749.0000   2000.0000   2000.0000     47.4116     72.5597
   749.2500   2000.0000   2000.0000     47.5324     73.0174
   749.5000   2000.0000   2000.0000     47.6127     73.1767
   749.7500   2000.0000   2000.0000     47.7208     73.1715
   750.0000   2000.0000   2000.0000     47.9304     73.2555
   750.2500   2000.0000   2000.0000     48.2855     73.3464
   750.5000   2000.0000   2000.0000     48.8164     72.9857
   750.7500   2000.0000   2000.0000     49.5627     71.9343
   751.0000   2000.0000   2000.0000     50.5303     68.8671
   751.2500   2000.0000   2000.0000     51.5939     66.3052
   751.5000   2000.0000   2000.0000     52.4525     63.0810
   751.7500   2000.0000   2000.0000     52.7587     61.8413
   752.0000   2000.0000   2000.0000     52.3685     61.0908
   752.2500   2000.0000   2000.0000     51.4673     60.8412
   752.5000   2000.0000   2000.0000     50.4337     60.3116
   752.7500   2000.0000   2000.0000     49.6109     59.9103
   753.0000   2000.0000   2000.0000     49.1760     59.7145
   753.2500   2000.0000   2000.0000     49.1284     60.1334
   753.5000   2000.0000   2000.0000     49.3422     61.8435
   753.7500   2000.0000   2000.0000     49.6368     63.6930
   754.0000   2000.0000   2000.0000     49.8476     67.1545
   754.2500   2000.0000   2000.0000     49.8625     69.5340
   754.5000   2000.0000   2000.0000     49.6152     72.7794
   754.7500   2000.0000   2000.0000     49.0684     74.8773
   755.0000   2000.0000   2000.0000     48.2384     78.5219
   755.2500   2000.0000   2000.0000     47.2299     81.3247
   755.5000   2000.0000   2000.0000     46.2179     85.3602
   755.7500   2000.0000   2000.0000     45.3709     87.4849
   756.0000   2000.0000   2000.0000     44.7652     89.9396
   756.2500   2000.0000   2000.0000     44.3377     91.6520
   756.5000   2000.0000   2000.0000     43.8930     95.2049
   756.7500   2000.0000   2000.0000     43.1802     98.2884
   757.0000   2000.0000   2000.0000     42.0176    103.5289
   757.2500   2000.0000   2000.0000     40.3863    107.1979
   757.5000   2000.0000   2000.0000     38.4097    112.7824
   757.7500   2000.0000   2000.0000     36.2523    116.3497
   758.0000   2000.0000   2000.0000     34.0447    120.7122
   758.2500   2000.0000   2000.0000     31.8813    122.6461
   758.5000   2000.0000   2000.0000     29.8476    124.6169
   758.7500   2000.0000   2000.0000     28.0199    126.0698
   759.0000   2000.0000   2000.0000     26.4400    129.1543
   759.2500   2000.0000   2000.0000     25.0994    131.4849
   759.5000   2000.0000   2000.0000     23.9505    134.2324
   759.7500   2000.0000   2000.0000     22.9375    135.0651
   760.0000   2000.0000   2000.0000     22.0219    134.6551
   760.2500   2000.0000   2000.0000     21.1871    133.5895
   760.5000   2000.0000   2000.0000     20.4255    131.7613
   760.7500   2000.0000   2000.0000     19.7251    130.8735
   761.0000   2000.0000   2000.0000     19.0684    130.3143
   761.2500   2000.0000   2000.0000     18.4430    130.3411
   761.5000   2000.0000   2000.0000     17.8519    130.6146
   761.7500   2000.0000   2000.0000     17.3145    130.7602
   762.0000   2000.0000   2000.0000     16.8585    130.8974
   762.2500   2000.0000   2000.0000     16.5098    131.2518
   762.5000   2000.0000   2000.0000     16.2858    133.0411
   762.7500   2000.0000   2000.0000     16.1931    135.3660
