~Version Information
VERS.                      2.0: CWLS Log ASCII Standard - VERSION 2.0
WRAP.                       NO: One line per depth step
~Well Information Block
STRT.FT               964.0000: 
STOP.FT              2440.0000: 
STEP.FT                 0.2500: 
NULL.                -999.2500: 
COMP.          Petrogulf Corporation: COMPANY
WELL.              Hand 8-44 V: WELL
FLD.           Purgatorie River: FIELD
LOC.           1076' FEL & 820' FSL: LOCATION
CNTY.               Las Animas: COUNTY
SRVC.                         : SERVICE COMPANY
DATE.          Fri Nov 21 11:54:17 2003: LOG DATE
UWI.                          : UNIQUE WELL ID
STAT.                 Colorado: STATE
~Curve Information Block
DEPT.FT            0 000 00 00: Depth
SP.mV                         : IEL Spontaneous Potential
DIR.Ohm-m                     : IEL Induction Resistivity
GR.GAPI                       : Gamma Ray
~Parameter Information Block
~A  Depth        SP         DIR          GR     
# ...
  1339.7500     -3.9035     11.8456    124.3091
  1340.0000     -3.8956     12.3192    111.5170
  1340.2500     -3.8875     12.6798    102.0993
  1340.5000     -3.8816     12.8912     86.9649
  1340.7500     -3.8798     12.9325     76.9840
  1341.0000     -3.8839     12.8027     64.1064
  1341.2500     -3.8947     12.5200     57.7465
  1341.5000     -3.9123     12.1178     52.0310
  1341.7500     -3.9359     11.6361     50.8590
  1342.0000     -3.9642     11.1130     53.4606
  1342.2500     -3.9973     10.5782     58.3863
  1342.5000     -4.0371     10.0497     70.7275
  1342.7500     -4.0870      9.5354     82.0361
  1343.0000     -4.1497      9.0373    102.4849
  1343.2500     -4.2240      8.5562    117.3272
  1343.5000     -4.3037      8.0953    139.3076
  1343.7500     -4.3797      7.6602    152.8174
  1344.0000     -4.4435      7.2588    170.3097
  1344.2500     -4.4916      6.8999    179.7523
  1344.5000     -4.5266      6.5923    190.7183
  1344.7500     -4.5553      6.3434    196.6726
  1345.0000     -4.5851      6.1574    205.2889
  1345.2500     -4.6198      6.0335    210.8834
  1345.5000     -4.6582      5.9645    216.2586
  1345.7500     -4.6937      5.9383    215.3733
  1346.0000     -4.7166      5.9406    205.0586
  1346.2500     -4.7196      5.9585    193.1892
  1346.5000     -4.7019      5.9836    172.9548
  1346.7500     -4.6711      6.0119    161.1106
  1347.0000     -4.6383      6.0429    148.6941
  1347.2500     -4.6117      6.0781    143.5007
  1347.5000     -4.5921      6.1203    137.5397
  1347.7500     -4.5722      6.1728    133.4236
  1348.0000     -4.5411      6.2384    126.4542
  1348.2500     -4.4897      6.3190    121.7595
  1348.5000     -4.4153      6.4160    115.7548
  1348.7500     -4.3227      6.5301    112.7272
  1349.0000     -4.2218      6.6619    109.3330
  1349.2500     -4.1242      6.8114    107.5795
  1349.5000     -4.0399      6.9781    105.8590
  1349.7500     -3.9748      7.1606    105.6237
  1350.0000     -3.9302      7.3560    106.6969
  1350.2500     -3.9036      7.5581    107.9165
  1350.5000     -3.8901      7.7554    109.3118
  1350.7500     -3.8845      7.9326    109.3751
  1351.0000     -3.8826      8.0724    107.9287
  1351.2500     -3.8816      8.1604    106.3798
  1351.5000     -3.8804      8.1885    104.5298
  1351.7500     -3.8799      8.1572    104.1976
  1352.0000     -3.8816      8.0745    105.0115
  1352.2500     -3.8876      7.9529    106.0166
  1352.5000     -3.8992      7.8058    107.7357
  1352.7500     -3.9169      7.6455    109.0675
  1353.0000     -3.9413      7.4837    111.5812
  1353.2500     -3.9724      7.3322    113.5465
  1353.5000     -4.0099      7.2027    116.3365
  1353.7500     -4.0511      7.1044    117.5860
  1354.0000     -4.0903      7.0412    117.8482
  1354.2500     -4.1192      7.0110    116.8276
  1354.5000     -4.1301      7.0064    113.7987
  1354.7500     -4.1188      7.0178    111.1941
  1355.0000     -4.0871      7.0362    107.4696
  1355.2500     -4.0432      7.0551    105.8235
  1355.5000     -3.9977      7.0720    105.6213
  1355.7500     -3.9600      7.0886    107.2333
  1356.0000     -3.9349      7.1099    111.7471
  1356.2500     -3.9226      7.1431    115.2940
  1356.5000     -3.9205      7.1966    119.7429
  1356.7500     -3.9252      7.2804    121.6998
  1357.0000     -3.9340      7.4053    123.9579
  1357.2500     -3.9451      7.5816    126.0940
  1357.5000     -3.9562      7.8170    131.8212
  1357.7500     -3.9646      8.1151    137.4973
  1358.0000     -3.9676      8.4754    147.5061
  1358.2500     -3.9642      8.8945    153.8057
  1358.5000     -3.9554      9.3669    160.4758
  1358.7500     -3.9434      9.8860    162.4369
  1359.0000     -3.9312     10.4435    162.0080
  1359.2500     -3.9209     11.0313    160.2307
  1359.5000     -3.9139     11.6447    156.5262
  1359.7500     -3.9103     12.2893    153.4660
  1360.0000     -3.9089     12.9854    146.7789
  1360.2500     -3.9086     13.7693    139.8640
  1360.5000     -3.9084     14.6882    125.0366
  1360.7500     -3.9086     15.7942    112.9613
  1361.0000     -3.9094     17.1379     94.6810
  1361.2500     -3.9102     18.7613     84.3649
  1361.5000     -3.9095     20.6868     73.6666
  1361.7500     -3.9060     22.9000     69.7196
  1362.0000     -3.8995     25.3297     67.2157
  1362.2500     -3.8918     27.8329     66.6212
  1362.5000     -3.8855     30.2012     65.1017
  1362.7500     -3.8831     32.2027     62.7601
  1363.0000     -3.8859     33.6516     57.4085
  1363.2500     -3.8943     34.4650     53.6814
  1363.5000     -3.9078     34.6689     50.2515
  1363.7500     -3.9251     34.3589     50.4505
  1364.0000     -3.9443     33.6490     54.8481
  1364.2500     -3.9635     32.6317     59.8498
  1364.5000     -3.9812     31.3618     68.5063
  1364.7500     -3.9967     29.8666     73.9051
  1365.0000     -4.0086     28.1770     79.8529
  1365.2500     -4.0160     26.3534     81.7801
  1365.5000     -4.0182     24.4865     81.5695
  1365.7500     -4.0153     22.6713     80.0798
  1366.0000     -4.0082     20.9775     77.8797
  1366.2500     -3.9983     19.4369     77.4954
  1366.5000     -3.9875     18.0494     79.0003
  1366.7500     -3.9781     16.7997     80.8182
  1367.0000     -3.9725     15.6703     83.6495
  1367.2500     -3.9725     14.6459     85.7521
  1367.5000     -3.9793     13.7118     90.9893
  1367.7500     -3.9933     12.8543     96.8722
  1368.0000     -4.0149     12.0649    109.2118
  1368.2500     -4.0451     11.3451    118.7245
  1368.5000     -4.0845     10.7064    132.9235
  1368.7500     -4.1336     10.1634    141.6575
  1369.0000     -4.1924      9.7255    152.8424
  1369.2500     -4.2604      9.3910    158.3225
  1369.5000     -4.3363      9.1485    162.5209
  1369.7500     -4.4184      8.9809    162.8034
  1370.0000     -4.5027      8.8701    161.1818
  1370.2500     -4.5818      8.7994    159.8046
  1370.5000     -4.6443      8.7541    157.9896
  1370.7500     -4.6770      8.7211    156.7965
  1371.0000     -4.6697      8.6896    154.5663
  1371.2500     -4.6192      8.6529    152.4805
  1371.5000     -4.5322      8.6090    147.8802
  1371.7500     -4.4233      8.5608    143.7797
  1372.0000     -4.3111      8.5141    136.9277
  1372.2500     -4.2119      8.4749    132.6138
  1372.5000     -4.1356      8.4468    127.3644
  1372.7500     -4.0843      8.4294    125.0136
  1373.0000     -4.0543      8.4161    123.9008
  1373.2500     -4.0401      8.3948    125.0055
  1373.5000     -4.0359      8.3508    129.0815
  1373.7500     -4.0375      8.2730    133.0302
  1374.0000     -4.0413      8.1597    140.4632
  1374.2500     -4.0449      8.0201    146.2559
  1374.5000     -4.0471      7.8710    155.3664
  1374.7500     -4.0476      7.7297    160.8604
  1375.0000     -4.0469      7.6090    166.6651
  1375.2500     -4.0454      7.5158    168.4556
  1375.5000     -4.0427      7.4530    168.5323
  1375.7500     -4.0377      7.4204    167.4973
  1376.0000     -4.0289      7.4163    164.9686
  1376.2500     -4.0155      7.4361    162.7310
  1376.5000     -3.9980      7.4726    158.7625
  1376.7500     -3.9782      7.5168    155.8859
  1377.0000     -3.9592      7.5599    151.6681
  1377.2500     -3.9442      7.5951    149.5000
  1377.5000     -3.9359      7.6193    148.5028
  1377.7500     -3.9348      7.6326    149.4948
  1378.0000     -3.9400      7.6381    151.8651
  1378.2500     -3.9496      7.6396    152.6836
  1378.5000     -3.9607      7.6407    151.8499
  1378.7500     -3.9710      7.6427    150.5170
  1379.0000     -3.9791      7.6437    149.0221
  1379.2500     -3.9849      7.6382    148.9347
  1379.5000     -3.9893      7.6191    149.8989
  1379.7500     -3.9939      7.5802    150.4694
  1380.0000     -3.9994      7.5190    149.5560
  1380.2500     -4.0061      7.4368    147.4063
  1380.5000     -4.0139      7.3379    143.0534
  1380.7500     -4.0220      7.2287    140.5882
  1381.0000     -4.0297      7.1166    138.6542
  1381.2500     -4.0357      7.0097    138.2785
