~Version Information
VERS.                      2.0: CWLS Log ASCII Standard - VERSION 2.0
WRAP.                       NO: One line per depth step
~Well Information Block
STRT.FT               234.0000: 
STOP.FT              1773.2000: 
STEP.FT                 0.1000: 
NULL.                -999.2500: 
COMP.          Pioneer Natural Resources: COMPANY
WELL.             Tami J 23-18: WELL
FLD.           Purgatorie River: FIELD
LOC.           2250' FSL & 2400' FWL: LOCATION
PROV.                 Colorado: PROVINCE
CNTY.               Las Animas: COUNTRY
SRVC.                         : SERVICE COMPANY
DATE.          Mon Dec 13 07:02:50 2004: LOG DATE
UWI.           05 071 08073 00: UNIQUE WELL ID
~Curve Information Block
DEPT.FT            0 000 00 00: Depth
LTEN.lb                       : Surface Line Tension
DCAL.in                       : CDL Caliper
RHOB.g/cc                     : CDL Bulk Density
RHOC.g/cc                     : CDL Density Correction
DPOR.pu                       : CDL Density Porosity
GR.GAPI                       : Gamma Ray
NPOR.pu                       : Neutron Porosity
~Parameter Information Block
~A  Depth       LTEN        DCAL        RHOB        RHOC        DPOR         GR         NPOR    
# ...
  1762.8000   1135.4186      7.8844      2.6325      0.1294      1.0594   -999.2500   -999.2500
  1762.9000   1135.4186      7.8844      2.6244      0.1391      1.5503   -999.2500   -999.2500
  1763.0000   1199.9410      7.8949      2.6059      0.0540      2.6734   -999.2500   -999.2500
  1763.1000   1199.9410      7.8949      2.5874      0.0731      3.7943   -999.2500   -999.2500
  1763.2000   1199.9410      7.8949      2.5777      0.0363      4.3841   -999.2500   -999.2500
  1763.3000   1179.1736      7.9017      2.5781      0.0655      4.3554   -999.2500   -999.2500
  1763.4000   1179.1736      7.9017      2.5835      0.0644      4.0321   -999.2500   -999.2500
  1763.5000   1199.1582      7.9027      2.5877      0.0676      3.7746   -999.2500   -999.2500
  1763.6000   1199.1582      7.9027      2.5869      0.0937      3.8269   -999.2500   -999.2500
  1763.7000   1199.1582      7.9027      2.5795      0.1060      4.2734   -999.2500   -999.2500
  1763.8000   1199.8685      7.9026      2.5701      0.0765      4.8431   -999.2500   -999.2500
  1763.9000   1199.8685      7.9026      2.5633      0.0864      5.2535   -999.2500   -999.2500
  1764.0000   1174.3220      7.9027      2.5562      0.0913      5.6830   -999.2500   -999.2500
  1764.1000   1174.3220      7.9027      2.5481      0.0364      6.1772   -999.2500   -999.2500
  1764.2000   1174.3220      7.9027      2.5474      0.0298      6.2205   -999.2500   -999.2500
  1764.3000   1157.4453      7.8986      2.5614      0.0214      5.3677   -999.2500   -999.2500
  1764.4000   1157.4453      7.8986      2.5892      0.0642      3.6848   -999.2500   -999.2500
  1764.5000   1173.5234      7.8774      2.6199      0.1037      1.8244   -999.2500   -999.2500
  1764.6000   1173.5234      7.8774      2.6420      0.0990      0.4852   -999.2500   -999.2500
  1764.7000   1173.5234      7.8774      2.6470      0.1486      0.1838   -999.2500   -999.2500
  1764.8000   1183.1581      7.8426      2.6338      0.1278      0.9826   -999.2500   -999.2500
  1764.9000   1183.1581      7.8426      2.6171      0.0917      1.9962   -999.2500   -999.2500
  1765.0000   1178.8539      7.8248      2.6087      0.1095      2.5015   -999.2500   -999.2500
  1765.1000   1178.8539      7.8248      2.6017      0.1226      2.9285   -999.2500   -999.2500
  1765.2000   1178.8539      7.8248      2.5879      0.0881      3.7632   -999.2500   -999.2500
  1765.3000   1172.2676      7.8335      2.5755      0.0746      4.5146   -999.2500   -999.2500
  1765.4000   1172.2676      7.8335      2.5766      0.0573      4.4505   -999.2500   -999.2500
  1765.5000   1144.6078      7.8543      2.5877      0.0999      3.7743   -999.2500   -999.2500
  1765.6000   1144.6078      7.8543      2.5963      0.0942      3.2536   -999.2500   -999.2500
  1765.7000   1144.6078      7.8543      2.6019      0.0731      2.9126   -999.2500   -999.2500
  1765.8000   1165.5587      7.8672      2.6077      0.1317      2.5639   -999.2500   -999.2500
  1765.9000   1165.5587      7.8672      2.6086      0.1207      2.5118   -999.2500   -999.2500
  1766.0000   1162.8470      7.8703      2.6056      0.1131      2.6882   -999.2500   -999.2500
  1766.1000   1162.8470      7.8703      2.6018      0.1148      2.9212   -999.2500   -999.2500
  1766.2000   1162.8470      7.8703      2.5935      0.1023      3.4248   -999.2500   -999.2500
  1766.3000   1157.7900      7.8725      2.5841      0.0503      3.9926   -999.2500   -999.2500
  1766.4000   1157.7900      7.8725      2.5815      0.0905      4.1488   -999.2500   -999.2500
  1766.5000   1205.3816      7.8744      2.5817      0.0931      4.1371   -999.2500   -999.2500
  1766.6000   1205.3816      7.8744      2.5813      0.0653      4.1629   -999.2500   -999.2500
  1766.7000   1205.3816      7.8744      2.5878      0.0576      3.7694   -999.2500   -999.2500
  1766.8000   1169.3729      7.8729      2.6063      0.0861      2.6489   -999.2500   -999.2500
  1766.9000   1169.3729      7.8729      2.6265      0.1235      1.4257   -999.2500   -999.2500
  1767.0000   1212.3097      7.8717      2.6343      0.0873      0.9537   -999.2500   -999.2500
  1767.1000   1212.3097      7.8717      2.6261      0.1073      1.4500   -999.2500   -999.2500
  1767.2000   1212.3097      7.8717      2.6045      0.0937      2.7595   -999.2500   -999.2500
  1767.3000   1187.5724      7.8732      2.5803      0.0527      4.2256   -999.2500   -999.2500
  1767.4000   1187.5724      7.8732      2.5677      0.0324      4.9901   -999.2500   -999.2500
  1767.5000   1190.9072      7.8763      2.5718      0.0260      4.7416   -999.2500   -999.2500
  1767.6000   1190.9072      7.8763      2.5885      0.0740      3.7245   -999.2500   -999.2500
  1767.7000   1190.9072      7.8763      2.6066      0.1005      2.6279   -999.2500   -999.2500
  1767.8000   1165.5645      7.8766      2.6072      0.0960      2.5914   -999.2500   -999.2500
  1767.9000   1165.5645      7.8766      2.5879      0.0527      3.7665   -999.2500   -999.2500
  1768.0000   1211.0313      7.8742      2.5731      0.0442      4.6628   -999.2500   -999.2500
  1768.1000   1211.0313      7.8742      2.5740      0.0730      4.6081   -999.2500   -999.2500
  1768.2000   1211.0313      7.8742      2.5743      0.0788      4.5872   -999.2500   -999.2500
  1768.3000   1163.8046      7.8727      2.5644      0.0434      5.1904   -999.2500   -999.2500
  1768.4000   1163.8046      7.8727      2.5541      0.0510      5.8099   -999.2500   -999.2500
  1768.5000   1189.2468      7.8730      2.5501      0.0501      6.0530   -999.2500   -999.2500
  1768.6000   1189.2468      7.8730      2.5463      0.0430      6.2855   -999.2500   -999.2500
  1768.7000   1189.2468      7.8730      2.5380     -0.0034      6.7867   -999.2500   -999.2500
  1768.8000   1143.7402      7.8730      2.5256      0.0332      7.5374   -999.2500   -999.2500
  1768.9000   1143.7402      7.8730      2.5115      0.0158      8.3923   -999.2500   -999.2500
  1769.0000   1172.1277      7.8739      2.5017      0.0236      8.9897   -999.2500   -999.2500
  1769.1000   1172.1277      7.8739      2.4987      0.0187      9.1722   -999.2500   -999.2500
  1769.2000   1172.1277      7.8739      2.5039     -0.0132      8.8523   -999.2500   -999.2500
  1769.3000   1167.2987      7.8771      2.5196      0.0309      7.9053   -999.2500   -999.2500
  1769.4000   1167.2987      7.8771      2.5383      0.0511      6.7699   -999.2500   -999.2500
  1769.5000   1165.0150      7.8756      2.5501      0.0807      6.0567   -999.2500   -999.2500
  1769.6000   1165.0150      7.8756      2.5512      0.1054      5.9880   -999.2500   -999.2500
  1769.7000   1165.0150      7.8756      2.5440      0.0589      6.4238   -999.2500   -999.2500
  1769.8000   1190.3265      7.8524      2.5365      0.0601      6.8779   -999.2500   -999.2500
  1769.9000   1190.3265      7.8524      2.5390      0.0621      6.7248   -999.2500   -999.2500
  1770.0000   1167.3226      7.8121      2.5596      0.0825      5.4762   -999.2500   -999.2500
  1770.1000   1167.3226      7.8121      2.5893      0.1395      3.6798   -999.2500   -999.2500
  1770.2000   1167.3226      7.8121      2.6082      0.1334      2.5358   -999.2500   -999.2500
  1770.3000   1195.2240      7.7859      2.6268      0.1415      1.4061   -999.2500   -999.2500
  1770.4000   1195.2240      7.7859      2.6985      0.0827     -2.9390   -999.2500   -999.2500
  1770.5000   1171.8662      7.7484      2.7262      0.1157     -4.6202   -999.2500   -999.2500
  1770.6000   1171.8662      7.7484      2.2842      0.5771     22.1713   -999.2500   -999.2500
  1770.7000   1171.8662      7.7484      1.2984     -0.0200     81.9133   -999.2500   -999.2500
  1770.8000   1193.1813      7.3855      0.4405     -0.0200    133.9115   -999.2500   -999.2500
  1770.9000   1193.1813      7.3855      0.0836   -999.2500    155.5366   -999.2500   -999.2500
  1771.0000   1156.8955      5.8032      0.0086   -999.2500    160.0835   -999.2500   -999.2500
  1771.1000   1156.8955      5.8032      0.0005   -999.2500    160.5777   -999.2500   -999.2500
