~Version Information
VERS.                      2.0: CWLS Log ASCII Standard - VERSION 2.0
WRAP.                       NO: One line per depth step
~Well Information Block
STRT.FT               -16.5000: 
STOP.FT              1695.5000: 
STEP.FT                 0.2500: 
NULL.                -999.2500: 
COMP.          Pioneer Natural Resources: COMPANY
WELL.          Rancher 12-35 Tr: WELL
FLD.           Purgatorie River: FIELD
LOC.           2242' FNL & 308' FWL SWNW 35 32S 67W: LOCATION
PROV.                       CO: PROVINCE
CNTY.               Las Animas: COUNTRY
SRVC.                         : SERVICE COMPANY
DATE.         Fri Jul 08 09:39:00 2005: LOG DATE
UWI.                071 08430 : UNIQUE WELL ID
~Curve Information Block
DEPT.FT            0 000 00 00: Depth
CCL.                          : Casing Collar Locator
TT3.usec                      : CBL 3' Travel Time
AMP3.mV                       : CBL 3' Amplitude
GR.GAPI                       : Gamma Ray
~Parameter Information Block
~A  Depth       CCL         TT3         AMP3         GR     
# ...
   888.0000      0.0000    859.9355      5.6761    124.4719
   888.2500      0.0000    859.0980      5.9634    125.6940
   888.5000      0.0000    858.7299      6.1455    126.2447
   888.7500      0.0000    859.7643      6.2360    125.9607
   889.0000      0.0000    861.9171      6.2687    124.4144
   889.2500      0.0000    864.1501      6.2806    121.1823
   889.5000      0.0000    865.7126      6.3000    116.4846
   889.7500      0.0000    866.5127      6.3374    111.5490
   890.0000      0.0000    866.8044      6.3824    108.3476
   890.2500      0.0000    866.8347      6.4068    108.6552
   890.5000      0.0000    866.7493      6.3762    112.6913
   890.7500      0.0000    866.5848      6.2628    118.4986
   891.0000      0.0000    866.1862      6.0566    123.1437
   891.2500      0.0000    865.0818      5.7765    124.8453
   891.5000      0.0000    862.5399      5.4721    123.8470
   891.7500      0.0000    858.0643      5.2083    121.6616
   892.0000      0.0000    852.2198      5.0344    120.0959
   892.2500      0.0000    846.9644      4.9668    120.4860
   892.5000      0.0000    844.6060      4.9955    122.8359
   892.7500      0.0000    845.7816      5.1003    125.8204
   893.0000      0.0000    848.3649      5.2580    128.2413
   893.2500      0.0000    848.7085      5.4465    130.1468
   893.5000      0.0000    844.5543      5.6528    132.1462
   893.7500      0.0000    837.3310      5.8751    134.3352
   894.0000      0.0000    831.7213      6.1029    136.4174
   894.2500      0.0000    832.2604      6.2975    138.2428
   894.5000      0.0000    839.5966      6.4026    139.6355
   894.7500      0.0000    850.1233      6.3818    140.1357
   895.0000      0.0000    859.3362      6.2426    139.5388
   895.2500      0.0000    865.0779      6.0233    138.6147
   895.5000      0.0000    867.7639      5.7609    138.8042
   895.7500      0.0000    868.7079      5.4763    140.9319
   896.0000      0.0000    868.8948      5.1860    144.2644
   896.2500      0.0000    868.7994      4.9233    147.1370
   896.5000      0.0000    868.6274      4.7424    148.6617
   896.7500      0.0000    868.4751      4.7009    149.4950
   897.0000      0.0000    868.3653      4.8344    150.7794
   897.2500      0.0000    868.2358      5.1370    152.8530
   897.5000      0.0000    867.8881      5.5551    155.1131
   897.7500      0.0000    866.7442      6.0004    156.5474
   898.0000      0.0000    863.4387      6.3833    156.1999
   898.2500      0.0000    855.7845      6.6479    153.5854
   898.5000      0.0000    842.0797      6.7849    148.9683
   898.7500      0.0000    823.4034      6.8183    143.3268
   899.0000      0.0000    804.2743      6.7814    138.0795
   899.2500      0.0000    789.6113      6.6992    134.6541
   899.5000      0.0000    780.5468      6.5809    133.9858
   899.7500      0.0000    773.7285      6.4251    136.2021
   900.0000      0.0000    764.6238      6.2313    140.6500
   900.2500      0.0000    751.2048      6.0098    146.0387
   900.5000      0.0000    735.0876      5.7801    150.7179
   900.7500      0.0000    720.1008      5.5699    153.4743
   901.0000      0.0000    710.0717      5.4171    154.4400
   901.2500      0.0000    707.7632      5.3628    154.9874
   901.5000      0.0000    715.0464      5.4326    156.5029
   901.7500      0.0000    732.5270      5.6170    159.1856
   902.0000      0.0000    757.8132      5.8661    161.7679
   902.2500      0.0000    784.8456      6.1048    162.2158
   902.5000      0.0000    806.7819      6.2653    159.0491
   902.7500      0.0000    820.2099      6.3189    152.3643
   903.0000      0.0000    826.2956      6.2780    143.4812
   903.2500      0.0000    828.3873      6.1669    133.5188
   903.5000      0.0000    829.4088      5.9923    122.5908
   903.7500      0.0000    830.9572      5.7521    110.6032
   904.0000      0.0000    833.3608      5.4760     98.7632
   904.2500      0.0000    835.8830      5.2453     89.9116
   904.5000      0.0000    837.4096      5.1557     87.0210
   904.7500      0.0000    837.6882      5.2448     91.2604
   905.0000      0.0000    837.9035      5.4518    101.1686
   905.2500      0.0000    839.6246      5.6527    113.3315
   905.5000      0.0000    843.0805      5.7439    124.2216
   905.7500      0.0000    846.6953      5.6954    131.9879
   906.0000      0.0000    848.4121      5.5380    136.6547
   906.2500      0.0000    847.3502      5.3218    138.7845
   906.5000      0.0000    844.2844      5.1010    138.5195
   906.7500      0.0000    840.9236      4.9458    135.9319
   907.0000      0.0000    838.7488      4.9355    131.6708
   907.2500      0.0000    838.0837      5.1143    126.9149
   907.5000      0.0000    838.2513      5.4456    122.8806
   907.7500      0.0000    838.8214      5.8168    120.5474
   908.0000      0.0000    840.2465      6.0967    120.5598
   908.2500      0.0000    842.7714      6.1985    122.9747
   908.5000      0.0000    845.3609      6.1082    127.1159
   908.7500      0.0000    846.6390      5.8723    131.8926
   909.0000      0.0000    846.6681      5.5689    136.1534
   909.2500      0.0000    846.9571      5.2871    138.6854
   909.5000      0.0000    848.7446      5.1152    138.3568
   909.7500      0.0000    851.7373      5.1203    134.9303
   910.0000      0.0000    854.3700      5.3121    129.7761
   910.2500      0.0000    855.0611      5.6225    125.2949
   910.5000      0.0000    853.6378      5.9334    123.3548
   910.7500      0.0000    851.6743      6.1414    124.1102
   911.0000      0.0000    851.0490      6.2101    126.0414
   911.2500      0.0000    852.2419      6.1688    127.0382
   911.5000      0.0000    854.4744      6.0721    125.8237
   911.7500      0.0000    857.0829      5.9643    122.7302
   912.0000      0.0000    859.9487      5.8738    119.1158
   912.2500      0.0000    862.7549      5.8276    116.0613
   912.5000      0.0000    864.5886      5.8622    113.7312
   912.7500      0.0000    864.2573      6.0071    111.9183
   913.0000      0.0000    860.7801      6.2379    110.8976
   913.2500      0.0000    853.8909      6.4551    111.5287
   913.5000      0.0000    844.1760      6.5448    114.4380
   913.7500      0.0000    831.8702      6.4835    119.1868
   914.0000      0.0000    815.5442      6.3726    124.3004
   914.2500      0.0000    793.9985      6.3464    128.2605
   914.5000      0.0000    770.4435      6.4411    130.6228
   914.7500      0.0000    752.3911      6.5605    132.0512
   915.0000      0.0000    745.3222      6.5733    133.3038
   915.2500      0.0000    747.7725      6.4396    134.6631
   915.5000      0.0000    753.7874      6.2472    136.3395
   915.7500      0.0000    758.5043      6.1375    138.7712
   916.0000      0.0000    760.2585      6.1921    142.2770
   916.2500      0.0000    758.9916      6.3655    146.6100
   916.5000      0.0000    754.7218      6.5140    150.6234
   916.7500      0.0000    748.2130      6.5011    152.2539
   917.0000      0.0000    742.5668      6.2858    149.6760
   917.2500      0.0000    742.4941      5.9201    143.0256
   917.5000      0.0000    750.5357      5.4981    134.3113
   917.7500      0.0000    764.3592      5.1331    125.5650
   918.0000      0.0000    778.4731      4.9447    117.9355
   918.2500      0.0000    787.3509      5.0003    112.3931
   918.5000      0.0000    787.2859      5.2508    109.9292
   918.7500     -3.0000    779.1696      5.5459    110.5500
   919.0000     -3.0000    770.7920      5.7258    112.7706
   919.2500      0.0000    771.9302      5.7225    114.6678
   919.5000      0.0000    784.5009      5.6141    115.3651
   919.7500      0.0000    800.6967      5.5877    115.3847
   920.0000      0.0000    812.6019      5.7948    115.6720
   920.2500      0.0000    820.3176      6.2032    116.5457
   920.5000      0.0000    828.8413      6.6104    117.6559
   920.7500      0.0000    840.3107      6.8242    118.7061
   921.0000      0.0000    852.1158      6.8155    119.8262
   921.2500      0.0000    860.8956      6.6999    121.1188
