~Version Information
VERS.                      2.0: CWLS Log ASCII Standard - VERSION 2.0
WRAP.                       NO: One line per depth step
~Well Information Block
STRT.FT               -16.0000: 
STOP.FT              2454.2500: 
STEP.FT                 0.2500: 
NULL.                -999.2500: 
COMP.                         : COMPANY
WELL.                         : WELL
FLD.                          : FIELD
LOC.                          : LOCATION
CNTY.                         : COUNTY
SRVC.                         : SERVICE COMPANY
DATE.          Tue Aug 31 08:09:44 2004: LOG DATE
UWI.                          : UNIQUE WELL ID
STAT.                         : STATE
~Curve Information Block
DEPT.FT            0 000 00 00: Depth
GR.GAPI                       : Gamma Ray
CCL.                          : Casing Collar Locator
TT3.usec                      : CBL 3' Travel Time
AMP3.mV                       : CBL 3' Amplitude
~Parameter Information Block
~A  Depth        GR         CCL         TT3         AMP3    
# ...
  2429.5000     56.2598      0.0000    352.1002     30.2910
  2429.7500     56.5063      0.0000    356.6146     29.4281
  2430.0000     56.0015      0.0000    358.2920     28.5098
  2430.2500     55.0729      0.0000    358.8023     27.5851
  2430.5000     54.1575      0.0000    358.9518     26.7406
  2430.7500     53.6523      0.0000    358.9914     26.0779
  2431.0000     53.8843      0.0000    358.9998     25.6537
  2431.2500     54.9671      0.0000    359.0065     25.4511
  2431.5000     56.5852      0.0000    359.0284     25.4006
  2431.7500     58.0708      0.0000    359.0733     25.4139
  2432.0000     58.8329      0.0000    359.1036     25.4119
  2432.2500     58.6952      0.0000    359.0530     25.3528
  2432.5000     57.8349      0.0000    358.9470     25.2868
  2432.7500     56.5570      0.0000    358.8964     25.3531
  2433.0000     55.1901      0.0000    358.9267     25.6038
  2433.2500     54.0517      0.0000    358.9716     25.8830
  2433.5000     53.3591      0.0000    358.9934     26.0056
  2433.7500     53.2338      0.0000    358.9991     25.9673
  2434.0000     53.8139      0.0000    358.9999     25.8964
  2434.2500     55.0799      0.0000    359.0000     25.8990
  2434.5000     56.4132      0.0000    359.0000     26.0073
  2434.7500     56.7343      0.0000    358.9999     26.2527
  2435.0000     55.5039      0.0000    358.9955     26.7252
  2435.2500     53.4069      0.0000    358.9485     27.4732
  2435.5000     51.6258      0.0000    358.6243     28.4110
  2435.7500     50.5207      0.0000    357.1645     29.3850
  2436.0000     49.4233      0.0000    352.9860     30.2641
  2436.2500     47.7787      0.0000    345.7116     30.9684
  2436.5000     46.0465      0.0000    339.0600     31.3870
  2436.7500     45.2149      0.0000    338.5045     31.2869
  2437.0000     45.7657      0.0000    344.3412     30.5381
  2437.2500     47.4945      0.0000    351.3492     29.4202
  2437.5000     50.0465      0.0000    355.5921     28.3961
  2437.7500     53.0424      0.0000    357.2108     27.5770
  2438.0000     55.7859      0.0000    357.7340     26.7002
  2438.2500     57.4638      0.0000    358.0237     25.5805
  2438.5000     57.8525      0.0000    358.2927     24.3240
  2438.7500     57.6098      0.0000    358.5072     23.2163
  2439.0000     57.6995      0.0000    358.5872     22.5369
  2439.2500     58.4988      0.0000    358.5341     22.3913
  2439.5000     59.5541      0.0000    358.4001     22.7135
  2439.7500     60.2598      0.0000    358.1747     23.4351
  2440.0000     60.5512      0.0000    357.6512     24.5779
  2440.2500     60.7095      0.0000    355.9899     26.1784
  2440.5000     60.7291      0.0000    351.3877     28.1940
  2440.7500     60.2626      0.0000    342.3349     30.4827
  2441.0000     59.1745      0.0000    328.9946     32.6257
  2441.2500     57.9020      0.0000    308.6756     33.5033
  2441.5000     57.1776      0.0000    269.2996     31.1625
  2441.7500     57.3527      0.0000    200.2667     24.2918
  2442.0000     57.9388      0.0000    115.8551     14.7856
  2442.2500     57.9092      0.0000     48.5829      6.8634
  2442.5000     56.6579      0.0000     14.0932      2.7162
  2442.7500     54.6716      0.0000      2.7464      1.3364
  2443.0000     53.1708      0.0000      0.3521      1.0433
  2443.2500     53.1322      0.0000      0.0281      1.0035
  2443.5000     54.6164      0.0000   -999.2500   -999.2500
  2443.7500     56.7681      0.0000   -999.2500   -999.2500
  2444.0000     58.3870      0.0000   -999.2500   -999.2500
  2444.2500     58.7399      0.0000   -999.2500   -999.2500
  2444.5000     57.9810      0.0000   -999.2500   -999.2500
  2444.7500     56.7890      0.0000   -999.2500   -999.2500
  2445.0000     55.7466      0.0000   -999.2500   -999.2500
  2445.2500     55.1502      0.0000   -999.2500   -999.2500
  2445.5000     55.1420      0.0000   -999.2500   -999.2500
  2445.7500     55.7093      0.0000   -999.2500   -999.2500
  2446.0000     56.5296      0.0000   -999.2500   -999.2500
  2446.2500     56.8889      0.0000   -999.2500   -999.2500
  2446.5000     55.9476      0.0000   -999.2500   -999.2500
  2446.7500     53.4067      0.0000   -999.2500   -999.2500
  2447.0000     49.9443      0.0000   -999.2500   -999.2500
  2447.2500     46.7473      0.0000   -999.2500   -999.2500
  2447.5000     44.5845      0.0000   -999.2500   -999.2500
  2447.7500     43.4289      0.0000   -999.2500   -999.2500
  2448.0000     42.8073      0.0000   -999.2500   -999.2500
  2448.2500     42.3089      0.0000   -999.2500   -999.2500
  2448.5000     41.9476      0.0000   -999.2500   -999.2500
  2448.7500     42.2908      0.0000   -999.2500   -999.2500
  2449.0000     44.0904      0.0000   -999.2500   -999.2500
  2449.2500     47.4797      0.0000   -999.2500   -999.2500
  2449.5000     51.5213      0.0000   -999.2500   -999.2500
  2449.7500     54.7605   -999.2500   -999.2500   -999.2500
  2450.0000     56.3486   -999.2500   -999.2500   -999.2500
  2450.2500     56.6081   -999.2500   -999.2500   -999.2500
  2450.5000     56.6000   -999.2500   -999.2500   -999.2500
  2450.7500     57.2945   -999.2500   -999.2500   -999.2500
  2451.0000     58.8855   -999.2500   -999.2500   -999.2500
  2451.2500     60.3201   -999.2500   -999.2500   -999.2500
  2451.5000     59.3307   -999.2500   -999.2500   -999.2500
  2451.7500     53.5592   -999.2500   -999.2500   -999.2500
  2452.0000     42.5374   -999.2500   -999.2500   -999.2500
  2452.2500     28.7356   -999.2500   -999.2500   -999.2500
  2452.5000     16.1096   -999.2500   -999.2500   -999.2500
  2452.7500      7.3674   -999.2500   -999.2500   -999.2500
  2453.0000      2.7165   -999.2500   -999.2500   -999.2500
  2453.2500      0.8006   -999.2500   -999.2500   -999.2500
  2453.5000      0.1872   -999.2500   -999.2500   -999.2500
  2453.7500      0.0343   -999.2500   -999.2500   -999.2500
  2454.0000      0.0043   -999.2500   -999.2500   -999.2500
  2454.2500      0.0000   -999.2500   -999.2500   -999.2500
