~Version Information
VERS.                      2.0: CWLS Log ASCII Standard - VERSION 2.0
WRAP.                       NO: One line per depth step
~Well Information Block
STRT.FT               260.0000: 
STOP.FT              2611.5000: 
STEP.FT                 0.2500: 
NULL.                -999.2500: 
COMP.          Pioneer Natural Resources: COMPANY
WELL.           Costello 44-24: WELL
FLD.           Purgatoire River: FIELD
LOC.           327' FSL & 378' FEL: LOCATION
PROV.                 Colorado: PROVINCE
CNTY.               Las Animas: COUNTRY
SRVC.                Patterson: SERVICE COMPANY
DATE.          Mon Jul 11 00:49:32 2005: LOG DATE
UWI.           05 071 08413 00: UNIQUE WELL ID
~Curve Information Block
DEPT.FT            0 000 00 00: Depth
SN.Ohm-m                      : IEL Short Normal
SP.mV                         : IEL Spontaneous Potential
DIR.Ohm-m                     : IEL Induction Resistivity
GR.GAPI                       : Gamma Ray
~Parameter Information Block
~A  Depth        SN          SP         DIR          GR     
# ...
   729.0000   2000.0000    200.0000     18.2036    123.2532
   729.2500   2000.0000    200.0000     18.5437    123.9939
   729.5000   2000.0000    200.0000     18.9324    127.1227
   729.7500   2000.0000    200.0000     19.3789    129.7935
   730.0000   2000.0000    200.0000     19.8669    133.8346
   730.2500   2000.0000    200.0000     20.3504    136.1696
   730.5000   2000.0000    200.0000     20.7824    138.3850
   730.7500   2000.0000    200.0000     21.1570    138.6031
   731.0000   2000.0000    200.0000     21.5302    136.4290
   731.2500   2000.0000    200.0000     22.0000    133.0043
   731.5000   2000.0000    200.0000     22.6692    124.9993
   731.7500   2000.0000    200.0000     23.6185    118.2897
   732.0000   2000.0000    200.0000     24.8946    106.9857
   732.2500   2000.0000    200.0000     26.4993     98.5070
   732.5000   2000.0000    200.0000     28.3792     83.6622
   732.7500   2000.0000    200.0000     30.4267     72.4273
   733.0000   2000.0000    200.0000     32.5075     55.1887
   733.2500   2000.0000    200.0000     34.5189     44.7880
   733.5000   2000.0000    200.0000     36.4456     32.5572
   733.7500   2000.0000    200.0000     38.3514     27.0601
   734.0000   2000.0000    200.0000     40.2805     22.8003
   734.2500   2000.0000    200.0000     42.1274     22.4545
   734.5000   2000.0000    200.0000     43.6072     25.3314
   734.7500   2000.0000    200.0000     44.4079     29.2826
   735.0000   2000.0000    200.0000     44.4049     37.6684
   735.2500   2000.0000    200.0000     43.7101     44.3903
   735.5000   2000.0000    200.0000     42.5466     55.3300
   735.7500   2000.0000    200.0000     41.1349     62.9770
   736.0000   2000.0000    200.0000     39.6697     74.9424
   736.2500   2000.0000    200.0000     38.3100     82.9375
   736.5000   2000.0000    200.0000     37.1529     93.3743
   736.7500   2000.0000    200.0000     36.2173     98.2676
   737.0000   2000.0000    200.0000     35.4633    102.2502
   737.2500   2000.0000    200.0000     34.8283    103.6141
   737.5000   2000.0000    200.0000     34.2649    105.7733
   737.7500   2000.0000    200.0000     33.7624    107.8054
   738.0000   2000.0000    200.0000     33.3515    111.0623
   738.2500   2000.0000    200.0000     33.0901    112.5214
   738.5000   2000.0000    200.0000     33.0377    112.6432
   738.7500   2000.0000    200.0000     33.2358    111.4534
   739.0000   2000.0000    200.0000     33.6920    108.7754
   739.2500   2000.0000    200.0000     34.3691    106.8624
   739.5000   2000.0000    200.0000     35.1858    103.8736
   739.7500   2000.0000    200.0000     36.0400    101.7194
   740.0000   2000.0000    200.0000     36.8466     98.4999
   740.2500   2000.0000    200.0000     37.5641     96.7135
   740.5000   2000.0000    200.0000     38.1946     95.0621
   740.7500   2000.0000    200.0000     38.7690     94.6906
   741.0000   2000.0000    200.0000     39.3283     95.0116
   741.2500   2000.0000    200.0000     39.9033     95.7568
   741.5000   2000.0000    200.0000     40.4962     97.8386
   741.7500   2000.0000    200.0000     41.0678     99.9286
   742.0000   2000.0000    200.0000     41.5341    103.9157
   742.2500   2000.0000    200.0000     41.7805    106.8392
   742.5000   2000.0000    200.0000     41.7064    110.6057
   742.7500   2000.0000    200.0000     41.2867    111.8849
   743.0000   2000.0000    200.0000     40.5943    111.1671
   743.2500   2000.0000    200.0000     39.7520    109.3782
   743.5000   2000.0000    200.0000     38.8553    106.6868
   743.7500   2000.0000    200.0000     37.9425    105.9355
   744.0000   2000.0000    200.0000     37.0199    106.9533
   744.2500   2000.0000    200.0000     36.0923    108.6457
   744.5000   2000.0000    200.0000     35.1582    111.3027
   744.7500   2000.0000    200.0000     34.1807    112.4400
   745.0000   2000.0000    200.0000     33.0723    113.0181
   745.2500   2000.0000    200.0000     31.7253    113.2009
   745.5000   2000.0000    200.0000     30.0834    114.3413
   745.7500   2000.0000    200.0000     28.2038    115.9598
   746.0000   2000.0000    200.0000     26.2485    119.4071
   746.2500   2000.0000    200.0000     24.4048    122.2143
   746.5000   2000.0000    200.0000     22.8023    127.4421
   746.7500   2000.0000    200.0000     21.4856    131.8968
   747.0000   2000.0000    200.0000     20.4348    140.0501
   747.2500   2000.0000    200.0000     19.6012    146.0242
   747.5000   2000.0000    200.0000     18.9354    154.5244
   747.7500   2000.0000    200.0000     18.4014    159.1225
   748.0000   2000.0000    200.0000     17.9816    163.5134
   748.2500   2000.0000    200.0000     17.6743    164.5973
   748.5000   2000.0000    200.0000     17.4845    163.5885
   748.7500   2000.0000    200.0000     17.4130    161.3158
   749.0000   2000.0000    200.0000     17.4514    155.7429
   749.2500   2000.0000    200.0000     17.5851    150.6979
   749.5000   2000.0000    200.0000     17.8006    141.3411
   749.7500   2000.0000    200.0000     18.0876    134.1653
   750.0000   2000.0000    200.0000     18.4370    123.0142
   750.2500   2000.0000    200.0000     18.8414    116.2904
   750.5000   2000.0000    200.0000     19.3000    108.8619
   750.7500   2000.0000    200.0000     19.8260    106.0119
   751.0000   2000.0000    200.0000     20.4418    104.2178
   751.2500   2000.0000    200.0000     21.1644    104.0900
   751.5000   2000.0000    200.0000     21.9890    105.1737
   751.7500   2000.0000    200.0000     22.8868    106.8920
   752.0000   2000.0000    200.0000     23.8206    110.9838
   752.2500   2000.0000    200.0000     24.7651    114.3824
   752.5000   2000.0000    200.0000     25.7129    119.6443
   752.7500   2000.0000    200.0000     26.6593    122.8761
   753.0000   2000.0000    200.0000     27.5837    126.9188
   753.2500   2000.0000    200.0000     28.4472    128.8511
   753.5000   2000.0000    200.0000     29.2155    129.9461
   753.7500   2000.0000    200.0000     29.8894    128.9972
   754.0000   2000.0000    200.0000     30.5141    124.5681
   754.2500   2000.0000    200.0000     31.1589    119.7266
   754.5000   2000.0000    200.0000     31.8831    110.5182
   754.7500   2000.0000    200.0000     32.7129    103.8821
   755.0000   2000.0000    200.0000     33.6477     94.7581
   755.2500   2000.0000    200.0000     34.6970     90.0205
   755.5000   2000.0000    200.0000     35.9150     85.4697
   755.7500   2000.0000    200.0000     37.4023     83.8055
   756.0000   2000.0000    200.0000     39.2599     82.1012
   756.2500   2000.0000    200.0000     41.5290     80.9061
   756.5000   2000.0000    200.0000     44.1590     78.9891
   756.7500   2000.0000    200.0000     47.0021     78.0868
   757.0000   2000.0000    200.0000     49.8076     78.2526
   757.2500   2000.0000    200.0000     52.1959     79.6956
   757.5000   2000.0000    200.0000     53.7039     83.4325
   757.7500   2000.0000    200.0000     54.0262     86.0263
   758.0000   2000.0000    200.0000     53.3206     88.0314
   758.2500   2000.0000    200.0000     52.1982     87.4977
   758.5000   2000.0000    200.0000     51.3464     84.7041
   758.7500   2000.0000    200.0000     51.1681     82.7042
   759.0000   2000.0000    200.0000     51.6740     81.1286
   759.2500   2000.0000    200.0000     52.5806     81.1652
   759.5000   2000.0000    200.0000     53.5144     82.1551
   759.7500   2000.0000    200.0000     54.2231     83.1087
   760.0000   2000.0000    200.0000     54.6636     84.8853
   760.2500   2000.0000    200.0000     54.9408     86.1701
   760.5000   2000.0000    200.0000     55.1777     87.3812
   760.7500   2000.0000    200.0000     55.4137     87.0393
   761.0000   2000.0000    200.0000     55.5531     84.2290
   761.2500   2000.0000    200.0000     55.3997     81.0502
   761.5000   2000.0000    200.0000     54.7810     75.2675
   761.7500   2000.0000    200.0000     53.6879     71.2393
   762.0000   2000.0000    200.0000     52.3001     65.5337
   762.2500   2000.0000    200.0000     50.8452     62.2601
