~Version Information
VERS.                      2.0: CWLS Log ASCII Standard - VERSION 2.0
WRAP.                       NO: One line per depth step
~Well Information Block
STRT.FT               240.0000: 
STOP.FT              1452.5000: 
STEP.FT                 0.1000: 
NULL.                -999.2500: 
COMP.          Petrogulf Corporation: COMPANY
WELL.          Robinson 15-12R: WELL
FLD.           Purgatorie River: FIELD
LOC.           1752' FNL & 561' FWL: LOCATION
PROV.                 Colorado: PROVINCE
CNTY.               Las Animas: COUNTRY
SRVC.                Patterson: SERVICE COMPANY
DATE.          Tue Sep 13 15:07:52 2005: LOG DATE
UWI.                          : UNIQUE WELL ID
~Curve Information Block
DEPT.FT            0 000 00 00: Depth
DCAL.in                       : CDL Caliper
RHOB.g/cc                     : CDL Bulk Density
RHOC.g/cc                     : CDL Density Correction
DPOR.pu                       : CDL Density Porosity
GR.GAPI                       : Gamma Ray
NPOR.pu                       : Neutron Porosity
~Parameter Information Block
~A  Depth       DCAL        RHOB        RHOC        DPOR         GR         NPOR    
# ...
   720.0000      7.9305      2.5036      0.0712      8.8750    128.9352     20.6296
   720.1000      7.9305      2.5400      0.0766      6.6676    136.1551     21.0442
   720.2000      7.9305      2.5702      0.1049      4.8366    143.1469     22.0475
   720.3000      7.9445      2.5838      0.1926      4.0117    151.5593     23.7916
   720.4000      7.9445      2.5685      0.1493      4.9384    161.0034     25.4030
   720.5000      7.9304      2.5356      0.1208      6.9334    167.9129     26.2483
   720.6000      7.9304      2.5182      0.0692      7.9896    171.5944     26.4607
   720.7000      7.9304      2.5360      0.0750      6.9061    171.5137     26.3956
   720.8000      7.9510      2.5790      0.0816      4.3031    167.3205     26.3005
   720.9000      7.9510      2.6246      0.1187      1.5407    162.6792     26.4405
   721.0000      7.9599      2.6562      0.1509     -0.3767    161.6024     26.9027
   721.1000      7.9599      2.6716      0.1396     -1.3072    163.4263     27.3829
   721.2000      7.9599      2.6832      0.1482     -2.0127    164.8311     27.6535
   721.3000      7.9818      2.7009      0.1524     -3.0830    163.4277     27.8036
   721.4000      7.9818      2.7151      0.1742     -3.9440    158.6984     28.1086
   721.5000      7.9885      2.7084      0.1268     -3.5408    152.8873     28.3800
   721.6000      7.9885      2.6799      0.0769     -1.8127    148.3387     28.1799
   721.7000      7.9885      2.6466      0.0292      0.2067    145.0332     27.6015
   721.8000      7.9796      2.6251      0.0097      1.5073    142.4986     26.9816
   721.9000      7.9796      2.6165      0.0425      2.0314    141.7722     26.5977
   722.0000      7.9755      2.6124      0.0257      2.2815    144.7799     26.3831
   722.1000      7.9755      2.6129      0.0243      2.2507    149.4133     26.2330
   722.2000      7.9755      2.6188      0.0483      1.8907    153.3419     26.3143
   722.3000      7.9687      2.6256      0.0332      1.4782    157.4527     26.4187
   722.4000      7.9687      2.6263      0.0640      1.4386    157.3837     26.1809
   722.5000      7.9581      2.6111      0.0535      2.3591    150.2990     26.0263
   722.6000      7.9581      2.5832      0.0162      4.0469    144.5417     26.5818
   722.7000      7.9581      2.5609     -0.0243      5.3988    146.4894     27.3947
   722.8000      7.9617      2.5587     -0.0430      5.5361    150.7309     27.6836
   722.9000      7.9617      2.5730     -0.0003      4.6669    149.3449     27.5883
   723.0000      7.9747      2.5855      0.0376      3.9066    144.8169     27.4268
   723.1000      7.9747      2.5873      0.0301      3.8001    144.4639     27.0340
   723.2000      7.9747      2.5891      0.0395      3.6913    147.7213     26.4015
   723.3000      7.9627      2.5945      0.0515      3.3629    150.5415     25.9436
   723.4000      7.9627      2.5942      0.0094      3.3817    150.7532     25.7962
   723.5000      7.9655      2.5885     -0.0020      3.7297    147.2544     25.8518
   723.6000      7.9655      2.5842     -0.0199      3.9890    142.1319     26.0859
   723.7000      7.9655      2.5817      0.0180      4.1422    136.8395     26.2715
   723.8000      7.9715      2.5837     -0.0121      4.0201    131.1778     26.0908
   723.9000      7.9715      2.6034     -0.0250      2.8219    125.0390     25.5134
   724.0000      7.9805      2.6379      0.0629      0.7309    118.5794     24.7095
   724.1000      7.9805      2.6678      0.0437     -1.0763    112.2494     23.8510
   724.2000      7.9805      2.6954      0.0391     -2.7515    106.2194     23.1518
   724.3000      7.9664      2.7320      0.0362     -4.9695    102.1349     22.8086
   724.4000      7.9664      2.7688      0.0730     -7.2003    101.5432     22.7446
   724.5000      7.9541      2.7987      0.0357     -9.0109    102.7526     22.6135
   724.6000      7.9541      2.8163      0.1156    -10.0780    104.5975     22.1446
   724.7000      7.9541      2.8078      0.1216     -9.5661    106.3377     21.4907
   724.8000      7.9300      2.7816      0.0949     -7.9729    107.8409     21.0126
   724.9000      7.9300      2.7610      0.0454     -6.7288    109.0486     21.0184
   725.0000      7.9263      2.7496      0.0587     -6.0346    109.5617     21.5448
   725.1000      7.9263      2.7385      0.0490     -5.3659    111.3771     22.0707
   725.2000      7.9263      2.7246      0.0555     -4.5232    115.8736     22.2785
   725.3000      7.9472      2.6990      0.0689     -2.9712    120.4810     22.5118
   725.4000      7.9472      2.6576      0.0450     -0.4598    122.1054     22.6422
   725.5000      7.9660      2.6195      0.0003      1.8510    123.0383     22.4259
   725.6000      7.9660      2.6042      0.0112      2.7728    126.9627     22.1647
   725.7000      7.9660      2.6142      0.0072      2.1680    131.0547     22.0431
   725.8000      7.9486      2.6373      0.0383      0.7701    130.9738     22.0347
   725.9000      7.9486      2.6533      0.0663     -0.2021    126.3748     22.0552
   726.0000      7.9800      2.6524      0.0597     -0.1433    121.4377     22.0936
   726.1000      7.9800      2.6407      0.0229      0.5649    121.6625     22.2863
   726.2000      7.9800      2.6281      0.0223      1.3275    127.2762     22.8587
   726.3000      7.9795      2.6212      0.0212      1.7434    132.5307     23.6642
   726.4000      7.9795      2.6224      0.0454      1.6733    133.6808     24.3432
   726.5000      7.9639      2.6264      0.0649      1.4294    133.9207     24.8197
   726.6000      7.9639      2.6293      0.0331      1.2526    134.3826     25.0670
   726.7000      7.9639      2.6309      0.0413      1.1594    133.6283     25.1025
   726.8000      7.9633      2.6204      0.0424      1.7928    131.9301     24.8078
   726.9000      7.9633      2.5945     -0.0093      3.3655    127.8175     24.2996
   727.0000      7.9592      2.5759     -0.0016      4.4906    122.6524     24.0329
   727.1000      7.9592      2.5766      0.0511      4.4503    122.4787     23.9813
   727.2000      7.9592      2.5796      0.0381      4.2667    128.9467     23.7806
   727.3000      7.9561      2.5769      0.0215      4.4328    136.8450     23.4446
   727.4000      7.9561      2.5766      0.0407      4.4467    141.9125     23.2264
   727.5000      7.9517      2.5837      0.0284      4.0182    142.6434     23.1400
   727.6000      7.9517      2.5938      0.0598      3.4068    139.5343     22.9984
   727.7000      7.9517      2.5975      0.0576      3.1810    134.7162     22.8683
   727.8000      7.9459      2.5938      0.0647      3.4058    129.7499     23.1317
   727.9000      7.9459      2.5852      0.0680      3.9271    127.5545     23.6426
   728.0000      7.9572      2.5745     -0.0095      4.5733    131.1634     24.0041
   728.1000      7.9572      2.5612      0.0616      5.3815    137.4562     24.1481
   728.2000      7.9572      2.5396      0.0148      6.6911    141.9984     23.9044
   728.3000      7.9527      2.5179     -0.0052      8.0087    145.3683     23.2916
   728.4000      7.9527      2.5085      0.0146      8.5770    148.5255     22.9223
   728.5000      7.9642      2.5195     -0.0362      7.9086    147.9443     23.3813
   728.6000      7.9642      2.5446      0.0506      6.3886    142.9071     24.5981
   728.7000      7.9642      2.5539      0.0741      5.8232    138.1513     26.0912
   728.8000      7.9520      2.5411      0.0131      6.5987    134.5719     27.3674
   728.9000      7.9520      2.5320      0.0431      7.1542    129.7356     27.9958
   729.0000      7.9532      2.5301      0.0591      7.2656    124.9448     27.8952
   729.1000      7.9532      2.5200      0.0270      7.8790    121.8043     27.3810
   729.2000      7.9532      2.5091     -0.0139      8.5369    116.3904     26.6851
   729.3000      7.9532      2.5114      0.0448      8.4013    107.9944     25.7495
   729.4000      7.9532      2.5163      0.0546      8.1003    102.7071     24.7099
   729.5000      7.9511      2.5121      0.0483      8.3561    100.0659     23.8439
