~Version Information
VERS.                      2.0: CWLS Log ASCII Standard - VERSION 2.0
WRAP.                       NO: One line per depth step
~Well Information Block
STRT.FT               375.0000: 
STOP.FT              2795.7000: 
STEP.FT                 0.1000: 
NULL.                -999.2500: 
COMP.          Pioneer Natural Resources: COMPANY
WELL.              Getem 21-23: WELL
FLD.           Purgatoire River: FIELD
LOC.           2623' FWL & 790' FNL--: LOCATION
PROV.                 Colorado: PROVINCE
CNTY.               Las Animas: COUNTRY
SRVC.                Patterson: SERVICE COMPANY
DATE.          Mon Jun 20 07:26:21 2005: LOG DATE
UWI.           05 071 08411 00: UNIQUE WELL ID
~Curve Information Block
DEPT.FT            0 000 00 00: Depth
DCAL.in                       : CDL Caliper
RHOB.g/cc                     : CDL Bulk Density
RHOC.g/cc                     : CDL Density Correction
DPOR.pu                       : CDL Density Porosity
NPOR.pu                       : Neutron Porosity
GR.GAPI                       : Gamma Ray
~Parameter Information Block
~A  Depth       DCAL        RHOB        RHOC        DPOR        NPOR         GR     
   375.0000      1.3804      2.1877      0.3793     28.0210     44.1134     69.6306
   375.1000      1.3804      2.1577      0.3149     29.8339     44.5171     71.3054
   375.2000      1.3804      2.1253      0.2658     31.8017     44.6595     74.9966
   375.3000      1.3804      2.1053      0.2713     33.0136     44.6166     80.7474
   375.4000      1.3804      2.0939      0.2640     33.7020     44.6050     86.7621
   375.5000      1.3775      2.0854      0.2709     34.2175     44.6560     90.3210
   375.6000      1.3775      2.0847      0.2214     34.2625     44.7453     91.9837
   375.7000      1.3775      2.1006      0.2234     33.2961     45.0235     93.2683
   375.8000      1.3720      2.1241      0.2767     31.8712     45.5943     92.5699
   375.9000      1.3720      2.1350      0.2752     31.2126     46.2661     91.4417
   376.0000      1.3670      2.1319      0.2583     31.4006     46.6784     94.8413
   376.1000      1.3670      2.1283      0.2707     31.6204     46.6399    101.2339
   376.2000      1.3670      2.1260      0.2738     31.7606     46.3334    108.4385
   376.3000      1.3672      2.1179      0.2478     32.2473     46.0761    116.2292
   376.4000      1.3672      2.1082      0.2282     32.8335     46.1077    118.4275
   376.5000      1.3705      2.1039      0.2282     33.0970     46.3590    115.1935
   376.6000      1.3705      2.1028      0.2389     33.1636     46.4346    116.8463
   376.7000      1.3705      2.1031      0.2364     33.1424     46.2163    122.4483
   376.8000      1.3712      2.1089      0.2265     32.7926     45.8553    125.8350
   376.9000      1.3712      2.1271      0.2181     31.6898     45.2388    129.2461
   377.0000      1.3688      2.1558      0.2544     29.9486     44.1663    130.2453
   377.1000      1.3688      2.1764      0.2512     28.7019     42.6827    127.9609
   377.2000      1.3688      2.1721      0.2545     28.9614     40.9686    129.1903
   377.3000      1.4023      2.1425      0.2373     30.7583     39.1608    135.0305
   377.4000      1.4023      2.1010      0.2039     33.2749     37.3215    142.2581
   377.5000      1.8567      2.0684      0.1844     35.2467     35.4169    148.5050
   377.6000      1.8567      2.0449      0.2445     36.6705     33.3486    151.2103
   377.7000      1.8567      2.0129      0.3080     38.6132     31.0416    149.5118
   377.8000      3.8494      2.0182      0.2071     38.2921     28.8116    144.7119
   377.9000      3.8494      2.1213      0.4337     32.0428     27.2699    139.2209
   378.0000      6.9486      2.2567      0.5735     23.8366     26.4297    136.2713
   378.1000      6.9486      2.3362      0.5571     19.0163     25.8664    137.4443
   378.2000      6.9486      2.3728      0.5191     16.7987     25.6120    139.4548
   378.3000      8.6350      2.4054      0.4307     14.8253     25.8215    137.0708
   378.4000      8.6350      2.4091      0.7066     14.5978     26.1591    133.5689
   378.5000      9.1521      2.3535      0.3595     17.9710     26.2924    136.9320
   378.6000      9.1521      2.2901      0.2965     21.8113     26.5055    145.8031
   378.7000      9.1521      2.2689      0.3174     23.0955     27.0703    155.1358
   378.8000      9.5213      2.2736      0.3019     22.8106     27.6662    162.9024
   378.9000      9.5213      2.2807      0.2754     22.3835     28.0070    167.1911
   379.0000      9.7572      2.2910      0.2756     21.7563     28.1737    167.4413
   379.1000      9.7572      2.3148      0.2716     20.3152     28.1678    161.8074
   379.2000      9.7572      2.3529      0.2963     18.0052     28.0058    151.2254
   379.3000      9.9024      2.3850      0.3430     16.0624     27.8155    141.7813
   379.4000      9.9024      2.3921      0.3071     15.6326     27.6969    134.4896
   379.5000     10.0474      2.3846      0.3069     16.0845     27.7752    127.9640
   379.6000     10.0474      2.3916      0.2549     15.6631     27.9943    123.8148
   379.7000     10.0474      2.4369      0.2591     12.9156     28.0746    123.5385
   379.8000     10.2125      2.5171      0.2771      8.0519     27.9214    128.0912
   379.9000     10.2125      2.6049      0.3128      2.7353     27.7489    134.3141
   380.0000     10.3912      2.6746      0.3218     -1.4922     27.7450    136.4010
   380.1000     10.3912      2.7097      0.3620     -3.6159     27.8501    134.0730
   380.2000     10.3912      2.7085      0.3332     -3.5466     27.9765    131.4025
   380.3000     10.5267      2.6919      0.3032     -2.5392     28.0164    129.4310
   380.4000     10.5267      2.6711      0.2815     -1.2762     27.9036    127.8573
   380.5000     10.5769      2.6339      0.2518      0.9770     28.0339    129.9024
   380.6000     10.5769      2.5823      0.1500      4.1036     28.5763    135.4834
   380.7000     10.5769      2.5392      0.1190      6.7149     29.0274    138.9556
   380.8000     10.5823      2.5133      0.1056      8.2827     28.9833    137.6124
   380.9000     10.5823      2.4947      0.0844      9.4109     28.3369    135.3009
   381.0000     10.5829      2.4742      0.0537     10.6566     27.3050    135.7692
   381.1000     10.5829      2.4554      0.0667     11.7913     26.5384    138.8203
   381.2000     10.5829      2.4477      0.0650     12.2624     26.5644    140.4787
   381.3000     10.5851      2.4447      0.0849     12.4397     27.3431    138.0812
   381.4000     10.5851      2.4321      0.0553     13.2045     28.1853    134.6345
   381.5000     10.5866      2.4189      0.0421     14.0061     28.4607    131.8522
   381.6000     10.5866      2.4308      0.0532     13.2821     28.3056    126.6862
   381.7000     10.5866      2.4652      0.0842     11.1991     28.2217    119.9415
   381.8000     10.5852      2.4860      0.1060      9.9381     28.4958    116.9446
   381.9000     10.5852      2.4751      0.1006     10.6012     28.8369    117.9832
   382.0000     10.5834      2.4597      0.0266     11.5304     28.6760    118.3663
   382.1000     10.5834      2.4722      0.0658     10.7740     28.1841    116.8517
   382.2000     10.5834      2.5045      0.1201      8.8164     27.8537    115.1785
   382.3000     10.5831      2.5361      0.0803      6.9026     27.5381    113.4080
   382.4000     10.5831      2.5611      0.1147      5.3893     27.0946    109.7562
   382.5000     10.5829      2.5620      0.1540      5.3328     26.8473    105.2584
   382.6000     10.5829      2.5224      0.0783      7.7349     26.7975    103.4709
   382.7000     10.5829      2.4628      0.0407     11.3444     26.6487    105.1952
   382.8000     10.5785      2.4172     -0.0022     14.1082     26.4485    108.4367
   382.9000     10.5785      2.4011     -0.0151     15.0863     26.3199    111.2496
   383.0000     10.5749      2.4055      0.0626     14.8184     26.3096    112.7361
   383.1000     10.5749      2.4111      0.0082     14.4795     26.3020    110.5088
   383.2000     10.5749      2.4199      0.0040     13.9451     26.1029    103.0585
   383.3000     10.5799      2.4386      0.0649     12.8108     25.6484     96.0505
   383.4000     10.5799      2.4567      0.0725     11.7149     24.7335     96.0188
   383.5000     10.5844      2.4743      0.0634     10.6471     23.7158    100.6006
   383.6000     10.5844      2.5021      0.0615      8.9658     23.2800    104.9005
   383.7000     10.5844      2.5271      0.1112      7.4502     23.2130    106.6913
   383.8000     10.5778      2.5131      0.1085      8.2971     22.9832    102.7928
   383.9000     10.5778      2.4141      0.0892     14.2971     22.5452     93.9990
   384.0000     10.5263      2.1917      0.0152     27.7741     21.9599     88.0809
   384.1000     10.5263      1.8743     -0.1414     47.0109     21.4043     89.2463
   384.2000     10.5263      1.5689     -0.3107     65.5215     21.1769     94.4239
   384.3000     10.3293      1.3644     -0.3244     77.9129     21.4118     98.7118
   384.4000     10.3293      1.2888     -0.3364     82.4970     22.1605    100.7070
   384.5000      9.9841      1.3650     -0.3287     77.8761     23.4271    103.5427
