~Version Information
VERS.                      2.0: CWLS Log ASCII Standard - VERSION 2.0
WRAP.                       NO: One line per depth step
~Well Information Block
STRT.FT                -5.7500: 
STOP.FT              1965.7500: 
STEP.FT                 0.2500: 
NULL.                -999.2500: 
COMP.          Pioneer Natural Resources: COMPANY
WELL.          Easton 12-30 Tr: WELL
FLD.           Purgatorie River: FIELD
LOC.           549' FWL & 2416' FNL--: LOCATION
PROV.                       CO: PROVINCE
CNTY.               Las Animas: COUNTRY
SRVC.          Patterson Wireline: SERVICE COMPANY
DATE.          Mon Jun 06 16:13:03 2005: LOG DATE
UWI.           05 071 08379 00: UNIQUE WELL ID
~Curve Information Block
DEPT.FT            0 000 00 00: Depth
CCL.                          : Casing Collar Locator
TT3.usec                      : CBL 3' Travel Time
AMP3.mV                       : CBL 3' Amplitude
GR.GAPI                       : Gamma Ray
~Parameter Information Block
~A  Depth       CCL         TT3         AMP3         GR     
# ...
   128.2500      0.0000    964.6571      9.6812     93.3087
   128.5000      0.0000    938.8273      9.5063     89.3096
   128.7500      0.0000    922.9402      9.3259     85.0384
   129.0000      0.0000    915.8630      9.1609     81.7750
   129.2500      0.0000    914.5853      9.0273     80.6407
   129.5000      0.0000    917.7422      8.9354     81.9501
   129.7500      0.0000    926.0759      8.8838     85.0625
   130.0000      0.0000    941.2158      8.8568     88.6910
   130.2500      0.0000    964.7084      8.8372     91.2554
   130.5000      0.0000    997.1357      8.8200     91.3431
   130.7500      0.0000   1036.0118      8.8090     88.2943
   131.0000      0.0000   1073.5441      8.8047     82.5207
   131.2500      0.0000   1097.9797      8.8063     75.4025
   131.5000      0.0000   1100.0061      8.8194     68.8176
   131.7500      0.0000   1080.0067      8.8483     64.2872
   132.0000      0.0000   1049.7098      8.8828     62.1443
   132.2500      0.0000   1025.1787      8.9019     61.5621
   132.5000      0.0000   1015.6941      8.8948     61.4469
   132.7500      0.0000   1018.2100      8.8696     61.1879
   133.0000      0.0000   1022.0521      8.8440     60.5937
   133.2500      0.0000   1018.3262      8.8285     59.6178
   133.5000      0.0000   1006.0853      8.8207     58.5163
   133.7500      0.0000    992.0770      8.8130     57.9036
   134.0000      0.0000    984.7483      8.8069     58.0038
   134.2500      0.0000    986.3593      8.8188     57.8930
   134.5000      0.0000    990.3920      8.8660     56.1622
   134.7500      0.0000    987.9827      8.9464     52.6191
   135.0000      0.0000    976.8957      9.0351     48.9994
   135.2500      0.0000    963.4514      9.1050     47.7742
   135.5000      0.0000    956.3878      9.1441     50.2698
   135.7500      0.0000    959.2423      9.1543     55.6573
   136.0000      0.0000    967.4662      9.1375     61.3974
   136.2500      0.0000    972.8568      9.0913     64.8297
   136.5000      0.0000    972.5701      9.0190     64.8063
   136.7500      0.0000    973.4316      8.9374     62.1140
   137.0000      0.0000    985.0717      8.8739     58.4404
   137.2500      0.0000   1007.9268      8.8538     55.0601
   137.5000      0.0000   1029.3842      8.8896     52.4265
   137.7500      0.0000   1033.8771      8.9738     50.5816
   138.0000      0.0000   1018.1030      9.0789     49.5231
   138.2500      0.0000    995.8588      9.1628     49.2489
   138.5000      0.0000    986.7830      9.1896     49.7692
   138.7500      0.0000    999.8820      9.1534     51.0647
   139.0000      0.0000   1027.1309      9.0803     52.8318
   139.2500      0.0000   1051.2810      9.0046     54.3906
   139.5000      0.0000   1058.8865      8.9495     55.0870
   139.7500      0.0000   1047.7949      8.9271     54.7285
   140.0000      0.0000   1026.0717      8.9409     53.5914
   140.2500      0.0000   1005.0947      8.9785     52.2334
   140.5000      0.0000    990.6558      9.0056     51.3267
   140.7500      0.0000    978.0925      8.9741     51.3365
   141.0000      0.0000    957.5649      8.8542     52.0848
   141.2500      0.0000    925.8937      8.6728     52.7466
   141.5000      0.0000    892.0037      8.4971     52.5965
   141.7500      0.0000    869.2076      8.3503     51.7764
   142.0000      0.0000    863.0192      8.1746     50.9950
   142.2500      0.0000    868.6508      7.9205     50.4363
   142.5000      0.0000    879.9222      7.6380     49.4045
   142.7500      0.0000    896.6917      7.4322     47.2473
   143.0000      0.0000    921.1273      7.3532     44.3331
   143.2500      2.0000    948.6387      7.3714     41.8664
   143.5000      2.0000    965.5745      7.4380     40.7935
   143.7500      0.0000    956.9301      7.5563     41.0320
   144.0000      0.0000    917.3387      7.8085     41.7697
   144.2500      0.0000    856.9617      8.2951     42.3374
   144.5000      0.0000    798.5110      9.0042     42.7105
   144.7500      0.0000    765.4971      9.7551     43.3252
   145.0000      0.0000    767.4174     10.3316     44.4895
   145.2500      0.0000    794.5200     10.6564     45.8688
   145.5000      0.0000    828.0839     10.7956     46.5239
   145.7500      0.0000    854.6989     10.8322     45.6551
   146.0000      0.0000    870.7788     10.7904     43.5039
   146.2500      0.0000    878.1695     10.6608     41.5305
   146.5000      0.0000    879.1871     10.4517     41.4634
   146.7500      0.0000    875.0056     10.2049     43.9025
   147.0000      0.0000    866.2969      9.9750     47.9032
   147.2500      0.0000    854.1502      9.8005     51.9919
   147.5000      0.0000    840.2574      9.6879     55.2495
   147.7500      0.0000    826.5470      9.6144     57.2574
   148.0000      0.0000    815.1448      9.5469     57.6234
   148.2500      0.0000    808.4808      9.4676     56.2829
   148.5000      0.0000    808.9346      9.3814     54.2007
   148.7500      0.0000    817.7949      9.2979     53.1669
   149.0000      0.0000    833.9211      9.2129     54.6938
   149.2500      0.0000    853.4279      9.1149     59.2103
   149.5000      0.0000    871.5284      9.0016     66.0688
   149.7500      0.0000    885.2056      8.8811     73.8626
   150.0000      0.0000    894.1082      8.7624     80.8618
   150.2500      0.0000    899.4501      8.6515     85.6955
   150.5000      0.0000    902.6733      8.5513     87.9077
   150.7500      0.0000    904.4374      8.4580     87.9357
   151.0000      0.0000    903.9019      8.3618     86.8423
   151.2500      0.0000    899.4056      8.2585     85.9872
   151.5000      0.0000    890.6133      8.1588     86.3496
   151.7500      0.0000    879.7000      8.0840     87.7645
   152.0000      0.0000    869.9114      8.0506     89.0755
   152.2500      0.0000    863.2189      8.0580     89.2891
   152.5000      0.0000    859.5607      8.0883     88.4991
   152.7500      0.0000    857.8188      8.1203     87.5505
   153.0000      0.0000    856.9612      8.1430     86.8685
   153.2500      0.0000    856.4204      8.1583     85.7731
   153.5000      0.0000    855.8594      8.1669     83.0373
   153.7500      0.0000    854.7481      8.1571     78.0278
   154.0000      0.0000    852.0760      8.1144     71.1820
   154.2500      0.0000    846.6599      8.0433     63.5884
   154.5000      0.0000    838.6732      7.9771     56.4786
   154.7500      0.0000    831.6527      7.9645     50.8813
   155.0000      0.0000    831.9556      8.0381     47.1534
   155.2500      0.0000    843.8683      8.1862     44.7551
   155.5000      0.0000    864.6614      8.3550     42.8653
   155.7500      0.0000    886.1539      8.4834     41.2163
   156.0000      0.0000    901.7313      8.5412     40.1375
   156.2500      0.0000    910.4678      8.5435     40.0061
   156.5000      0.0000    914.0298      8.5376     41.0908
   156.7500      0.0000    911.4009      8.5706     43.7155
   157.0000      0.0000    898.5505      8.6583     47.8999
   157.2500      0.0000    873.4668      8.7770     52.7072
   157.5000      0.0000    840.2331      8.8877     56.4734
   157.7500      0.0000    807.2117      8.9643     57.9549
   158.0000      0.0000    781.6417      9.0005     57.1292
   158.2500      0.0000    766.3613      8.9965     55.0292
   158.5000      0.0000    760.5352      8.9527     52.9699
   158.7500      0.0000    761.8213      8.8756     51.6728
   159.0000      0.0000    767.5491      8.7801     50.9064
   159.2500      0.0000    774.9554      8.6844     50.0076
   159.5000      0.0000    781.6163      8.6047     48.5671
   159.7500      0.0000    786.2007      8.5559     46.5823
   160.0000      0.0000    788.6852      8.5472     44.4729
   160.2500      0.0000    789.7679      8.5701     43.1258
   160.5000      0.0000    790.1506      8.5969     43.3567
   160.7500      0.0000    790.2575      8.6010     45.0742
   161.0000      0.0000    790.2819      8.5813     47.2649
   161.2500      0.0000    790.2903      8.5592     48.8388
   161.5000      0.0000    790.2876      8.5530     49.2779
