~Version Information
 VERS.                                  2.0 : CWLS LAS VERSION
 WRAP.                                   NO : WRAPING MODE
 SWARE .                 MController 2.5.0J : SOFTWARE VERSION
~Well Information
 WELL.                         McLeod 9-42V: WELL
 COMP.                       Petrogulf Corp : COMPANY
 FLD.                       Purgatoire River: FIELD
 LOC.                  SE/NE Sec 9 T33S R67W: LOCATION
 DATE.                             11/11/04 : DATE(S) LOGGED
 SRVC.        Blanco Geological Services LLC: SERVICE COMPANY
 STAT.                                    CO: STATE
 CNTY.                            Las Animas: COUNTY
 CTRY.                                   USA: COUNTRY
 API.                           05-071-08071: API NUMBER
 STRT.FT                             424.00 : START DEPTH
 STOP.FT                            2270.00 : STOP DEPTH
 STEP.FT                               1.00 : DEPTH INCREMENT
 NULL.                                -9999 : NULL VALUE
~Curve information
 DEPTH.FT                                   :
 ROP.MIN/FT                                 :
 GAS.UNITS                                  :
~ASCII Log data
# ...
      1024.0         0.20         40.7 
      1025.0         0.20         37.3 
      1026.0         0.23         35.3 
      1027.0         0.20         33.4 
      1028.0         0.30         31.3 
      1029.0         0.23         30.4 
      1030.0         0.20         29.2 
      1031.0         0.18         29.0 
      1032.0         0.20         28.2 
      1033.0         0.20         28.0 
      1034.0         0.20         26.2 
      1035.0         0.33         25.5 
      1036.0         0.08         11.9 
      1037.0         0.30         11.9 
      1038.0         0.30         13.0 
      1039.0         0.30         18.2 
      1040.0         0.27         26.3 
      1041.0         0.20         36.2 
      1042.0         0.23         46.6 
      1043.0         0.17         53.2 
      1044.0         0.17         58.3 
      1045.0         0.17         62.7 
      1046.0         0.13         64.9 
      1047.0         0.17         66.6 
      1048.0         0.13         67.0 
      1049.0         0.13         66.2 
      1050.0         0.17         63.9 
      1051.0         0.13         60.0 
      1052.0         0.17         55.5 
      1053.0         0.25         49.5 
      1054.0         0.20         42.9 
      1055.0         0.17         38.0 
      1056.0         0.17         34.2 
      1057.0         0.17         30.9 
      1058.0         0.17         28.8 
      1059.0         0.13         26.6 
      1060.0         0.13         26.3 
      1061.0         0.17         24.5 
      1062.0         0.13         23.6 
      1063.0         0.40         20.6 
      1064.0         0.17         19.2 
      1065.0         0.10         19.6 
      1066.0         0.17         18.7 
      1067.0         0.23         18.0 
      1068.0         0.23         19.8 
      1069.0         0.20         24.3 
      1070.0         0.17         28.8 
      1071.0         0.23         37.7 
      1072.0         0.30         50.5 
      1073.0         0.27         63.9 
      1074.0         0.27         71.9 
      1075.0         0.30         75.1 
      1076.0         0.13         75.0 
      1077.0         0.15         73.7 
      1078.0         0.13         71.0 
      1079.0         0.10         68.3 
      1080.0         0.13         64.3 
      1081.0         0.10         60.1 
      1082.0         0.17         53.9 
      1083.0         0.13         49.1 
      1084.0         0.13         45.1 
      1085.0         0.10         42.5 
      1086.0         0.10         39.8 
      1087.0         0.10         36.2 
      1088.0         0.17         33.1 
      1089.0         0.13         29.2 
      1090.0         0.13         28.4 
      1091.0         0.13         26.1 
      1092.0         0.10         24.5 
      1093.0         0.10         21.1 
      1094.0         0.07         20.6 
      1095.0         0.27         19.2 
      1096.0         0.33         19.2 
      1097.0         0.37         26.9 
      1098.0         0.27         38.4 
      1099.0         0.23         52.1 
      1100.0         0.30         75.9 
      1101.0         0.23         90.3 
      1102.0         0.23         95.3 
      1103.0         0.18         93.3 
      1104.0         0.17         87.9 
      1105.0         0.23         77.7 
      1106.0         0.20         67.3 
      1107.0         0.20         56.5 
      1108.0         0.20         48.1 
      1109.0         0.17         41.6 
      1110.0         0.20         37.2 
      1111.0         0.23         34.4 
      1112.0         0.30         30.9 
      1113.0         0.30         28.5 
      1114.0         0.33         26.0 
      1115.0         0.30         23.0 
      1116.0         0.33         20.6 
      1117.0         0.28         19.7 
      1118.0         0.27         20.5 
      1119.0         0.30         21.6 
      1120.0         0.27         22.9 
      1121.0         0.37         22.1 
      1122.0         0.27         21.5 
      1123.0         0.10         21.1 
      1124.0         0.30         19.6 
      1125.0         0.27         17.9 
      1126.0         0.20         18.9 
      1127.0         0.07         21.7 
      1128.0         0.20         34.1 
      1129.0         0.13         45.9 
      1130.0         0.37         86.1 
      1131.0         0.43        156.3 
      1132.0         0.45        171.1 
      1133.0         0.37        131.5 
      1134.0         0.30         98.2 
      1135.0         0.30         75.5 
      1136.0         0.40         54.7 
      1137.0         0.27         45.8 
      1138.0         0.17         40.0 
      1139.0         0.20         36.4 
      1140.0         0.27         31.8 
      1141.0         0.23         30.3 
      1142.0         0.27         29.7 
      1143.0         0.23         28.2 
      1144.0         0.25         27.0 
      1145.0         0.23         25.4 
      1146.0         0.33         25.1 
      1147.0         0.30         24.9 
      1148.0         0.23         24.3 
      1149.0         0.23         23.8 
      1150.0         0.27         21.9 
      1151.0         0.23         20.4 
      1152.0         0.30         19.3 
      1153.0         0.27         18.9 
      1154.0         0.33         18.3 
      1155.0         0.30         18.3 
      1156.0         0.32         17.3 
      1157.0         0.23         16.3 
      1158.0         0.58         19.6 
      1159.0         0.10         22.5 
      1160.0         0.10         25.0 
      1161.0         0.20         33.6 
      1162.0         0.23         52.2 
      1163.0         0.27         84.7 
      1164.0         0.37        121.9 
      1165.0         0.40        117.7 
      1166.0         0.37         96.5 
      1167.0         0.33         80.1 
      1168.0         0.33         64.9 
      1169.0         0.30         53.4 
      1170.0         0.28         45.4 
      1171.0         0.27         38.5 
      1172.0         0.20         36.2 
      1173.0         0.20         33.9 
      1174.0         0.20         31.9 
      1175.0         0.13         31.8 
      1176.0         0.13         31.3 
      1177.0         0.13         31.4 
      1178.0         0.20         30.4 
      1179.0         0.20         28.2 
      1180.0         0.23         27.1 
      1181.0         0.30         25.3 
      1182.0         0.23         22.0 
      1183.0         0.23         20.0 
      1184.0         0.23         18.6 
      1185.0         0.17         18.8 
      1186.0         0.27         37.7 
      1187.0         0.53        114.6 
      1188.0         0.63        169.3 
      1189.0         0.43        122.7 
      1190.0         0.43         81.5 
      1191.0         0.43         57.8 
      1192.0         0.27         47.2 
      1193.0         0.35         39.0 
      1194.0         0.43         32.4 
      1195.0         0.33         28.8 
      1196.0         0.43         23.5 
      1197.0         0.43         21.7 
      1198.0         0.43         19.5 
      1199.0         0.40         16.9 
      1200.0         0.37         15.2 
      1201.0         0.33         15.3 
      1202.0         0.35         16.4 
      1203.0         0.37         16.2 
      1204.0         0.37         16.3 
      1205.0         0.37         16.6 
      1206.0         0.37         16.8 
      1207.0         0.27         17.8 
      1208.0         0.23         17.6 
      1209.0         0.27         16.2 
      1210.0         0.33         16.3 
      1211.0         0.40         17.7 
      1212.0         0.38         16.7 
      1213.0         0.33         15.4 
      1214.0         0.40         16.6 
      1215.0         0.20         19.6 
      1216.0         0.13         46.6 
      1217.0         0.17         60.9 
      1218.0         0.20         80.5 
      1219.0         0.27        128.4 
      1220.0         0.27        187.8 
      1221.0         0.23        205.2 
      1222.0         0.27        183.5 
      1223.0         0.23        147.2 
