~Version Information
VERS.                      2.0: CWLS Log ASCII Standard - VERSION 2.0
WRAP.                       NO: One line per depth step
~Well Information Block
STRT.FT               954.0000: 
STOP.FT              2517.0000: 
STEP.FT                 0.2500: 
NULL.                -999.2500: 
COMP.          Petrogulf Corporation: COMPANY
WELL.             Royal 8-33 V: WELL
FLD.           Purgatoire River: FIELD
LOC.           2365' FSL & 2336' FEL: LOCATION
PROV.                 Colorado: PROVINCE
CNTY.               Las Animas: COUNTRY
SRVC.                Patterson: SERVICE COMPANY
DATE.          Fri Dec 05 04:39:41 2003: LOG DATE
UWI.                          : UNIQUE WELL ID
~Curve Information Block
DEPT.FT            0 000 00 00: Depth
SP.mV                         : DIL Spontaneous Potential
RILD.Ohm-m                    : DIL Deep Resistivity
RILM.Ohm-m                    : DIL Medium Resistivity
RLL3.Ohm-m                    : DIL Shallow Resistivity
GR.GAPI                       : Gamma Ray
~Parameter Information Block
~A  Depth        SP         RILD        RILM        RLL3         GR     
# ...
  1990.0000   -102.7073     10.6721     12.7410     15.4605    141.7495
  1990.2500   -102.9341     10.3988     12.5162     15.3707    141.8390
  1990.5000   -103.1194     10.1807     12.3114     15.2575    140.1525
  1990.7500   -103.2259     10.0110     12.1305     15.1473    138.0084
  1991.0000   -103.2465      9.8809     11.9771     15.0398    134.0621
  1991.2500   -103.1914      9.7810     11.8513     14.9431    131.7030
  1991.5000   -103.0824      9.7018     11.7469     14.8744    129.6143
  1991.7500   -102.9528      9.6357     11.6507     14.8304    129.1614
  1992.0000   -102.8465      9.5777     11.5478     14.7755    129.0154
  1992.2500   -102.8127      9.5265     11.4280     14.6744    128.9081
  1992.5000   -102.9031      9.4836     11.2917     14.5400    128.9597
  1992.7500   -103.1661      9.4532     11.1489     14.4257    129.4537
  1993.0000   -103.6408      9.4415     11.0162     14.3511    130.7499
  1993.2500   -104.3503      9.4561     10.9122     14.2488    131.4557
  1993.5000   -105.2856      9.5048     10.8555     14.0114    131.6597
  1993.7500   -106.3785      9.5925     10.8653     13.6004    131.5150
  1994.0000   -107.4995      9.7185     10.9606     13.1157    131.9779
  1994.2500   -108.5084      9.8744     11.1584     12.7804    133.0213
  1994.5000   -109.3209     10.0451     11.4685     12.8709    134.8121
  1994.7500   -109.9337     10.2129     11.8872     13.6389    135.0859
  1995.0000   -110.3957     10.3644     12.3896     15.2310    132.5200
  1995.2500   -110.7568     10.4954     12.9251     17.5802    128.7460
  1995.5000   -111.0321     10.6139     13.4222     20.2918    121.8919
  1995.7500   -111.1946     10.7363     13.8097     22.6445    118.3843
  1996.0000   -111.1808     10.8809     14.0489     23.8412    117.2817
  1996.2500   -110.8966     11.0602     14.1534     23.4552    119.5799
  1996.5000   -110.2461     11.2745     14.1791     21.7532    125.8238
  1996.7500   -109.1915     11.5092     14.1914     19.5623    130.2164
  1997.0000   -107.7921     11.7359     14.2346     17.7428    134.8180
  1997.2500   -106.1799     11.9190     14.3172     16.7246    136.0721
  1997.5000   -104.5074     12.0257     14.4142     16.4473    136.0270
  1997.7500   -102.9162     12.0371     14.4816     16.6016    135.6246
  1998.0000   -101.5175     11.9548     14.4767     16.8683    135.5710
  1998.2500   -100.3580     11.8034     14.3763     17.0229    136.1029
  1998.5000    -99.3905     11.6251     14.1855     16.9649    137.7060
  1998.7500    -98.4895     11.4678     13.9318     16.7110    139.0627
  1999.0000    -97.5167     11.3717     13.6545     16.3291    140.5304
  1999.2500    -96.3952     11.3586     13.3938     15.8613    140.5846
  1999.5000    -95.1474     11.4265     13.1829     15.3298    139.6386
  1999.7500    -93.8785     11.5498     13.0435     14.8124    139.2410
  2000.0000    -92.7279     11.6855     12.9833     14.4662    140.0960
  2000.2500    -91.8168     11.7847     12.9971     14.4419    141.2990
  2000.5000    -91.2119     11.8087     13.0686     14.7775    142.3774
  2000.7500    -90.9137     11.7454     13.1740     15.3746    141.8703
  2001.0000    -90.8777     11.6169     13.2872     16.0533    139.5130
  2001.2500    -91.0555     11.4684     13.3875     16.6213    137.7935
  2001.5000    -91.4263     11.3470     13.4675     16.9378    136.5217
  2001.7500    -91.9874     11.2831     13.5357     16.9784    136.6095
  2002.0000    -92.7172     11.2866     13.6118     16.8601    136.6947
  2002.2500    -93.5421     11.3529     13.7179     16.7649    135.7204
  2002.5000    -94.3353     11.4720     13.8698     16.8114    132.2591
  2002.7500    -94.9504     11.6330     14.0721     17.0032    129.2189
  2003.0000    -95.2724     11.8282     14.3162     17.2890    125.1136
  2003.2500    -95.2641     12.0558     14.5855     17.6291    123.3640
  2003.5000    -94.9897     12.3227     14.8635     17.9910    122.5486
  2003.7500    -94.5998     12.6421     15.1436     18.3251    122.9054
  2004.0000    -94.2755     13.0253     15.4331     18.5822    123.8520
  2004.2500    -94.1557     13.4749     15.7520     18.7470    124.3782
  2004.5000    -94.2896     13.9863     16.1275     18.8469    125.0178
  2004.7500    -94.6314     14.5548     16.5917     18.9382    125.4727
  2005.0000    -95.0732     15.1820     17.1830     19.0950    125.8796
  2005.2500    -95.4954     15.8737     17.9492     19.4196    125.4677
  2005.5000    -95.8183     16.6309     18.9455     20.0920    123.2317
  2005.7500    -96.0385     17.4421     20.2249     21.4408    120.7167
  2006.0000    -96.2345     18.2807     21.8248     23.9624    115.7045
  2006.2500    -96.5333     19.1088     23.7524     28.2120    111.6202
  2006.5000    -97.0493     19.8813     25.9744     34.5465    104.7141
  2006.7500    -97.8242     20.5509     28.4073     42.7864    100.0106
  2007.0000    -98.7977     21.0763     30.8960     51.9364     93.3967
  2007.2500    -99.8265     21.4349     33.1676     60.1779     89.3826
  2007.5000   -100.7438     21.6323     34.7953     65.3485     84.1715
  2007.7500   -101.4253     21.6933     35.2981     65.8498     81.6739
  2008.0000   -101.8201     21.6359     34.4467     61.4589     80.5678
  2008.2500   -101.9398     21.4510     32.5165     53.4387     82.1162
  2008.5000   -101.8272     21.1060     30.1220     43.8949     87.4830
  2008.7500   -101.5284     20.5698     27.8114     34.9233     91.9437
  2009.0000   -101.0800     19.8400     25.8490     28.0504     97.5704
  2009.2500   -100.5157     18.9502     24.2529     23.9936     99.8690
  2009.5000    -99.8792     17.9601     22.9143     22.5870    101.2821
  2009.7500    -99.2284     16.9396     21.6947     22.9165    101.2048
  2010.0000    -98.6261     15.9575     20.4838     23.7428     99.9127
  2010.2500    -98.1298     15.0739     19.2299     24.0347     98.7154
  2010.5000    -97.7785     14.3335     17.9470     23.3016     98.4257
  2010.7500    -97.5712     13.7593     16.7005     21.6141    100.7342
  2011.0000    -97.4512     13.3512     15.5757     19.4264    108.9239
  2011.2500    -97.3242     13.0902     14.6436     17.3280    116.3873
  2011.5000    -97.1129     12.9465     13.9421     15.7842    126.6522
  2011.7500    -96.8096     12.8895     13.4757     14.9504    130.9147
  2012.0000    -96.4717     12.8934     13.2301     14.6872    132.7837
  2012.2500    -96.1582     12.9417     13.1870     14.7709    132.1013
  2012.5000    -95.8736     13.0287     13.3327     15.1306    130.5168
  2012.7500    -95.5759     13.1620     13.6578     15.9593    129.6608
  2013.0000    -95.2194     13.3629     14.1483     17.6707    128.0865
  2013.2500    -94.7778     13.6634     14.7766     20.6566    126.2669
  2013.5000    -94.2397     14.0993     15.4987     24.8274    122.1640
  2013.7500    -93.6022     14.7000     16.2656     29.2401    118.8100
  2014.0000    -92.8768     15.4803     17.0494     32.3754    113.6306
  2014.2500    -92.0987     16.4405     17.8713     33.1779    110.7055
  2014.5000    -91.3239     17.5789     18.8136     32.0595    108.2611
  2014.7500    -90.6050     18.9098     20.0069     30.9606    107.9948
  2015.0000    -89.9674     20.4693     21.6019     32.5061    107.8095
  2015.2500    -89.4082     22.2985     23.7371     38.9727    106.1080
  2015.5000    -88.9064     24.4136     26.5015     51.4335     99.2912
  2015.7500    -88.4307     26.7820     29.8892     69.0688     92.2128
  2016.0000    -87.9524     29.3264     33.7659     88.9768     80.2805
  2016.2500    -87.4759     31.9579     37.8877    107.0915     73.0187
  2016.5000    -87.0689     34.6122     41.9970    120.1109     64.4385
  2016.7500    -86.8574     37.2581     45.9327    127.2329     60.1011
  2017.0000    -86.9746     39.8748     49.6578    130.2850     54.8996
  2017.2500    -87.5007     42.4354     53.1804    131.9723     52.1364
  2017.5000    -88.4335     44.9133     56.4490    133.6332     49.3670
  2017.7500    -89.6990     47.2934     59.3146    134.4689     48.6072
