~Version Information
VERS.                      2.0: CWLS Log ASCII Standard - VERSION 2.0
WRAP.                       NO: One line per depth step
~Well Information Block
STRT.FT               360.0000: 
STOP.FT              1622.7500: 
STEP.FT                 0.2500: 
NULL.                -999.2500: 
COMP.          Pioneer Natural Resources: COMPANY
WELL.                Eric 42-9: WELL
FLD.           Purgatoire River: FIELD
LOC.           2050' FNL & 850' FEL: LOCATION
PROV.                 Colorado: PROVINCE
CNTY.               Las Animas: COUNTRY
SRVC.                Patterson: SERVICE COMPANY
DATE.          Sun Oct 31 17:26:46 2004: LOG DATE
UWI.           05 071 07999 00: UNIQUE WELL ID
~Curve Information Block
DEPT.FT            0 000 00 00: Depth
SN.Ohm-m                      : IEL Short Normal
SP.mV                         : IEL Spontaneous Potential
DIR.Ohm-m                     : IEL Induction Resistivity
GR.GAPI                       : Gamma Ray
~Parameter Information Block
~A  Depth        SN          SP         DIR          GR     
   360.0000   2000.0000   2100.0000 100000.0000     70.7623
   360.2500   2000.0000   2100.0000 100000.0000     73.5248
   360.5000   2000.0000   2100.0000 100000.0000     77.9629
   360.7500   2000.0000   2100.0000 100000.0000     80.2552
   361.0000   2000.0000   2100.0000 100000.0000     82.1038
   361.2500   2000.0000   2100.0000 100000.0000     82.4523
   361.5000   2000.0000   2100.0000 100000.0000     82.0931
   361.7500   2000.0000   2100.0000 100000.0000     81.1703
   362.0000   2000.0000   2100.0000 100000.0000     78.2087
   362.2500   2000.0000   2100.0000 100000.0000     75.1900
   362.5000   2000.0000   2100.0000 100000.0000     70.0402
   362.7500   2000.0000   2100.0000 100000.0000     66.8885
   363.0000   2000.0000   2100.0000 100000.0000     63.2715
   363.2500   2000.0000   2100.0000 100000.0000     61.6602
   363.5000   2000.0000   2100.0000 100000.0000     60.3542
   363.7500   2000.0000   2100.0000 100000.0000     60.3173
   364.0000   2000.0000   2100.0000 100000.0000     62.0766
   364.2500   2000.0000   2100.0000 100000.0000     64.8344
   364.5000   2000.0000   2100.0000 100000.0000     71.4429
   364.7500   2000.0000   2100.0000 100000.0000     77.0387
   365.0000   2000.0000   2100.0000 100000.0000     85.9173
   365.2500   2000.0000   2100.0000 100000.0000     91.5875
   365.5000   2000.0000   2100.0000 100000.0000     99.5278
   365.7500   2000.0000   2100.0000 100000.0000    104.4938
   366.0000   2000.0000   2100.0000 100000.0000    111.0936
   366.2500   2000.0000   2100.0000 100000.0000    114.5244
   366.5000   2000.0000   2100.0000 100000.0000    117.7864
   366.7500   2000.0000   2100.0000 100000.0000    118.7252
   367.0000   2000.0000   2100.0000 100000.0000    118.6449
   367.2500   2000.0000   2100.0000 100000.0000    118.0135
   367.5000   2000.0000   2100.0000 100000.0000    117.2532
   367.7500   2000.0000   2100.0000 100000.0000    117.4213
   368.0000   2000.0000   2100.0000 100000.0000    118.8132
   368.2500   2000.0000   2100.0000 100000.0000    120.0700
   368.5000   2000.0000   2100.0000 100000.0000    121.5880
   368.7500   2000.0000   2100.0000 100000.0000    122.2057
   369.0000   2000.0000   2100.0000 100000.0000    123.0036
   369.2500   2000.0000   2100.0000 100000.0000    123.8852
   369.5000   2000.0000   2100.0000 100000.0000    126.1180
   369.7500   2000.0000   2100.0000 100000.0000    127.9943
   370.0000   2000.0000   2100.0000 100000.0000    130.2930
   370.2500   2000.0000   2100.0000 100000.0000    130.6758
   370.5000   2000.0000   2100.0000 100000.0000    128.5935
   370.7500   2000.0000   2100.0000 100000.0000     83.7087
   371.0000   2000.0000   2100.0000 100000.0000     80.1034
   371.2500   2000.0000   2100.0000 100000.0000     78.1768
   371.5000   2000.0000   2100.0000 100000.0000     76.9319
   371.7500   2000.0000   2100.0000 100000.0000     77.1529
   372.0000   2000.0000   2100.0000 100000.0000     78.2140
   372.2500   2000.0000   2100.0000 100000.0000     78.7530
   372.5000   2000.0000   2100.0000 100000.0000     78.4272
   372.7500   2000.0000   2100.0000 100000.0000     77.3108
   373.0000   2000.0000   2100.0000 100000.0000     74.7862
   373.2500   2000.0000   2100.0000 100000.0000     73.0438
   373.5000   2000.0000   2100.0000 100000.0000     71.0879
   373.7500   2000.0000   2100.0000 100000.0000     70.5211
   374.0000   2000.0000   2100.0000 100000.0000     71.2013
   374.2500   2000.0000   2100.0000 100000.0000     72.8884
   374.5000   2000.0000   2100.0000 100000.0000     77.3476
   374.7500   2000.0000   2100.0000 100000.0000     81.3227
   375.0000   2000.0000   2100.0000 100000.0000     87.6432
   375.2500   2000.0000   2100.0000 100000.0000     91.1828
   375.5000   2000.0000   2100.0000 100000.0000     94.1706
   375.7500   2000.0000   2100.0000 100000.0000     94.4546
   376.0000   2000.0000   2100.0000 100000.0000     93.4216
   376.2500   2000.0000   2100.0000 100000.0000     92.7639
   376.5000   2000.0000   2100.0000 100000.0000     92.7685
   376.7500   2000.0000   2100.0000    251.6613     93.3260
   377.0000   2000.0000   2100.0000     15.9116     94.6477
   377.2500   2000.0000   2100.0000     14.8749     95.9737
   377.5000   2000.0000   2100.0000     30.9417     98.8504
   377.7500   2000.0000   2100.0000 100000.0000    101.0827
   378.0000   2000.0000   2100.0000 100000.0000    104.0603
   378.2500   2000.0000   2100.0000 100000.0000    105.5925
   378.5000   2000.0000   2100.0000 100000.0000    107.6448
   378.7500   2000.0000   2100.0000 100000.0000    109.3023
   379.0000   2000.0000   2100.0000     96.4670    112.6954
   379.2500   2000.0000   2100.0000     18.3883    115.4364
   379.5000   2000.0000   2100.0000     10.8879    119.4579
   379.7500   2000.0000   2100.0000      8.4682    121.5830
   380.0000   2000.0000   2100.0000      7.5147    123.5900
   380.2500   2000.0000   2100.0000      7.1761    124.2417
   380.5000   2000.0000   2100.0000      7.1306    124.5287
   380.7500   2000.0000   2100.0000      7.2064    124.3940
   381.0000   2000.0000   2100.0000      7.2904    123.8075
   381.2500   2000.0000   2100.0000      7.3182    123.2058
   381.5000   2000.0000   2100.0000      7.2851    122.0830
   381.7500   2000.0000   2100.0000      7.2456    121.1615
   382.0000   2000.0000   2100.0000      7.2823    119.2080
   382.2500   2000.0000   2100.0000      7.4706    117.3699
   382.5000   2000.0000   2100.0000      7.8553    114.2543
   382.7500   2000.0000   2100.0000      8.4310    112.5903
   383.0000   2000.0000   2100.0000      9.1192    111.4255
   383.2500   2000.0000   2100.0000      9.7654    111.2767
   383.5000   2000.0000   2100.0000     10.1994    111.0256
   383.7500   2000.0000   2100.0000     10.3423    110.6502
   384.0000   2000.0000   2100.0000     10.2513    110.3609
   384.2500   2000.0000   2100.0000     10.0580    110.7491
   384.5000   2000.0000   2100.0000      9.8842    112.2126
   384.7500   2000.0000   2100.0000      9.7986    113.4446
   385.0000   2000.0000   2100.0000      9.8112    115.1038
   385.2500   2000.0000   2100.0000      9.8836    115.9863
   385.5000   2000.0000   2100.0000      9.9558    117.2518
   385.7500   2000.0000   2100.0000      9.9821    118.2739
   386.0000   2000.0000   2100.0000      9.9558    120.0345
   386.2500   2000.0000   2100.0000      9.8980    121.0782
   386.5000   2000.0000   2100.0000      9.8279    121.8709
   386.7500   2000.0000   2100.0000      9.7443    121.5504
   387.0000   2000.0000   2100.0000      9.6344    119.3010
   387.2500   2000.0000   2100.0000      9.4950    116.7152
   387.5000   2000.0000   2100.0000      9.3427    112.4617
   387.7500   2000.0000   2100.0000      9.2029    110.2732
   388.0000   2000.0000   2100.0000      9.0926    108.3789
   388.2500   2000.0000   2100.0000      9.0120    107.5450
   388.5000   2000.0000   2100.0000      8.9486    105.8754
   388.7500   2000.0000   2100.0000      8.8875    104.1901
   389.0000   2000.0000   2100.0000      8.8205    101.0210
   389.2500   2000.0000   2100.0000      8.7478     99.0100
   389.5000   2000.0000   2100.0000      8.6755     97.3837
   389.7500   2000.0000   2100.0000      8.6095     97.6200
   390.0000   2000.0000   2100.0000      8.5534     99.5338
   390.2500   2000.0000   2100.0000      8.5074    101.3740
   390.5000   2000.0000   2100.0000      8.4698    104.7491
   390.7500   2000.0000   2100.0000      8.4374    107.5198
   391.0000   2000.0000   2100.0000      8.4070    112.2156
   391.2500   2000.0000   2100.0000      8.3767    115.2255
   391.5000   2000.0000   2100.0000      8.3478    118.8305
   391.7500   2000.0000   2100.0000      8.3246    120.5923
   392.0000   2000.0000   2100.0000      8.3122    122.8471
   392.2500   2000.0000   2100.0000      8.3121    124.5197
   392.5000   2000.0000   2100.0000      8.3202    127.4790
   392.7500   2000.0000   2100.0000      8.3281    129.3105
   393.0000   2000.0000   2100.0000      8.3263    130.6672
   393.2500   2000.0000   2100.0000      8.3104    130.4933
