~Version Information
VERS.                      2.0: CWLS Log ASCII Standard - VERSION 2.0
WRAP.                       NO: One line per depth step
~Well Information Block
STRT.FT                -9.7500: 
STOP.FT              2158.2500: 
STEP.FT                 0.2500: 
NULL.                -999.2500: 
COMP.          Petrogulf Corporation: COMPANY
WELL.             State 16-41V: WELL
FLD.           Purgatoire River: FIELD
LOC.           335' FNL & 823' FEL--: LOCATION
PROV.                 Colorado: PROVINCE
CNTY.               Las Animas: COUNTRY
SRVC.                Patterson: SERVICE COMPANY
DATE.          Wed Aug 17 12:15:10 2005: LOG DATE
UWI.           05 071 08344 00: UNIQUE WELL ID
~Curve Information Block
DEPT.FT            0 000 00 00: Depth
CCL.                          : Casing Collar Locator
TT3.usec                      : CBL 3' Travel Time
AMP3.mV                       : CBL 3' Amplitude
GR.GAPI                       : Gamma Ray
~Parameter Information Block
~A  Depth       CCL         TT3         AMP3         GR     
# ...
   124.2500      0.0000    786.3399     12.1908     94.6402
   124.5000      0.0000    759.0989     12.5719     97.2920
   124.7500      0.0000    714.5065     13.0161     99.3051
   125.0000      0.0000    668.8833     13.5848    100.3375
   125.2500      0.0000    634.7244     14.3020    100.5905
   125.5000      0.0000    614.7899     15.0823    100.4714
   125.7500      0.0000    605.2792     15.7758    100.3852
   126.0000      0.0000    602.3715     16.2836    100.7507
   126.2500      0.0000    604.7940     16.6107    101.6656
   126.5000      0.0000    609.9337     16.8212    102.5022
   126.7500      0.0000    611.0681     16.9670    102.2535
   127.0000      0.0000    603.4822     17.0518    100.3418
   127.2500      0.0000    592.6136     17.0424     96.9386
   127.5000      0.0000    590.7164     16.9149     92.7154
   127.7500      0.0000    603.6685     16.6970     88.5837
   128.0000      0.0000    623.9665     16.4577     85.4723
   128.2500      0.0000    638.1043     16.2575     83.9412
   128.5000      0.0000    637.7578     16.1136     83.8943
   128.7500      0.0000    622.4130     16.0122     84.6211
   129.0000      0.0000    595.8152     15.9410     85.0153
   129.2500      0.0000    563.7791     15.9057     84.0036
   129.5000      0.0000    533.1791     15.9225     81.2008
   129.7500      0.0000    509.4921     16.0003     77.2688
   130.0000      0.0000    494.8121     16.1329     73.5103
   130.2500      0.0000    488.1873     16.3101     71.0844
   130.5000      0.0000    487.0973     16.5302     70.6348
   130.7500      0.0000    488.6147     16.7912     72.3749
   131.0000      0.0000    490.6309     17.0677     76.0480
   131.2500      0.0000    493.4253     17.3078     80.7837
   131.5000      0.0000    500.5537     17.4646     85.3798
   131.7500      0.0000    517.5738     17.5303     88.8407
   132.0000      0.0000    547.9845     17.5382     90.5069
   132.2500      0.0000    587.6893     17.5371     90.0241
   132.5000      0.0000    622.7650     17.5609     87.7467
   132.7500      0.0000    636.0471     17.6086     84.9239
   133.0000      0.0000    619.9755     17.6481     82.8806
   133.2500      0.0000    583.3817     17.6450     81.9892
   133.5000      0.0000    544.1652     17.5899     81.6686
   133.7500      0.0000    515.4879     17.4962     81.2200
   134.0000      0.0000    499.4105     17.3761     80.5712
   134.2500      0.0000    491.2503     17.2261     80.4248
   134.5000      0.0000    486.5577     17.0350     81.6743
   134.7500      0.0000    483.9247     16.8045     84.4456
   135.0000      0.0000    484.4145     16.5594     87.7683
   135.2500      0.0000    490.8961     16.3310     90.3747
   135.5000      0.0000    507.5584     16.1278     91.7348
   135.7500      0.0000    537.5059     15.9286     92.2886
   136.0000      0.0000    578.5357     15.7108     92.8401
   136.2500      0.0000    621.0250     15.4821     93.8228
   136.5000      0.0000    651.8393     15.2808     95.0623
   136.7500      0.0000    662.9159     15.1442     96.1784
   137.0000      0.0000    657.8593     15.0771     97.0456
   137.2500      0.0000    649.4655     15.0501     97.7043
   137.5000      0.0000    647.8474     15.0263     98.1351
   137.7500      0.0000    650.0165     14.9889     98.4177
   138.0000      0.0000    643.4609     14.9415     98.8968
   138.2500      0.0000    620.6311     14.8873     99.8236
   138.5000      0.0000    587.4075     14.8157    100.8219
   138.7500      0.0000    556.8503     14.7096    100.9270
   139.0000      0.0000    537.7725     14.5596     99.5426
   139.2500      0.0000    530.4585     14.3706     97.4794
   139.5000      0.0000    530.4756     14.1578     96.5525
   139.7500      0.0000    533.9958     13.9360     97.7618
   140.0000      0.0000    539.6627     13.7117    100.3404
   140.2500      0.0000    546.3470     13.4885    102.9608
   140.5000      0.0000    550.6631     13.2784    105.1205
   140.7500      0.0000    549.0227     13.0992    106.8824
   141.0000      0.0000    542.1627     12.9568    108.0604
   141.2500      0.0000    535.6851     12.8414    108.3170
   141.5000      0.0000    536.2782     12.7446    107.5551
   141.7500      0.0000    548.3366     12.6653    105.7186
   142.0000      0.0000    571.6208     12.5963    102.6713
   142.2500      0.0000    598.8749     12.5181     98.8353
   142.5000      0.0000    617.2665     12.4206     95.6382
   142.7500      0.0000    616.8889     12.3217     94.5264
   143.0000      0.0000    599.2095     12.2561     95.4788
   143.2500      0.0000    574.8171     12.2494     97.0962
   143.5000      0.0000    552.6487     12.3057     98.1815
   143.7500      0.0000    533.4094     12.4114     98.5421
   144.0000      0.0000    513.3234     12.5435     98.2867
   144.2500      0.0000    491.8250     12.6715     97.1689
   144.5000      0.0000    474.1335     12.7549     94.9791
   144.7500      0.0000    466.2995     12.7531     92.2215
   145.0000      0.0000    468.7004     12.6560     89.9537
   145.2500      0.0000    475.6470     12.5038     88.7476
   145.5000      0.0000    480.5165     12.3693     87.8496
   145.7500      0.0000    479.2112     12.3175     85.6434
   146.0000      0.0000    469.6805     12.3798     81.1129
   146.2500      0.0000    451.8358     12.5479     74.7658
   146.5000      0.0000    429.0393     12.7786     68.1446
   146.7500      0.0000    407.3212     13.0078     62.7089
   147.0000      0.0000    391.4823     13.1756     59.3047
   147.2500      0.0000    382.3126     13.2523     58.2757
   147.5000      0.0000    377.3675     13.2506     59.5816
   147.7500      0.0000    373.3727     13.2158     62.7189
   148.0000      0.0000    367.9728     13.1997     66.7092
   148.2500      0.0000    360.5332     13.2338     70.2191
   148.5000      0.0000    352.1619     13.3172     71.8705
   148.7500      0.0000    344.7654     13.4253     70.8736
   149.0000      0.0000    339.6552     13.5285     67.6296
   149.2500      0.0000    336.9015     13.5996     63.6215
   149.5000      0.0000    335.7652     13.6083     60.5770
   149.7500      0.0000    335.4485     13.5241     59.6268
   150.0000      0.0000    335.4930     13.3393     60.8583
   150.2500      0.0000    335.8607     13.0879     63.2918
   150.5000      0.0000    336.9588     12.8309     65.4492
   150.7500      0.0000    339.5757     12.6119     66.4632
   151.0000      0.0000    344.4572     12.4257     66.9078
   151.2500      0.0000    351.5600     12.2283     68.3946
   151.5000      0.0000    359.6862     11.9822     72.0910
   151.7500      0.0000    367.2711     11.6947     77.5794
   152.0000      0.0000    374.0451     11.4115     83.2092
   152.2500      0.0000    382.3848     11.1744     87.3802
   152.5000      0.0000    397.3301     10.9929     89.4677
   152.7500      0.0000    424.2685     10.8573     89.9450
   153.0000      0.0000    464.0963     10.7647     89.9308
   153.2500      0.0000    509.2819     10.7235     90.5077
   153.5000      0.0000    546.7308     10.7381     92.1720
   153.7500      0.0000    567.2751     10.7999     94.6078
   154.0000      0.0000    572.3304     10.8936     96.7810
   154.2500      0.0000    570.6058     11.0135     97.5373
   154.5000      0.0000    570.5217     11.1699     96.6655
   154.7500      0.0000    577.6689     11.3659     95.3939
   155.0000      0.0000    596.2910     11.5676     95.3986
   155.2500      0.0000    627.4216     11.7113     97.3364
   155.5000      0.0000    664.2692     11.7515    100.6502
   155.7500      0.0000    692.7570     11.6926    104.4714
   156.0000      0.0000    699.0472     11.5727    108.0239
   156.2500      0.0000    677.7445     11.4279    110.3029
   156.5000      0.0000    635.7987     11.2764    110.1773
   156.7500      0.0000    589.9640     11.1241    107.2036
   157.0000      0.0000    556.5132     10.9788    102.1475
   157.2500      0.0000    539.0200     10.8579     96.4732
   157.5000      0.0000    527.5770     10.7784     91.3787
