~Version Information
VERS.                      2.0: CWLS Log ASCII Standard - VERSION 2.0
WRAP.                       NO: One line per depth step
~Well Information Block
STRT.FT                -7.5000: 
STOP.FT              1877.2500: 
STEP.FT                 0.2500: 
NULL.                -999.2500: 
COMP.          Pioneer Natural Resources: COMPANY
WELL.            Nova 11-14 Tr: WELL
FLD.           Purgatorie River: FIELD
LOC.           706' FNL & 1109' FWL--: LOCATION
PROV.                       CO: PROVINCE
CNTY.               Las Animas: COUNTRY
SRVC.          Patterson Wireline: SERVICE COMPANY
DATE.          Tue Jul 26 15:08:01 2005: LOG DATE
UWI.           05 071 08434 00: UNIQUE WELL ID
~Curve Information Block
DEPT.FT            0 000 00 00: Depth
CCL.                          : Casing Collar Locator
TT3.usec                      : CBL 3' Travel Time
AMP3.mV                       : CBL 3' Amplitude
GR.GAPI                       : Gamma Ray
~Parameter Information Block
~A  Depth       CCL         TT3         AMP3         GR     
# ...
  1466.5000      0.0000    794.2835      8.7253    131.0445
  1466.7500      0.0000    807.0789      9.3558    132.6604
  1467.0000      0.0000    813.5331      9.8898    134.0163
  1467.2500      0.0000    812.8583     10.2290    135.9146
  1467.5000      0.0000    807.7864     10.4939    137.8654
  1467.7500      0.0000    802.4425     10.8884    139.1002
  1468.0000      0.0000    799.6878     11.4822    139.4640
  1468.2500      0.0000    800.3630     12.1642    138.9546
  1468.5000      0.0000    803.8410     12.7692    137.2659
  1468.7500      0.0000    808.3217     13.2118    134.5120
  1469.0000      0.0000    811.0764     13.5045    132.0000
  1469.2500      0.0000    809.6575     13.6806    131.3993
  1469.5000      0.0000    803.4160     13.7343    132.7789
  1469.7500      0.0000    793.8255     13.6461    133.7975
  1470.0000      0.0000    783.5994     13.4552    131.6437
  1470.2500      0.0000    775.5811     13.2724    126.1394
  1470.5000      0.0000    771.7300     13.2019    120.3244
  1470.7500      0.0000    772.2853     13.2495    117.5229
  1471.0000      0.0000    775.6403     13.3150    118.3729
  1471.2500      0.0000    779.0307     13.2803    121.0174
  1471.5000      0.0000    779.8363     13.0975    123.4471
  1471.7500      0.0000    777.1345     12.8034    125.1036
  1472.0000      0.0000    772.3848     12.4739    126.6906
  1472.2500      0.0000    768.3627     12.1940    129.0867
  1472.5000      0.0000    767.3323     12.0611    132.4547
  1472.7500      0.0000    769.9425     12.1695    135.9848
  1473.0000      0.0000    774.9304     12.5491    138.2995
  1473.2500      0.0000    779.6390     13.1270    138.2786
  1473.5000      0.0000    781.6778     13.7866    135.9760
  1473.7500      0.0000    780.6884     14.4779    132.8901
  1474.0000      0.0000    778.0636     15.2643    130.9286
  1474.2500      0.0000    774.2619     16.2623    130.7841
  1474.5000      0.0000    765.4562     17.5456    131.4839
  1474.7500      0.0000    742.5240     19.0973    131.8342
  1475.0000      0.0000    695.4174     20.8398    132.1455
  1475.2500      0.0000    622.1541     22.7039    133.9324
  1475.5000      0.0000    534.4407     24.6629    137.7526
  1475.7500      0.0000    451.9308     26.6835    141.8174
  1476.0000      0.0000    389.5252     28.6514    143.1513
  1476.2500      0.0000    350.4622     30.3734    140.2240
  1476.5000      0.0000    329.6042     31.6715    134.3398
  1476.7500      0.0000    320.0394     32.4723    128.3603
  1477.0000      0.0000    316.7066     32.8124    124.2286
  1477.2500      0.0000    317.3059     32.7830    121.8941
  1477.5000      0.0000    322.3605     32.4875    120.2493
  1477.7500      0.0000    334.7615     32.0465    118.5021
  1478.0000      0.0000    357.4827     31.6059    116.6577
  1478.2500      0.0000    388.9432     31.3105    115.1847
  1478.5000      0.0000    419.6851     31.2585    114.4290
  1478.7500      0.0000    437.5343     31.4780    114.2449
  1479.0000      0.0000    438.9962     31.9381    114.1434
  1479.2500      0.0000    431.9218     32.5808    113.7538
  1479.5000      0.0000    423.5925     33.3563    112.9683
  1479.7500      0.0000    411.2478     34.2457    111.6695
  1480.0000      0.0000    389.1887     35.2559    109.7599
  1480.2500      0.0000    360.1232     36.3947    107.6226
  1480.5000      0.0000    333.6022     37.6523    105.9759
  1480.7500      0.0000    316.2422     38.9894    104.8069
  1481.0000      0.0000    307.7789     40.3045    102.9630
  1481.2500      0.0000    304.7028     41.3881     99.4881
  1481.5000      0.0000    304.6287     41.9452     95.0101
  1481.7500      0.0000    308.3098     41.7346     91.1578
  1482.0000      0.0000    320.4730     40.7332     88.9056
  1482.2500      0.0000    349.5260     39.1557     88.1087
  1482.5000      0.0000    403.0751     37.3011     88.4108
  1482.7500      0.0000    479.2248     35.3855     89.7807
  1483.0000      0.0000    561.3451     33.4942     91.9760
  1483.2500      0.0000    625.7974     31.6252     94.2514
  1483.5000      0.0000    659.1490     29.7371     96.1935
  1483.7500      0.0000    668.4908     27.7849     98.3867
  1484.0000      0.0000    673.6761     25.7644    101.5606
  1484.2500      0.0000    689.1229     23.7457    105.3724
  1484.5000      0.0000    713.8474     21.8537    108.7715
  1484.7500      0.0000    737.8649     20.2031    111.3733
  1485.0000      0.0000    754.1791     18.8525    113.8017
  1485.2500      0.0000    762.8951     17.8201    116.6118
  1485.5000      0.0000    767.4166     17.1178    119.3152
  1485.7500      0.0000    770.5090     16.7496    120.7631
  1486.0000      0.0000    773.6747     16.6847    120.3675
  1486.2500      0.0000    777.6838     16.8537    118.5318
  1486.5000      0.0000    782.4516     17.1644    115.8495
  1486.7500      0.0000    786.9015     17.5039    112.5722
  1487.0000      0.0000    789.4928     17.7376    109.1961
  1487.2500      0.0000    789.0995     17.7495    106.8442
  1487.5000      0.0000    785.6333     17.5137    106.4701
  1487.7500      0.0000    780.3931     17.1219    107.8985
  1488.0000      0.0000    775.6279     16.7154    109.8548
  1488.2500      0.0000    772.8799     16.3719    110.8764
  1488.5000      0.0000    771.6126     16.0602    110.2177
  1488.7500      0.0000    770.2487     15.7068    108.0482
  1489.0000      0.0000    768.6797     15.2889    105.1862
  1489.2500      0.0000    768.8224     14.8430    102.8876
  1489.5000      0.0000    772.3779     14.4003    102.5830
  1489.7500      0.0000    778.7424     13.9546    105.1302
  1490.0000      0.0000    785.5345     13.5148    109.8855
  1490.2500      0.0000    790.7264     13.1696    114.8371
  1490.5000      0.0000    793.9281     13.0699    118.2832
  1490.7500      0.0000    796.0460     13.3418    120.3511
  1491.0000      0.0000    798.2328     14.0175    122.3203
  1491.2500      0.0000    800.7089     15.0402    124.6126
  1491.5000      0.0000    801.7787     16.3202    126.2463
  1491.7500      0.0000    797.6555     17.7766    126.2158
  1492.0000      0.0000    784.1202     19.3206    124.6330
  1492.2500      0.0000    759.9628     20.8163    122.5916
  1492.5000      0.0000    728.7203     22.1063    121.6093
  1492.7500      0.0000    694.2460     23.1076    123.0076
  1493.0000      0.0000    653.8521     23.8730    126.8434
  1493.2500      0.0000    600.8710     24.5372    131.1121
  1493.5000      0.0000    536.8277     25.2013    132.7050
  1493.7500      0.0000    476.0657     25.8664    129.8407
  1494.0000      0.0000    434.9425     26.4556    123.5548
  1494.2500      0.0000    419.5360     26.8776    116.7046
  1494.5000      0.0000    424.4451     27.0695    111.6664
  1494.7500      0.0000    439.2403     27.0075    108.9308
  1495.0000      0.0000    454.6691     26.7171    107.4875
  1495.2500      0.0000    465.7649     26.2834    106.2576
  1495.5000      0.0000    472.2009     25.8206    105.1374
  1495.7500      0.0000    476.9599     25.3953    104.6666
  1496.0000      0.0000    485.2770     24.9751    104.8959
  1496.2500      0.0000    504.0118     24.4573    105.0520
  1496.5000      0.0000    539.2089     23.7499    104.5959
  1496.7500      0.0000    591.1413     22.8373    104.4113
  1497.0000      0.0000    651.2405     21.7840    106.5470
  1497.2500      0.0000    706.1564     20.6844    112.4353
  1497.5000      0.0000    746.3730     19.6229    121.1197
  1497.7500      0.0000    770.7523     18.6726    129.4608
  1498.0000      0.0000    783.5946     17.8922    134.5813
  1498.2500      0.0000    789.4470     17.2887    136.3262
  1498.5000      0.0000    791.1378     16.7964    137.0963
  1498.7500      0.0000    790.7007     16.3250    139.1373
  1499.0000      0.0000    789.9519     15.8412    142.2745
  1499.2500      0.0000    789.5901     15.3976    144.5886
  1499.5000      0.0000    788.5147     15.0767    144.8383
  1499.7500      0.0000    784.8510     14.9128    143.5032
