~Version Information
VERS.                      2.0: CWLS Log ASCII Standard - VERSION 2.0
WRAP.                       NO: One line per depth step
~Well Information Block
STRT.FT               275.0000: 
STOP.FT              1682.2000: 
STEP.FT                 0.1000: 
NULL.                -999.2500: 
COMP.          Pioneer Natural Resources: COMPANY
WELL.               Elmo 14-21: WELL
FLD.           Purgatoire River: FIELD
LOC.           623' FSL & 450' FWL----: LOCATION
PROV.                 Colorado: PROVINCE
CNTY.               Las Animas: COUNTRY
SRVC.                Patterson: SERVICE COMPANY
DATE.          Wed May 18 08:17:30 2005: LOG DATE
UWI.           05 071 08360 00: UNIQUE WELL ID
~Curve Information Block
DEPT.FT            0 000 00 00: Depth
DCAL.in                       : CDL Caliper
RHOB.g/cc                     : CDL Bulk Density
RHOC.g/cc                     : CDL Density Correction
DPOR.pu                       : CDL Density Porosity
NPOR.pu                       : Neutron Porosity
GR.GAPI                       : Gamma Ray
~Parameter Information Block
~A  Depth       DCAL        RHOB        RHOC        DPOR        NPOR         GR     
# ...
   735.8000      8.0664      2.7245      0.0018     -4.5173     16.0452     38.6895
   735.9000      8.0664      2.7367     -0.0497     -5.2540     17.8441     40.5904
   736.0000      8.0670      2.7504      0.0119     -6.0857     19.6708     41.9878
   736.1000      8.0670      2.7739      0.0109     -7.5085     20.6545     42.4423
   736.2000      8.0670      2.8027      0.0238     -9.2568     21.0023     41.2825
   736.3000      8.0654      2.8195      0.0490    -10.2743     21.3051     40.8398
   736.4000      8.0654      2.8176     -0.0236    -10.1557     21.8520     41.6424
   736.5000      8.0633      2.8175      0.0252    -10.1487     22.5967     42.1233
   736.6000      8.0633      2.8287      0.0325    -10.8279     23.2101     41.7490
   736.7000      8.0633      2.8340      0.0205    -11.1485     23.4213     39.8323
   736.8000      8.0636      2.8225      0.0308    -10.4515     23.1817     36.6579
   736.9000      8.0636      2.8089      0.0017     -9.6309     22.6476     34.8925
   737.0000      8.0665      2.8064      0.0161     -9.4800     22.1697     35.6600
   737.1000      8.0665      2.8012      0.0211     -9.1666     21.8065     36.3416
   737.2000      8.0665      2.7804     -0.0023     -7.9014     21.4220     35.8653
   737.3000      8.0692      2.7585     -0.0430     -6.5774     21.2662     35.7701
   737.4000      8.0692      2.7555     -0.0098     -6.3941     21.3164     36.4688
   737.5000      8.0689      2.7666     -0.0062     -7.0677     21.1174     36.2207
   737.6000      8.0689      2.7744      0.0484     -7.5369     20.8192     34.6418
   737.7000      8.0689      2.7774      0.0514     -7.7190     20.8031     33.3998
   737.8000      8.0679      2.7897      0.0625     -8.4646     20.9241     33.9181
   737.9000      8.0679      2.8105      0.0543     -9.7265     21.1953     36.3115
   738.0000      8.0741      2.8223      0.0935    -10.4411     21.6862     38.3742
   738.1000      8.0741      2.8204      0.0199    -10.3284     21.8880     38.1131
   738.2000      8.0741      2.8177      0.0752    -10.1621     21.4998     36.1995
   738.3000      8.0862      2.8206      0.0735    -10.3387     21.0163     34.2729
   738.4000      8.0862      2.8348      0.0152    -11.2016     20.8219     32.3689
   738.5000      8.0944      2.8522      0.0857    -12.2545     20.7492     31.6203
   738.6000      8.0944      2.8539      0.0032    -12.3577     20.6986     34.7229
   738.7000      8.0944      2.8476      0.0236    -11.9751     20.9598     38.8379
   738.8000      8.0976      2.8378      0.0347    -11.3790     21.5921     39.1333
   738.9000      8.0976      2.8125     -0.0131     -9.8490     21.9088     37.4040
   739.0000      8.1000      2.7768      0.0042     -7.6849     21.4794     36.2332
   739.1000      8.1000      2.7497     -0.0292     -6.0413     20.9503     34.5426
   739.2000      8.1000      2.7488     -0.0147     -5.9902     21.0519     32.6569
   739.3000      8.1027      2.7694      0.0367     -7.2375     21.5136     31.3622
   739.4000      8.1027      2.7813      0.0390     -7.9600     21.5796     30.3537
   739.5000      8.1040      2.7681      0.0178     -7.1595     21.3510     30.6264
   739.6000      8.1040      2.7456     -0.0165     -5.7928     21.1749     32.8213
   739.7000      8.1040      2.7319      0.0237     -4.9608     20.5731     35.2889
   739.8000      8.1023      2.7165      0.0321     -4.0324     19.0457     37.2256
   739.9000      8.1023      2.6786      0.0038     -1.7355     17.0117     39.1914
   740.0000      8.0990      2.6169     -0.0112      2.0077     15.3517     40.7284
   740.1000      8.0990      2.5396     -0.0309      6.6928     14.2552     41.1621
   740.2000      8.0990      2.4638     -0.1075     11.2849     13.2284     42.0902
   740.3000      8.0975      2.4186     -0.0573     14.0228     11.9243     45.2892
   740.4000      8.0975      2.4105     -0.0831     14.5125     10.4987     50.8449
   740.5000      8.0977      2.4173     -0.0092     14.1040      9.3264     57.2659
   740.6000      8.0977      2.4200     -0.0019     13.9388      8.7855     61.6584
   740.7000      8.0977      2.4206      0.0534     13.9036      8.8474     64.2261
   740.8000      8.0977      2.4275      0.0654     13.4869      9.0802     68.6492
   740.9000      8.0977      2.4482      0.1397     12.2287      9.3112     76.5132
   741.0000      8.0982      2.4814      0.1919     10.2194      9.6611     85.7541
   741.1000      8.0982      2.5129      0.1944      8.3117     10.2529     93.6239
   741.2000      8.0982      2.5333      0.1639      7.0711     11.2845     99.9378
   741.3000      8.1006      2.5446      0.1364      6.3872     12.6715    105.7376
   741.4000      8.1006      2.5464      0.1301      6.2810     13.9911    109.5531
   741.5000      8.1035      2.5396      0.0770      6.6925     15.2096    111.5105
   741.6000      8.1035      2.5318      0.0624      7.1627     16.5255    113.6375
   741.7000      8.1035      2.5280      0.0399      7.3929     17.6775    114.4213
   741.8000      8.1060      2.5322      0.0172      7.1403     18.3676    113.8750
   741.9000      8.1060      2.5418      0.0594      6.5586     18.9910    115.7898
   742.0000      8.1066      2.5457      0.0623      6.3206     19.7548    120.9156
   742.1000      8.1066      2.5419      0.0378      6.5520     20.0703    125.7519
   742.2000      8.1066      2.5355      0.0287      6.9367     19.9347    130.3406
   742.3000      8.1056      2.5310      0.0278      7.2111     20.0812    136.4859
   742.4000      8.1056      2.5346      0.0404      6.9953     20.4736    139.0110
   742.5000      8.1058      2.5445      0.0507      6.3949     20.6958    132.5277
   742.6000      8.1058      2.5528      0.0349      5.8899     20.6275    123.0537
   742.7000      8.1058      2.5549      0.0666      5.7658     20.2137    119.6910
   742.8000      8.1057      2.5408      0.0700      6.6176     19.6919    121.5713
   742.9000      8.1057      2.5106      0.0217      8.4473     19.3586    122.1301
   743.0000      8.1066      2.4799      0.0211     10.3061     19.3622    118.2237
   743.1000      8.1066      2.4538     -0.0085     11.8920     19.3784    112.3832
   743.2000      8.1066      2.4230      0.0063     13.7578     18.7925    108.5462
   743.3000      8.1094      2.3733      0.0075     16.7696     17.6878    109.4612
   743.4000      8.1094      2.2991     -0.0118     21.2691     16.6344    113.9758
   743.5000      8.1113      2.2127     -0.0490     26.5046     15.9319    117.0795
   743.6000      8.1113      2.1329     -0.0573     31.3406     15.4912    117.3624
   743.7000      8.1113      2.0765     -0.0883     34.7587     14.8902    117.1866
   743.8000      8.1079      2.0618     -0.0886     35.6476     13.8611    115.2983
   743.9000      8.1079      2.0888     -0.0020     34.0121     12.8026    109.5428
   744.0000      8.1020      2.1277      0.0593     31.6516     12.1273    103.8848
   744.1000      8.1020      2.1564      0.0908     29.9181     11.6951    103.0780
   744.2000      8.1020      2.1762      0.1499     28.7124     11.1193    105.8803
   744.3000      8.0995      2.1900      0.1586     27.8782     10.4544    108.6876
   744.4000      8.0995      2.1967      0.1678     27.4739     10.0897    108.0270
   744.5000      8.0991      2.2076      0.1077     26.8140     10.0709    102.1700
   744.6000      8.0991      2.2450      0.0635     24.5472     10.1485     95.6451
   744.7000      8.0991      2.3136      0.0760     20.3908     10.1876     94.5708
   744.8000      8.0990      2.3879      0.0863     15.8841     10.2732     97.8470
   744.9000      8.0990      2.4400      0.0749     12.7283     10.6450    101.7465
   745.0000      8.1023      2.4710      0.0465     10.8507     11.3507    107.1973
   745.1000      8.1023      2.4990      0.0818      9.1508     12.0795    112.3247
   745.2000      8.1023      2.5286      0.1096      7.3566     12.5922    113.0950
   745.3000      8.1076      2.5522      0.1104      5.9274     12.9849    110.7819
