~Version Information
VERS.                      2.0: CWLS Log ASCII Standard - VERSION 2.0
WRAP.                       NO: One line per depth step
~Well Information Block
STRT.FT               845.0000: 
STOP.FT              2308.2500: 
STEP.FT                 0.2500: 
NULL.                -999.2500: 
COMP.          Pioneer Natural Resources: COMPANY
WELL.             Vector 33-23: WELL
FLD.           Purgatoire River: FIELD
LOC.           1560' FEL & 1988' FSL----: LOCATION
PROV.                 Colorado: PROVINCE
CNTY.               Las Animas: COUNTRY
SRVC.                Patterson: SERVICE COMPANY
DATE.          Sat Mar 26 12:39:07 2005: LOG DATE
UWI.           05 071 08336 00: UNIQUE WELL ID
~Curve Information Block
DEPT.FT            0 000 00 00: Depth
SN.Ohm-m                      : IEL Short Normal
SP.mV                         : IEL Spontaneous Potential
DIR.Ohm-m                     : IEL Induction Resistivity
GR.GAPI                       : Gamma Ray
~Parameter Information Block
~A  Depth        SN          SP         DIR          GR     
# ...
  1984.0000     22.7314    -52.5840     21.3145     65.8617
  1984.2500     21.4134    -50.8839     20.2617     72.2276
  1984.5000     20.2272    -48.9338     19.1749     83.4004
  1984.7500     19.1657    -46.8119     18.1042     91.0814
  1985.0000     18.1940    -44.6065     17.0793    101.4547
  1985.2500     17.2812    -42.4070     16.1181    107.0310
  1985.5000     16.4146    -40.2948     15.2360    113.3823
  1985.7500     15.6023    -38.3362     14.4506    116.7806
  1986.0000     14.8658    -36.5780     13.7784    121.4967
  1986.2500     14.2276    -35.0467     13.2296    124.4738
  1986.5000     13.6988    -33.7493     12.8042    128.2828
  1986.7500     13.2738    -32.6774     12.4926    130.1761
  1987.0000     12.9356    -31.8109     12.2779    131.9675
  1987.2500     12.6661    -31.1226     12.1386    132.4651
  1987.5000     12.4555    -30.5809     12.0516    132.2665
  1987.7500     12.3027    -30.1530     11.9948    131.6817
  1988.0000     12.2074    -29.8074     11.9493    130.5870
  1988.2500     12.1621    -29.5159     11.9010    130.0373
  1988.5000     12.1485    -29.2552     11.8418    129.9228
  1988.7500     12.1416    -29.0086     11.7691    130.2267
  1989.0000     12.1179    -28.7661     11.6844    130.4614
  1989.2500     12.0649    -28.5243     11.5916    130.2001
  1989.5000     11.9836    -28.2853     11.4956    129.7990
  1989.7500     11.8846    -28.0556     11.4006    130.0013
  1990.0000     11.7806    -27.8447     11.3078    130.4947
  1990.2500     11.6791    -27.6638     11.2164    129.9698
  1990.5000     11.5817    -27.5245     11.1261    127.0200
  1990.7500     11.4899    -27.4382     11.0406    124.3501
  1991.0000     11.4103    -27.4158     10.9681    121.8537
  1991.2500     11.3527    -27.4676     10.9187    122.2520
  1991.5000     11.3238    -27.6040     10.8999    125.7448
  1991.7500     11.3209    -27.8354     10.9131    129.0836
  1992.0000     11.3332    -28.1721     10.9543    134.0129
  1992.2500     11.3457    -28.6231     11.0172    136.5811
  1992.5000     11.3452    -29.1947     11.0961    138.4920
  1992.7500     11.3262    -29.8886     11.1863    138.2241
  1993.0000     11.2942    -30.7007     11.2823    136.0049
  1993.2500     11.2621    -31.6203     11.3761    134.0872
  1993.5000     11.2417    -32.6302     11.4578    131.7847
  1993.7500     11.2374    -33.7078     11.5189    130.7842
  1994.0000     11.2440    -34.8274     11.5536    129.4848
  1994.2500     11.2501    -35.9625     11.5603    128.5515
  1994.5000     11.2465    -37.0886     11.5399    127.6791
  1994.7500     11.2311    -38.1862     11.4956    127.8782
  1995.0000     11.2066    -39.2419     11.4307    128.8786
  1995.2500     11.1746    -40.2489     11.3468    129.1483
  1995.5000     11.1331    -41.2052     11.2433    128.0788
  1995.7500     11.0799    -42.1108     11.1199    126.8017
  1996.0000     11.0162    -42.9632     10.9805    125.6285
  1996.2500     10.9469    -43.7545     10.8355    125.8506
  1996.5000     10.8760    -44.4685     10.6974    127.0833
  1996.7500     10.7978    -45.0807     10.5739    127.8328
  1997.0000     10.6903    -45.5602     10.4612    128.4288
  1997.2500     10.5191    -45.8738     10.3417    128.6159
  1997.5000     10.2537    -45.9906     10.1887    128.6012
  1997.7500      9.8857    -45.8871      9.9759    128.2240
  1998.0000      9.4348    -45.5516      9.6903    127.3633
  1998.2500      8.9370    -44.9869      9.3394    127.2415
  1998.5000      8.4275    -44.2122      8.9482    128.8636
  1998.7500      7.9343    -43.2631      8.5479    131.2830
  1999.0000      7.4859    -42.1894      8.1647    136.2208
  1999.2500      7.1183    -41.0520      7.8140    139.8188
  1999.5000      6.8652    -39.9165      7.5005    145.0127
  1999.7500      6.7375    -38.8476      7.2231    148.1449
  2000.0000      6.7135    -37.9024      6.9791    151.8707
  2000.2500      6.7513    -37.1254      6.7679    153.2437
  2000.5000      6.8130    -36.5451      6.5925    153.2562
  2000.7500      6.8804    -36.1740      6.4579    152.3940
  2001.0000      6.9517    -36.0104      6.3691    151.4082
  2001.2500      7.0304    -36.0414      6.3292    151.4918
  2001.5000      7.1178    -36.2475      6.3390    152.3818
  2001.7500      7.2143    -36.6059      6.3980    153.0597
  2002.0000      7.3215    -37.0932      6.5052    153.7711
  2002.2500      7.4435    -37.6872      6.6594    153.6446
  2002.5000      7.5861    -38.3676      6.8574    151.3181
  2002.7500      7.7564    -39.1166      7.0941    147.8781
  2003.0000      7.9596    -39.9182      7.3621    140.7525
  2003.2500      8.1985    -40.7583      7.6546    135.9420
  2003.5000      8.4749    -41.6247      7.9685    130.2561
  2003.7500      8.7926    -42.5068      8.3068    127.4960
  2004.0000      9.1548    -43.3956      8.6760    124.0325
  2004.2500      9.5585    -44.2841      9.0822    121.9430
  2004.5000      9.9924    -45.1671      9.5251    119.7948
  2004.7500     10.4412    -46.0417      9.9958    119.5954
  2005.0000     10.8932    -46.9075     10.4794    121.2173
  2005.2500     11.3430    -47.7670     10.9608    122.8465
  2005.5000     11.7907    -48.6259     11.4296    124.4675
  2005.7500     12.2383    -49.4922     11.8816    124.5175
  2006.0000     12.6828    -50.3764     12.3167    123.1282
  2006.2500     13.1097    -51.2903     12.7357    121.3454
  2006.5000     13.4923    -52.2466     13.1373    117.4156
  2006.7500     13.7999    -53.2574     13.5142    114.1537
  2007.0000     14.0134    -54.3332     13.8516    109.3347
  2007.2500     14.1384    -55.4815     14.1295    107.0790
  2007.5000     14.2070    -56.7045     14.3318    106.6727
  2007.7500     14.2630    -57.9983     14.4557    108.8717
  2008.0000     14.3356    -59.3520     14.5147    115.3461
  2008.2500     14.4207    -60.7479     14.5315    120.7261
  2008.5000     14.4863    -62.1630     14.5259    128.3135
  2008.7500     14.4971    -63.5707     14.5073    132.2367
  2009.0000     14.4400    -64.9429     14.4757    135.8862
  2009.2500     14.3296    -66.2519     14.4288    136.8060
  2009.5000     14.1981    -67.4722     14.3685    136.3409
  2009.7500     14.0773    -68.5817     14.3023    135.5107
  2010.0000     13.9859    -69.5637     14.2391    135.1605
  2010.2500     13.9273    -70.4082     14.1846    135.9696
  2010.5000     13.8978    -71.1128     14.1389    137.5525
  2010.7500     13.8951    -71.6833     14.0987    137.5903
  2011.0000     13.9207    -72.1325     14.0620    135.3152
  2011.2500     13.9779    -72.4793     14.0323    133.0727
  2011.5000     14.0689    -72.7460     14.0188    130.8767
  2011.7500     14.1939    -72.9565     14.0332    130.8947
  2012.0000     14.3524    -73.1332     14.0862    132.5534
  2012.2500     14.5430    -73.2947     14.1850    133.8578
  2012.5000     14.7633    -73.4528     14.3329    135.0180
  2012.7500     15.0076    -73.6094     14.5290    135.0426
  2013.0000     15.2644    -73.7545     14.7668    133.4779
  2013.2500     15.5169    -73.8665     15.0321    130.8103
  2013.5000     15.7481    -73.9140     15.3036    124.0250
  2013.7500     15.9474    -73.8616     15.5561    118.4121
  2014.0000     16.1145    -73.6765     15.7657    110.8605
  2014.2500     16.2534    -73.3360     15.9143    107.7222
  2014.5000     16.3614    -72.8331     15.9922    106.8524
  2014.7500     16.4231    -72.1788     15.9974    108.6962
  2015.0000     16.4152    -71.4015     15.9313    114.1203
  2015.2500     16.3193    -70.5432     15.7964    118.7061
  2015.5000     16.1314    -69.6532     15.5979    125.4660
  2015.7500     15.8648    -68.7821     15.3471    129.0998
  2016.0000     15.5469    -67.9760     15.0633    132.7038
  2016.2500     15.2137    -67.2710     14.7694    134.0354
  2016.5000     14.9033    -66.6907     14.4888    134.6756
  2016.7500     14.6488    -66.2444     14.2436    134.0654
  2017.0000     14.4705    -65.9275     14.0542    131.5484
  2017.2500     14.3686    -65.7244     13.9347    129.2934
