~Version Information
VERS.                      2.0: CWLS Log ASCII Standard - VERSION 2.0
WRAP.                       NO: One line per depth step
~Well Information Block
STRT.FT                 3.0000: 
STOP.FT              1884.7500: 
STEP.FT                 0.2500: 
NULL.                -999.2500: 
COMP.          Pioneer Natural Resources: COMPANY
WELL.          Blackjack 32-11 Tr: WELL
FLD.           Purgatoire River: FIELD
LOC.           2066' FNL & 1453' FEL: LOCATION
PROV.                 Colorado: PROVINCE
CNTY.               Las Animas: COUNTRY
SRVC.                Patterson: SERVICE COMPANY
DATE.          Fri Aug 19 11:07:11 2005: LOG DATE
UWI.           05 071 08310 00: UNIQUE WELL ID
~Curve Information Block
DEPT.FT            0 000 00 00: Depth
CCL.                          : Casing Collar Locator
TT3.usec                      : CBL 3' Travel Time
AMP3.mV                       : CBL 3' Amplitude
GR.GAPI                       : Gamma Ray
~Parameter Information Block
~A  Depth       CCL         TT3         AMP3         GR     
# ...
   505.5000      0.0000    962.9917     11.5334     73.4303
   505.7500      0.0000   1005.5510     11.3663     72.6130
   506.0000      0.0000   1044.1451     11.2118     70.3960
   506.2500      0.0000   1069.3831     11.1083     68.6224
   506.5000      0.0000   1078.0774     11.0746     68.7173
   506.7500      0.0000   1074.9742     11.1095     70.8859
   507.0000      0.0000   1069.5104     11.1983     74.2038
   507.2500      0.0000   1070.7715     11.3188     77.3625
   507.5000      0.0000   1081.9303     11.4472     79.5199
   507.7500      0.0000   1097.4609     11.5678     80.7299
   508.0000      0.0000   1106.3854     11.6773     81.6076
   508.2500      0.0000   1098.5530     11.7824     82.5047
   508.5000      0.0000   1069.4758     11.8945     83.1156
   508.7500      0.0000   1024.3163     12.0220     83.0265
   509.0000      0.0000    979.5657     12.1632     82.3859
   509.2500      0.0000    955.9618     12.3041     81.7164
   509.5000      0.0000    962.6010     12.4284     81.2190
   509.7500      0.0000    986.7811     12.5330     80.6679
   510.0000      0.0000   1003.7687     12.6312     80.0247
   510.2500      0.0000    998.9398     12.7357     79.7564
   510.5000      0.0000    977.7533     12.8402     80.3073
   510.7500      0.0000    953.8409     12.9224     81.4838
   511.0000      0.0000    933.4857     12.9608     82.4720
   511.2500      0.0000    914.6969     12.9450     82.2067
   511.5000      0.0000    894.6928     12.8767     79.7731
   511.7500      0.0000    872.1227     12.7734     75.0286
   512.0000      0.0000    845.3342     12.6681     69.0877
   512.2500      0.0000    814.0773     12.5942     63.7770
   512.5000      0.0000    782.2010     12.5623     60.3260
   512.7500      0.0000    755.7578     12.5527     58.6895
   513.0000      0.0000    738.4064     12.5269     58.0176
   513.2500      0.0000    729.6632     12.4499     57.4750
   513.5000      0.0000    726.8298     12.3073     56.5675
   513.7500      0.0000    727.4295     12.1129     55.0058
   514.0000      0.0000    729.7784     11.8991     52.5958
   514.2500      0.0000    732.3462     11.6984     49.4064
   514.5000      0.0000    733.6103     11.5338     45.9868
   514.7500      0.0000    733.0536     11.4238     43.1859
   515.0000      0.0000    732.1673     11.3851     41.5674
   515.2500      0.0000    734.5498     11.4226     40.9999
   515.5000      0.0000    745.6569     11.5225     40.8925
   515.7500      0.0000    771.8959     11.6606     40.7580
   516.0000      0.0000    817.5056     11.8106     40.4640
   516.2500      0.0000    878.9977     11.9446     40.0893
   516.5000      0.0000    941.1143     12.0355     39.7618
   516.7500      0.0000    981.0128     12.0674     39.6072
   517.0000      0.0000    982.6473     12.0426     39.6732
   517.2500      0.0000    950.0129     11.9796     39.8383
   517.5000      0.0000    902.8566     11.9086     39.8858
   517.7500      0.0000    858.3079     11.8659     39.7697
   518.0000      0.0000    821.5778     11.8832     39.8106
   518.2500      0.0000    794.2053     11.9719     40.5672
   518.5000      0.0000    783.3973     12.1154     42.3909
   518.7500      0.0000    799.2072     12.2760     44.9496
   519.0000      0.0000    844.1751     12.4116     47.1426
   519.2500      0.0000    906.6910     12.4923     47.6596
   519.5000      0.0000    966.9587     12.5091     45.8936
   519.7500      0.0000   1014.0721     12.4774     42.4465
   520.0000      0.0000   1055.6328     12.4288     38.7502
   520.2500      0.0000   1103.9333     12.3977     36.1523
   520.5000      0.0000   1155.0172     12.4092     35.2412
   520.7500      0.0000   1191.0729     12.4734     35.8411
   521.0000      0.0000   1201.1587     12.5825     37.3732
   521.2500      0.0000   1187.8690     12.7125     39.1225
   521.5000      0.0000   1155.3506     12.8339     40.5122
   521.7500      0.0000   1104.6013     12.9315     41.5211
   522.0000      0.0000   1041.9535     13.0184     42.7355
   522.2500      0.0000    979.9028     13.1207     44.6483
   522.5000      0.0000    925.6535     13.2439     46.9111
   522.7500      0.0000    876.5954     13.3577     48.4884
   523.0000      0.0000    829.4735     13.4230     48.5904
   523.2500      0.0000    787.8864     13.4290     47.3404
   523.5000      0.0000    758.6408     13.3956     45.4821
   523.7500      0.0000    744.9236     13.3437     43.5585
   524.0000      0.0000    745.3474     13.2768     41.4387
   524.2500      0.0000    757.4999     13.1989     38.6361
   524.5000      0.0000    779.2935     13.1435     35.1276
   524.7500      0.0000    806.5046     13.1715     31.8024
   525.0000      0.0000    831.6991     13.3226     29.9184
   525.2500      0.0000    848.8307     13.5519     30.0881
   525.5000      0.0000    858.1071     13.7221     31.8655
   525.7500      0.0000    863.9107     13.6950     34.2019
   526.0000      0.0000    868.5448     13.4542     36.1328
   526.2500      0.0000    869.5192     13.1237     37.1056
   526.5000      0.0000    862.1027     12.8557     36.9746
   526.7500      0.0000    843.9118     12.7204     35.9753
   527.0000      0.0000    817.6851     12.6966     34.7229
   527.2500      0.0000    789.6985     12.7294     33.9807
   527.5000      0.0000    765.6573     12.7719     34.1538
   527.7500      0.0000    748.5989     12.7879     34.9910
   528.0000      0.0000    739.9897     12.7412     35.8810
   528.2500      0.0000    741.1483     12.6023     36.3964
   528.5000      0.0000    752.6489     12.3710     36.4515
   528.7500      0.0000    772.3832     12.0893     36.0602
   529.0000      0.0000    795.1407     11.8171     35.3082
   529.2500      0.0000    816.1961     11.5938     34.7048
   529.5000      0.0000    836.0855     11.4216     35.2449
   529.7500      0.0000    859.3828     11.2813     37.7781
   530.0000      0.0000    886.3690     11.1540     42.2884
   530.2500      0.0000    908.0400     11.0285     47.8738
   530.5000      0.0000    913.2117     10.8983     53.3327
   530.7500      0.0000    899.7789     10.7646     57.7546
   531.0000      0.0000    875.8270     10.6397     60.8631
   531.2500      0.0000    851.2314     10.5424     63.0710
   531.5000      0.0000    831.7947     10.4871     65.1290
   531.7500      0.0000    819.8213     10.4785     67.5567
   532.0000      0.0000    815.2035     10.5107     70.3414
   532.2500      0.0000    814.6644     10.5653     73.1048
   532.5000      0.0000    813.5020     10.6194     75.4121
   532.7500      0.0000    810.5574     10.6552     76.9463
   533.0000      0.0000    809.8899     10.6608     77.5901
   533.2500      0.0000    815.2744     10.6229     77.4342
   533.5000      0.0000    824.1086     10.5318     76.6991
   533.7500      0.0000    829.3185     10.3997     75.7421
   534.0000      0.0000    826.9622     10.2717     75.0287
   534.2500      0.0000    819.9513     10.2100     74.8113
   534.5000      0.0000    814.7394     10.2562     74.8153
   534.7500      0.0000    815.9202     10.3937     74.4819
   535.0000      0.0000    823.4532     10.5446     73.5430
   535.2500      0.0000    833.5391     10.6186     72.2634
   535.5000      0.0000    841.7497     10.5723     71.1926
   535.7500      0.0000    845.6064     10.4230     70.7348
   536.0000      0.0000    844.9138     10.2137     70.8753
   536.2500      0.0000    841.0291      9.9789     71.2980
   536.5000      0.0000    836.4442      9.7376     71.8339
   536.7500      0.0000    833.7286      9.5028     72.6941
   537.0000      0.0000    833.3166      9.2881     74.1450
   537.2500      0.0000    832.3695      9.1032     75.9365
   537.5000      0.0000    827.0632      8.9426     77.0470
   537.7500      0.0000    816.5002      8.7802     76.1697
   538.0000      0.0000    803.9180      8.5840     72.6976
   538.2500      0.0000    793.4993      8.3420     67.1973
   538.5000      0.0000    786.3134      8.0721     60.8364
   538.7500      0.0000    779.9650      7.7965     54.7050
