~Version Information
 VERS.                                  2.0 : CWLS LAS VERSION
 WRAP.                                   NO : WRAPING MODE
 SWARE .                 MController 2.5.0J : SOFTWARE VERSION
~Well Information
 WELL.                         Norton 9-14V : WELL
 COMP.                       Petrogulf Corp : COMPANY
 FLD.                      Purgatoire River : FIELD
 LOC.                 SW/SW Sec 9 T33S R67W : LOCATION
 DATE.                             10/27/04 : DATE(S) LOGGED
 SRVC.      Blanco Geological Servivces LLC : SERVICE COMPANY
 STAT.                                   CO : STATE
 CNTY.                           Las Animas : COUNTY
 CTRY.                                  USA : COUNTRY
 API.                       05-071-07891-00 : API NUMBER
 STRT.FT                             752.00 : START DEPTH
 STOP.FT                            2427.00 : STOP DEPTH
 STEP.FT                               1.00 : DEPTH INCREMENT
 NULL.                                -9999 : NULL VALUE
~Curve information
 DEPTH.FT                                   :
 ROP.MIN/FT                                 :
 GAS.UNITS                                  :
~ASCII Log data
       752.0     -9999.00         15.3 
       753.0         0.17         13.6 
       754.0         0.13         11.0 
       755.0         0.17         10.8 
       756.0         0.37         10.5 
       757.0         0.13         10.5 
       758.0         0.15         10.6 
       759.0         0.13         10.6 
       760.0         0.10         10.9 
       761.0         0.17         10.7 
       762.0         0.13         11.0 
       763.0         0.13         11.1 
       764.0         0.10         11.1 
       765.0         0.10         10.8 
       766.0         0.13         11.2 
       767.0         0.10         10.5 
       768.0         0.10         10.5 
       769.0         0.10         11.2 
       770.0         0.10         10.8 
       771.0         0.13         11.6 
       772.0         0.10         11.6 
       773.0         0.10         11.0 
       774.0         0.10         11.2 
       775.0         0.17         10.9 
       776.0         0.03         10.9 
       777.0         0.17         10.8 
       778.0         0.17         10.7 
       779.0         0.17         10.3 
       780.0         0.17         10.7 
       781.0         0.20         11.3 
       782.0         0.13         11.3 
       783.0         0.13         10.8 
       784.0         0.10         11.5 
       785.0         0.13         11.0 
       786.0         0.17         11.2 
       787.0         0.13         11.2 
       788.0         0.18         11.1 
       789.0         0.13         11.1 
       790.0         0.17         10.8 
       791.0         0.17         10.8 
       792.0         0.13         10.8 
       793.0         0.13         10.8 
       794.0         0.13         10.5 
       795.0         0.17         10.5 
       796.0         0.13         10.4 
       797.0         0.13         10.5 
       798.0         0.13         10.8 
       799.0         0.13         10.6 
       800.0         0.13         11.4 
       801.0         0.13         11.2 
       802.0         0.10         11.1 
       803.0         0.13         11.3 
       804.0         0.15         11.2 
       805.0         0.13         10.7 
       806.0         0.20         11.1 
       807.0         0.20         11.4 
       808.0         0.17         12.5 
       809.0         0.17         12.5 
       810.0         0.17         15.4 
       811.0         0.17         10.7 
       812.0         0.17         11.5 
       813.0         0.10         11.5 
       814.0         0.13         11.2 
       815.0         0.13         11.7 
       816.0         0.20         11.2 
       817.0         0.12         11.5 
       818.0         0.10         11.5 
       819.0         0.07         10.9 
       820.0         0.13         11.5 
       821.0         0.13         11.3 
       822.0         0.13         11.5 
       823.0         0.10         11.5 
       824.0         0.10         11.3 
       825.0         0.07         11.3 
       826.0         0.07         10.7 
       827.0         0.10         10.7 
       828.0         0.13         10.6 
       829.0         0.07         10.6 
       830.0         0.10          9.5 
       831.0         0.10          9.7 
       832.0         0.10         10.4 
       833.0         0.13         11.2 
       834.0         0.10         11.2 
       835.0         0.18         11.0 
       836.0         0.13         10.6 
       837.0         0.30         11.1 
       838.0         0.30         11.5 
       839.0         0.27         11.4 
       840.0         0.13         11.3 
       841.0         0.18         11.7 
       842.0         0.13         11.5 
       843.0         0.10         12.0 
       844.0         0.17         11.9 
       845.0         0.17         10.7 
       846.0         0.17         11.3 
       847.0         0.17         11.1 
       848.0         0.20         10.3 
       849.0         0.17         10.3 
       850.0         0.17         10.4 
       851.0         0.17         10.8 
       852.0         0.13         11.7 
       853.0         0.13         11.7 
       854.0         0.10         11.9 
       855.0         0.10         11.9 
       856.0         0.10         11.2 
       857.0         0.10         11.2 
       858.0         0.13         10.7 
       859.0         0.13         10.7 
       860.0         0.17         10.8 
       861.0         0.18         10.8 
       862.0         0.17         10.8 
       863.0         0.17         11.2 
       864.0         0.10         11.3 
       865.0         0.20         87.1 
       866.0     -9999.00         11.3 
       867.0         0.27         11.1 
       868.0         0.23         11.0 
       869.0         0.20         11.0 
       870.0         0.20         10.8 
       871.0         0.20         11.0 
       872.0         0.17         11.3 
       873.0         0.23         11.8 
       874.0         0.25         10.9 
       875.0         0.23         12.1 
       876.0         0.23         12.2 
       877.0         0.27         12.1 
       878.0         0.23         12.2 
       879.0         0.20         12.7 
       880.0         0.20         11.6 
       881.0         0.20         11.8 
       882.0         0.23         12.0 
       883.0         0.20         12.6 
       884.0         0.13         12.2 
       885.0         0.17         12.2 
       886.0         0.23         11.8 
       887.0         0.23         12.5 
       888.0         0.20         13.9 
       889.0         0.18         13.9 
       890.0         0.20         13.6 
       891.0         0.17         12.9 
       892.0         0.13         12.9 
       893.0         0.13         12.8 
       894.0         0.17         12.8 
       895.0         0.13         11.5 
       896.0         0.13         12.3 
       897.0         0.20         12.3 
       898.0         0.20         11.7 
       899.0         0.32         11.7 
       900.0         0.27         11.0 
       901.0         0.20         11.1 
       902.0         0.23         11.1 
       903.0         0.23         11.8 
       904.0         0.23         11.8 
       905.0         0.23         11.5 
       906.0         0.23         11.4 
       907.0         0.27         11.1 
       908.0         0.23         11.9 
       909.0         0.23         11.2 
       910.0         0.23         10.9 
       911.0         0.23         12.9 
       912.0         0.13         12.8 
       913.0         0.23         12.8 
       914.0         0.25         12.5 
       915.0         0.23         12.7 
       916.0         0.17         12.4 
       917.0         0.17         12.6 
       918.0         0.20         12.5 
       919.0         0.17         12.5 
       920.0         0.17         12.8 
       921.0         0.23         12.7 
       922.0         0.27         12.8 
       923.0         0.17         12.4 
       924.0         0.17         12.4 
       925.0         0.17         11.8 
       926.0         0.20         11.8 
       927.0         0.20         12.1 
       928.0         0.13         12.1 
       929.0         0.13         12.0 
       930.0         0.22         12.1 
       931.0         0.33         11.8 
       932.0         0.23         11.8 
       933.0         0.23         11.7 
       934.0         0.27         11.3 
       935.0         0.27         11.2 
       936.0         0.23         10.9 
       937.0         0.27         10.4 
       938.0         0.23         11.5 
       939.0         0.17         11.4 
       940.0         0.20         11.4 
       941.0         0.13         11.9 
       942.0         0.13         11.9 
       943.0         0.17         12.4 
       944.0         0.17         12.2 
       945.0         0.18         12.2 
       946.0         0.17         12.1 
       947.0         0.13         11.4 
       948.0         0.17         11.2 
       949.0         0.17         11.3 
       950.0         0.17         11.5 
       951.0         0.17         11.5 
