~Version Information
VERS.                      2.0: CWLS Log ASCII Standard - VERSION 2.0
WRAP.                       NO: One line per depth step
~Well Information Block
STRT.FT               768.0000: 
STOP.FT              2637.5000: 
STEP.FT                 0.2500: 
NULL.                -999.2500: 
COMP.          Pioneer Natural Resources: COMPANY
WELL.               Zink 44-10: WELL
FLD.           Purgatoire River: FIELD
LOC.           548' FSL & 473' FEL: LOCATION
PROV.                 Colorado: PROVINCE
CNTY.               Las Animas: COUNTRY
SRVC.                Patterson: SERVICE COMPANY
DATE.          Mon May 30 05:59:42 2005: LOG DATE
UWI.           05 071 08380 00: UNIQUE WELL ID
~Curve Information Block
DEPT.FT            0 000 00 00: Depth
SN.Ohm-m                      : IEL Short Normal
SP.mV                         : IEL Spontaneous Potential
DIR.Ohm-m                     : IEL Induction Resistivity
GR.GAPI                       : Gamma Ray
~Parameter Information Block
~A  Depth        SN          SP         DIR          GR     
# ...
  1002.5000   2000.0000   2000.0000     14.8185    112.1435
  1002.7500   2000.0000   2000.0000     13.9580    117.2099
  1003.0000   2000.0000   2000.0000     13.2499    122.9832
  1003.2500   2000.0000   2000.0000     12.6990    125.7351
  1003.5000   2000.0000   2000.0000     12.3050    128.6505
  1003.7500   2000.0000   2000.0000     12.0634    129.8882
  1004.0000   2000.0000   2000.0000     11.9635    130.2774
  1004.2500   2000.0000   2000.0000     11.9866    129.0802
  1004.5000   2000.0000   2000.0000     12.1043    124.3287
  1004.7500   2000.0000   2000.0000     12.2822    119.0136
  1005.0000   2000.0000   2000.0000     12.4880    108.5025
  1005.2500   2000.0000   2000.0000     12.7019    100.9822
  1005.5000   2000.0000   2000.0000     12.9245     91.9572
  1005.7500   2000.0000   2000.0000     13.1755     89.1511
  1006.0000   2000.0000   2000.0000     13.4843     91.2633
  1006.2500   2000.0000   2000.0000     13.8776     96.5582
  1006.5000   2000.0000   2000.0000     14.3734    107.9044
  1006.7500   2000.0000   2000.0000     14.9814    115.7280
  1007.0000   2000.0000   2000.0000     15.7054    124.7694
  1007.2500   2000.0000   2000.0000     16.5397    128.1955
  1007.5000   2000.0000   2000.0000     17.4620    130.3259
  1007.7500   2000.0000   2000.0000     18.4316    131.0180
  1008.0000   2000.0000   2000.0000     19.3997    132.4430
  1008.2500   2000.0000   2000.0000     20.3273    133.5044
  1008.5000   2000.0000   2000.0000     21.1974    134.0144
  1008.7500   2000.0000   2000.0000     22.0135    133.1360
  1009.0000   2000.0000   2000.0000     22.7908    130.2268
  1009.2500   2000.0000   2000.0000     23.5502    127.7183
  1009.5000   2000.0000   2000.0000     24.3202    123.7580
  1009.7500   2000.0000   2000.0000     25.1375    121.1565
  1010.0000   2000.0000   2000.0000     26.0367    117.4984
  1010.2500   2000.0000   2000.0000     27.0344    115.2941
  1010.5000   2000.0000   2000.0000     28.1175    112.1780
  1010.7500   2000.0000   2000.0000     29.2486    109.9829
  1011.0000   2000.0000   2000.0000     30.3869    106.2652
  1011.2500   2000.0000   2000.0000     31.5077    103.6908
  1011.5000   2000.0000   2000.0000     32.6056    100.4548
  1011.7500   2000.0000   2000.0000     33.6795     99.0433
  1012.0000   2000.0000   2000.0000     34.7253     97.8350
  1012.2500   2000.0000   2000.0000     35.7450     97.1781
  1012.5000   2000.0000   2000.0000     36.7560     95.6560
  1012.7500   2000.0000   2000.0000     37.7813     93.9886
  1013.0000   2000.0000   2000.0000     38.8261     90.2778
  1013.2500   2000.0000   2000.0000     39.8625     87.1978
  1013.5000   2000.0000   2000.0000     40.8288     82.8211
  1013.7500   2000.0000   2000.0000     41.6354     80.8662
  1014.0000   2000.0000   2000.0000     42.1896     79.7543
  1014.2500   2000.0000   2000.0000     42.4454     79.6201
  1014.5000   2000.0000   2000.0000     42.4553     78.7626
  1014.7500   2000.0000   2000.0000     42.3740     77.2274
  1015.0000   2000.0000   2000.0000     42.3963     73.7981
  1015.2500   2000.0000   2000.0000     42.6738     71.4503
  1015.5000   2000.0000   2000.0000     43.2467     69.0090
  1015.7500   2000.0000   2000.0000     44.0147     68.4257
  1016.0000   2000.0000   2000.0000     44.7666     69.0106
  1016.2500   2000.0000   2000.0000     45.2818     70.0528
  1016.5000   2000.0000   2000.0000     45.4603     71.7893
  1016.7500   2000.0000   2000.0000     45.3806     72.6692
  1017.0000   2000.0000   2000.0000     45.2391     73.5334
  1017.2500   2000.0000   2000.0000     45.2333     74.0502
  1017.5000   2000.0000   2000.0000     45.4795     74.7913
  1017.7500   2000.0000   2000.0000     45.9883     74.8883
  1018.0000   2000.0000   2000.0000     46.6758     73.6867
  1018.2500   2000.0000   2000.0000     47.3958     71.9116
  1018.5000   2000.0000   2000.0000     47.9940     68.4675
  1018.7500   2000.0000   2000.0000     48.3747     66.2451
  1019.0000   2000.0000   2000.0000     48.5505     63.7438
  1019.2500   2000.0000   2000.0000     48.6299     62.7576
  1019.5000   2000.0000   2000.0000     48.7529     62.1512
  1019.7500   2000.0000   2000.0000     49.0187     62.0996
  1020.0000   2000.0000   2000.0000     49.4688     62.0992
  1020.2500   2000.0000   2000.0000     50.1319     62.0230
  1020.5000   2000.0000   2000.0000     51.0647     61.8515
  1020.7500   2000.0000   2000.0000     52.3184     61.6929
  1021.0000   2000.0000   2000.0000     53.8161     61.1377
  1021.2500   2000.0000   2000.0000     55.2517     60.4635
  1021.5000   2000.0000   2000.0000     56.1639     59.3185
  1021.7500   2000.0000   2000.0000     56.2298     58.8843
  1022.0000   2000.0000   2000.0000     55.5244     59.3083
  1022.2500   2000.0000   2000.0000     54.4464     60.2888
  1022.5000   2000.0000   2000.0000     53.4062     62.1129
  1022.7500   2000.0000   2000.0000     52.5978     63.0844
  1023.0000   2000.0000   2000.0000     51.9622     63.8947
  1023.2500   2000.0000   2000.0000     51.2568     64.2074
  1023.5000   2000.0000   2000.0000     50.1581     64.8068
  1023.7500   2000.0000   2000.0000     48.3913     65.4011
  1024.0000   2000.0000   2000.0000     45.8732     66.4959
  1024.2500   2000.0000   2000.0000     42.7803     67.2761
  1024.5000   2000.0000   2000.0000     39.4657     68.6432
  1024.7500   2000.0000   2000.0000     36.2861     70.1523
  1025.0000   2000.0000   2000.0000     33.4782     74.8603
  1025.2500   2000.0000   2000.0000     31.1331     80.5203
  1025.5000   2000.0000   2000.0000     29.2299     93.1660
  1025.7500   2000.0000   2000.0000     27.6778    103.7117
  1026.0000   2000.0000   2000.0000     26.3596    120.7424
  1026.2500   2000.0000   2000.0000     25.1688    131.7571
  1026.5000   2000.0000   2000.0000     24.0357    146.2536
  1026.7500   2000.0000   2000.0000     22.9327    153.9463
  1027.0000   2000.0000   2000.0000     21.8612    161.9278
  1027.2500   2000.0000   2000.0000     20.8387    164.8606
  1027.5000   2000.0000   2000.0000     19.8898    166.1303
  1027.7500   2000.0000   2000.0000     19.0380    165.2413
  1028.0000   2000.0000   2000.0000     18.2965    161.9220
  1028.2500   2000.0000   2000.0000     17.6657    158.9511
  1028.5000   2000.0000   2000.0000     17.1392    154.8979
  1028.7500   2000.0000   2000.0000     16.7124    153.4198
  1029.0000   2000.0000   2000.0000     16.3839    153.8257
  1029.2500   2000.0000   2000.0000     16.1487    155.5886
  1029.5000   2000.0000   2000.0000     15.9918    159.4068
  1029.7500   2000.0000   2000.0000     15.8885    162.2150
  1030.0000   2000.0000   2000.0000     15.8120    166.1516
  1030.2500   2000.0000   2000.0000     15.7424    168.0210
  1030.5000   2000.0000   2000.0000     15.6715    168.6091
  1030.7500   2000.0000   2000.0000     15.6016    167.4898
  1031.0000   2000.0000   2000.0000     15.5395    165.0590
  1031.2500   2000.0000   2000.0000     15.4906    163.9890
  1031.5000   2000.0000   2000.0000     15.4563    163.4381
  1031.7500   2000.0000   2000.0000     15.4361    162.9632
  1032.0000   2000.0000   2000.0000     15.4307    160.8210
  1032.2500   2000.0000   2000.0000     15.4433    158.4856
  1032.5000   2000.0000   2000.0000     15.4778    154.7181
  1032.7500   2000.0000   2000.0000     15.5351    152.6627
  1033.0000   2000.0000   2000.0000     15.6096    150.7609
  1033.2500   2000.0000   2000.0000     15.6894    150.3076
  1033.5000   2000.0000   2000.0000     15.7600    150.7026
  1033.7500   2000.0000   2000.0000     15.8113    151.4777
  1034.0000   2000.0000   2000.0000     15.8442    152.7836
  1034.2500   2000.0000   2000.0000     15.8724    153.3708
  1034.5000   2000.0000   2000.0000     15.9212    153.5551
  1034.7500   2000.0000   2000.0000     16.0203    153.3145
  1035.0000   2000.0000   2000.0000     16.1937    152.7585
  1035.2500   2000.0000   2000.0000     16.4476    152.4629
  1035.5000   2000.0000   2000.0000     16.7619    152.3147
  1035.7500   2000.0000   2000.0000     17.0978    152.3027
