~Version Information
VERS.                      2.0: CWLS Log ASCII Standard - VERSION 2.0
WRAP.                       NO: One line per depth step
~Well Information Block
STRT.FT               -11.2500: 
STOP.FT              1767.0000: 
STEP.FT                 0.2500: 
NULL.                -999.2500: 
COMP.          Petrogulf Corporation: COMPANY
WELL.             McLeod 9-42R: WELL
FLD.           Purgatoire River: FIELD
LOC.           1748' FNL & 372' FEL--: LOCATION
PROV.                 Colorado: PROVINCE
CNTY.               Las Animas: COUNTRY
SRVC.                         : SERVICE COMPANY
DATE.          Thu Sep 29 13:28:07 2005: LOG DATE
UWI.                          : UNIQUE WELL ID
~Curve Information Block
DEPT.FT            0 000 00 00: Depth
GR.GAPI                       : Gamma Ray
CCL.                          : Casing Collar Locator
AMP3.mV                       : CBL 3' Amplitude
AMP5.mV                       : CBL 5' Amplitude
~Parameter Information Block
~A  Depth        GR         CCL         AMP3        AMP5    
# ...
   558.2500     90.7020      0.0000      3.0023      0.4129
   558.5000     91.8532      0.0000      2.9860      0.4158
   558.7500     96.3807      0.0000      2.9623      0.4179
   559.0000    101.9464      0.0000      2.9360      0.4181
   559.2500    105.7659      0.0000      2.9089      0.4135
   559.5000    107.0354      0.0000      2.8750      0.4020
   559.7500    107.0905      0.0000      2.8213      0.3834
   560.0000    107.4249      0.0000      2.7380      0.3584
   560.2500    108.1191      0.0000      2.6317      0.3276
   560.5000    108.2824      0.0000      2.5288      0.2943
   560.7500    107.4331      0.0000      2.4620      0.2669
   561.0000    106.0863      0.0000      2.4487      0.2547
   561.2500    105.3188      0.0000      2.4820      0.2603
   561.5000    105.9699      0.0000      2.5408      0.2766
   561.7500    107.9504      0.0000      2.6052      0.2904
   562.0000    110.0950      0.0000      2.6604      0.2898
   562.2500    110.8920      0.0000      2.6914      0.2712
   562.5000    109.6569      0.0000      2.6835      0.2403
   562.7500    106.9900      0.0000      2.6347      0.2080
   563.0000    103.9322      0.0000      2.5662      0.1861
   563.2500    100.7822      0.0000      2.5152      0.1858
   563.5000     97.1294      0.0000      2.5133      0.2137
   563.7500     92.9512      0.0000      2.5730      0.2635
   564.0000     89.0268      0.0000      2.6972      0.3146
   564.2500     86.0318      0.0000      2.8952      0.3451
   564.5000     83.7619      0.0000      3.1795      0.3472
   564.7500     81.6531      0.0000      3.5378      0.3304
   565.0000     79.9471      0.0000      3.9016      0.3116
   565.2500     80.0217      0.0000      4.1580      0.3060
   565.5000     83.1863      0.0000      4.2277      0.3253
   565.7500     89.0293      0.0000      4.1581      0.3809
   566.0000     95.2303      0.0000      4.1270      0.4867
   566.2500     99.2926      0.0000      4.3405      0.6573
   566.5000    100.5499      0.0000      4.9288      0.8999
   566.7500    100.5202      0.0000      5.9447      1.2105
   567.0000    101.4661      0.0000      7.4416      1.5858
   567.2500    104.6678      0.0000      9.5545      2.0391
   567.5000    109.8785      0.0000     12.5040      2.5992
   567.7500    115.9587      0.0000     16.4830      3.2988
   568.0000    121.5964      0.0000     21.5060      4.1762
   568.2500    125.6059      0.0000     27.4101      5.2983
   568.5000    127.2800      0.0000     34.0177      6.7694
   568.7500    126.8710      0.0000     41.1710      8.6870
   569.0000    125.5561      0.0000     48.5484     11.0725
   569.2500    124.5955      0.0000     55.6112     13.8843
   569.5000    124.3106      0.0000     61.8617     17.1248
   569.7500    123.8560      0.0000     67.1005     20.8502
   570.0000    122.0669      0.0000     71.4025     24.9985
   570.2500    118.6198      0.0000     74.9081     29.2527
   570.5000    114.4812      0.0000     77.6709     33.1244
   570.7500    111.3608      0.0000     79.6614     36.1476
   571.0000    110.6461      0.0000     80.8466     38.0116
   571.2500    112.5210      0.0000     81.2274     38.5897
   571.5000    115.9557      0.0000     80.7977     37.9033
   571.7500    119.5655      0.0000     79.5152     36.0868
   572.0000    122.3405      0.0000     77.3369     33.3944
   572.2500    123.6716      0.0000     74.2674     30.1995
   572.5000    123.2825      0.0000     70.3612     26.9046
   572.7500    121.5062      0.0000     65.7086     23.7915
   573.0000    119.2502      0.0000     60.4633     20.9426
   573.2500    117.3954      0.0000     54.8803     18.2990
   573.5000    116.4650      0.0000     49.2808     15.7860
   573.7500    116.8189      0.0000     43.9357     13.3933
   574.0000    118.5083      0.0000     38.9640     11.1688
   574.2500    120.7798      0.0000     34.3460      9.1723
   574.5000    122.3516      0.0000     30.0366      7.4497
   574.7500    122.5165      0.0000     26.0512      6.0226
   575.0000    121.5987      0.0000     22.4442      4.8751
   575.2500    120.1070      0.0000     19.2467      3.9548
   575.5000    117.9993      0.0000     16.4582      3.2024
   575.7500    115.2730      0.0000     14.0592      2.5832
   576.0000    112.9886      0.0000     11.9940      2.0880
   576.2500    113.0420      0.0000     10.1617      1.7102
   576.5000    116.6013      0.0000      8.4694      1.4292
   576.7500    123.0704      0.0000      6.9016      1.2131
   577.0000    130.8873      0.0000      5.5270      1.0335
   577.2500    138.8880      0.0000      4.4356      0.8746
   577.5000    146.5041      0.0000      3.6706      0.7312
   577.7500    153.2592      0.0000      3.2063      0.6035
   578.0000    158.7446      0.0000      2.9724      0.4933
   578.2500    162.6231      0.0000      2.8903      0.4050
   578.5000    164.1942      0.0000      2.8932      0.3450
   578.7500    162.6192      0.0000      2.9274      0.3162
   579.0000    158.2240      0.0000      2.9542      0.3108
   579.2500    153.1082      0.0000      2.9623      0.3128
   579.5000    149.7410      0.0000      2.9686      0.3098
   579.7500    148.8716      0.0000      2.9972      0.3010
   580.0000    149.0738      0.0000      3.0572      0.2937
   580.2500    148.4540      0.0000      3.1402      0.2927
   580.5000    146.6371      0.0000      3.2305      0.2972
   580.7500    144.8856      0.0000      3.3100      0.3056
   581.0000    144.3336      0.0000      3.3577      0.3184
   581.2500    144.4826      0.0000      3.3563      0.3340
   581.5000    143.7731      0.0000      3.3088      0.3465
   581.7500    141.5114      0.0000      3.2443      0.3509
   582.0000    138.8783      0.0000      3.1989      0.3493
   582.2500    137.8943      0.0000      3.1896      0.3493
   582.5000    139.5545      0.0000      3.2107      0.3559
   582.7500    143.1132      0.0000      3.2496      0.3673
   583.0000    146.8757      0.0000      3.2967      0.3771
   583.2500    149.1226      0.0000      3.3374      0.3805
   583.5000    148.5490      0.0000      3.3507      0.3761
   583.7500    144.9541      0.0000      3.3232      0.3656
   584.0000    139.8560      0.0000      3.2617      0.3521
   584.2500    135.5506      0.0000      3.1882      0.3388
   584.5000    133.1024      0.0000      3.1251      0.3278
   584.7500    131.7251      0.0000      3.0870      0.3200
   585.0000    130.1585      0.0000      3.0809      0.3143
   585.2500    127.9460      0.0000      3.1065      0.3085
   585.5000    125.1870      0.0000      3.1539      0.3035
   585.7500    121.8769      0.0000      3.2063      0.3045
   586.0000    118.1394      0.0000      3.2464      0.3173
   586.2500    114.7093      0.0000      3.2666      0.3418
   586.5000    112.5904      0.0000      3.2745      0.3701
   586.7500    112.1979      0.0000      3.2902      0.3917
   587.0000    112.9821      0.0000      3.3315      0.3992
   587.2500    113.9084      0.0000      3.3994      0.3916
   587.5000    114.2723      0.0000      3.4754      0.3724
   587.7500    114.0561      0.0000      3.5357      0.3461
   588.0000    113.6401      0.0000      3.5659      0.3191
   588.2500    113.3760      0.0000      3.5651      0.3003
   588.5000    113.4658      0.0000      3.5395      0.2965
   588.7500    114.0253      0.0000      3.4958      0.3062
   589.0000    115.1317      0.0000      3.4368      0.3184
   589.2500    116.8097      0.0000      3.3675      0.3224
   589.5000    118.9558      0.0000      3.3040      0.3184
   589.7500    121.2287      0.0000      3.2741      0.3154
   590.0000    123.1668      0.0000      3.3016      0.3195
   590.2500    124.4751      0.0000      3.3873      0.3271
   590.5000    124.9082      0.0000      3.5065      0.3309
   590.7500    123.8417      0.0000      3.6184      0.3284
   591.0000    120.5427      0.0000      3.6816      0.3225
   591.2500    114.9953      0.0000      3.6716      0.3131
   591.5000    108.0348      0.0000      3.5970      0.2939
