~Version Information
 VERS.                                  2.0 : CWLS LAS VERSION
 WRAP.                                   NO : WRAPING MODE
 SWARE .                 MController 2.5.0J : SOFTWARE VERSION
~Well Information
 WELL.                        HARRIER 44-33 : WELL
 COMP.    PIONEER NATURAL RESOURCES USA INC : COMPANY
 FLD.                      PURGATOIRE RIVER : FIELD
 LOC.                SE/SE SEC 33 T32S R66W : LOCATION
 DATE.                          06/19-20/05 : DATE(S) LOGGED
 SRVC.       BLANCO GEOLOGICAL SERVICES LLC : SERVICE COMPANY
 STAT.                             COLORADO : STATE
 CNTY.                           LAS ANIMAS : COUNTY
 CTRY.                                  USA : COUNTRY
 API.                       05-071-08398-00 : API NUMBER
 STRT.FT                             665.00 : START DEPTH
 STOP.FT                            2381.00 : STOP DEPTH
 STEP.FT                               1.00 : DEPTH INCREMENT
 NULL.                                -9999 : NULL VALUE
~Curve information
 DEPTH.FT                                   :
 ROP.MIN/FT                                 :
 GAS.UNITS                                  :
~ASCII Log data
       665.0     -9999.00          1.1 
       666.0         0.13          1.2 
       667.0         1.10          1.5 
       668.0         1.40          1.5 
       669.0         1.08          1.5 
       670.0         0.90          1.5 
       671.0         1.72          1.5 
       672.0         2.20          1.6 
       673.0         0.57          1.2 
       674.0         0.28          1.5 
       675.0         0.20          1.6 
       676.0         0.17          1.5 
       677.0         0.13          1.5 
       678.0         0.43          1.6 
       679.0         0.53          1.6 
       680.0         0.10          1.3 
       681.0         0.17          1.4 
       682.0         0.23          1.3 
       683.0         0.30          1.2 
       684.0         1.03          8.5 
       685.0         0.12          9.5 
       686.0         0.13         10.7 
       687.0         1.73         15.0 
       688.0         0.60         15.5 
       689.0         0.10         14.7 
       690.0         0.23         15.7 
       691.0         0.20         15.4 
       692.0         0.20         15.1 
       693.0         0.22         15.2 
       694.0         0.17         14.1 
       695.0         0.17         13.1 
       696.0         0.13         13.1 
       697.0         0.20         13.1 
       698.0         0.10         12.6 
       699.0         0.13         12.7 
       700.0         0.53         13.0 
       701.0         0.90         14.8 
       702.0         0.57         14.9 
       703.0         1.32         15.8 
       704.0         0.20         16.1 
       705.0         0.13         15.7 
       706.0         0.20         15.7 
       707.0         0.27         15.5 
       708.0         0.10         15.9 
       709.0         0.20         15.8 
       710.0         0.40         16.1 
       711.0         0.20         15.4 
       712.0         0.10         15.1 
       713.0         1.42         16.1 
       714.0         0.30         15.5 
       715.0         0.20         15.4 
       716.0         0.27         15.9 
       717.0         0.23         15.3 
       718.0         0.17         15.2 
       719.0         0.23         15.9 
       720.0         0.20         15.8 
       721.0         0.23         15.7 
       722.0         0.23         15.6 
       723.0         0.23         15.4 
       724.0         0.28         15.0 
       725.0         0.23         15.8 
       726.0         0.17         15.9 
       727.0         0.40         18.8 
       728.0         0.20         20.8 
       729.0         0.33         19.0 
       730.0         0.23         16.3 
       731.0         0.27         15.5 
       732.0         0.33         15.7 
       733.0         0.30         15.4 
       734.0         0.27         15.5 
       735.0         0.20         15.7 
       736.0         0.27         15.3 
       737.0         0.25         15.3 
       738.0         0.23         15.4 
       739.0         0.27         15.8 
       740.0         0.90         17.0 
       741.0         0.47         16.9 
       742.0         0.77         17.2 
       743.0         0.23         16.8 
       744.0         0.62         16.9 
       745.0         0.07         16.2 
       746.0         0.17         16.7 
       747.0         0.37         16.7 
       748.0         0.60         16.0 
       749.0         0.27         16.7 
       750.0         0.23         16.9 
       751.0         0.23         16.7 
       752.0         0.20         16.4 
       753.0         0.20         17.2 
       754.0         0.23         16.0 
       755.0         0.30         16.0 
       756.0         0.62         16.9 
       757.0         0.73         16.8 
       758.0         0.23         16.5 
       759.0         0.27         16.9 
       760.0         0.20         16.3 
       761.0         0.23         16.2 
       762.0         0.23         16.2 
       763.0         0.23         16.5 
       764.0         0.23         16.1 
       765.0         0.20         16.4 
       766.0         0.20         16.1 
       767.0         0.22         15.9 
       768.0         0.13         16.1 
       769.0         0.20         15.9 
       770.0         0.17         16.1 
       771.0         0.20         16.2 
       772.0         0.23         15.9 
       773.0         0.17         16.3 
       774.0         0.17         16.1 
       775.0         0.17         15.2 
       776.0         1.23         16.2 
       777.0         0.37         15.2 
       778.0         0.13         15.0 
       779.0         0.28         15.0 
       780.0         0.23         15.1 
       781.0         0.17         15.8 
       782.0         0.20         15.5 
       783.0         0.27         15.2 
       784.0         0.23         15.6 
       785.0         0.27         15.9 
       786.0         0.27         15.5 
       787.0         0.33         15.4 
       788.0         0.23         15.4 
       789.0         0.20         16.1 
       790.0         0.17         15.4 
       791.0         0.13         15.8 
       792.0         0.30         18.1 
       793.0         0.32         19.5 
       794.0         0.40         17.7 
       795.0         0.30         16.0 
       796.0         0.27         16.0 
       797.0         0.40         16.3 
       798.0         0.27         15.9 
       799.0         0.23         16.3 
       800.0         0.13         16.8 
       801.0         0.17         16.0 
       802.0         0.23         16.7 
       803.0         0.17         15.6 
       804.0         0.20         15.8 
       805.0         0.17         17.5 
       806.0         1.15         18.4 
       807.0         0.30         15.7 
       808.0         0.50         16.2 
       809.0         0.40         15.8 
       810.0         0.50         16.2 
       811.0         0.60         16.5 
       812.0         0.52         16.1 
       813.0         0.30         16.4 
       814.0         0.50         16.4 
       815.0         0.40         16.5 
       816.0         0.30         17.1 
       817.0         0.30         16.6 
       818.0         0.30         16.0 
       819.0         0.40         16.3 
       820.0         0.20         16.9 
       821.0         0.52         17.1 
       822.0         0.43         17.4 
       823.0         0.47         16.5 
       824.0         0.40         16.9 
       825.0         0.20         17.6 
       826.0         0.50         17.7 
       827.0         0.30         16.0 
       828.0         0.40         16.9 
       829.0         0.30         18.2 
       830.0         0.28         18.4 
       831.0         0.40         18.4 
       832.0         0.30         18.2 
       833.0         0.40         19.3 
       834.0         0.37         19.2 
       835.0         0.43         19.9 
       836.0         1.45         18.5 
       837.0         0.23         17.6 
       838.0         0.03         16.8 
       839.0         0.03         16.6 
       840.0         0.27         17.0 
       841.0         0.27         17.8 
       842.0         0.27         18.1 
       843.0         0.23         17.9 
       844.0         0.27         18.0 
       845.0         0.27         17.3 
       846.0         0.23         17.3 
       847.0         0.23         17.2 
       848.0         0.27         17.0 
       849.0         0.30         17.5 
       850.0         0.38         17.8 
       851.0         0.23         17.3 
       852.0         0.23         17.1 
       853.0         0.20         17.0 
       854.0         0.13         17.2 
       855.0         0.17         17.3 
       856.0         0.13         17.1 
       857.0         0.13         17.3 
       858.0         0.13         17.1 
       859.0         0.20         18.0 
       860.0         0.23         17.7 
       861.0         0.20         17.5 
       862.0         0.17         17.7 
       863.0         0.17         17.8 
       864.0         0.20         17.7 
