~Version Information
 VERS.                                  2.0 : CWLS LAS VERSION
 WRAP.                                   NO : WRAPING MODE
 SWARE .                 MController 2.5.0J : SOFTWARE VERSION
~Well Information
 WELL.                        Rancher 12-35 : WELL
 COMP.        Pioneer Natural Resources Inc : COMPANY
 FLD.                      PURGATOIRE RIVER : FIELD
 LOC.                    SW/NW 35 T32S R67W : LOCATION
 DATE.                             10/11/04 : DATE(S) LOGGED
 SRVC.       BLANCO GEOLOGICAL SERVICES LLC : SERVICE COMPANY
 STAT.                             COLORADO : STATE
 CNTY.                           LAS ANIMAS : COUNTY
 CTRY.                                  USA : COUNTRY
 API.                       05-071-08179-00 : API NUMBER
 STRT.FT                             449.00 : START DEPTH
 STOP.FT                            2520.00 : STOP DEPTH
 STEP.FT                               1.00 : DEPTH INCREMENT
 NULL.                                -9999 : NULL VALUE
~Curve information
 DEPTH.FT                                   :
 ROP.MIN/FT                                 :
 GAS.UNITS                                  :
~ASCII Log data
# ...
      2049.0         0.37       2879.4 
      2050.0         0.27       2574.9 
      2051.0         0.30       2295.2 
      2052.0         0.37       2052.3 
      2053.0         0.30       1884.9 
      2054.0         0.27       1777.7 
      2055.0         0.27       1697.2 
      2056.0         0.27       1646.3 
      2057.0         0.23       1619.0 
      2058.0         0.27       1624.1 
      2059.0         0.28       1650.7 
      2060.0         0.23       1668.2 
      2061.0         0.27       1668.9 
      2062.0         0.27       1658.1 
      2063.0         0.30       1634.9 
      2064.0         0.27       1614.7 
      2065.0         0.23       1596.1 
      2066.0         0.23       1576.2 
      2067.0         0.17       1563.1 
      2068.0         0.20       1550.3 
      2069.0         0.27       1530.8 
      2070.0         0.27       1419.2 
      2071.0         0.30       1850.8 
      2072.0         0.30       2337.7 
      2073.0         0.27       2755.4 
      2074.0         0.23       3059.3 
      2075.0         0.17       3228.8 
      2076.0         0.27       3415.5 
      2077.0         0.25       3490.9 
      2078.0         0.23       3421.2 
      2079.0         0.20       3218.4 
      2080.0         0.23       2900.3 
      2081.0         0.20       2629.4 
      2082.0         0.17       2433.0 
      2083.0         0.20       2236.3 
      2084.0         0.20       2086.3 
      2085.0         0.17       1995.7 
      2086.0         0.17       1922.3 
      2087.0         0.20       1837.0 
      2088.0         0.20       1751.8 
      2089.0         0.17       1682.4 
      2090.0         0.20       1604.2 
      2091.0         0.20       1533.8 
      2092.0         0.23       1452.6 
      2093.0         0.23       1428.7 
      2094.0         0.25       1505.8 
      2095.0         0.23       1576.9 
      2096.0         0.23       1613.3 
      2097.0         0.23       1614.7 
      2098.0         0.20       1597.8 
      2099.0         0.27       1571.5 
      2100.0         0.27       1222.8 
      2101.0         0.33       1661.5 
      2102.0         0.27       2062.7 
      2103.0         0.47       2783.4 
      2104.0         0.40       3096.4 
      2105.0         0.30       2988.9 
      2106.0         0.30       2612.3 
      2107.0         0.30       2496.7 
      2108.0         0.38       2507.5 
      2109.0         0.33       2406.7 
      2110.0         0.37       2173.3 
      2111.0         0.33       1973.8 
      2112.0         0.30       1834.7 
      2113.0         0.30       1725.8 
      2114.0         0.30       1627.5 
      2115.0         0.30       1566.8 
      2116.0         0.43       1586.0 
      2117.0         0.30       1555.7 
      2118.0         0.35       1498.4 
      2119.0         0.30       1487.6 
      2120.0         0.37       1500.1 
      2121.0         0.40       1444.5 
      2122.0         0.37       1411.5 
      2123.0         0.27       1420.3 
      2124.0         0.33       1436.4 
      2125.0         0.30       1432.4 
      2126.0         0.30       1391.6 
      2127.0         0.30       1345.8 
      2128.0         0.35       1335.0 
      2129.0         0.30       1349.2 
      2130.0         0.33       2402.4 
      2131.0         0.27       2457.3 
      2132.0         0.27       2524.7 
      2133.0         0.27       2502.1 
      2134.0         0.33       2305.3 
      2135.0         0.40       2059.4 
      2136.0         0.27       1939.4 
      2137.0         0.23       1846.5 
      2138.0         0.28       1749.4 
      2139.0         0.27       1650.7 
      2140.0         0.27       1565.1 
      2141.0         0.27       1540.5 
      2142.0         0.27       1577.3 
      2143.0         0.23       1607.6 
      2144.0         0.30       1609.3 
      2145.0         0.27       1577.6 
      2146.0         0.33       1530.4 
      2147.0         0.37       1450.9 
      2148.0         0.33       1356.2 
      2149.0         0.38       1309.7 
      2150.0         0.37       1327.3 
      2151.0         0.37       1371.4 
      2152.0         0.40       1374.4 
      2153.0         0.27       1364.3 
      2154.0         0.17       1356.9 
      2155.0         0.30       1352.2 
      2156.0         0.30       1357.3 
      2157.0         0.27       1362.0 
      2158.0         0.27       1356.9 
      2159.0         0.27       1320.2 
      2160.0         0.25       1274.0 
      2161.0         0.27       2440.8 
      2162.0         0.27       1966.7 
      2163.0         0.33       1651.7 
      2164.0         0.23       1675.3 
      2165.0         0.27       1872.1 
      2166.0         0.23       2021.6 
      2167.0         0.27       2112.3 
      2168.0         0.23       2120.7 
      2169.0         0.23       2060.1 
      2170.0         0.23       1974.8 
      2171.0         0.20       1895.3 
      2172.0         0.20       1805.3 
      2173.0         0.23       1709.0 
      2174.0         0.20       1665.5 
      2175.0         0.18       1648.7 
      2176.0         0.23       1628.1 
      2177.0         0.17       1601.2 
      2178.0         0.17       1546.3 
      2179.0         0.23       1465.4 
      2180.0         0.20       1426.3 
      2181.0         0.17       1385.9 
      2182.0         0.33       1310.4 
      2183.0         0.23       1281.1 
      2184.0         0.23       1286.2 
      2185.0         0.27       1361.0 
      2186.0         0.27       1398.7 
      2187.0         0.27       1443.8 
      2188.0         0.27       1506.2 
      2189.0         0.32       1541.9 
      2190.0         0.23       2742.0 
      2191.0         0.50       1909.1 
      2192.0         0.47       1708.0 
      2193.0         0.53       2079.3 
      2194.0         0.50       2150.7 
      2195.0         0.42       1958.3 
      2196.0         0.37       1765.9 
      2197.0         0.40       1610.9 
      2198.0         0.37       1534.8 
      2199.0         0.37       1525.7 
      2200.0         0.37       1488.6 
      2201.0         0.33       1431.0 
      2202.0         0.33       1425.3 
      2203.0         0.33       1432.4 
      2204.0         0.30       1430.4 
      2205.0         0.35       1406.1 
      2206.0         0.30       1379.5 
      2207.0         0.27       1371.4 
      2208.0         0.30       1377.5 
      2209.0         0.37       1383.5 
      2210.0         0.33       1368.4 
      2211.0         0.40       1337.7 
      2212.0         0.40       1376.5 
      2213.0         0.43       1422.9 
      2214.0         0.45       1405.8 
      2215.0         0.43       1375.4 
      2216.0         0.37       1355.6 
      2217.0         0.37       1340.7 
      2218.0         0.33       1332.0 
      2219.0         0.27       1319.9 
      2220.0         0.27       3953.2 
      2221.0         0.27       3947.1 
      2222.0         0.20       3612.9 
      2223.0         0.33       2743.7 
      2224.0         0.27       2217.7 
      2225.0         0.33       2114.3 
      2226.0         0.37       2258.8 
      2227.0         0.37       2302.3 
      2228.0         0.20       2248.4 
      2229.0         0.17       2159.8 
      2230.0         0.25       2035.8 
      2231.0         0.23       1917.5 
      2232.0         0.23       1806.4 
      2233.0         0.23       1688.8 
      2234.0         0.23       1519.6 
      2235.0         0.20       1408.8 
      2236.0         0.20       1408.5 
      2237.0         0.20       1500.8 
      2238.0         0.23       1618.4 
      2239.0         0.30       1724.5 
      2240.0         0.27       1709.0 
      2241.0         0.33       1544.6 
      2242.0         0.30       1440.8 
      2243.0         0.28       1468.8 
      2244.0         0.23       1519.3 
      2245.0         0.37       1554.7 
      2246.0         0.30       1546.9 
      2247.0         0.27       1512.2 
      2248.0         0.27       1432.0 
