~Version Information
VERS.                      2.0: CWLS Log ASCII Standard - VERSION 2.0
WRAP.                       NO: One line per depth step
~Well Information Block
STRT.FT                10.0000: 
STOP.FT              1066.5000: 
STEP.FT                 0.2500: 
NULL.                -999.2500: 
COMP.          Pioneer Natural Resources: COMPANY
WELL.            Redland 23-24: WELL
FLD.           Purgatoire River: FIELD
LOC.           2356' FSL & 1880' FWL----: LOCATION
PROV.                 Colorado: PROVINCE
CNTY.               Las Animas: COUNTRY
SRVC.                         : SERVICE COMPANY
DATE.          Thu Mar 24 10:01:02 2005: LOG DATE
UWI.           05 071 08221   : UNIQUE WELL ID
~Curve Information Block
DEPT.FT            0 000 00 00: Depth
CCL.                          : Casing Collar Locator
TT3.usec                      : CBL 3' Travel Time
AMP3.mV                       : CBL 3' Amplitude
AMP5.mV                       : CBL 5' Amplitude
GR.GAPI                       : Gamma Ray
~Parameter Information Block
~A  Depth       CCL         TT3         AMP3        AMP5         GR     
# ...
   710.0000      0.0000    854.7697      5.5737      2.3021    118.9708
   710.2500      0.0000    855.4217      5.5810      2.6503    114.0433
   710.5000      0.0000    859.5887      5.6060      2.6503    108.1056
   710.7500      0.0000    864.9178      5.6381      2.6503    100.9275
   711.0000      0.0000    871.0569      5.6624      2.6503     93.0560
   711.2500      0.0000    877.7794      5.6689      3.0855     85.7050
   711.5000      0.0000    882.3580      5.6473      3.0855     79.8494
   711.7500      0.0000    880.8655      5.5814      2.5632     75.6346
   712.0000      0.0000    872.2397      5.4581      3.0855     72.7367
   712.2500      0.0000    860.1549      5.2876      2.7373     70.8021
   712.5000      0.0000    850.7914      5.1113      2.6503     69.4012
   712.7500      0.0000    848.6944      4.9794      2.1280     68.0388
   713.0000      0.0000    853.4626      4.9209      2.8244     66.3426
   713.2500      0.0000    859.1207      4.9394      3.4337     64.0787
   713.5000      0.0000    857.6404      5.0288      2.0409     61.1660
   713.7500      0.0000    845.1506      5.1741      1.9539     57.9103
   714.0000      0.0000    825.3140      5.3366      2.3021     54.9762
   714.2500      0.0000    806.1909      5.4557      1.8668     52.8595
   714.5000      0.0000    794.1306      5.4831      1.7798     51.5046
   714.7500      0.0000    791.3109      5.4158      2.3891     50.5643
   715.0000      0.0000    797.8715      5.2995      3.2596     49.8827
   715.2500      0.0000    813.5700      5.1999      3.5207     49.5707
   715.5000      0.0000    836.2388      5.1655      3.5207     49.6453
   715.7500      0.0000    860.2887      5.2070      3.7819     49.6899
   716.0000      0.0000    878.8483      5.3056      3.3466     48.9877
   716.2500      0.0000    887.8895      5.4371      3.1725     47.1889
   716.5000      0.0000    888.2340      5.5838      3.1725     44.9733
   716.7500      0.0000    884.2491      5.7284      3.0855     43.8554
   717.0000      0.0000    881.0252      5.8498      2.8244     45.0670
   717.2500      0.0000    881.6884      5.9296      2.6503     48.6626
   717.5000      0.0000    885.5143      5.9586      2.6503     53.8439
   717.7500      0.0000    887.7807      5.9340      2.3021     59.9614
   718.0000      0.0000    882.2687      5.8556      2.2150     66.7627
   718.2500      0.0000    866.0438      5.7284      2.8244     73.6480
   718.5000      0.0000    843.8852      5.5686      2.3891     79.2460
   718.7500      0.0000    827.5889      5.4056      2.6503     82.2026
   719.0000      0.0000    827.7773      5.2736      2.7373     82.3115
   719.2500      0.0000    844.7886      5.1937      3.1725     80.5639
   719.5000      0.0000    868.8530      5.1665      3.6078     78.2153
   719.7500      0.0000    889.1688      5.1838      2.9114     76.2353
   720.0000      0.0000    901.2604      5.2414      3.4337     75.4797
   720.2500      0.0000    906.5599      5.3372      3.5207     76.5453
   720.5000      0.0000    908.1282      5.4606      3.4337     78.9739
   720.7500      0.0000    907.8406      5.5882      3.1725     81.0392
   721.0000      0.0000    906.0447      5.6877      2.7373     81.0222
   721.2500      0.0000    902.4339      5.7303      2.5632     78.6868
   721.5000      0.0000    897.2731      5.7072      2.9984     75.2109
   721.7500      0.0000    892.0967      5.6408      3.4337     71.9818
   722.0000      0.0000    888.8493      5.5759      3.2596     69.8195
   722.2500      0.0000    887.8383      5.5477      2.9984     68.9643
   722.5000      0.0000    886.9988      5.5517      2.6503     69.1392
   722.7500      0.0000    884.2036      5.5462      2.5632     69.5698
   723.0000      0.0000    880.2285      5.4927      2.3021     69.3103
   723.2500      0.0000    878.2498      5.3961      2.9984     67.8132
   723.5000      0.0000    879.8198      5.3092      3.5207     65.3613
   723.7500      0.0000    882.4815      5.2993      3.4337     63.1264
   724.0000      0.0000    882.4758      5.4103      3.2596     62.6646
   724.2500      0.0000    879.1346      5.6426      2.6503     64.8836
   724.5000      0.0000    875.0547      5.9545      2.5632     69.0798
   724.7500      0.0000    872.0588      6.2840      3.2596     73.0896
   725.0000      0.0000    868.8218      6.5744      3.3466     74.8070
   725.2500      0.0000    862.7406      6.7801      2.7373     73.7961
   725.5000      0.0000    851.7291      6.8548      2.3891     71.4678
   725.7500      0.0000    833.4705      6.7600      2.8244     69.7730
   726.0000      0.0000    806.4525      6.5047      2.7373     69.7473
   726.2500      0.0000    774.1429      6.1740      3.8689     71.0380
   726.5000      0.0000    745.7557      5.9043      4.3041     72.4580
   726.7500      0.0000    730.3703      5.8142      4.3041     72.8928
   727.0000      0.0000    731.1965      5.9320      3.2596     71.9423
   727.2500      0.0000    745.7020      6.1710      3.5207     70.1559
   727.5000      0.0000    768.5717      6.3806      2.9114     68.8493
   727.7500      0.0000    793.4341      6.4521      3.3466     69.4131
   728.0000      0.0000    814.3129      6.3876      3.5207     72.6069
   728.2500      0.0000    827.9030      6.2709      3.8689     78.6677
   728.5000      0.0000    834.0413      6.1822      4.8264     87.7466
   728.7500      0.0000    833.4436      6.1534      4.7394     99.5022
   729.0000      0.0000    826.1014      6.1863      4.3041    112.3539
   729.2500      0.0000    813.3021      6.2810      3.7819    123.7338
   729.5000      0.0000    800.9043      6.4337      4.3041    131.2332
   729.7500      0.0000    798.1009      6.6138      3.4337    133.6265
   730.0000      0.0000    810.4050      6.7599      3.6078    131.2804
   730.2500      0.0000    833.6076      6.8120      3.5207    125.9954
   730.5000      0.0000    856.2333      6.7492      2.9114    120.4133
   730.7500      0.0000    868.7358      6.5943      2.5632    117.0781
   731.0000      0.0000    869.8462      6.3893      2.6503    117.5063
   731.2500      0.0000    863.9708      6.1809      3.3466    121.8822
   731.5000      0.0000    854.2064      6.0208      2.5632    129.2865
   731.7500      0.0000    840.1245      5.9497      2.6503    137.8578
   732.0000      0.0000    822.2302      5.9652      3.0855    145.1699
   732.2500      0.0000    805.7840      6.0161      2.6503    149.4549
   732.5000      0.0000    798.2238      6.0415      2.3891    150.9143
   732.7500      0.0000    803.4507      6.0093      2.4762    151.4810
   733.0000      0.0000    819.3032      5.9177      1.9539    152.7320
   733.2500      0.0000    840.0627      5.7767      2.7373    153.9894
   733.5000      0.0000    860.5012      5.6032      2.9114    152.9872
   733.7500      0.0000    877.4487      5.4208      2.8244    148.5553
   734.0000      0.0000    888.7273      5.2518      2.8244    142.0674
   734.2500      0.0000    892.3494      5.1085      2.2150    136.0507
   734.5000      0.0000    887.3201      4.9972      2.3891    132.0385
   734.7500      0.0000    874.6733      4.9270      2.3021    130.0679
   735.0000      0.0000    857.4695      4.9144      2.4762    129.5567
   735.2500      0.0000    839.9846      4.9763      2.3891    130.0214
   735.5000      0.0000    826.8884      5.1131      2.6503    131.0628
   735.7500      0.0000    822.2908      5.2935      1.7798    132.1675
   736.0000      0.0000    828.1064      5.4624      1.7798    132.8908
   736.2500      0.0000    842.5603      5.5693      2.1280    133.2774
   736.5000      0.0000    860.6348      5.5931      2.1280    133.7151
   736.7500      0.0000    876.9050      5.5453      2.8244    133.9872
   737.0000      0.0000    888.4857      5.4539      2.6503    132.9519
   737.2500      0.0000    895.2401      5.3465      3.5207    129.9703
   737.5000      0.0000    897.5584      5.2446      2.6503    126.3428
   737.7500      0.0000    894.5773      5.1695      3.1725    124.4104
