~Version Information
VERS.                      2.0: CWLS Log ASCII Standard - VERSION 2.0
WRAP.                       NO: One line per depth step
~Well Information Block
STRT.FT               580.0000: 
STOP.FT              2729.7500: 
STEP.FT                 0.2500: 
NULL.                -999.2500: 
COMP.          Pioneer Natural Resources: COMPANY
WELL.          Sand Pebbles 13-33: WELL
FLD.           Purgatoire River: FIELD
LOC.           1883' FSL & 63' FWL----: LOCATION
PROV.                 Colorado: PROVINCE
CNTY.               Las Animas: COUNTRY
SRVC.                Patterson: SERVICE COMPANY
DATE.          Fri Mar 11 13:47:45 2005: LOG DATE
UWI.           05 071 08224 00: UNIQUE WELL ID
~Curve Information Block
DEPT.FT            0 000 00 00: Depth
SN.Ohm-m                      : IEL Short Normal
SP.mV                         : IEL Spontaneous Potential
DIR.Ohm-m                     : IEL Induction Resistivity
GR.GAPI                       : Gamma Ray
~Parameter Information Block
~A  Depth        SN          SP         DIR          GR     
# ...
   714.0000     12.0484   -171.7777     10.8768    136.3192
   714.2500     11.6635   -171.7369     10.8037    138.8660
   714.5000     11.2015   -171.7192     10.7477    140.4438
   714.7500     10.7158   -171.7748     10.7051    140.0630
   715.0000     10.2958   -171.9438     10.6794    137.8486
   715.2500     10.0483   -172.2466     10.6793    135.8447
   715.5000     10.0639   -172.6814     10.7144    133.5512
   715.7500     10.3745   -173.2275     10.7909    133.2770
   716.0000     10.9208   -173.8541     10.9089    134.8393
   716.2500     11.5575   -174.5294     11.0617    136.4539
   716.5000     12.1147   -175.2283     11.2379    138.1266
   716.7500     12.4806   -175.9360     11.4240    138.3329
   717.0000     12.6444   -176.6460     11.6079    138.1454
   717.2500     12.6705   -177.3563     11.7821    138.7715
   717.5000     12.6372   -178.0635     11.9443    141.9674
   717.7500     12.5916   -178.7571     12.0940    145.1850
   718.0000     12.5403   -179.4127     12.2268    149.8340
   718.2500     12.4634   -179.9857     12.3303    152.0953
   718.5000     12.3382   -180.4106     12.3864    154.1986
   718.7500     12.1598   -180.6124     12.3792    154.9102
   719.0000     11.9500   -180.5353     12.3039    154.6471
   719.2500     11.7482   -180.1770     12.1709    153.2224
   719.5000     11.5902   -179.6128     12.0003    149.0688
   719.7500     11.4941   -178.9878     11.8120    145.2700
   720.0000     11.4602   -178.4746     11.6170    138.7393
   720.2500     11.4783   -178.2121     11.4155    134.1028
   720.5000     11.5305   -178.2557     11.2011    127.1885
   720.7500     11.5885   -178.5625     10.9697    123.1148
   721.0000     11.6126   -179.0171     10.7249    118.7351
   721.2500     11.5608   -179.4820     10.4785    117.0811
   721.5000     11.4039   -179.8466     10.2449    116.0647
   721.7500     11.1368   -180.0561     10.0356    116.2908
   722.0000     10.7770   -180.1144      9.8554    118.4185
   722.2500     10.3558   -180.0678      9.7043    121.1126
   722.5000      9.9115   -179.9814      9.5807    126.3422
   722.7500      9.4859   -179.9180      9.4834    130.0063
   723.0000      9.1217   -179.9251      9.4119    135.0745
   723.2500      8.8571   -180.0301      9.3645    137.9834
   723.5000      8.7195   -180.2401      9.3377    141.4651
   723.7500      8.7206   -180.5455      9.3272    143.1492
   724.0000      8.8540   -180.9237      9.3303    144.7766
   724.2500      9.0967   -181.3451      9.3474    145.3323
   724.5000      9.4130   -181.7797      9.3819    145.3442
   724.7500      9.7590   -182.2055      9.4378    144.6469
   725.0000     10.0894   -182.6146      9.5160    142.3089
   725.2500     10.3663   -183.0149      9.6105    140.0141
   725.5000     10.5680   -183.4261      9.7083    136.0980
   725.7500     10.6869   -183.8692      9.7933    133.5259
   726.0000     10.7223   -184.3537      9.8522    130.0159
   726.2500     10.6788   -184.8676      9.8789    128.0087
   726.5000     10.5713   -185.3758      9.8737    125.8517
   726.7500     10.4242   -185.8300      9.8400    125.2138
   727.0000     10.2615   -186.1865      9.7819    125.6484
   727.2500     10.0971   -186.4249      9.7043    126.9370
   727.5000      9.9352   -186.5557      9.6130    130.6767
   727.7500      9.7769   -186.6163      9.5150    134.3746
   728.0000      9.6241   -186.6561      9.4164    140.4224
   728.2500      9.4805   -186.7201      9.3215    143.3299
   728.5000      9.3518   -186.8383      9.2332    144.1672
   728.7500      9.2463   -187.0226      9.1536    142.6314
   729.0000      9.1739   -187.2702      9.0860    139.3579
   729.2500      9.1442   -187.5700      9.0356    137.6110
   729.5000      9.1641   -187.9083      9.0087    136.0176
   729.7500      9.2367   -188.2740      9.0113    135.4652
   730.0000      9.3599   -188.6598      9.0478    135.4966
   730.2500      9.5266   -189.0599      9.1203    136.1635
   730.5000      9.7263   -189.4669      9.2282    137.3463
   730.7500      9.9467   -189.8684      9.3686    137.4817
   731.0000     10.1770   -190.2484      9.5373    136.1725
   731.2500     10.4126   -190.5910      9.7303    134.5722
   731.5000     10.6578   -190.8856      9.9475    131.6131
   731.7500     10.9250   -191.1295     10.1941    129.4794
   732.0000     11.2305   -191.3279     10.4807    126.9137
   732.2500     11.5893   -191.4902     10.8209    126.2971
   732.5000     12.0134   -191.6271     11.2298    127.0145
   732.7500     12.5126   -191.7475     11.7242    127.6514
   733.0000     13.0973   -191.8579     12.3250    126.9214
   733.2500     13.7809   -191.9618     13.0578    124.7920
   733.5000     14.5815   -192.0602     13.9494    119.3806
   733.7500     15.5291   -192.1522     15.0217    114.6701
   734.0000     16.6758   -192.2356     16.2869    106.5614
   734.2500     18.1041   -192.3082     17.7471    100.9199
   734.5000     19.9261   -192.3686     19.4008     93.0841
   734.7500     22.2651   -192.4166     21.2530     88.6288
   735.0000     25.2195   -192.4536     23.3177     82.8686
   735.2500     28.8129   -192.4823     25.6037     79.3141
   735.5000     32.9432   -192.5056     28.0851     74.4970
   735.7500     37.3684   -192.5259     30.6685     72.1001
   736.0000     41.7617   -192.5446     33.1840     70.1888
   736.2500     45.8169   -192.5613     35.4188     69.7623
   736.5000     49.3228   -192.5747     37.1920     69.6961
   736.7500     52.1605   -192.5835     38.4277     69.9144
   737.0000     54.2678   -192.5875     39.1742     70.5033
   737.2500     55.6269   -192.5873     39.5617     70.7529
   737.5000     56.2646   -192.5841     39.7337     70.5513
   737.7500     56.2291   -192.5784     39.7886     70.3035
   738.0000     55.5412   -192.5699     39.7389     70.5087
   738.2500     54.1566   -192.5572     39.4879     71.0437
   738.5000     51.9736   -192.5379     38.8466     71.6340
   738.7500     48.9044   -192.5087     37.6108     71.4581
   739.0000     44.9938   -192.4640     35.6776     70.7130
   739.2500     40.5015   -192.3938     33.1297     70.8577
   739.5000     35.8530   -192.2805     30.2185     74.1855
   739.7500     31.4581   -192.0967     27.2587     79.3368
   740.0000     27.5379   -191.8054     24.5113     91.4100
   740.2500     24.0995   -191.3647     22.1226    101.4083
   740.5000     21.0499   -190.7376     20.1266    116.6634
   740.7500     18.3252   -189.9047     18.4825    125.3168
   741.0000     15.9420   -188.8761     17.1201    133.9901
   741.2500     13.9799   -187.6965     15.9751    136.5999
   741.5000     12.5375   -186.4406     15.0094    136.6528
   741.7500     11.6872   -185.2000     14.2142    135.1289
   742.0000     11.4350   -184.0648     13.5979    132.2137
   742.2500     11.6918   -183.1076     13.1697    130.3957
   742.5000     12.2741   -182.3705     12.9260    128.0339
   742.7500     12.9493   -181.8588     12.8454    126.8563
   743.0000     13.5148   -181.5387     12.8895    126.4228
   743.2500     13.8604   -181.3428     13.0092    127.2740
   743.5000     13.9736   -181.1824     13.1527    129.4561
   743.7500     13.9020   -180.9678     13.2724    130.5303
   744.0000     13.7125   -180.6288     13.3297    130.5661
   744.2500     13.4672   -180.1311     13.2984    129.9460
   744.5000     13.2122   -179.4806     13.1688    129.6870
   744.7500     12.9748   -178.7165     12.9501    130.5176
   745.0000     12.7656   -177.8970     12.6667    133.0319
   745.2500     12.5849   -177.0838     12.3482    135.2924
   745.5000     12.4286   -176.3272     12.0201    139.4829
   745.7500     12.2922   -175.6563     11.7010    142.5287
   746.0000     12.1724   -175.0741     11.4050    146.0912
   746.2500     12.0684   -174.5629     11.1460    147.0355
   746.5000     11.9808   -174.0964     10.9388    146.2279
   746.7500     11.9117   -173.6562     10.7982    144.6266
   747.0000     11.8618   -173.2430     10.7380    141.1481
   747.2500     11.8256   -172.8796     10.7704    138.3656
