
~Version Information
 VERS.                                  2.0 : CWLS LAS VERSION
 WRAP.                                   NO : WRAPING MODE
 SWARE .                 MController 2.5.0N : SOFTWARE VERSION
~Well Information
 WELL.                          Whinny 42-4 : WELL
 COMP.                                  N/A : COMPANY
 FLD.                      Purgatoire River : FIELD
 LOC.                SE/NE Sec 2 T33S  R67W : LOCATION
 DATE.                           8/19-20/05 : DATE(S) LOGGED
 SRVC.       BLANCO Geological Services LLC : SERVICE COMPANY
 STAT.                                   CO : STATE
 CNTY.                           Las Animas : COUNTY
 CTRY.                                  USA : COUNTRY
 API.                       05-071-08406-00 : API NUMBER
 STRT.FT                             574.00 : START DEPTH
 STOP.FT                            2360.00 : STOP DEPTH
 STEP.FT                               1.00 : DEPTH INCREMENT
 NULL.                                -9999 : NULL VALUE
~Curve information
 DEPTH.FT                                   :
 ROP.MIN/FT                                 :
 GAS.UNITS                                  :
~ASCII Log data
# ...
      1974.0         1.08         85.8 
      1975.0         0.73        127.7 
      1976.0         0.97         87.8 
      1977.0         0.88         65.1 
      1978.0         1.03        127.6 
      1979.0         1.50         70.2 
      1980.0         1.38         60.2
      1981.0         0.33        186.0 
      1982.0         0.50        187.5 
      1983.0         0.40        196.4 
      1984.0         0.70        193.5 
      1985.0         0.50        196.8 
      1986.0         0.42        194.5 
      1987.0         0.60        201.9 
      1988.0         0.70        198.0 
      1989.0         0.40        194.5 
      1990.0         0.30        161.4 
      1991.0         0.40        165.5 
      1992.0         0.50        201.5 
      1993.0         0.68        211.2 
      1994.0         0.53        190.0 
      1995.0         0.40        182.9 
      1996.0         0.43        185.0 
      1997.0         0.20        186.7 
      1998.0         0.40        144.4 
      1999.0         0.40        203.3 
      2000.0         0.30        207.8 
      2001.0         0.30        152.4 
      2002.0         0.10        151.8 
      2003.0         0.10        151.1 
      2004.0         0.30        157.3 
      2005.0         0.10        154.8 
      2006.0         0.10        111.4 
      2007.0         0.30        143.3 
      2008.0         0.10        132.1 
      2009.0         0.30        143.1 
      2010.0         0.10        144.0 
      2011.0         0.30        156.1 
      2012.0         0.12        145.6 
      2013.0         0.30        149.5 
      2014.0         0.10        148.3 
      2015.0         0.10        147.4 
      2016.0         0.40        142.6 
      2017.0         0.27        168.5 
      2018.0         0.30        160.5 
      2019.0         0.20        152.5 
      2020.0         0.30        155.5 
      2021.0         0.30        146.5  
      2022.0     -9999.00         16.6 
      2023.0         1.17         15.8 
      2024.0         1.05         15.6 
      2025.0         0.82         16.3 
      2026.0         1.05          4.9 
      2027.0         1.40          5.5 
      2028.0         0.72          4.7 
      2029.0         1.17          5.3 
      2030.0         1.05          5.4 
      2031.0         1.05          6.2 
      2032.0         1.05          5.8 
      2033.0         0.82          5.5 
      2034.0         1.05          5.9 
      2035.0         1.52        181.9 
      2036.0         1.28        179.3 
      2037.0         0.82        167.6 
      2038.0         0.23        168.6 
      2039.0         0.82        176.1 
      2040.0         0.60        183.8 
      2041.0         0.58        180.3 
      2042.0         1.05        170.2 
      2043.0         1.05        169.9 
      2044.0         0.47        177.8 
      2045.0         0.82        219.9 
      2046.0         0.35        214.2 
      2047.0         0.23        204.4 
      2048.0         0.58        194.6 
      2049.0         0.23        196.2 
      2050.0         0.23        199.6 
      2051.0         0.58        199.6 
      2052.0         0.47        202.0 
      2053.0         0.35        198.0 
      2054.0         0.47        187.2 
      2055.0         0.58        178.7 
      2056.0         0.47        174.3 
      2057.0         0.35        172.4 
      2058.0         0.82        172.7 
      2059.0         0.23        177.9 
      2060.0         0.82        172.9 
      2061.0         0.47        167.9 
      2062.0         0.83        171.2 
      2063.0         0.82        184.0 
      2064.0         0.58        192.5 
      2065.0         0.82        183.9 
      2066.0         0.47        172.4 
      2067.0         0.58        165.8 
      2068.0         0.23        166.8 
      2069.0         0.23        168.0 
      2070.0         0.58        171.3 
      2071.0         0.82        182.5 
      2072.0         0.23        179.7 
      2073.0         0.82        175.7 
      2074.0         0.58        171.2 
      2075.0         0.23        169.1 
      2076.0         0.47        168.5 
      2077.0         0.58        171.0 
      2078.0         0.58        166.5 
      2079.0         0.47        174.8 
      2080.0         0.23        176.1 
      2081.0         0.58        178.3 
      2082.0         0.23        182.0 
      2083.0         0.35        161.3 
      2084.0         0.60        116.8 
      2085.0         0.47        104.2 
      2086.0         0.23         62.8 
      2087.0         0.58          6.8 
      2088.0         0.23          3.2 
      2089.0         0.58          0.5 
      2090.0         0.58          0.0 
      2091.0         0.23          0.4 
      2092.0         0.35          0.7 
      2093.0         0.35          0.2 
      2094.0         0.35          0.6 
      2095.0         0.23          0.3 
      2096.0         0.58          0.2 
      2097.0         0.23          0.5 
      2098.0         0.58          0.3 
      2099.0         0.58          0.0 
      2100.0         0.23          0.2 
      2101.0         0.58          0.3 
      2102.0         0.35          0.5 
      2103.0         0.58          0.7 
      2104.0         0.58          0.1 
      2105.0         0.58          0.3 
      2106.0         0.70          0.2 
      2107.0         0.23          0.6 
      2108.0         0.47          0.7 
      2109.0         0.35          0.3 
      2110.0         0.58          0.3 
      2111.0         0.13          0.9 
      2112.0         0.35          0.4 
      2113.0         0.47          0.5 
      2114.0         0.23          0.4 
      2115.0         0.47          0.1 
      2116.0         0.62          0.3 
      2117.0         0.53          0.3 
      2118.0         0.53          0.8 
      2119.0         0.57          0.0 
      2120.0         0.27          0.6 
      2121.0         0.57          0.3 
      2122.0         0.68         52.7 
      2123.0         0.53        156.1 
      2124.0         0.53        169.0 
      2125.0         0.53        171.2 
      2126.0         0.63        172.7 
      2127.0         0.53        173.8 
      2128.0         0.55        173.3 
      2129.0         0.27        172.7 
      2130.0         0.27        172.1 
      2131.0         0.27        171.5 
      2132.0         0.27        170.9 
      2133.0         0.53        169.6 
      2134.0         0.53        166.5 
      2135.0         0.27        164.8 
      2136.0         0.27        159.1 
      2137.0         0.27        154.7 
      2138.0         0.32        150.0 
      2139.0         0.27        151.1 
      2140.0         0.53        163.1 
      2141.0         0.27        162.8 
      2142.0         0.37        169.7 
      2143.0         0.27        168.7 
      2144.0         0.53        178.1 
      2145.0         0.27        174.5 
      2146.0         0.27        171.9 
      2147.0         0.27        170.9 
      2148.0         0.28        169.2 
      2149.0         0.27        168.9 
      2150.0         0.33        195.3 
      2151.0         0.27        401.0 
      2152.0         0.27       1044.9 
      2153.0         0.30        936.3 
      2154.0         0.53        631.5 
      2155.0         0.53        484.2 
      2156.0         0.27        450.0 
      2157.0         0.42        186.9 
      2158.0         0.53        173.6 
      2159.0         0.27        174.9 
      2160.0         0.27        174.7 
      2161.0         0.53        170.8 
      2162.0         0.23        168.0 
      2163.0         0.53        164.4 
      2164.0         0.27        164.9 
      2165.0         0.27        167.5 
      2166.0         0.27        169.7 
      2167.0         0.28        167.8 
      2168.0         0.27        157.3 
      2169.0         0.53        156.1 
      2170.0         0.27        163.6 
      2171.0         0.27        168.3 
      2172.0         0.27        170.4 
      2173.0         0.53        166.8 
