~Version Information
VERS.                      2.0: CWLS Log ASCII Standard - VERSION 2.0
WRAP.                       NO: One line per depth step
~Well Information Block
STRT.FT               258.0000: 
STOP.FT              1001.0000: 
STEP.FT                 0.2500: 
NULL.                -999.2500: 
COMP.          Pioneer Natural Resources: COMPANY
WELL.          Piggyback 33-25: WELL
FLD.           Purgatoire River: FIELD
LOC.           1600' FSL & 1800' FEL: LOCATION
PROV.                 Colorado: PROVINCE
CNTY.               Las Animas: COUNTRY
SRVC.                Patterson: SERVICE COMPANY
DATE.          Fri Apr 29 14:22:38 2005: LOG DATE
UWI.           05 071 08233 00: UNIQUE WELL ID
~Curve Information Block
DEPT.FT            0 000 00 00: Depth
SN.Ohm-m                      : IEL Short Normal
SP.mV                         : IEL Spontaneous Potential
DIR.Ohm-m                     : IEL Induction Resistivity
GR.GAPI                       : Gamma Ray
~Parameter Information Block
~A  Depth        SN          SP         DIR          GR     
# ...
   392.0000   2000.0000   2000.0000     23.8984    133.6174
   392.2500   2000.0000   2000.0000     23.5778    134.1551
   392.5000   2000.0000   2000.0000     23.3340    133.0339
   392.7500   2000.0000   2000.0000     23.2246    131.4477
   393.0000   2000.0000   2000.0000     23.2643    128.8169
   393.2500   2000.0000   2000.0000     23.4419    127.4456
   393.5000   2000.0000   2000.0000     23.7474    126.5555
   393.7500   2000.0000   2000.0000     24.1809    126.6576
   394.0000   2000.0000   2000.0000     24.7363    126.8974
   394.2500   2000.0000   2000.0000     25.3800    126.3774
   394.5000   2000.0000   2000.0000     26.0500    123.8062
   394.7500   2000.0000   2000.0000     26.6781    120.9585
   395.0000   2000.0000   2000.0000     27.2141    115.7920
   395.2500   2000.0000   2000.0000     27.6280    112.3344
   395.5000   2000.0000   2000.0000     27.8980    107.6959
   395.7500   2000.0000   2000.0000     28.0091    104.9254
   396.0000   2000.0000   2000.0000     27.9645    101.0224
   396.2500   2000.0000   2000.0000     27.7936     98.7796
   396.5000   2000.0000   2000.0000     27.5380     96.9953
   396.7500   2000.0000   2000.0000     27.2248     97.5501
   397.0000   2000.0000   2000.0000     26.8477    101.4865
   397.2500   2000.0000   2000.0000     26.3752    105.8042
   397.5000   2000.0000   2000.0000     25.7828    113.2566
   397.7500   2000.0000   2000.0000     25.0820    117.8884
   398.0000   2000.0000   2000.0000     24.3181    123.3928
   398.2500   2000.0000   2000.0000     23.5376    126.2139
   398.5000   2000.0000   2000.0000     22.7598    130.2803
   398.7500   2000.0000   2000.0000     21.9791    133.6040
   399.0000   2000.0000   2000.0000     21.1876    139.6683
   399.2500   2000.0000   2000.0000     20.3934    143.5381
   399.5000   2000.0000   2000.0000     19.6188    146.7971
   399.7500   2000.0000   2000.0000     18.8895    146.5805
   400.0000   2000.0000   2000.0000     18.2273    143.7088
   400.2500   2000.0000   2000.0000     17.6528    141.5567
   400.5000   2000.0000   2000.0000     17.1883    140.2702
   400.7500   2000.0000   2000.0000     16.8544    141.3141
   401.0000   2000.0000   2000.0000     16.6614    145.1444
   401.2500   2000.0000   2000.0000     16.6051    147.9898
   401.5000   2000.0000   2000.0000     16.6700    150.0302
   401.7500   2000.0000   2000.0000     16.8364    148.8204
   402.0000   2000.0000   2000.0000     17.0802    143.0182
   402.2500   2000.0000   2000.0000     17.3619    137.1609
   402.5000   2000.0000   2000.0000     17.6208    126.6310
   402.7500   2000.0000   2000.0000     17.7881    118.9123
   403.0000   2000.0000   2000.0000     17.8127    106.9775
   403.2500   2000.0000   2000.0000     17.6747     99.3613
   403.5000   2000.0000   2000.0000     17.3776     89.6589
   403.7500   2000.0000   2000.0000     16.9341     85.0727
   404.0000   2000.0000   2000.0000     16.3618     82.4070
   404.2500   2000.0000   2000.0000     15.6862     84.3117
   404.5000   2000.0000   2000.0000     14.9431     93.5941
   404.7500   2000.0000   2000.0000     14.1757    103.7094
   405.0000   2000.0000   2000.0000     13.4257    122.3531
   405.2500   2000.0000   2000.0000     12.7230    135.0946
   405.5000   2000.0000   2000.0000     12.0803    151.6830
   405.7500   2000.0000   2000.0000     11.4965    160.1347
   406.0000   2000.0000   2000.0000     10.9649    168.8922
   406.2500   2000.0000   2000.0000     10.4813    172.7330
   406.5000   2000.0000   2000.0000     10.0465    176.7699
   406.7500   2000.0000   2000.0000      9.6657    178.7710
   407.0000   2000.0000   2000.0000      9.3441    180.8124
   407.2500   2000.0000   2000.0000      9.0840    181.4493
   407.5000   2000.0000   2000.0000      8.8852    181.6922
   407.7500   2000.0000   2000.0000      8.7486    181.8599
   408.0000   2000.0000   2000.0000      8.6791    182.3431
   408.2500   2000.0000   2000.0000      8.6838    182.1974
   408.5000   2000.0000   2000.0000      8.7656    179.6503
   408.7500   2000.0000   2000.0000      8.9179    175.9684
   409.0000   2000.0000   2000.0000      9.1236    168.3997
   409.2500   2000.0000   2000.0000      9.3627    163.1377
   409.5000   2000.0000   2000.0000      9.6215    156.6655
   409.7500   2000.0000   2000.0000      9.8966    153.8279
   410.0000   2000.0000   2000.0000     10.1907    152.0174
   410.2500   2000.0000   2000.0000     10.5051    152.2953
   410.5000   2000.0000   2000.0000     10.8360    154.1479
   410.7500   2000.0000   2000.0000     11.1760    155.5659
   411.0000   2000.0000   2000.0000     11.5195    156.6093
   411.2500   2000.0000   2000.0000     11.8643    156.2384
   411.5000   2000.0000   2000.0000     12.2104    154.7500
   411.7500   2000.0000   2000.0000     12.5576    153.9750
   412.0000   2000.0000   2000.0000     12.9053    154.2210
   412.2500   2000.0000   2000.0000     13.2562    155.3322
   412.5000   2000.0000   2000.0000     13.6183    157.3761
   412.7500   2000.0000   2000.0000     14.0022    158.0945
   413.0000   2000.0000   2000.0000     14.4146    157.1138
   413.2500   2000.0000   2000.0000     14.8511    155.1585
   413.5000   2000.0000   2000.0000     15.2941    151.5423
   413.7500   2000.0000   2000.0000     15.7143    149.5531
   414.0000   2000.0000   2000.0000     16.0778    147.8344
   414.2500   2000.0000   2000.0000     16.3531    147.2110
   414.5000   2000.0000   2000.0000     16.5181    145.8515
   414.7500   2000.0000   2000.0000     16.5665    144.0596
   415.0000   2000.0000   2000.0000     16.5109    139.9050
   415.2500   2000.0000   2000.0000     16.3813    136.7289
   415.5000   2000.0000   2000.0000     16.2136    133.2103
   415.7500   2000.0000   2000.0000     16.0386    132.8802
   416.0000   2000.0000   2000.0000     15.8797    136.5232
   416.2500   2000.0000   2000.0000     15.7566    141.3570
   416.5000   2000.0000   2000.0000     15.6858    150.0504
   416.7500   2000.0000   2000.0000     15.6746    155.3335
   417.0000   2000.0000   2000.0000     15.7157    160.9996
   417.2500   2000.0000   2000.0000     15.7914    163.1727
   417.5000   2000.0000   2000.0000     15.8870    164.3160
   417.7500   2000.0000   2000.0000     15.9997    163.6112
   418.0000   2000.0000   2000.0000     16.1365    159.9773
   418.2500   2000.0000   2000.0000     16.3062    155.9429
   418.5000   2000.0000   2000.0000     16.5193    148.6651
   418.7500   2000.0000   2000.0000     16.7986    143.8753
   419.0000   2000.0000   2000.0000     17.1870    137.5139
   419.2500   2000.0000   2000.0000     17.7394    133.6661
   419.5000   2000.0000   2000.0000     18.4979    127.7128
   419.7500   2000.0000   2000.0000     19.4665    123.1908
   420.0000   2000.0000   2000.0000     20.5994    115.5076
   420.2500   2000.0000   2000.0000     21.8190    110.4133
   420.5000   2000.0000   2000.0000     23.0560    104.5724
   420.7500   2000.0000   2000.0000     24.2819    102.5509
   421.0000   2000.0000   2000.0000     25.4970    101.9685
   421.2500   2000.0000   2000.0000     26.6809    102.3071
   421.5000   2000.0000   2000.0000     27.7565    102.1763
   421.7500   2000.0000   2000.0000     28.6108    101.0586
   422.0000   2000.0000   2000.0000     29.1681     97.9271
   422.2500   2000.0000   2000.0000     29.4454     95.4404
   422.5000   2000.0000   2000.0000     29.5217     92.1775
   422.7500   2000.0000   2000.0000     29.4510     90.6480
   423.0000   2000.0000   2000.0000     29.2104     89.5921
   423.2500   2000.0000   2000.0000     28.7397     90.0698
   423.5000   2000.0000   2000.0000     28.0256     93.5095
   423.7500   2000.0000   2000.0000     27.1422     97.7227
   424.0000   2000.0000   2000.0000     26.2094    105.2925
   424.2500   2000.0000   2000.0000     25.3287    109.5577
   424.5000   2000.0000   2000.0000     24.5595    112.9663
   424.7500   2000.0000   2000.0000     23.9302    113.5226
   425.0000   2000.0000   2000.0000     23.4502    114.0564
   425.2500   2000.0000   2000.0000     23.1086    115.5944
