~Version Information
VERS.                      2.0: CWLS Log ASCII Standard - VERSION 2.0
WRAP.                       NO: One line per depth step
~Well Information Block
STRT.FT               523.0000: 
STOP.FT              1709.0000: 
STEP.FT                 0.1000: 
NULL.                -999.2500: 
COMP.          Evergreen Operating Corporation: COMPANY
WELL.            Rimrock 14-29: WELL
FLD.           Purgatorie River: FIELD
LOC.           945' FSL & 604' FWL: LOCATION
PROV.                 Colorado: PROVINCE
CNTY.               Las Animas: COUNTRY
SRVC.                         : SERVICE COMPANY
DATE.          Tue Sep 21 04:15:40 2004: LOG DATE
UWI.           05 071 08136 00: UNIQUE WELL ID
~Curve Information Block
DEPT.FT            0 000 00 00: Depth
DCAL.in                       : CDL Caliper
RHOB.g/cc                     : CDL Bulk Density
RHOC.g/cc                     : CDL Density Correction
DPOR.pu                       : CDL Density Porosity
GR.GAPI                       : Gamma Ray
NPOR.pu                       : Neutron Porosity
~Parameter Information Block
~A  Depth       DCAL        RHOB        RHOC        DPOR         GR         NPOR    
# ...
  1694.2000      7.7606      2.5674      0.0560      5.0072   -999.2500     19.0114
  1694.3000      7.7721      2.5408      0.0513      6.6185   -999.2500     18.7084
  1694.4000      7.7721      2.5356      0.0749      6.9312   -999.2500     17.9337
  1694.5000      7.7558      2.5489      0.0767      6.1257   -999.2500     17.8563
  1694.6000      7.7558      2.5710      0.1165      4.7861   -999.2500     18.7611
  1694.7000      7.7558      2.5928      0.1338      3.4675   -999.2500     19.7822
  1694.8000      7.7517      2.6090      0.1332      2.4848   -999.2500     20.0804
  1694.9000      7.7517      2.6209      0.1372      1.7634   -999.2500     19.5587
  1695.0000      7.7598      2.6315      0.1319      1.1239   -999.2500     18.5747
  1695.1000      7.7598      2.6439      0.1278      0.3676   -999.2500     17.9936
  1695.2000      7.7598      2.6556      0.1499     -0.3366   -999.2500     20.4201
  1695.3000      7.7810      2.6569      0.1590     -0.4184   -999.2500     30.0852
  1695.4000      7.7810      2.6463      0.1292      0.2217   -999.2500     45.0040
  1695.5000      7.7855      2.6285      0.0646      1.3021   -999.2500     54.9088
  1695.6000      7.7855      2.6112      0.0601      2.3530   -999.2500     58.1530
  1695.7000      7.7855      2.6058      0.0463      2.6768   -999.2500     58.7593
  1695.8000      7.7860      2.6134      0.0928      2.2178   -999.2500     58.8228
  1695.9000      7.7860      2.6162      0.1011      2.0482   -999.2500     58.8263
  1696.0000      7.7874      2.6028      0.0899      2.8598   -999.2500   -999.2500
  1696.1000      7.7874      2.5838      0.0569      4.0099   -999.2500   -999.2500
  1696.2000      7.7874      2.5701      0.0550      4.8415   -999.2500   -999.2500
  1696.3000      7.7850      2.5609      0.0391      5.4026   -999.2500   -999.2500
  1696.4000      7.7850      2.5626      0.0116      5.2985   -999.2500   -999.2500
  1696.5000      7.7836      2.5830      0.0347      4.0621   -999.2500   -999.2500
  1696.6000      7.7836      2.6070      0.0909      2.6067   -999.2500   -999.2500
  1696.7000      7.7836      2.6073      0.1221      2.5871   -999.2500   -999.2500
  1696.8000      7.7841      2.5816      0.0521      4.1478   -999.2500   -999.2500
  1696.9000      7.7841      2.5571      0.0548      5.6303   -999.2500   -999.2500
  1697.0000      7.7861      2.5477      0.0824      6.2028   -999.2500   -999.2500
  1697.1000      7.7861      2.5411      0.0743      6.6021   -999.2500   -999.2500
  1697.2000      7.7861      2.5321      0.0175      7.1440   -999.2500   -999.2500
  1697.3000      7.7843      2.5306      0.0359      7.2376   -999.2500   -999.2500
  1697.4000      7.7843      2.5412      0.0581      6.5952   -999.2500   -999.2500
  1697.5000      7.7776      2.5592      0.0537      5.5028   -999.2500   -999.2500
  1697.6000      7.7776      2.5749      0.0910      4.5536   -999.2500   -999.2500
  1697.7000      7.7776      2.5828      0.1088      4.0753   -999.2500   -999.2500
  1697.8000      7.7401      2.5908      0.1265      3.5866   -999.2500   -999.2500
  1697.9000      7.7401      2.6078      0.1396      2.5572   -999.2500   -999.2500
  1698.0000      7.6974      2.6322      0.1597      1.0802   -999.2500   -999.2500
  1698.1000      7.6974      2.6578      0.1925     -0.4736   -999.2500   -999.2500
  1698.2000      7.6974      2.6727      0.1954     -1.3769   -999.2500   -999.2500
  1698.3000      7.7025      2.6660      0.1396     -0.9704   -999.2500   -999.2500
  1698.4000      7.7025      2.6508      0.1118     -0.0494   -999.2500   -999.2500
  1698.5000      7.7800      2.6432      0.1150      0.4112   -999.2500   -999.2500
  1698.6000      7.7800      2.6367      0.1026      0.8031   -999.2500   -999.2500
  1698.7000      7.7800      2.6255      0.0720      1.4874   -999.2500   -999.2500
  1698.8000      7.8132      2.6155      0.0845      2.0897   -999.2500   -999.2500
  1698.9000      7.8132      2.6117      0.0530      2.3197   -999.2500   -999.2500
  1699.0000      7.7782      2.6152      0.0659      2.1068   -999.2500   -999.2500
  1699.1000      7.7782      2.6255      0.0654      1.4876   -999.2500   -999.2500
  1699.2000      7.7782      2.6348      0.1135      0.9218   -999.2500   -999.2500
  1699.3000      7.7464      2.6326      0.1084      1.0523   -999.2500   -999.2500
  1699.4000      7.7464      2.6218      0.1002      1.7112   -999.2500   -999.2500
  1699.5000      7.7415      2.6118      0.1227      2.3137   -999.2500   -999.2500
  1699.6000      7.7415      2.6050      0.1147      2.7270   -999.2500   -999.2500
  1699.7000      7.7415      2.6048      0.0786      2.7418   -999.2500   -999.2500
  1699.8000      7.7337      2.6138      0.1256      2.1958   -999.2500   -999.2500
  1699.9000      7.7337      2.6265      0.1008      1.4215   -999.2500   -999.2500
  1700.0000      7.7027      2.6415      0.1173      0.5138   -999.2500   -999.2500
  1700.1000      7.7027      2.6578      0.1301     -0.4726   -999.2500   -999.2500
  1700.2000      7.7027      2.6679      0.1595     -1.0830   -999.2500   -999.2500
  1700.3000      7.7224      2.6695      0.1421     -1.1822   -999.2500   -999.2500
  1700.4000      7.7224      2.6698      0.1361     -1.1999   -999.2500   -999.2500
  1700.5000      7.7513      2.6647      0.1607     -0.8912   -999.2500   -999.2500
  1700.6000      7.7513      2.6430      0.1135      0.4247   -999.2500   -999.2500
  1700.7000      7.7513      2.6065      0.1021      2.6335   -999.2500   -999.2500
  1700.8000      7.7869      2.5728      0.0324      4.6804   -999.2500   -999.2500
  1700.9000      7.7869      2.5634      0.0599      5.2479   -999.2500   -999.2500
  1701.0000      7.8224      2.5791      0.0694      4.2978   -999.2500   -999.2500
  1701.1000      7.8224      2.6006      0.0896      2.9951   -999.2500   -999.2500
  1701.2000      7.8224      2.6140      0.0855      2.1811   -999.2500   -999.2500
  1701.3000      7.8043      2.6152      0.1121      2.1117   -999.2500   -999.2500
  1701.4000      7.8043      2.6071      0.0970      2.6004   -999.2500   -999.2500
  1701.5000      7.7521      2.5994      0.0712      3.0681   -999.2500   -999.2500
  1701.6000      7.7521      2.6018      0.0796      2.9232   -999.2500   -999.2500
  1701.7000      7.7521      2.6139      0.0836      2.1906   -999.2500   -999.2500
  1701.8000      7.7457      2.6229      0.0868      1.6447   -999.2500   -999.2500
  1701.9000      7.7457      2.6202      0.0811      1.8079   -999.2500   -999.2500
  1702.0000      7.7451      2.6119      0.0801      2.3118   -999.2500   -999.2500
  1702.1000      7.7451      2.6034      0.0825      2.8265   -999.2500   -999.2500
  1702.2000      7.7451      2.5895      0.0581      3.6647   -999.2500   -999.2500
  1702.3000      7.7727      2.5710      0.0423      4.7883   -999.2500   -999.2500
  1702.4000      7.7727      2.5635      0.0240      5.2405   -999.2500   -999.2500
  1702.5000      7.7470      2.5779      0.0545      4.3691   -999.2500   -999.2500
  1702.6000      7.7470      2.6015      0.0916      2.9386   -999.2500   -999.2500
  1702.7000      7.7470      2.6165      0.1103      2.0324   -999.2500   -999.2500
  1702.8000      7.7438      2.6233      0.0938      1.6203   -999.2500   -999.2500
  1702.9000      7.7438      2.6300      0.1083      1.2129   -999.2500   -999.2500
  1703.0000      7.7461      2.6328      0.1158      1.0400   -999.2500   -999.2500
  1703.1000      7.7461      2.6292      0.1115      1.2591   -999.2500   -999.2500
  1703.2000      7.7461      2.6270      0.1067      1.3914   -999.2500   -999.2500
  1703.3000      7.7686      2.6250      0.0987      1.5126   -999.2500   -999.2500
  1703.4000      7.7686      2.6145      0.0748      2.1521   -999.2500   -999.2500
  1703.5000      7.7484      2.6004      0.0639      3.0044   -999.2500   -999.2500
  1703.6000      7.7484      2.5897      0.1090      3.6515   -999.2500   -999.2500
  1703.7000      7.7484      2.5776      0.0584      4.3898   -999.2500   -999.2500
