~Version Information
VERS.                      2.0: CWLS Log ASCII Standard - VERSION 2.0
WRAP.                       NO: One line per depth step
~Well Information Block
STRT.FT               456.0000: 
STOP.FT              1703.0000: 
STEP.FT                 0.2500: 
NULL.                -999.2500: 
COMP.          Pioneer Natural Resources: COMPANY
WELL.                Mead 11-9: WELL
FLD.           Purgatoire River: FIELD
LOC.           1127' FNL & 668' FWL: LOCATION
PROV.                 Colorado: PROVINCE
CNTY.               Las Animas: COUNTRY
SRVC.                Patterson: SERVICE COMPANY
DATE.          Fri Feb 18 16:14:34 2005: LOG DATE
UWI.           05 071 08160 00: UNIQUE WELL ID
~Curve Information Block
DEPT.FT            0 000 00 00: Depth
SN.Ohm-m                      : IEL Short Normal
SP.mV                         : IEL Spontaneous Potential
DIR.Ohm-m                     : IEL Induction Resistivity
GR.GAPI                       : Gamma Ray
~Parameter Information Block
~A  Depth        SN          SP         DIR          GR     
# ...
  1662.0000     19.7637     34.6988     15.1772     84.1909
  1662.2500     21.6335     34.5182     16.0405     80.2197
  1662.5000     23.5428     34.3233     16.8852     75.7364
  1662.7500     25.3001     34.1281     17.7058     73.6289
  1663.0000     26.7439     33.9419     18.5100     71.8333
  1663.2500     27.7724     33.7652     19.3175     71.7529
  1663.5000     28.4033     33.5908     20.1493     73.7670
  1663.7500     28.7813     33.4057     21.0185     76.7777
  1664.0000     29.0659     33.1956     21.9296     83.9287
  1664.2500     29.3384     32.9516     22.8825     90.0649
  1664.5000     29.6723     32.6771     23.8703     99.5285
  1664.7500     30.2147     32.3893     24.8720    104.5839
  1665.0000     31.1103     32.1133     25.8541    108.3572
  1665.2500     32.4170     31.8731     26.7843    107.9720
  1665.5000     34.1039     31.6840     27.6423    103.7834
  1665.7500     36.0662     31.5483     28.4143     99.6120
  1666.0000     38.1592     31.4559     29.0787     93.4881
  1666.2500     40.2172     31.3887     29.6046     90.5155
  1666.5000     42.0462     31.3257     29.9680     88.1701
  1666.7500     43.4517     31.2502     30.1698     87.4996
  1667.0000     44.2958     31.1561     30.2406     86.4342
  1667.2500     44.5250     31.0505     30.2233     85.1482
  1667.5000     44.1670     30.9487     30.1457     82.4934
  1667.7500     43.3041     30.8659     29.9992     80.7531
  1668.0000     42.0319     30.8103     29.7473     78.9694
  1668.2500     40.4444     30.7794     29.3602     78.5253
  1668.5000     38.6593     30.7587     28.8464     79.1145
  1668.7500     36.8151     30.7261     28.2466     80.3809
  1669.0000     35.0323     30.6618     27.6034     83.2689
  1669.2500     33.3992     30.5561     26.9380     85.4205
  1669.5000     31.9709     30.4073     26.2521     88.5000
  1669.7500     30.7591     30.2081     25.5441     90.6430
  1670.0000     29.7360     29.9360     24.8196     94.6818
  1670.2500     28.8519     29.5579     24.0921     97.9861
  1670.5000     28.0673     29.0480     23.3778    103.0191
  1670.7500     27.3768     28.4041     22.6948    105.7508
  1671.0000     26.7748     27.6494     22.0664    108.3342
  1671.2500     26.2108     26.8219     21.5224    109.2189
  1671.5000     25.6201     25.9651     21.0919    110.1731
  1671.7500     24.9819     25.1187     20.7894    111.0486
  1672.0000     24.3338     24.3093     20.6029    112.7026
  1672.2500     23.7560     23.5492     20.4922    113.4083
  1672.5000     23.3294     22.8474     20.4010    112.6992
  1672.7500     23.0738     22.2246     20.2800    110.9885
  1673.0000     22.9437     21.7193     20.1086    107.6454
  1673.2500     22.8970     21.3792     19.8975    105.7073
  1673.5000     22.9347     21.2376     19.6719    104.2624
  1673.7500     23.0733     21.2853     19.4480    104.6277
  1674.0000     23.2940     21.4613     19.2289    107.1030
  1674.2500     23.5004     21.6769     19.0157    109.3904
  1674.5000     23.5462     21.8603     18.8156    112.1010
  1674.7500     23.3566     21.9907     18.6330    112.8555
  1675.0000     22.9954     22.0984     18.4570    112.8056
  1675.2500     22.5902     22.2362     18.2671    112.6422
  1675.5000     22.2263     22.4445     18.0525    113.0428
  1675.7500     21.9187     22.7346     17.8230    113.8416
  1676.0000     21.6448     23.0910     17.6005    115.2991
  1676.2500     21.3798     23.4803     17.4003    115.8597
  1676.5000     21.1147     23.8621     17.2231    115.2794
  1676.7500     20.8412     24.2011     17.0591    113.9016
  1677.0000     20.5229     24.4803     16.8969    111.0020
  1677.2500     20.1276     24.7087     16.7295    109.1271
  1677.5000     19.6886     24.9160     16.5571    107.3186
  1677.7500     19.3062     25.1391     16.3865    106.9060
  1678.0000     19.1020     25.4056     16.2300    106.9770
  1678.2500     19.1389     25.7265     16.1023    107.1667
  1678.5000     19.3494     26.0960     16.0168    107.5713
  1678.7500     19.5865     26.4948     15.9830    107.9247
  1679.0000     19.7557     26.8958     16.0073    108.1686
  1679.2500     19.8630     27.2712     16.0983    107.7049
  1679.5000     19.9541     27.5987     16.2682    105.5424
  1679.7500     20.0245     27.8617     16.5282    103.2323
  1680.0000     20.0086     28.0501     16.8761     99.4948
  1680.2500     19.8992     28.1638     17.2866     97.5761
  1680.5000     19.8298     28.2161     17.7118     96.1056
  1680.7500     19.9694     28.2296     18.0935     95.7618
  1681.0000     20.3698     28.2264     18.3835     95.3397
  1681.2500     20.9490     28.2197     18.5592     94.9122
  1681.5000     21.6010     28.2147     18.6312     94.3438
  1681.7500     22.3099     28.2132     18.6366     94.2943
  1682.0000     23.1249     28.2147     18.6222     94.8114
  1682.2500     24.0035     28.2149     18.6261     95.2591
  1682.5000     24.7558     28.2058     18.6648     95.0624
  1682.7500     25.1642     28.1808     18.7326     93.5134
  1683.0000     25.1139     28.1392     18.8057     87.1166
  1683.2500     24.6408     28.0909     18.8452     78.9073
  1683.5000     23.8753     28.0552     18.8058     60.1688
  1683.7500     22.9743     28.0523     18.6562     45.0639
  1684.0000     22.1036     28.0911     18.4064     23.8944
  1684.2500     21.3890     28.1588     18.1139     13.4624
  1684.5000     20.8497     28.2219     17.8536      4.4473
  1684.7500     20.4186     28.2423     17.6712      1.7866
  1685.0000     20.0365     28.2012     17.5582      0.3464
  1685.2500     19.7061     28.1118     17.4666      0.0953
  1685.5000     19.4651     28.0091     17.3546      0.0089
  1685.7500     19.3408     27.9237     17.2265      0.0000
  1686.0000     19.3300     27.8629     17.1308   -999.2500
  1686.2500     19.4046     27.8135     17.1204   -999.2500
  1686.5000     19.5270     27.7539     17.2103   -999.2500
  1686.7500     19.6527     27.6640     17.3643   -999.2500
  1687.0000     19.7247     27.5303     17.5124   -999.2500
  1687.2500     19.6936     27.3514     17.5853   -999.2500
  1687.5000     19.5629     27.1407     17.5464   -999.2500
  1687.7500     19.4070     26.9167     17.4050   -999.2500
  1688.0000     19.3217     26.6847     17.2062   -999.2500
  1688.2500     19.3479     26.4346     17.0071   -999.2500
  1688.5000     19.4652     26.1578     16.8555   -999.2500
  1688.7500     19.6403     25.8639     16.7779   -999.2500
  1689.0000     19.8306     25.5767     16.7764   -999.2500
  1689.2500     19.9806     25.3174     16.8296   -999.2500
  1689.5000     20.0673     25.0939     16.9023   -999.2500
  1689.7500     20.1074     24.8976     16.9646   -999.2500
  1690.0000     20.1141     24.7047     16.9227   -999.2500
  1690.2500     20.0918     24.4895     16.9706   -999.2500
  1690.5000     20.0525     24.2442     17.0506   -999.2500
  1690.7500     20.0029     23.9908     17.1818   -999.2500
  1691.0000     19.9547     23.7693     17.3626   -999.2500
  1691.2500     19.9358     23.6139     17.5736   -999.2500
  1691.5000     19.9611     23.5357     17.7902   -999.2500
  1691.7500     20.0281     23.5189     17.9958   -999.2500
  1692.0000     20.1313     23.5264     18.1941   -999.2500
  1692.2500     20.2340     23.5141     18.4158   -999.2500
  1692.5000     20.2758     23.4484     18.7286   -999.2500
  1692.7500     20.2521     23.3214     19.2593   -999.2500
  1693.0000     20.2348     23.1521     20.2260   -999.2500
  1693.2500     20.2954     22.9740     21.9812   -999.2500
  1693.5000     20.4504     22.8146     25.3026   -999.2500
  1693.7500     20.6866     22.6817     30.7069   -999.2500
  1694.0000     20.9932     22.5675     39.7677   -999.2500
  1694.2500     21.3633     22.4650     54.4518   -999.2500
  1694.5000     21.7865     22.3758     76.5614   -999.2500
  1694.7500     22.2323     22.3073    105.1511   -999.2500
  1695.0000     22.6350     22.2642    133.8636   -999.2500
  1695.2500     22.9257     22.2472    154.8372   -999.2500
