~Version Information
VERS.                      2.0: CWLS Log ASCII Standard - VERSION 2.0
WRAP.                       NO: One line per depth step
~Well Information Block
STRT.FT                -9.2500: 
STOP.FT              1945.2500: 
STEP.FT                 0.2500: 
NULL.                -999.2500: 
COMP.          Pioneer Natural Resources: COMPANY
WELL.          Titan Federal 34-17: WELL
FLD.           Purgatorie River: FIELD
LOC.           321' FSL & 1911' FEL: LOCATION
STAT.                       CO: State
CNTY.               Las Animas: COUNTY
CTRY. USA : Country
SECT. 17 : Section
TOWN. 32S : Township
RANG. 65W : Range
SRVC.          Patterson Wireline: SERVICE COMPANY
DATE.          Tue Oct 11 10:22:27 2005: LOG DATE
API.           05 071 08272 00: UNIQUE WELL ID
~Curve Information Block
DEPT.FT            0 000 00 00: Depth
CCL.                          : Casing Collar Locator
TT3.usec                      : CBL 3' Travel Time
AMP3.mV                       : CBL 3' Amplitude
GR.GAPI                       : Gamma Ray
~Parameter Information Block
~A  Depth       CCL         TT3         AMP3         GR     
# ...
  1766.2500      0.0000    666.8033      6.9015     94.8357
  1766.5000      0.0000    666.7098      6.8709     95.6406
  1766.7500      0.0000    666.7712      6.8649     96.8657
  1767.0000      0.0000    667.4757      6.8793     97.7201
  1767.2500      0.0000    669.7491      6.9064     97.5565
  1767.5000      0.0000    674.5457      6.9349     96.7438
  1767.7500      0.0000    681.6238      6.9510     96.3149
  1768.0000      0.0000    688.4566      6.9429     96.9808
  1768.2500      0.0000    691.2950      6.9069     98.5761
  1768.5000      0.0000    688.3384      6.8504    100.2163
  1768.7500      0.0000    681.5073      6.7859    100.8948
  1769.0000      0.0000    674.4988      6.7237    100.0270
  1769.2500      0.0000    669.6744      6.6740     97.3919
  1769.5000      0.0000    667.2017      6.6523     92.6891
  1769.7500      0.0000    666.2231      6.6766     85.8609
  1770.0000      0.0000    665.9460      6.7520     78.1660
  1770.2500      0.0000    665.8964      6.8645     72.1367
  1770.5000      0.0000    665.8390      6.9951     69.7698
  1770.7500      0.0000    665.7325      7.1367     71.1130
  1771.0000      0.0000    665.6508      7.2926     74.9349
  1771.2500      0.0000    665.6727      7.4636     80.0394
  1771.5000      0.0000    665.8544      7.6452     85.2608
  1771.7500      0.0000    666.3526      7.8354     88.9945
  1772.0000      0.0000    667.5319      8.0418     90.0572
  1772.2500      0.0000    669.8161      8.2783     89.0820
  1772.5000      0.0000    673.2300      8.5498     88.2944
  1772.7500      0.0000    677.0624      8.8325     89.5936
  1773.0000      0.0000    680.2654      9.0678     93.0024
  1773.2500      0.0000    682.4412      9.1845     96.9087
  1773.5000      0.0000    684.4421      9.1419     99.5296
  1773.7500      0.0000    688.2004      8.9628    100.0292
  1774.0000      0.0000    696.0481      8.7347     98.3436
  1774.2500      0.0000    709.3574      8.5709     94.3762
  1774.5000      0.0000    726.9778      8.5504     88.0361
  1774.7500      0.0000    745.4134      8.6784     80.1666
  1775.0000      0.0000    761.0786      8.9052     72.8273
  1775.2500      0.0000    772.0686      9.1830     68.1899
  1775.5000      0.0000    777.6924      9.5044     67.2505
  1775.7500      0.0000    776.8602      9.9002     69.7052
  1776.0000      0.0000    766.4605     10.4170     74.7221
  1776.2500      0.0000    740.5516     11.0980     81.2829
  1776.5000      0.0000    693.1278     11.9627     87.8367
  1776.7500      0.0000    625.8084     12.9767     92.6053
  1777.0000      0.0000    554.0636     14.0243     95.0755
  1777.2500      0.0000    502.4127     14.9125     96.7588
  1777.5000      0.0000    489.3040     15.4297     99.6945
  1777.7500      0.0000    514.2737     15.4441    104.2991
  1778.0000      0.0000    558.0397     14.9758    109.0162
  1778.2500      0.0000    595.5197     14.1817    111.7444
  1778.5000      0.0000    612.4335     13.2654    111.2351
  1778.7500      0.0000    613.0186     12.3835    107.4511
  1779.0000      0.0000    612.8762     11.6063    101.4696
  1779.2500      0.0000    624.2966     10.9353     95.3624
  1779.5000      0.0000    648.2902     10.3466     91.3711
  1779.7500      0.0000    678.5610      9.8238     90.3954
  1780.0000      0.0000    708.9683      9.3665     91.3616
  1780.2500      0.0000    735.9294      8.9767     92.3218
  1780.5000      0.0000    756.9442      8.6433     92.0475
  1780.7500      0.0000    769.8264      8.3445     90.5234
  1781.0000      0.0000    773.5060      8.0649     88.2878
  1781.2500      0.0000    768.8314      7.8081     85.7940
  1781.5000      0.0000    758.4572      7.5911     83.3757
  1781.7500      0.0000    745.5374      7.4242     81.1161
  1782.0000      0.0000    731.8488      7.3004     78.3826
  1782.2500      0.0000    717.5355      7.2028     74.1570
  1782.5000      0.0000    702.9800      7.1227     68.3338
  1782.7500      0.0000    690.2841      7.0666     62.2740
  1783.0000      0.0000    682.3945      7.0460     57.6699
  1783.2500      0.0000    680.9810      7.0623     55.1380
  1783.5000      0.0000    685.1432      7.1002     54.1846
  1783.7500      0.0000    691.7323      7.1349     54.1840
  1784.0000      0.0000    696.9667      7.1491     54.9623
  1784.2500      0.0000    698.2828      7.1435     56.5957
  1784.5000      0.0000    695.1398      7.1275     59.0960
  1784.7500      0.0000    688.3657      7.1037     62.2894
  1785.0000      0.0000    679.2040      7.0654     65.6406
  1785.2500      0.0000    669.1463      7.0096     68.2877
  1785.5000      0.0000    660.0582      6.9452     69.7077
  1785.7500      0.0000    653.5910      6.8903     70.2579
  1786.0000      0.0000    650.5341      6.8647     70.6575
  1786.2500      0.0000    651.1355      6.8835     71.2803
  1786.5000      0.0000    655.3749      6.9522     72.5601
  1786.7500      0.0000    662.0106      7.0644     75.6355
  1787.0000      0.0000    668.1091      7.2022     81.4382
  1787.2500      0.0000    671.0511      7.3411     88.8988
  1787.5000      0.0000    670.9349      7.4583     94.9080
  1787.7500      0.0000    669.7235      7.5420     96.6063
  1788.0000      0.0000    668.2736      7.5931     93.4729
  1788.2500      0.0000    665.6931      7.6173     87.2471
  1788.5000      0.0000    661.7234      7.6182     80.5504
  1788.7500      0.0000    658.2938      7.5989     75.6583
  1789.0000      0.0000    657.9123      7.5680     73.5278
  1789.2500      0.0000    660.6842      7.5413     73.1880
  1789.5000      0.0000    663.0707      7.5350     72.5219
  1789.7500      0.0000    659.2143      7.5545     70.3545
  1790.0000      0.0000    643.6216      7.5888     67.7864
  1790.2500      0.0000    614.8192      7.6141     67.1382
  1790.5000      0.0000    579.5981      7.6043     69.7176
  1790.7500      0.0000    552.9809      7.5414     74.9510
  1791.0000      0.0000    548.9095      7.4252     81.4836
  1791.2500      0.0000    568.2186      7.2849     88.3353
  1791.5000      0.0000    597.9079      7.1766     94.7013
  1791.7500      0.0000    623.2543      7.1402     99.3609
  1792.0000      0.0000    638.1384      7.1377    100.9995
  1792.2500      0.0000    643.2044      7.0530     98.9789
  1792.5000      0.0000    637.9025      6.8080     93.6354
  1792.7500      0.0000    618.2940      6.4933     86.2250
  1793.0000      0.0000    583.2952      6.3346     78.6349
  1793.2500      0.0000    541.7684      6.4977     72.5371
  1793.5000      0.0000    511.4412      6.9563     68.4452
  1793.7500     -2.0000    507.8631      7.5579     65.8103
  1794.0000     -2.0000    531.0665      8.1856     64.1136
  1794.2500      0.0000    562.0166      8.8714     63.5563
  1794.5000      0.0000    574.4330      9.7929     64.6090
  1794.7500      0.0000    553.4425     11.1248     67.0651
  1795.0000      0.0000    505.9313     12.8146     69.7547
  1795.2500      0.0000    454.9101     14.5143     71.4177
  1795.5000      0.0000    423.6323     15.8023     71.9184
  1795.7500      0.0000    423.3106     16.4682     72.2560
  1796.0000      0.0000    453.0068     16.5572     73.2310
  1796.2500      0.0000    506.2775     16.2169     74.5306
  1796.5000      0.0000    573.7198     15.5866     75.3464
  1796.7500      0.0000    641.2983     14.7909     75.4402
  1797.0000      0.0000    693.0803     13.9485     75.1981
  1797.2500      0.0000    719.7116     13.1564     74.9834
  1797.5000      0.0000    723.5389     12.4750     74.9680
  1797.7500      0.0000    715.0297     11.9245     75.3625
  1798.0000      0.0000    704.7009     11.4844     76.2526
  1798.2500      0.0000    697.1827     11.1076     77.2749
  1798.5000      0.0000    690.0580     10.7493     77.8526
  1798.7500      0.0000    677.4807     10.3927     77.6136
  1799.0000      0.0000    657.0043     10.0539     76.2665
  1799.2500      0.0000    634.5121      9.7626     73.3993
  1799.5000      0.0000    621.1782      9.5420     68.8908
