~Version Information
VERS.                      2.0: CWLS Log ASCII Standard - VERSION 2.0
WRAP.                       NO: One line per depth step
~Well Information Block
STRT.FT               260.0000: 
STOP.FT              1199.2000: 
STEP.FT                 0.1000: 
NULL.                -999.2500: 
COMP.          Evergreen Operating Corporation: COMPANY
WELL.             Justin 32-10: WELL
FLD.           Purgatorie River: FIELD
LOC.           2994' FNL & 1449' FEL: LOCATION
PROV.                 Colorado: PROVINCE
CNTY.               Las Animas: COUNTRY
SRVC.                         : SERVICE COMPANY
DATE.          Mon Aug 30 07:14:35 2004: LOG DATE
UWI.           05 071 08053 00: UNIQUE WELL ID
~Curve Information Block
DEPT.FT            0 000 00 00: Depth
LTEN.lb                       : Surface Line Tension
DCAL.in                       : CDL Caliper
RHOB.g/cc                     : CDL Bulk Density
RHOC.g/cc                     : CDL Density Correction
DPOR.pu                       : CDL Density Porosity
GR.GAPI                       : Gamma Ray
NPOR.pu                       : Neutron Porosity
~Parameter Information Block
~A  Depth       LTEN        DCAL        RHOB        RHOC        DPOR         GR         NPOR    
# ...
   755.6000    814.2006      7.9074      2.4920      0.0068      9.5731     87.1225     19.3750
   755.7000    814.2006      7.9074      2.4914      0.0428      9.6109     92.3487     19.5367
   755.8000    805.7813      7.9321      2.5116      0.0216      8.3900     90.9558     18.9104
   755.9000    805.7813      7.9321      2.5515      0.0518      5.9720     89.1399     18.1845
   756.0000    786.9680      7.9158      2.6032      0.1004      2.8342     91.3524     17.9164
   756.1000    786.9680      7.9158      2.6523      0.1397     -0.1417     93.8042     18.2012
   756.2000    786.9680      7.9158      2.6913      0.1584     -2.5035     95.5754     18.5161
   756.3000    825.0294      7.9251      2.7146      0.1953     -3.9166     98.8857     18.0312
   756.4000    825.0294      7.9251      2.7148      0.1687     -3.9276    101.2564     16.7494
   756.5000    861.3206      7.9078      2.6929      0.2016     -2.6001    101.0651     15.3937
   756.6000    861.3206      7.9078      2.6648      0.0998     -0.8970     99.7239     14.8106
   756.7000    861.3206      7.9078      2.6537      0.0292     -0.2222     96.3737     15.0989
   756.8000    888.2274      7.9004      2.6585      0.0893     -0.5130     91.0428     15.2944
   756.9000    888.2274      7.9004      2.6577      0.0668     -0.4661     86.0640     14.7299
   757.0000    915.4092      7.9104      2.6502      0.0525     -0.0132     83.2203     13.8259
   757.1000    915.4092      7.9104      2.6492      0.0737      0.0505     83.1896     13.2558
   757.2000    915.4092      7.9104      2.6547      0.1154     -0.2831     83.7289     12.9472
   757.3000    901.4720      7.9109      2.6596      0.0718     -0.5808     83.3754     12.4334
   757.4000    901.4720      7.9109      2.6604      0.1292     -0.6301     82.2068     11.8019
   757.5000    866.1849      7.9007      2.6551      0.1110     -0.3120     77.8095     11.2279
   757.6000    866.1849      7.9007      2.6471      0.1278      0.1759     69.0347     10.3617
   757.7000    866.1849      7.9007      2.6379      0.1193      0.7332     61.8648      9.5118
   757.8000    856.0850      7.9114      2.6251      0.0908      1.5101     62.2496      9.4521
   757.9000    856.0850      7.9114      2.6117      0.0931      2.3236     68.3981      9.8931
   758.0000    894.6176      7.9064      2.6052      0.0727      2.7165     75.7437     10.2264
   758.1000    894.6176      7.9064      2.6104      0.0823      2.4012     80.6156     10.7145
   758.2000    894.6176      7.9064      2.6209      0.1160      1.7663     80.3567     11.3509
   758.3000    912.1481      7.9037      2.6257      0.1414      1.4724     76.7554     11.5701
   758.4000    912.1481      7.9037      2.6276      0.1384      1.3567     74.7289     11.5648
   758.5000    885.3406      7.9228      2.6323      0.1798      1.0726     76.3683     11.6675
   758.6000    885.3406      7.9228      2.6349      0.1317      0.9134     81.0475     11.6238
   758.7000    885.3406      7.9228      2.6302      0.1606      1.2006     87.4222     11.2180
   758.8000    888.5656      7.9263      2.6132      0.1481      2.2331     89.9286     10.7384
   758.9000    888.5656      7.9263      2.5866      0.1234      3.8438     83.8315     10.5941
   759.0000    850.3813      7.9033      2.5682      0.0605      4.9567     74.9369     10.7551
   759.1000    850.3813      7.9033      2.5729      0.0751      4.6706     74.0115     10.9953
   759.2000    850.3813      7.9033      2.5911      0.1084      3.5689     80.1283     11.3577
   759.3000    898.9869      7.8991      2.5984      0.1147      3.1268     81.3500     11.6074
   759.4000    898.9869      7.8991      2.5783      0.1123      4.3428     76.2712     11.4060
   759.5000    927.7272      7.9083      2.5365      0.0567      6.8798     74.8104     11.2590
   759.6000    927.7272      7.9083      2.5042      0.0291      8.8347     78.8589     11.8002
   759.7000    927.7272      7.9083      2.5109      0.0333      8.4300     82.2266     12.7162
   759.8000    872.5456      7.8943      2.5488      0.0771      6.1313     80.5319     13.2640
   759.9000    872.5456      7.8943      2.5888      0.1363      3.7095     76.2663     13.2718
   760.0000    862.7589      7.8867      2.6112      0.1486      2.3521     74.5613     13.1633
   760.1000    862.7589      7.8867      2.6092      0.1374      2.4712     74.2313     13.2511
   760.2000    862.7589      7.8867      2.5889      0.1109      3.7011     73.1033     13.3843
   760.3000    888.7856      7.9213      2.5678      0.0831      4.9834     71.2339     13.6147
   760.4000    888.7856      7.9213      2.5551      0.1069      5.7538     67.0773     14.2254
   760.5000    852.3118      7.9066      2.5465      0.1008      6.2745     64.6915     15.1993
   760.6000    852.3118      7.9066      2.5403      0.0819      6.6502     69.5395     16.2356
   760.7000    852.3118      7.9066      2.5361      0.0787      6.9032     78.6114     16.5073
   760.8000    857.1638      7.9632      2.5267      0.0651      7.4698     85.2721     15.6428
   760.9000    857.1638      7.9632      2.5106      0.0371      8.4475     85.6886     14.9535
   761.0000    859.4144      7.9824      2.5039      0.0138      8.8565     81.7423     15.5497
   761.1000    859.4144      7.9824      2.5191      0.0784      7.9341     79.2965     17.0996
   761.2000    859.4144      7.9824      2.5485      0.0740      6.1529     83.0970     18.6854
   761.3000    875.5081      7.9760      2.5726      0.1502      4.6892     92.7167     19.7189
   761.4000    875.5081      7.9760      2.5773      0.1117      4.4072    104.0881     20.1704
   761.5000    834.8817      7.9842      2.5730      0.0973      4.6673    113.5023     20.7177
   761.6000    834.8817      7.9842      2.5747      0.1203      4.5652    121.7336     21.7214
   761.7000    834.8817      7.9842      2.5782      0.1038      4.3525    129.1291     22.4083
   761.8000    868.4783      7.9546      2.5818      0.0777      4.1331    131.1964     22.2278
   761.9000    868.4783      7.9546      2.5940      0.1112      3.3953    128.4086     21.6732
   762.0000    926.1498      7.9932      2.6131      0.1254      2.2362    125.5044     21.4198
   762.1000    926.1498      7.9932      2.6190      0.1583      1.8812    120.6792     21.6306
   762.2000    926.1498      7.9932      2.5867      0.1426      3.8382    115.1512     22.0863
   762.3000    894.9268      8.0419      2.5252      0.0446      7.5610    114.3243     22.7555
   762.4000    894.9268      8.0419      2.4784      0.0109     10.3983    115.8919     23.4693
   762.5000    934.8942      8.0314      2.4658      0.0587     11.1618    119.0821     23.9039
   762.6000    934.8942      8.0314      2.4702      0.0674     10.8971    127.2866     24.1437
   762.7000    934.8942      8.0314      2.4744      0.0985     10.6399    138.7113     24.2689
   762.8000    926.6796      8.0248      2.4668      0.1837     11.1043    149.1192     24.3280
   762.9000    926.6796      8.0248      2.4380      0.1768     12.8459    152.0840     24.7634
   763.0000    918.3222      8.0572      2.3914      0.2043     15.6698    144.4871     26.1171
   763.1000    918.3222      8.0572      2.3502      0.0811     18.1682    136.0486     27.9095
   763.2000    918.3222      8.0572      2.3468      0.0491     18.3728    137.9439     29.2834
   763.3000    887.0504      8.0680      2.3770      0.1162     16.5476    147.7166     29.9534
   763.4000    887.0504      8.0680      2.4064      0.0842     14.7657    157.4304     29.8674
   763.5000    858.4782      8.0611      2.4210      0.0693     13.8788    165.4036     29.0917
   763.6000    858.4782      8.0611      2.4219      0.0823     13.8215    169.1991     27.7754
   763.7000    858.4782      8.0611      2.4088      0.0720     14.6209    166.9557     26.5612
   763.8000    922.8898      8.0870      2.3911      0.0268     15.6939    165.9340     26.2286
   763.9000    922.8898      8.0870      2.3866      0.0160     15.9664    168.4754     26.1900
