~Version Information
VERS.                      2.0: CWLS Log ASCII Standard - VERSION 2.0
WRAP.                       NO: One line per depth step
~Well Information Block
STRT.FT                 0.7500: 
STOP.FT              2144.0000: 
STEP.FT                 0.2500: 
NULL.                -999.2500: 
COMP.          Petrogulf Corporation: COMPANY
WELL.            Montoya 1-44R: WELL
FLD.           Purgatorie River: FIELD
LOC.           658' FSL & 1052' FWL: LOCATION
CNTY.               Las Animas: COUNTY
SRVC.                         : SERVICE COMPANY
DATE.          Tue Nov 30 08:31:55 2004: LOG DATE
UWI.           05 071 08239 00: UNIQUE WELL ID
STAT.                 Colorado: STATE
~Curve Information Block
DEPT.FT            0 000 00 00: Depth
TT3.usec                      : CBL 3' Travel Time
AMP3.mV                       : CBL 3' Amplitude
GR.GAPI                       : Gamma Ray
CCL.                          : Casing Collar Locator
~Parameter Information Block
~A  Depth       TT3         AMP3         GR         CCL     
# ...
  1273.7500    753.3051     13.5962    128.3499      0.0000
  1274.0000    756.4550     13.5103    126.9419      0.0000
  1274.2500    759.0894     13.3818    126.7498      0.0000
  1274.5000    760.6732     13.2022    127.4293      0.0000
  1274.7500    761.6962     12.9904    128.3944      0.0000
  1275.0000    762.8338     12.7769    129.2236      0.0000
  1275.2500    763.6608     12.5705    129.8537      0.0000
  1275.5000    761.4144     12.3389    130.4960      0.0000
  1275.7500    751.6578     12.0264    131.3842      0.0000
  1276.0000    733.3926     11.5947    132.5333      0.0000
  1276.2500    714.7799     11.0422    133.6528      0.0000
  1276.5000    709.4196     10.4100    134.2190      0.0000
  1276.7500    723.1342      9.7990    133.6550      0.0000
  1277.0000    747.2502      9.3440    131.5380      0.0000
  1277.2500    767.8316      9.1176    127.8195      0.0000
  1277.5000    778.4848      9.0695    123.0002      0.0000
  1277.7500    782.3401      9.0837    118.1152     -3.0000
  1278.0000    785.2205      9.0742    114.4650     -3.0000
  1278.2500    789.0519      9.0213    113.1675      3.0000
  1278.5000    789.3475      8.9654    114.7371      0.0000
  1278.7500    777.9702      9.0014    118.8453      0.0000
  1279.0000    751.4377      9.2394    124.3373      0.0000
  1279.2500    718.5364      9.6972    129.5730      0.0000
  1279.5000    696.3481     10.2285    133.0735      0.0000
  1279.7500    695.3409     10.6193    134.2129      0.0000
  1280.0000    710.2896     10.7619    133.5142      0.0000
  1280.2500    727.7019     10.7015    132.2990      0.0000
  1280.5000    738.7819     10.5446    131.8539      0.0000
  1280.7500    743.1691     10.3750    132.6113      0.0000
  1281.0000    744.1459     10.2300    133.9117      0.0000
  1281.2500    744.1403     10.1112    134.5463      0.0000
  1281.5000    743.9445     10.0099    133.7164      0.0000
  1281.7500    743.6076      9.9314    131.6613      0.0000
  1282.0000    743.0079      9.8941    129.4462      0.0000
  1282.2500    741.8058      9.9060    128.1144      0.0000
  1282.5000    739.2128      9.9457    127.9259      0.0000
  1282.7500    734.3345      9.9664    128.2465      0.0000
  1283.0000    727.1802      9.9257    128.0746      0.0000
  1283.2500    719.4622      9.8179    126.7261      0.0000
  1283.5000    714.0629      9.6736    124.2079      0.0000
  1283.7500    713.2874      9.5269    121.1186      0.0000
  1284.0000    717.3113      9.3917    118.2421      0.0000
  1284.2500    724.1070      9.2711    116.1731      0.0000
  1284.5000    730.8691      9.1734    115.1845      0.0000
  1284.7500    735.7181      9.1048    115.2920      0.0000
  1285.0000    738.3605      9.0538    116.3500      0.0000
  1285.2500    739.4978      8.9977    118.0844      0.0000
  1285.5000    739.8311      8.9252    120.1215      0.0000
  1285.7500    739.0664      8.8469    122.1008      0.0000
  1286.0000    735.1175      8.7754    123.8304      0.0000
  1286.2500    724.4239      8.6927    125.3255      0.0000
  1286.5000    704.9525      8.5408    126.6312      0.0000
  1286.7500    680.7897      8.2538    127.5481      0.0000
  1287.0000    662.8785      7.8031    127.5195      0.0000
  1287.2500    661.8798      7.2167    125.8500      0.0000
  1287.5000    678.4899      6.5695    122.1374      0.0000
  1287.7500    701.9932      5.9655    116.5901      0.0000
  1288.0000    717.9522      5.5026    109.9853      0.0000
  1288.2500    715.0853      5.2267    103.3174      0.0000
  1288.5000    687.4800      5.1109     97.3872      0.0000
  1288.7500    638.3814      5.0788     92.5412      0.0000
  1289.0000    584.5726      5.0395     88.6510      0.0000
  1289.2500    550.1860      4.9137     85.3015      0.0000
  1289.5000    549.7050      4.6603     82.0927      0.0000
  1289.7500    577.2750      4.2982     78.8944      0.0000
  1290.0000    614.0921      3.8947     75.8648      0.0000
  1290.2500    644.3592      3.5216     73.2487      0.0000
  1290.5000    663.6826      3.2179     71.1675      0.0000
  1290.7500    676.1061      2.9867     69.5838      0.0000
  1291.0000    687.2030      2.8142     68.3863      0.0000
  1291.2500    699.6907      2.6852     67.4246      0.0000
  1291.5000    712.7555      2.5884     66.4873      0.0000
  1291.7500    723.9091      2.5153     65.3477      0.0000
  1292.0000    731.3733      2.4601     63.8805      0.0000
  1292.2500    735.1541      2.4191     62.1287      0.0000
  1292.5000    736.3447      2.3911     60.2413      0.0000
  1292.7500    735.8865      2.3762     58.3846      0.0000
  1293.0000    733.8353      2.3745     56.7286      0.0000
  1293.2500    729.3728      2.3851     55.4581      0.0000
  1293.5000    721.5374      2.4071     54.7259      0.0000
  1293.7500    710.4312      2.4396     54.5842      0.0000
  1294.0000    697.8980      2.4820     54.9850      0.0000
  1294.2500    686.6674      2.5328     55.8323      0.0000
  1294.5000    678.6028      2.5890     56.9944      0.0000
  1294.7500    673.8202      2.6451     58.2511      0.0000
  1295.0000    671.2950      2.6944     59.2625      0.0000
  1295.2500    669.9241      2.7341     59.6419      0.0000
  1295.5000    669.0457      2.7672     59.0934      0.0000
  1295.7500    668.3972      2.7985     57.5108      0.0000
  1296.0000    667.9129      2.8287     55.0060      0.0000
  1296.2500    667.5898      2.8536     51.9226      0.0000
  1296.5000    667.4320      2.8716     48.8368      0.0000
  1296.7500    667.4484      2.8896     46.4578      0.0000
  1297.0000    667.6767      2.9185     45.3965      0.0000
  1297.2500    668.2581      2.9632     45.9314      0.0000
  1297.5000    669.6224      3.0199     47.9199      0.0000
  1297.7500    672.7653      3.0829     50.8900      0.0000
  1298.0000    679.3245      3.1508     54.2233      0.0000
  1298.2500    690.8632      3.2270     57.3284      0.0000
  1298.5000    707.2509      3.3201     59.7593      0.0000
  1298.7500    725.7542      3.4489     61.2749      0.0000
  1299.0000    742.7292      3.6481     61.8570      0.0000
  1299.2500    756.7361      3.9679     61.7060      0.0000
  1299.5000    769.2452      4.4612     61.2094      0.0000
  1299.7500    782.0618      5.1653     60.8850      0.0000
  1300.0000    794.6041      6.1007     61.3157      0.0000
  1300.2500    803.1704      7.3064     63.0826      0.0000
  1300.5000    800.9221      8.8721     66.6871      0.0000
  1300.7500    778.1324     10.9002     72.4509      0.0000
  1301.0000    725.6808     13.4019     80.4376      0.0000
  1301.2500    643.2172     16.2335     90.4002      0.0000
  1301.5000    544.9771     19.1513    101.7580      0.0000
  1301.7500    453.8035     21.9230    113.6153      0.0000
  1302.0000    387.0023     24.3525    124.8456      0.0000
  1302.2500    348.4566     26.1875    134.2721      0.0000
  1302.5000    332.3681     27.0923    140.9282      0.0000
  1302.7500    330.4644     26.8279    144.3622      0.0000
  1303.0000    335.5591     25.4988    144.8337      0.0000
  1303.2500    342.3333     23.5804    143.2274      0.0000
  1303.5000    347.7329     21.6658    140.6658      0.0000
  1303.7500    350.9496     20.1604    138.0983      0.0000
  1304.0000    352.5601     19.1618    136.1534      0.0000
  1304.2500    353.5993     18.5415    135.2483      0.0000
  1304.5000    355.1882     18.1013    135.6264      0.0000
  1304.7500    358.5894     17.6864    137.1825      0.0000
  1305.0000    365.1389     17.2212    139.3232      0.0000
  1305.2500    375.9793     16.6950    141.1962      0.0000
  1305.5000    392.2003     16.1349    142.1827      0.0000
  1305.7500    415.3238     15.5789    142.1959      0.0000
  1306.0000    446.7228     15.0571    141.5265      0.0000
  1306.2500    485.4813     14.5845    140.4652      0.0000
  1306.5000    527.5593     14.1622    139.1000      0.0000
  1306.7500    568.6767     13.7799    137.3897      0.0000
  1307.0000    607.6489     13.4208    135.3322      0.0000
