~Version Information
VERS.                      2.0: CWLS Log ASCII Standard - VERSION 2.0
WRAP.                       NO: One line per depth step
~Well Information Block
STRT.FT               647.0000: 
STOP.FT              1166.0000: 
STEP.FT                 0.1000: 
NULL.                -999.2500: 
COMP.          Pioneer Natural Resources: COMPANY
WELL.             Linda T 32-3: WELL
FLD.           Purgatoire River: FIELD
LOC.           1350' FNL & 2290' FEL: LOCATION
PROV.                 Colorado: PROVINCE
CNTY.               Las Animas: COUNTRY
SRVC.                Patterson: SERVICE COMPANY
DATE.          Sat Feb 05 08:06:50 2005: LOG DATE
UWI.           05 071 08215 00: UNIQUE WELL ID
~Curve Information Block
DEPT.FT            0 000 00 00: Depth
DCAL.in                       : CDL Caliper
RHOB.g/cc                     : CDL Bulk Density
RHOC.g/cc                     : CDL Density Correction
DPOR.pu                       : CDL Density Porosity
GR.GAPI                       : Gamma Ray
NPOR.pu                       : Neutron Porosity
~Parameter Information Block
~A  Depth       DCAL        RHOB        RHOC        DPOR         GR         NPOR    
# ...
  1088.6000      8.0084      2.6038      0.1109      2.7981     96.5196     20.1149
  1088.7000      8.0084      2.6253      0.1480      1.4957     96.8924     20.1790
  1088.8000      7.9843      2.6374      0.1524      0.7660     96.2411     20.2098
  1088.9000      7.9843      2.6427      0.1257      0.4417     96.9930     20.0511
  1089.0000      7.9797      2.6505      0.0968     -0.0274    100.9198     19.8965
  1089.1000      7.9797      2.6604      0.1029     -0.6312    107.5854     19.9143
  1089.2000      7.9797      2.6607      0.1358     -0.6491    117.0621     19.8434
  1089.3000      7.9934      2.6426      0.0888      0.4514    125.1299     19.1458
  1089.4000      7.9934      2.6177      0.0677      1.9564    125.1520     17.8162
  1089.5000      8.0095      2.6071      0.0623      2.6012    118.6879     16.9895
  1089.6000      8.0095      2.6118      0.0928      2.3149    110.7263     17.3940
  1089.7000      8.0095      2.6192      0.0734      1.8648    105.5398     18.2149
  1089.8000      8.0068      2.6257      0.0846      1.4753    105.3274     18.9569
  1089.9000      8.0068      2.6259      0.1131      1.4605    106.9942     19.8116
  1090.0000      7.9807      2.6153      0.0724      2.1027    111.6456     20.3187
  1090.1000      7.9807      2.6028      0.0930      2.8612    120.6038     20.6178
  1090.2000      7.9807      2.5931      0.1010      3.4503    123.7522     21.2976
  1090.3000      8.0024      2.5844      0.0747      3.9742    117.8782     22.0592
  1090.4000      8.0024      2.5785      0.0743      4.3356    114.9342     22.4411
  1090.5000      7.9996      2.5734      0.0920      4.6454    119.8290     22.7442
  1090.6000      7.9996      2.5702      0.0472      4.8343    126.6710     23.1123
  1090.7000      7.9996      2.5783      0.0770      4.3449    132.9953     22.9607
  1090.8000      8.0199      2.5964      0.0843      3.2465    136.9309     22.1280
  1090.9000      8.0199      2.6160      0.1041      2.0620    133.3294     21.6008
  1091.0000      8.0088      2.6301      0.1697      1.2084    125.7746     22.0640
  1091.1000      8.0088      2.6323      0.1359      1.0755    121.1014     22.3588
  1091.2000      8.0088      2.6264      0.1394      1.4286    120.5151     21.5805
  1091.3000      7.9710      2.6159      0.1246      2.0693    122.0173     20.6403
  1091.4000      7.9710      2.6028      0.0755      2.8605    122.5175     20.4318
  1091.5000      7.9846      2.5929      0.0805      3.4614    123.1805     20.7903
  1091.6000      7.9846      2.5813      0.0920      4.1610    124.6344     21.1640
  1091.7000      7.9846      2.5701      0.0367      4.8433    122.8660     21.2636
  1091.8000      8.0223      2.5764      0.0555      4.4635    121.2575     20.8686
  1091.9000      8.0223      2.5973      0.0936      3.1914    125.1060     20.1029
  1092.0000      8.0507      2.6092      0.0649      2.4740    129.0132     19.3954
  1092.1000      8.0507      2.6060      0.0153      2.6681    127.5143     18.9188
  1092.2000      8.0507      2.6006      0.0456      2.9929    121.8661     18.5736
  1092.3000      8.0294      2.6028      0.0308      2.8596    114.6082     18.0285
  1092.4000      8.0294      2.6164      0.0484      2.0377    108.8592     16.9196
  1092.5000      8.0375      2.6319      0.0594      1.0998    108.8086     15.9028
  1092.6000      8.0375      2.6300      0.1374      1.2098    115.2116     15.9658
  1092.7000      8.0375      2.6058      0.0359      2.6799    121.9459     16.8176
  1092.8000      7.9984      2.5785      0.0209      4.3339    122.9034     17.2682
  1092.9000      7.9984      2.5637      0.0581      5.2290    119.7530     16.8830
  1093.0000      8.0177      2.5606      0.0507      5.4178    117.0990     16.5023
  1093.1000      8.0177      2.5681      0.0470      4.9652    117.0786     16.9581
  1093.2000      8.0177      2.5812      0.0585      4.1670    117.9115     17.9761
  1093.3000      8.0023      2.5861      0.0826      3.8721    116.7431     18.8958
  1093.4000      8.0023      2.5746      0.0685      4.5710    116.3537     19.8350
  1093.5000      8.0061      2.5553      0.0698      5.7376    120.6102     20.8151
  1093.6000      8.0061      2.5415      0.0509      6.5758    127.7415     21.3527
  1093.7000      8.0061      2.5329      0.1153      7.0943    132.6754     21.1503
  1093.8000      7.9932      2.5294      0.0958      7.3074    133.8465     20.2132
  1093.9000      7.9932      2.5443      0.1031      6.4055    131.9276     19.1109
  1094.0000      7.9438      2.5753      0.1153      4.5270    128.1510     18.6401
  1094.1000      7.9438      2.5967      0.1425      3.2329    123.5992     19.0203
  1094.2000      7.9438      2.5965      0.1251      3.2449    119.1874     19.9336
  1094.3000      7.8859      2.5919      0.1175      3.5224    116.9778     21.0508
  1094.4000      7.8859      2.5946      0.1735      3.3598    119.0526     21.9077
  1094.5000      7.8825      2.5961      0.1394      3.2693    122.7090     21.9201
  1094.6000      7.8825      2.5951      0.1387      3.3255    119.9663     21.1625
  1094.7000      7.8825      2.5979      0.1198      3.1585    107.9781     20.5001
  1094.8000      7.9031      2.6033      0.1076      2.8300     95.0891     20.5433
  1094.9000      7.9031      2.6046      0.1284      2.7538     89.4924     20.9782
  1095.0000      7.9542      2.5955      0.0778      3.3044     88.8151     20.9426
  1095.1000      7.9542      2.5807      0.0791      4.1994     86.8439     20.3519
  1095.2000      7.9542      2.5714      0.0741      4.7621     82.2450     19.4604
  1095.3000      8.0123      2.5725      0.0887      4.6982     77.1067     18.2550
  1095.4000      8.0123      2.5735      0.0980      4.6337     72.9774     17.1162
  1095.5000      7.9825      2.5562      0.0933      5.6825     70.5661     16.5232
  1095.6000      7.9825      2.5239      0.0403      7.6442     70.5172     16.3300
  1095.7000      7.9825      2.5002      0.0499      9.0780     73.4293     15.8946
  1095.8000      7.9946      2.4964      0.0745      9.3081     76.3695     14.8690
  1095.9000      7.9946      2.5087      0.0655      8.5628     74.6195     13.7288
  1096.0000      8.0291      2.5264      0.0886      7.4913     70.4095     13.3026
  1096.1000      8.0291      2.5336      0.0975      7.0546     68.0484     13.6593
  1096.2000      8.0291      2.5278      0.0751      7.4068     66.9030     14.1353
  1096.3000      8.0102      2.5156      0.0923      8.1476     66.9147     14.0937
  1096.4000      8.0102      2.4984      0.0895      9.1889     69.3687     13.4904
  1096.5000      8.0038      2.4859      0.0653      9.9434     73.0816     12.8515
  1096.6000      8.0038      2.4877      0.0851      9.8383     76.8629     12.5226
  1096.7000      8.0038      2.4937      0.0940      9.4707     80.6209     12.5049
  1096.8000      7.9993      2.4918      0.0983      9.5907     84.8426     12.9547
  1096.9000      7.9993      2.4869      0.0631      9.8829     90.6798     13.6971
  1097.0000      8.0017      2.4945      0.0718      9.4226     97.5299     14.2443
  1097.1000      8.0017      2.5180      0.0956      8.0010    101.5114     14.5698
  1097.2000      8.0017      2.5419      0.1251      6.5515     99.9058     14.8556
  1097.3000      8.0146      2.5541      0.0859      5.8123     97.7431     15.3034
  1097.4000      8.0146      2.5613      0.0982      5.3770     98.3857     15.8198
  1097.5000      8.0219      2.5688      0.1076      4.9210    100.2251     16.2214
  1097.6000      8.0219      2.5662      0.0990      5.0781    102.7397     16.5917
  1097.7000      8.0219      2.5501      0.0515      6.0543    106.2926     16.8648
  1097.8000      8.0210      2.5383      0.0211      6.7711    109.7648     17.0787
  1097.9000      8.0210      2.5459      0.0095      6.3066    113.3832     17.3833
  1098.0000      8.0204      2.5651      0.0449      5.1426    119.5659     17.8006
  1098.1000      8.0204      2.5733      0.0962      4.6500    125.6395     18.2149
