~Version Information
VERS.                      2.0: CWLS Log ASCII Standard - VERSION 2.0
WRAP.                       NO: One line per depth step
~Well Information Block
STRT.FT               450.0000: 
STOP.FT              1739.2500: 
STEP.FT                 0.2500: 
NULL.                -999.2500: 
COMP.          Pioneer Natural Resources: COMPANY
WELL.            Harlee L 34-9: WELL
FLD.           Purgatoire River: FIELD
LOC.           600' FSL & 2125' FEL: LOCATION
PROV.                 Colorado: PROVINCE
CNTY.               Las Animas: COUNTRY
SRVC.                Patterson: SERVICE COMPANY
DATE.          Wed Jan 26 02:00:08 2005: LOG DATE
UWI.           05 071 08009 00: UNIQUE WELL ID
~Curve Information Block
DEPT.FT            0 000 00 00: Depth
SN.Ohm-m                      : IEL Short Normal
SP.mV                         : IEL Spontaneous Potential
DIR.Ohm-m                     : IEL Induction Resistivity
GR.GAPI                       : Gamma Ray
~Parameter Information Block
~A  Depth        SN          SP         DIR          GR     
# ...
  1287.5000     26.5614   -140.9976     22.2676     92.9730
  1287.7500     27.3135   -141.1293     22.8710     93.5866
  1288.0000     27.8534   -141.2145     23.3620     93.4734
  1288.2500     28.1971   -141.2937     23.7248     92.9679
  1288.5000     28.4108   -141.3980     23.9554     91.8956
  1288.7500     28.5681   -141.5435     24.0705     90.9465
  1289.0000     28.7098   -141.7266     24.1089     88.9584
  1289.2500     28.8317   -141.9256     24.1221     87.3299
  1289.5000     28.9000   -142.1057     24.1521     85.1131
  1289.7500     28.8759   -142.2281     24.2142     84.2138
  1290.0000     28.7371   -142.2615     24.2934     83.8944
  1290.2500     28.4864   -142.1902     24.3563     84.2264
  1290.5000     28.1453   -142.0170     24.3711     85.5376
  1290.7500     27.7405   -141.7600     24.3233     87.1206
  1291.0000     27.2950   -141.4445     24.2171     90.4658
  1291.2500     26.8352   -141.0945     24.0645     92.8684
  1291.5000     26.4014   -140.7278     23.8736     95.8591
  1291.7500     26.0437   -140.3555     23.6493     97.3877
  1292.0000     25.7976   -139.9854     23.4050     99.4469
  1292.2500     25.6585   -139.6257     23.1661    100.6373
  1292.5000     25.5799   -139.2876     22.9585    101.2820
  1292.7500     25.5014   -138.9828     22.7888    100.5622
  1293.0000     25.3840   -138.7206     22.6385     98.1281
  1293.2500     25.2254   -138.5029     22.4798     96.0730
  1293.5000     25.0467   -138.3226     22.3007     92.4667
  1293.7500     24.8703   -138.1642     22.1159     89.3625
  1294.0000     24.7094   -138.0084     21.9554     83.3886
  1294.2500     24.5687   -137.8377     21.8404     79.0931
  1294.5000     24.4474   -137.6428     21.7689     74.0687
  1294.7500     24.3389   -137.4267     21.7201     72.5417
  1295.0000     24.2319   -137.2055     21.6724     73.0300
  1295.2500     24.1170   -137.0036     21.6189     74.4733
  1295.5000     23.9946   -136.8465     21.5701     76.5584
  1295.7500     23.8770   -136.7521     21.5421     76.9123
  1296.0000     23.7826   -136.7268     21.5439     74.8407
  1296.2500     23.7259   -136.7643     21.5730     71.8478
  1296.5000     23.7107   -136.8487     21.6217     66.4851
  1296.7500     23.7281   -136.9593     21.6844     63.4454
  1297.0000     23.7594   -137.0739     21.7588     60.6464
  1297.2500     23.7827   -137.1717     21.8394     59.7490
  1297.5000     23.7792   -137.2366     21.9104     58.9470
  1297.7500     23.7388   -137.2587     21.9474     58.4164
  1298.0000     23.6623   -137.2345     21.9316     57.5063
  1298.2500     23.5581   -137.1660     21.8656     56.8263
  1298.5000     23.4340   -137.0574     21.7742     55.5774
  1298.7500     23.2889   -136.9131     21.6879     54.5619
  1299.0000     23.1121   -136.7365     21.6208     52.9927
  1299.2500     22.8925   -136.5309     21.5637     52.1309
  1299.5000     22.6280   -136.3007     21.4946     51.4161
  1299.7500     22.3279   -136.0509     21.3973     51.4740
  1300.0000     22.0084   -135.7874     21.2693     52.5944
  1300.2500     21.6849   -135.5155     21.1201     54.0121
  1300.5000     21.3679   -135.2400     20.9607     56.7235
  1300.7500     21.0637   -134.9651     20.7920     58.6151
  1301.0000     20.7771   -134.6957     20.6028     61.2655
  1301.2500     20.5124   -134.4370     20.3804     62.7756
  1301.5000     20.2687   -134.1942     20.1287     64.2846
  1301.7500     20.0372   -133.9722     19.8748     64.5627
  1302.0000     19.8063   -133.7759     19.6524     63.8546
  1302.2500     19.5706   -133.6118     19.4750     62.8718
  1302.5000     19.3368   -133.4906     19.3268     61.1285
  1302.7500     19.1201   -133.4276     19.1816     59.8461
  1303.0000     18.9384   -133.4420     19.0329     57.3984
  1303.2500     18.8070   -133.5517     18.9070     55.2951
  1303.5000     18.7351   -133.7679     18.8483     51.9089
  1303.7500     18.7216   -134.0880     18.8874     49.9857
  1304.0000     18.7504   -134.4906     19.0124     47.8932
  1304.2500     18.7876   -134.9351     19.1575     46.7449
  1304.5000     18.7844   -135.3673     19.2245     45.0054
  1304.7500     18.6873   -135.7293     19.1326     44.1790
  1305.0000     18.4564   -135.9707     18.8620     44.9420
  1305.2500     18.0836   -136.0565     18.4540     47.7181
  1305.5000     17.5983   -135.9703     17.9726     56.2990
  1305.7500     17.0549   -135.7122     17.4700     65.1825
  1306.0000     16.5063   -135.2964     16.9738     82.8213
  1306.2500     15.9821   -134.7481     16.4931     96.3601
  1306.5000     15.4861   -134.1012     16.0278    115.8112
  1306.7500     15.0092   -133.3946     15.5761    125.9906
  1307.0000     14.5450   -132.6673     15.1364    135.3060
  1307.2500     14.0930   -131.9531     14.7033    138.2202
  1307.5000     13.6567   -131.2765     14.2636    140.4983
  1307.7500     13.2421   -130.6520     13.7974    142.0931
  1308.0000     12.8595   -130.0852     13.2884    145.3084
  1308.2500     12.5217   -129.5757     12.7395    147.4352
  1308.5000     12.2385   -129.1203     12.1800    149.2601
  1308.7500     12.0114   -128.7149     11.6573    149.1922
  1309.0000     11.8320   -128.3566     11.2153    147.4122
  1309.2500     11.6858   -128.0434     10.8769    145.6158
  1309.5000     11.5590   -127.7737     10.6410    143.1264
  1309.7500     11.4463   -127.5460     10.4908    142.0832
  1310.0000     11.3535   -127.3582     10.4049    141.6158
  1310.2500     11.2954   -127.2080     10.3660    142.0427
  1310.5000     11.2886   -127.0944     10.3647    144.0837
  1310.7500     11.3478   -127.0205     10.4000    146.3701
  1311.0000     11.4845   -126.9953     10.4786    150.1004
  1311.2500     11.7057   -127.0352     10.6125    151.8094
  1311.5000     12.0139   -127.1629     10.8149    152.2856
  1311.7500     12.4094   -127.4040     11.0961    151.4689
  1312.0000     12.8937   -127.7828     11.4623    149.5959
  1312.2500     13.4707   -128.3181     11.9170    148.1141
  1312.5000     14.1458   -129.0210     12.4630    144.5957
  1312.7500     14.9270   -129.8927     13.1047    140.5968
  1313.0000     15.8261   -130.9240     13.8471    131.5638
  1313.2500     16.8604   -132.0929     14.6938    123.6998
  1313.5000     18.0529   -133.3631     15.6446    109.6656
  1313.7500     19.4244   -134.6837     16.6938     99.1453
  1314.0000     20.9760   -135.9930     17.8314     82.6455
  1314.2500     22.6675   -137.2258     19.0433     72.1922
  1314.5000     24.4056   -138.3238     20.3062     59.3186
  1314.7500     26.0586   -139.2452     21.5755     53.3044
  1315.0000     27.4943   -139.9693     22.7782     48.0198
  1315.2500     28.6202   -140.4954     23.8231     46.5032
  1315.5000     29.4020   -140.8355     24.6285     46.5922
  1315.7500     29.8530   -141.0046     25.1494     48.0372
  1316.0000     30.0078   -141.0135     25.3892     52.0019
  1316.2500     29.9017   -140.8671     25.3927     55.7186
  1316.5000     29.5660   -140.5694     25.2271     62.8341
  1316.7500     29.0368   -140.1314     24.9578     68.4220
  1317.0000     28.3608   -139.5794     24.6298     77.1191
  1317.2500     27.5930   -138.9586     24.2639     82.4460
  1317.5000     26.7882   -138.3281     23.8681     89.2026
  1317.7500     25.9908   -137.7492     23.4506     92.9159
  1318.0000     25.2292   -137.2704     23.0309     96.9013
  1318.2500     24.5282   -136.9154     22.6380     97.7999
  1318.5000     23.9284   -136.6788     22.2965     95.7840
  1318.7500     23.4863   -136.5332     22.0075     92.9236
  1319.0000     23.2448   -136.4425     21.7406     89.3449
  1319.2500     23.2003   -136.3775     21.4499     89.0442
  1319.5000     23.2923   -136.3235     21.1082     92.3648
  1319.7500     23.4244   -136.2799     20.7327     96.2044
  1320.0000     23.5044   -136.2515     20.3802    102.0509
  1320.2500     23.4804   -136.2377     20.1188    104.8386
  1320.5000     23.3531   -136.2265     19.9953    106.1353
  1320.7500     23.1587   -136.1951     20.0125    104.7523
