~Version Information
VERS.                      2.0: CWLS Log ASCII Standard - VERSION 2.0
WRAP.                       NO: One line per depth step
~Well Information Block
STRT.FT               275.0000: 
STOP.FT              1682.2500: 
STEP.FT                 0.2500: 
NULL.                -999.2500: 
COMP.          Pioneer Natural Resources: COMPANY
WELL.               Elmo 14-21: WELL
FLD.           Purgatoire River: FIELD
LOC.           623' FSL & 450' FWL----: LOCATION
PROV.                 Colorado: PROVINCE
CNTY.               Las Animas: COUNTRY
SRVC.                Patterson: SERVICE COMPANY
DATE.          Tue May 17 16:07:31 2005: LOG DATE
UWI.           05 071 08360 00: UNIQUE WELL ID
~Curve Information Block
DEPT.FT            0 000 00 00: Depth
SN.Ohm-m                      : IEL Short Normal
SP.mV                         : IEL Spontaneous Potential
DIR.Ohm-m                     : IEL Induction Resistivity
GR.GAPI                       : Gamma Ray
~Parameter Information Block
~A  Depth        SN          SP         DIR          GR     
# ...
  1380.5000     14.3731     -2.7398     14.9699    114.9501
  1380.7500     13.6676     -2.0801     14.1716    121.1850
  1381.0000     13.1435     -1.5031     13.5082    131.7565
  1381.2500     12.7973     -1.0258     12.9481    138.1732
  1381.5000     12.6053     -0.6530     12.4655    144.5587
  1381.7500     12.5202     -0.3780     12.0488    146.0584
  1382.0000     12.4881     -0.1851     11.7000    144.8791
  1382.2500     12.4682     -0.0535     11.4279    142.6954
  1382.5000     12.4402      0.0397     11.2397    138.3298
  1382.7500     12.3996      0.1164     11.1344    134.9104
  1383.0000     12.3501      0.1952     11.1011    129.5128
  1383.2500     12.2998      0.2891     11.1211    126.3215
  1383.5000     12.2572      0.4050     11.1740    123.3740
  1383.7500     12.2270      0.5424     11.2427    123.1326
  1384.0000     12.2038      0.6941     11.3158    125.2759
  1384.2500     12.1722      0.8481     11.3876    127.7493
  1384.5000     12.1122      0.9898     11.4571    131.2705
  1384.7500     12.0100      1.1056     11.5274    132.4007
  1385.0000     11.8720      1.1858     11.6040    131.1992
  1385.2500     11.7351      1.2268     11.6933    128.7376
  1385.5000     11.6671      1.2309     11.8007    124.3551
  1385.7500     11.7503      1.2054     11.9296    122.1190
  1386.0000     12.0465      1.1599     12.0819    120.5445
  1386.2500     12.5582      1.1036     12.2564    120.2059
  1386.5000     13.2126      1.0434     12.4479    119.4319
  1386.7500     13.8872      0.9823     12.6463    118.5083
  1387.0000     14.4635      0.9194     12.8403    117.4807
  1387.2500     14.8742      0.8513     13.0242    117.7607
  1387.5000     15.1149      0.7733     13.2033    119.7360
  1387.7500     15.2180      0.6813     13.3950    121.4244
  1388.0000     15.2101      0.5737     13.6220    123.1463
  1388.2500     15.0823      0.4526     13.9021    123.3129
  1388.5000     14.7950      0.3249     14.2372    121.9723
  1388.7500     14.3163      0.2018     14.6073    120.1563
  1389.0000     13.6716      0.0984     14.9738    116.7260
  1389.2500     12.9672      0.0316     15.2925    114.7044
  1389.5000     12.3678      0.0171     15.5281    113.3041
  1389.7500     12.0401      0.0665     15.6615    113.6518
  1390.0000     12.0907      0.1845     15.6860    115.4849
  1390.2500     12.5254      0.3675     15.5999    117.1589
  1390.5000     13.2462      0.6036     15.4044    120.0269
  1390.7500     14.0920      0.8743     15.1126    122.0917
  1391.0000     14.9076      1.1573     14.7595    125.2152
  1391.2500     15.6030      1.4289     14.4032    127.1778
  1391.5000     16.1730      1.6667     14.1103    129.5000
  1391.7500     16.6729      1.8509     13.9366    130.1358
  1392.0000     17.1696      1.9659     13.9147    128.9405
  1392.2500     17.7037      2.0013     14.0544    126.6906
  1392.5000     18.2816      1.9537     14.3523    121.6355
  1392.7500     18.8986      1.8271     14.8046    117.2342
  1393.0000     19.5722      1.6339     15.4149    108.7082
  1393.2500     20.3619      1.3936     16.1946    101.7549
  1393.5000     21.3610      1.1296     17.1544     90.6601
  1393.7500     22.6559      0.8648     18.2946     83.9642
  1394.0000     24.2671      0.6174     19.5947     76.5032
  1394.2500     26.1018      0.3975     21.0056     73.5481
  1394.5000     27.9617      0.2060     22.4439     71.5868
  1394.7500     29.6176      0.0359     23.7967     71.0882
  1395.0000     30.9088     -0.1247     24.9436     69.9097
  1395.2500     31.7970     -0.2883     25.7995     68.4167
  1395.5000     32.3485     -0.4656     26.3520     66.1148
  1395.7500     32.6742     -0.6625     26.6655     65.7202
  1396.0000     32.8752     -0.8799     26.8430     67.9545
  1396.2500     33.0141     -1.1149     26.9761     70.7532
  1396.5000     33.1110     -1.3615     27.1155     74.5424
  1396.7500     33.1572     -1.6139     27.2715     75.5880
  1397.0000     33.1345     -1.8676     27.4316     74.3661
  1397.2500     33.0333     -2.1222     27.5799     72.3166
  1397.5000     32.8629     -2.3813     27.7052     69.5477
  1397.7500     32.6517     -2.6537     27.7975     69.1791
  1398.0000     32.4350     -2.9525     27.8413     71.5530
  1398.2500     32.2361     -3.2938     27.8159     74.3124
  1398.5000     32.0511     -3.6958     27.7066     77.9830
  1398.7500     31.8517     -4.1759     27.5149     79.3546
  1399.0000     31.6044     -4.7489     27.2587     80.1618
  1399.2500     31.2936     -5.4244     26.9599     80.4553
  1399.5000     30.9360     -6.2048     26.6320     80.8157
  1399.7500     30.5820     -7.0835     26.2779     80.7723
  1400.0000     30.3064     -8.0456     25.9009     80.1661
  1400.2500     30.1910     -9.0688     25.5202     79.6528
  1400.5000     30.3046    -10.1271     25.1778     79.0133
  1400.7500     30.6874    -11.1937     24.9305     78.5315
  1401.0000     31.3450    -12.2431     24.8309     77.4574
  1401.2500     32.2524    -13.2524     24.9124     76.6798
  1401.5000     33.3638    -14.2003     25.1845     76.0886
  1401.7500     34.6246    -15.0651     25.6374     76.1954
  1402.0000     35.9784    -15.8236     26.2500     76.2342
  1402.2500     37.3632    -16.4500     26.9954     75.2890
  1402.5000     38.7007    -16.9166     27.8387     71.5198
  1402.7500     39.8953    -17.1955     28.7295     67.8775
  1403.0000     40.8470    -17.2595     29.5863     63.0880
  1403.2500     41.4584    -17.0833     30.2771     62.0853
  1403.5000     41.6083    -16.6439     30.6089     66.2829
  1403.7500     41.1137    -15.9238     30.3543     73.5719
  1404.0000     39.7578    -14.9139     29.3391     90.5780
  1404.2500     37.4237    -13.6196     27.5591    104.2335
  1404.5000     34.2409    -12.0661     25.2256    123.4382
  1404.7500     30.5857    -10.3015     22.6738    132.6200
  1405.0000     26.9104     -8.3953     20.2127    138.4814
  1405.2500     23.5565     -6.4327     18.0323    137.5493
  1405.5000     20.6971     -4.5046     16.2022    132.1331
  1405.7500     18.3949     -2.6969     14.7139    128.1581
  1406.0000     16.6652     -1.0812     13.5243    124.4129
  1406.2500     15.4835      0.2916     12.5846    123.8136
  1406.5000     14.7653      1.3937     11.8540    124.8645
  1406.7500     14.3748      2.2192     11.3030    125.9231
  1407.0000     14.1712      2.7816     10.9116    126.4541
  1407.2500     14.0571      3.1098     10.6657    125.5277
  1407.5000     13.9947      3.2434     10.5541    122.3416
  1407.7500     13.9867      3.2284     10.5659    119.6044
  1408.0000     14.0445      3.1126     10.6892    115.6442
  1408.2500     14.1687      2.9411     10.9095    113.4888
  1408.5000     14.3471      2.7529     11.2068    111.1337
  1408.7500     14.5610      2.5781     11.5529    109.8603
  1409.0000     14.7881      2.4370     11.9106    107.5338
  1409.2500     15.0039      2.3403     12.2382    105.5559
  1409.5000     15.1888      2.2906     12.4994    103.0508
  1409.7500     15.3375      2.2844     12.6758    102.6946
  1410.0000     15.4593      2.3150     12.7708    104.8312
  1410.2500     15.5654      2.3750     12.8028    107.4408
  1410.5000     15.6542      2.4589     12.7930    111.1582
  1410.7500     15.7058      2.5647     12.7573    112.4951
  1411.0000     15.6869      2.6948     12.7056    112.0728
  1411.2500     15.5581      2.8553     12.6441    110.4196
  1411.5000     15.2807      3.0533     12.5763    107.2053
  1411.7500     14.8239      3.2941     12.5029    105.5589
  1412.0000     14.1745      3.5783     12.4209    105.0067
  1412.2500     13.3481      3.8995     12.3253    105.8370
  1412.5000     12.3941      4.2441     12.2125    107.3162
  1412.7500     11.3937      4.5923     12.0832    107.2878
  1413.0000     10.4558      4.9198     11.9431    104.9161
  1413.2500      9.7080      5.2001     11.7992    102.4009
  1413.5000      9.2715      5.4068     11.6559     99.3294
  1413.7500      9.2183      5.5157     11.5111     98.7533
