~Version Information
 VERS.                                  2.0 : CWLS LAS VERSION
 WRAP.                                   NO : WRAPING MODE
 SWARE .                 MController 2.5.0I : SOFTWARE VERSION
~Well Information
 WELL.                      Anderson 18-43v : WELL
 COMP.                       Petrogulf Corp : COMPANY
 FLD.                      Purgatorie River : FIELD
 LOC.                NE/SE Sec 18 T33S R67W : LOCATION
 DATE.                              9/01/04 : DATE(S) LOGGED
 SRVC.       Blanco geological services LLC : SERVICE COMPANY
 STAT.                                   CO : STATE
 CNTY.                           Las Animas : COUNTY
 CTRY.                                  USA : COUNTRY
 API.                       05-071-08156-00 : API NUMBER
 STRT.FT                             158.00 : START DEPTH
 STOP.FT                            2300.00 : STOP DEPTH
 STEP.FT                               1.00 : DEPTH INCREMENT
 NULL.                                -9999 : NULL VALUE
~Curve information
 DEPTH.FT                                   :
 ROP.MIN/FT                                 :
 GAS.UNITS                                  :
~ASCII Log data
# ...
       358.0          0.1          4.2 
       359.0          0.1          4.4 
       360.0          0.1          4.3 
       361.0          0.2          4.7 
       362.0          0.1          4.4 
       363.0          0.1          4.3 
       364.0          0.2          4.1 
       365.0          0.1          4.1 
       366.0          0.1          4.0 
       367.0          0.2          4.2 
       368.0          0.1          4.2 
       369.0          0.1          4.2 
       370.0          0.2          4.3 
       371.0          0.1          4.3 
       372.0          0.1          4.4 
       373.0          0.2          4.4 
       374.0          0.1          4.4 
       375.0          0.2          4.5 
       376.0          0.1          4.4 
       377.0          0.1          4.4 
       378.0          0.2          4.5 
       379.0          0.1          4.8 
       380.0          0.2          4.8 
       381.0          0.4          4.7 
       382.0          0.4          5.2 
       383.0          0.2          4.9 
       384.0          0.1          4.9 
       385.0          0.2          4.9 
       386.0          0.2          4.9 
       387.0          0.2          4.8 
       388.0          0.2          4.9 
       389.0          0.2          5.0 
       390.0          0.2          4.8 
       391.0          0.1          4.4 
       392.0          0.2          4.7 
       393.0          0.2          4.9 
       394.0          0.2          4.5 
       395.0          0.2          4.6 
       396.0          0.2          4.6 
       397.0          0.2          4.7 
       398.0          0.2          4.6 
       399.0          0.2          4.9 
       400.0          0.1          4.9 
       401.0          0.2          4.7 
       402.0          0.1          4.8 
       403.0          0.1          4.7 
       404.0          0.1          4.9 
       405.0          0.1          4.8 
       406.0          0.1          4.8 
       407.0          0.1          4.8 
       408.0          0.1          4.8 
       409.0          0.1          4.8 
       410.0          0.1          4.6 
       411.0          0.2          4.8 
       412.0          0.1          4.8 
       413.0          0.2          4.8 
       414.0          0.1          5.1 
       415.0          0.2          5.2 
       416.0          1.1          5.4 
       417.0          0.1          5.1 
       418.0          0.1          5.2 
       419.0          0.2          5.2 
       420.0          0.2          5.3 
       421.0          0.2          5.0 
       422.0          0.2          5.2 
       423.0          0.1          5.2 
       424.0          0.1          4.8 
       425.0          0.1          5.0 
       426.0          0.1          5.1 
       427.0          0.1          4.8 
       428.0          0.1          4.9 
       429.0          0.1          4.7 
       430.0          0.1          4.8 
       431.0          0.1          4.8 
       432.0          0.1          4.9 
       433.0          0.1          4.9 
       434.0          0.1          5.0 
       435.0          0.1          4.8 
       436.0          0.1          5.1 
       437.0          0.2          5.1 
       438.0          0.1          4.9 
       439.0          0.1          5.1 
       440.0          0.2          4.9 
       441.0          0.2          5.0 
       442.0          0.1          5.1 
       443.0          0.1          5.1 
       444.0          0.2          5.1 
       445.0          0.2          5.0 
       446.0          0.1          4.8 
       447.0          0.2          5.2 
       448.0          0.1          5.3 
       449.0          0.3          5.3 
       450.0          0.6          5.6 
       451.0          0.2          5.6 
       452.0          0.1          5.6 
       453.0          0.3          5.5 
       454.0          0.2          5.5 
       455.0          0.2          5.3 
       456.0          0.1          5.3 
       457.0          0.1          5.6 
       458.0          0.1          5.2 
       459.0          0.1          5.1 
       460.0          0.1          5.4 
       461.0          0.2          5.4 
       462.0          0.1          5.2 
       463.0          0.2          5.6 
       464.0          0.1          5.6 
       465.0          0.1          5.3 
       466.0          0.2          5.4 
       467.0          0.1          5.6 
       468.0          0.1          5.7 
       469.0          0.1          5.6 
       470.0          0.1          5.4 
       471.0          0.1          5.5 
       472.0          0.1          5.5 
       473.0          0.1          5.4 
       474.0          0.1          5.6 
       475.0          0.1          5.6 
       476.0          0.1          5.8 
       477.0          0.2          5.3 
       478.0          0.1          5.4 
       479.0          0.2          1.8 
       480.0          0.1          1.9 
       481.0          0.2          1.8 
       482.0          0.1          1.5 
       483.0          0.6          1.6 
       484.0          0.3          1.6 
       485.0          0.8          2.0 
       486.0          0.2          2.2 
       487.0          0.1          2.0 
       488.0          0.1          2.2 
       489.0          0.2          2.2 
       490.0          0.2          1.8 
       491.0          0.1          2.0 
       492.0          0.2          2.2 
       493.0          0.2          2.5 
       494.0          0.2          2.4 
       495.0          0.1          2.2 
       496.0          0.1          2.2 
       497.0          0.1          2.1 
       498.0          0.2          2.2 
       499.0          0.1          2.3 
       500.0          0.2          2.3 
       501.0          0.1          2.4 
       502.0          0.2          2.2 
       503.0          0.1          2.1 
       504.0          0.1          2.3 
       505.0          0.1          2.4 
       506.0          0.1          2.3 
       507.0          0.2          2.1 
       508.0          0.1          2.1 
       509.0          0.1          2.1 
       510.0          0.1          2.4 
       511.0          0.1          2.3 
       512.0          0.1          2.2 
       513.0          0.2          2.4 
       514.0          0.1          2.3 
       515.0          0.2          2.2 
       516.0          0.2          2.4 
       517.0          0.1          2.4 
       518.0          0.3          2.7 
       519.0          0.3          2.9 
       520.0          0.6          2.7 
       521.0          0.2          2.7 
       522.0          0.2          2.8 
       523.0          0.1          2.5 
       524.0          0.2          2.6 
       525.0          0.2          2.5 
       526.0          0.1          2.2 
       527.0          0.1          2.3 
       528.0          0.1          2.6 
       529.0          0.1          2.3 
       530.0          0.2          2.4 
       531.0          0.1          2.6 
       532.0          0.1          2.5 
       533.0          0.2          2.5 
       534.0          0.1          2.4 
       535.0          0.2          2.5 
       536.0          0.2          2.7 
       537.0          0.2          2.7 
       538.0          0.1          2.7 
       539.0          0.2          2.5 
       540.0          0.2          2.6 
       541.0          0.2          2.7 
       542.0          0.2          2.8 
       543.0          0.2          2.7 
       544.0          0.1          2.8 
       545.0          0.2          2.8 
       546.0          0.2          3.0 
       547.0          0.2          3.1 
       548.0          0.2          2.8 
       549.0          0.1          2.8 
       550.0          0.2          2.6 
       551.0          0.2          2.8 
       552.0          0.1          3.0 
       553.0          0.2          3.0 
       554.0          0.3          2.9 
       555.0          0.4          3.3 
       556.0          0.2          3.1 
       557.0          0.2          2.9 
