~Version Information
VERS.                      2.0: CWLS Log ASCII Standard - VERSION 2.0
WRAP.                       NO: One line per depth step
~Well Information Block
STRT.FT                -8.2500: 
STOP.FT              2725.7500: 
STEP.FT                 0.2500: 
NULL.                -999.2500: 
COMP.          Pioneer Natural Resources: COMPANY
WELL.          Rabbit Bush Federal 44-19: WELL
FLD.           Purgatoire River: FIELD
LOC.           826' FSL & 1127' FEL: LOCATION
CNTY.               Las Animas: COUNTY
SRVC.                Patterson: SERVICE COMPANY
DATE.          Thu Sep 14 10:51:19 2006: LOG DATE
UWI.           05 071 08149 00: UNIQUE WELL ID
STAT.                       CO: STATE
~Curve Information Block
DEPT.FT            0 000 00 00: Depth
GR.GAPI                       : Gamma Ray
CCL.                          : Casing Collar Locator
TT3.usec                      : CBL 3' Travel Time
AMP3.mV                       : CBL 3' Amplitude
~Parameter Information Block
~A  Depth        GR         CCL         TT3         AMP3    
# ...
  1264.7500    140.9352      0.0000    674.8038      4.1626
  1265.0000    131.7282      0.0000    687.5930      4.0243
  1265.2500    119.6681      0.0000    705.5972      3.9386
  1265.5000    107.7058      0.0000    725.6087      3.9007
  1265.7500     99.1505      0.0000    743.1968      3.9176
  1266.0000     96.6048      0.0000    755.0114      4.0051
  1266.2500    101.5413      0.0000    759.7295      4.1708
  1266.5000    113.3197      0.0000    757.6419      4.4049
  1266.7500    128.3044      0.0000    750.1646      4.6871
  1267.0000    141.3260      0.0000    739.4753      4.9978
  1267.2500    149.0282      0.0000    727.9619      5.3159
  1267.5000    151.5269      0.0000    717.7013      5.6073
  1267.7500    150.9209      0.0000    709.9962      5.8285
  1268.0000    149.0536      0.0000    704.9632      5.9450
  1268.2500    146.4890      0.0000    701.7637      5.9433
  1268.5000    142.6033      0.0000    699.8680      5.8256
  1268.7500    136.5794      0.0000    700.1908      5.6054
  1269.0000    128.8514      0.0000    704.1949      5.3151
  1269.2500    121.4737      0.0000    711.2791      5.0056
  1269.5000    116.7520      0.0000    717.9636      4.7283
  1269.7500    115.5835      0.0000    721.0401      4.5144
  1270.0000    117.0471      0.0000    720.7284      4.3717
  1270.2500    119.5682      0.0000    718.8282      4.2966
  1270.5000    122.5596      0.0000    713.7691      4.2805
  1270.7500    126.5554      0.0000    699.2961      4.3101
  1271.0000    131.3558      0.0000    669.7852      4.3690
  1271.2500    134.6210      0.0000    627.9666      4.4408
  1271.5000    133.3780      0.0000    587.4074      4.5129
  1271.7500    127.2549      0.0000    565.3074      4.5779
  1272.0000    119.6392      0.0000    569.5286      4.6310
  1272.2500    115.0178      0.0000    590.7943      4.6647
  1272.5000    115.3254      0.0000    608.5099      4.6729
  1272.7500    119.1052      0.0000    606.3403      4.6607
  1273.0000    123.5947      0.0000    583.4680      4.6421
  1273.2500    126.8608      0.0000    552.1301      4.6248
  1273.5000    128.2746      0.0000    526.9323      4.6030
  1273.7500    127.8654      0.0000    517.8573      4.5685
  1274.0000    125.6918      0.0000    529.9322      4.5248
  1274.2500    122.0023      0.0000    563.6460      4.4851
  1274.5000    117.8432      0.0000    612.8947      4.4549
  1274.7500    114.9482      0.0000    665.2166      4.4243
  1275.0000    114.7490      0.0000    708.6064      4.3854
  1275.2500    117.5392      0.0000    739.8826      4.3553
  1275.5000    122.4205      0.0000    765.8591      4.3622
  1275.7500    127.8384      0.0000    796.3942      4.3970
  1276.0000    132.2836      0.0000    836.5637      4.4025
  1276.2500    134.7302      0.0000    883.5581      4.3359
  1276.5000    134.7142      0.0000    928.3774      4.2256
  1276.7500    132.3477      0.0000    960.1323      4.1405
  1277.0000    128.3525      0.0000    971.6346      4.1204
  1277.2500    123.8749      2.0000    963.3165      4.1539
  1277.5000    120.0834      0.0000    941.4879      4.2094
  1277.7500    117.8390      0.0000    912.6479      4.2735
  1278.0000    117.6555      0.0000    880.8268      4.3662
  1278.2500    119.8075      0.0000    850.1415      4.5124
  1278.5000    124.2542      0.0000    825.8096      4.6856
  1278.7500    130.2337      0.0000    810.5495      4.8001
  1279.0000    135.9843      0.0000    802.6287      4.7898
  1279.2500    139.5962      0.0000    798.1620      4.6766
  1279.5000    140.7558      0.0000    793.3583      4.5379
  1279.7500    141.0802      0.0000    785.5346      4.4326
  1280.0000    142.0769      0.0000    774.5783      4.3782
  1280.2500    143.2596      0.0000    762.9459      4.3689
  1280.5000    142.8824      0.0000    752.9337      4.3884
  1280.7500    140.3148      0.0000    744.5424      4.4147
  1281.0000    137.0767      0.0000    736.7615      4.4298
  1281.2500    135.3368      0.0000    729.5015      4.4287
  1281.5000    135.7452      0.0000    722.7302      4.4141
  1281.7500    137.1050      0.0000    714.4367      4.3890
  1282.0000    137.8239      0.0000    701.1888      4.3561
  1282.2500    137.1278      0.0000    681.1212      4.3220
  1282.5000    135.0271      0.0000    656.4327      4.2995
  1282.7500    131.8385      0.0000    634.6337      4.3021
  1283.0000    128.1498      0.0000    627.3409      4.3363
  1283.2500    124.8279      0.0000    643.9299      4.3942
  1283.5000    122.4165      0.0000    683.2173      4.4534
  1283.7500    120.7279      0.0000    732.2677      4.4861
  1284.0000    119.6987      0.0000    775.2443      4.4768
  1284.2500    120.4404      0.0000    803.2502      4.4330
  1284.5000    124.5251      0.0000    815.9120      4.3813
  1284.7500    131.7961      0.0000    815.7651      4.3518
  1285.0000    139.4291      0.0000    802.9070      4.3600
  1285.2500    144.0010      0.0000    774.9258      4.3941
  1285.5000    144.4319      0.0000    731.3589      4.4231
  1285.7500    142.1873      0.0000    677.9559      4.4252
  1286.0000    138.8446      0.0000    626.4570      4.4052
  1286.2500    134.7505      0.0000    590.4177      4.3828
  1286.5000    130.2294      0.0000    580.4207      4.3721
  1286.7500    126.5667      0.0000    599.9665      4.3752
  1287.0000    124.8848      0.0000    642.6889      4.3870
  1287.2500    124.8999      0.0000    694.2072      4.4008
  1287.5000    125.5523      0.0000    739.6301      4.4116
  1287.7500    126.3781      0.0000    770.5208      4.4196
  1288.0000    127.7451      0.0000    784.5186      4.4283
  1288.2500    130.1140      0.0000    779.9806      4.4392
  1288.5000    133.5890      0.0000    754.1954      4.4487
  1288.7500    137.9733      0.0000    708.2675      4.4529
  1289.0000    142.5160      0.0000    652.2071      4.4516
  1289.2500    145.5893      0.0000    602.8604      4.4445
  1289.5000    145.6825      0.0000    575.8357      4.4284
  1289.7500    142.9843      0.0000    578.0817      4.4029
  1290.0000    139.0905      0.0000    604.9790      4.3761
  1290.2500    135.1551      0.0000    642.7611      4.3603
  1290.5000    131.2057      0.0000    676.1066      4.3640
  1290.7500    127.1737      0.0000    696.5912      4.3888
  1291.0000    123.9430      0.0000    705.0471      4.4310
  1291.2500    123.0544      0.0000    706.9555      4.4831
  1291.5000    125.0284      0.0000    706.9394      4.5345
  1291.7500    128.0557      0.0000    706.9410      4.5719
  1292.0000    129.2574      0.0000    707.1306      4.5838
  1292.2500    127.5336      0.0000    707.0417      4.5689
  1292.5000    124.3758      0.0000    706.0319      4.5429
  1292.7500    121.7636      0.0000    703.5381      4.5316
  1293.0000    120.1280      0.0000    699.6081      4.5493
  1293.2500    118.5981      0.0000    695.6667      4.5833
  1293.5000    116.6073      0.0000    694.3904      4.6019
  1293.7500    114.7434      0.0000    697.7736      4.5862
  1294.0000    114.0519      0.0000    704.3337      4.5521
  1294.2500    114.9634      0.0000    708.0443      4.5385
  1294.5000    117.1604      0.0000    700.7004      4.5684
  1294.7500    120.1171      0.0000    676.8954      4.6264
  1295.0000    123.3268      0.0000    638.2326      4.6764
  1295.2500    126.1822      0.0000    592.8997      4.6985
  1295.5000    128.0060      0.0000    550.6262      4.7068
  1295.7500    128.3787      0.0000    517.6561      4.7314
  1296.0000    127.5861      0.0000    495.3392      4.7867
  1296.2500    126.7469      0.0000    481.5996      4.8577
  1296.5000    127.1071      0.0000    473.1393      4.9144
  1296.7500    128.9889      0.0000    467.3142      4.9372
  1297.0000    131.5904      0.0000    463.1243      4.9322
  1297.2500    133.7178      0.0000    460.8448      4.9248
  1297.5000    134.2903      0.0000    460.6693      4.9394
  1297.7500    132.2467      0.0000    461.9350      4.9821
  1298.0000    126.7691      0.0000    463.7468      5.0400
