~Version Information
VERS.                      2.0: CWLS Log ASCII Standard - VERSION 2.0
WRAP.                       NO: One line per depth step
~Well Information Block
STRT.FT                -7.2500: 
STOP.FT               868.2500: 
STEP.FT                 0.2500: 
NULL.                -999.2500: 
COMP.          Pioneer Natural Resources: COMPANY
WELL.              Venom 32-22: WELL
FLD.           Purgatorie River: FIELD
LOC.           2307' FNL & 2024' FWL--: LOCATION
PROV.                       CO: PROVINCE
CNTY.               Las Animas: COUNTRY
SRVC.          Patterson Wireline: SERVICE COMPANY
DATE.          Mon May 16 15:26:38 2005: LOG DATE
UWI.           05 071 08361 00: UNIQUE WELL ID
~Curve Information Block
DEPT.FT            0 000 00 00: Depth
CCL.                          : Casing Collar Locator
TT3.usec                      : CBL 3' Travel Time
AMP3.mV                       : CBL 3' Amplitude
GR.GAPI                       : Gamma Ray
~Parameter Information Block
~A  Depth       CCL         TT3         AMP3         GR     
# ...
   160.2500      0.0000    831.3085      5.6919     65.5547
   160.5000      0.0000    831.1240      5.6991     61.2969
   160.7500      0.0000    830.8963      5.7187     59.6757
   161.0000      0.0000    830.6677      5.7466     60.9896
   161.2500      0.0000    830.4899      5.7797     64.4988
   161.5000      0.0000    830.4278      5.8201     69.4147
   161.7500      0.0000    830.5911      5.8667     75.0726
   162.0000      0.0000    831.1728      5.9061     80.4054
   162.2500      0.0000    832.4562      5.9203     84.0663
   162.5000      0.0000    834.6742      5.9061     85.5458
   162.7500      0.0000    837.6370      5.8785     85.7303
   163.0000      0.0000    840.4180      5.8551     85.7162
   163.2500      0.0000    841.7195      5.8419     85.1998
   163.5000      0.0000    840.9091      5.8353     82.8062
   163.7500      0.0000    838.6201      5.8309     78.2397
   164.0000      0.0000    836.1334      5.8258     73.4129
   164.2500      0.0000    834.3164      5.8199     70.8852
   164.5000      0.0000    833.2562      5.8166     71.4851
   164.7500      0.0000    832.6198      5.8169     73.7370
   165.0000      0.0000    832.0999      5.8138     75.1925
   165.2500      0.0000    831.5922      5.8003     74.0623
   165.5000      0.0000    831.1517      5.7806     70.2095
   165.7500      0.0000    830.8766      5.7680     65.2174
   166.0000      0.0000    830.8273      5.7755     61.4367
   166.2500      0.0000    831.0132      5.8098     60.5997
   166.5000      0.0000    831.3987      5.8684     63.0219
   166.7500      0.0000    831.8994      5.9366     67.6719
   167.0000      0.0000    832.3872      5.9931     72.6792
   167.2500      0.0000    832.7330      6.0250     76.1196
   167.5000      0.0000    832.8662      6.0399     76.8942
   167.7500      0.0000    832.7924      6.0577     74.9975
   168.0000      0.0000    832.5605      6.0885     71.1115
   168.2500      0.0000    832.2307      6.1211     66.4154
   168.5000      0.0000    831.8677      6.1365     62.6859
   168.7500      0.0000    831.5319      6.1292     61.7400
   169.0000      0.0000    831.2647      6.1124     64.2263
   169.2500      0.0000    831.0942      6.1043     69.1321
   169.5000      0.0000    831.0470      6.1096     74.5669
   169.7500      0.0000    831.1324      6.1134     78.8558
   170.0000      0.0000    831.3198      6.0955     81.0373
   170.2500      0.0000    831.5541      6.0505     80.8219
   170.5000      0.0000    831.7972      5.9944     78.5067
   170.7500      0.0000    832.0453      5.9548     75.0016
   171.0000      0.0000    832.3098      5.9553     71.6220
   171.2500      0.0000    832.5883      6.0004     69.5366
   171.5000      0.0000    832.8545      6.0701     69.4771
   171.7500      0.0000    833.0661      6.1336     71.9216
   172.0000      0.0000    833.1845      6.1709     76.9492
   172.2500      0.0000    833.1924      6.1795     83.4313
   172.5000      0.0000    833.0931      6.1639     88.7657
   172.7500      0.0000    832.8218      6.1311     90.2903
   173.0000      0.0000    832.0646      6.0928     87.3400
   173.2500      0.0000    830.0843      6.0646     81.7387
   173.5000      0.0000    825.9899      6.0576     76.2268
   173.7500      0.0000    819.8343      6.0688     72.6745
   174.0000      0.0000    813.7200      6.0805     71.7472
   174.2500      0.0000    810.9918      6.0712     73.6549
   174.5000      0.0000    813.4005      6.0315     78.4176
   174.7500      0.0000    819.3664      5.9733     85.3181
   175.0000      0.0000    825.5901      5.9205     92.8262
   175.2500      0.0000    829.8787      5.8912     99.5232
   175.5000      0.0000    832.0567      5.8840    104.8383
   175.7500      0.0000    832.9588      5.8826    108.8582
   176.0000      0.0000    833.3452      5.8711    111.9194
   176.2500      0.0000    833.5999      5.8456    114.4049
   176.5000      0.0000    833.8735      5.8147    116.3403
   176.7500      0.0000    834.2358      5.7904    117.0382
   177.0000      0.0000    834.7944      5.7772    115.5342
   177.2500      0.0000    835.8902      5.7668    111.7302
   177.5000      0.0000    838.2808      5.7472    107.1450
   177.7500      0.0000    842.8420      5.7135    104.0345
   178.0000      0.0000    849.6650      5.6679    103.2294
   178.2500      0.0000    857.3752      5.6097    103.1320
   178.5000      0.0000    863.5830      5.5343    101.2940
   178.7500      0.0000    866.1888      5.4513     96.6500
   179.0000      0.0000    864.4992      5.3948     89.8868
   179.2500      0.0000    859.7024      5.4020     82.2962
   179.5000      0.0000    854.6160      5.4775     74.9607
   179.7500      0.0000    852.3772      5.5887     68.7180
   180.0000      0.0000    854.4482      5.6973     64.0514
   180.2500      0.0000    859.5701      5.7875     60.7624
   180.5000      0.0000    864.7255      5.8642     58.1971
   180.7500      0.0000    867.1234      5.9343     56.1172
   181.0000      0.0000    865.6008      5.9962     54.9765
   181.2500      0.0000    860.9254      6.0446     55.0562
   181.5000      0.0000    855.0854      6.0791     55.8754
   181.7500      0.0000    849.7935      6.1078     56.9676
   182.0000      0.0000    845.2675      6.1393     58.7923
   182.2500      0.0000    840.4011      6.1661     62.2748
   182.5000      0.0000    833.6282      6.1638     67.5138
   182.7500      0.0000    823.3806      6.1171     73.1855
   183.0000      0.0000    809.0962      6.0437     77.2773
   183.2500      0.0000    793.3735      5.9848     78.5673
   183.5000      0.0000    782.2416      5.9748     77.4988
   183.7500      0.0000    780.4113      6.0234     75.4988
   184.0000      0.0000    785.3346      6.1141     73.5368
   184.2500      0.0000    788.0726      6.2094     71.7052
   184.5000      0.0000    781.8444      6.2640     70.0348
   184.7500      0.0000    768.8572      6.2504     68.9824
   185.0000      0.0000    757.3430      6.1821     68.8815
   185.2500      0.0000    752.9395      6.1019     69.5063
   185.5000      0.0000    755.2319      6.0454     70.6180
   185.7500      0.0000    761.8361      6.0194     72.4983
   186.0000      0.0000    771.6329      6.0166     75.2694
   186.2500      0.0000    782.5388      6.0377     77.8282
   186.5000      0.0000    789.9796      6.0875     78.1591
   186.7500      0.0000    790.6162      6.1498     75.0406
   187.0000      0.0000    786.1727      6.1799     69.3060
   187.2500      0.0000    781.8079      6.1384     63.3306
   187.5000      0.0000    781.6122      6.0333     59.2838
   187.7500      0.0000    786.1089      5.9173     57.7808
   188.0000      0.0000    792.7676      5.8398     57.9829
   188.2500      0.0000    798.6698      5.8118     58.8923
   188.5000      0.0000    803.8891      5.8132     60.5166
   188.7500      0.0000    811.6084      5.8178     63.7757
   189.0000      0.0000    823.3949      5.8086     69.4681
   189.2500      0.0000    835.4349      5.7885     77.5394
   189.5000      0.0000    842.5267      5.7793     87.1714
   189.7500      0.0000    846.1458      5.7970     97.1581
   190.0000      0.0000    855.3314      5.8252    106.1569
   190.2500      0.0000    876.2144      5.8191    112.9409
   190.5000      0.0000    901.7571      5.7304    116.7419
   190.7500      0.0000    915.6735      5.5278    117.6179
   191.0000      0.0000    907.1312      5.2211    116.6054
   191.2500      0.0000    879.3531      4.8912    115.1500
   191.5000      0.0000    844.7793      4.6675    113.9829
   191.7500      0.0000    816.1202      4.6263    112.6917
   192.0000      0.0000    802.7694      4.7125    110.4949
   192.2500      0.0000    810.4926      4.7982    106.9949
   192.5000      0.0000    839.4623      4.8109    101.9924
   192.7500      0.0000    882.8143      4.7712     95.3608
   193.0000      0.0000    928.6663      4.7294     87.8288
   193.2500     -2.0000    964.2166      4.7072     81.5185
   193.5000     -2.0000    980.1075      4.7023     78.8478
