~Version Information
 VERS.                                  2.0 : CWLS LAS VERSION
 WRAP.                                   NO : WRAPING MODE
 SWARE .                 MController 2.5.0J : SOFTWARE VERSION
~Well Information
 WELL.                        Montoya 1-44R : WELL
 COMP.                       Petrogulf Corp : COMPANY
 FLD.                      Purgatoire River : FIELD
 LOC.                 SE/SE Sec 1 T33S R68W : LOCATION
 DATE.                             11/15/04 : DATE(S) LOGGED
 SRVC.       Blanco Geological Services LLC : SERVICE COMPANY
 STAT.                                   CO : STATE
 CNTY.                           Las Animas : COUNTY
 CTRY.                                  USA : COUNTRY
 API.                       05-071-08239-00 : API NUMBER
 STRT.FT                             615.00 : START DEPTH
 STOP.FT                            2140.00 : STOP DEPTH
 STEP.FT                               1.00 : DEPTH INCREMENT
 NULL.                                -9999 : NULL VALUE
~Curve information
 DEPTH.FT                                   :
 ROP.MIN/FT                                 :
 GAS.UNITS                                  :
~ASCII Log data
# ...
      2015.0         0.30         14.9 
      2016.0         0.30         16.1 
      2017.0         0.30         15.6 
      2018.0         0.30         14.6 
      2019.0         0.30         14.8 
      2020.0         0.30         15.1 
      2021.0         0.28         15.8 
      2022.0         0.33         15.2 
      2023.0         0.30         14.3 
      2024.0         0.30         15.1 
      2025.0         0.33         14.5 
      2026.0         0.30         13.8 
      2027.0         0.30         12.5 
      2028.0         0.30         11.7 
      2029.0         0.27         12.0 
      2030.0         0.30         16.8 
      2031.0         0.27         14.4 
      2032.0         0.35         14.7 
      2033.0         0.40         16.3 
      2034.0         0.37         17.4 
      2035.0         0.20         17.1 
      2036.0         0.10         16.5 
      2037.0         0.33         18.4 
      2038.0         0.40         19.2 
      2039.0         0.37         20.2 
      2040.0         0.37         21.3 
      2041.0         0.37         20.1 
      2042.0         0.37         18.8 
      2043.0         0.43         17.7 
      2044.0         0.58         17.1 
      2045.0         0.63         16.2 
      2046.0         0.73         13.9 
      2047.0         0.70         12.8 
      2048.0         0.70         13.3 
      2049.0         0.75         13.3 
      2050.0         0.63         13.2 
      2051.0         0.47         12.4 
      2052.0         0.43         12.5 
      2053.0         0.43         12.3 
      2054.0         0.47         12.5 
      2055.0         0.55         11.9 
      2056.0         0.47         11.8 
      2057.0         0.43         11.7 
      2058.0         0.43         11.7 
      2059.0         0.43         10.9 
      2060.0         0.50         12.0 
      2061.0         0.63         12.3 
      2062.0         0.42         13.3 
      2063.0         0.30         15.2 
      2064.0         0.33         14.6 
      2065.0         0.40         12.5 
      2066.0         0.23         13.2 
      2067.0         0.37         13.5 
      2068.0         0.50         12.7 
      2069.0         0.57         12.4 
      2070.0         0.75         12.2 
      2071.0         0.77         11.7 
      2072.0         0.80         10.7 
      2073.0         0.80         10.6 
      2074.0         0.75         10.7 
      2075.0         0.63          9.7 
      2076.0         0.67         10.3 
      2077.0         0.73         10.3 
      2078.0         0.63          9.9 
      2079.0         0.57          9.3 
      2080.0         0.52          9.1 
      2081.0         0.50          9.8 
      2082.0         0.60          9.2 
      2083.0         0.57          9.5 
      2084.0         0.53         10.3 
      2085.0         0.53         10.1 
      2086.0         0.58         10.6 
      2087.0         0.67         10.8 
      2088.0         0.73          9.5 
      2089.0         0.83         10.4 
      2090.0         0.85          9.9 
      2091.0         0.93          9.9 
      2092.0         0.73         10.3 
      2093.0         0.63          9.1 
      2094.0         0.40          9.7 
      2095.0         0.37         11.1 
      2096.0         0.32         13.0 
      2097.0         0.37         15.1 
      2098.0         0.32         15.5 
      2099.0         0.33         15.3 
      2100.0         0.37         13.4 
      2101.0         0.33         11.3 
      2102.0         0.30          9.6 
      2103.0         0.20          9.5 
      2104.0         0.20          9.3 
      2105.0         0.30          9.6 
      2106.0         0.33          9.5 
      2107.0         0.37          9.9 
      2108.0         0.43          8.9 
      2109.0         0.38          8.7 
      2110.0         0.40          8.5 
      2111.0         0.40          8.2 
      2112.0         0.37          8.1 
      2113.0         0.37          7.7 
      2114.0         0.43          7.9 
      2115.0         0.43          8.1 
      2116.0         0.45          8.1 
      2117.0         0.40          7.7 
      2118.0         0.43          7.2 
      2119.0         0.37          7.2 
      2120.0         0.33          7.0 
      2121.0         0.40          7.5 
      2122.0         0.37          6.9 
      2123.0         0.37          8.2 
      2124.0         0.33         10.6 
      2125.0         0.28         10.7 
      2126.0         0.23         14.7 
      2127.0         0.27         10.4 
      2128.0         0.27          9.3 
      2129.0         0.30         15.2 
      2130.0         0.37         12.3 
      2131.0         0.33          7.5 
      2132.0         0.33          6.9 
      2133.0         0.33          6.5 
      2134.0         0.37          6.2 
      2135.0         0.40          6.7 
      2136.0         0.38         16.0 
      2137.0         0.37         16.0 
      2138.0         0.40          5.9 
      2139.0         0.30          4.2 
      2140.0         0.37          5.1 
