~Version Information
VERS.                      2.0: CWLS Log ASCII Standard - VERSION 2.0
WRAP.                       NO: One line per depth step
~Well Information Block
STRT.FT               800.0000: 
STOP.FT              1933.5000: 
STEP.FT                 0.2500: 
NULL.                -999.2500: 
COMP.          Pioneer Natural Resources: COMPANY
WELL.            Nova 11-14 Tr: WELL
FLD.           Purgatoire River: FIELD
LOC.           706' FNL & 1109' FWL: LOCATION
PROV.                 Colorado: PROVINCE
CNTY.               Las Animas: COUNTRY
SRVC.                Patterson: SERVICE COMPANY
DATE.          Wed Jul 20 23:28:11 2005: LOG DATE
UWI.           05 071 08434 00: UNIQUE WELL ID
~Curve Information Block
DEPT.FT            0 000 00 00: Depth
SN.Ohm-m                      : IEL Short Normal
SP.mV                         : IEL Spontaneous Potential
DIR.Ohm-m                     : IEL Induction Resistivity
GR.GAPI                       : Gamma Ray
~Parameter Information Block
~A  Depth        SN          SP         DIR          GR     
# ...
  1235.5000     25.1214   -158.9445      0.0258     59.7920
  1235.7500     28.8631   -147.9013      0.0376     61.0401
  1236.0000     28.5214   -136.0289      0.0661     63.6636
  1236.2500     24.4646   -124.1310      0.1334     66.6069
  1236.5000     18.4436   -113.1413      0.2807     74.3449
  1236.7500     12.5763   -103.7980      0.5839     82.1635
  1237.0000      8.2021    -96.4241      1.2944     96.9271
  1237.2500      5.4993    -90.9324      3.7076    107.2188
  1237.5000      4.0502    -87.0022     55.2171    119.8837
  1237.7500      3.5362    -84.2689 100000.0000    124.9050
  1238.0000      3.8610    -82.4245 100000.0000    126.7424
  1238.2500      4.9174    -81.2323 100000.0000    125.1891
  1238.5000      6.3954    -80.5166 100000.0000    121.3669
  1238.7500      7.8673    -80.1549 100000.0000    118.9485
  1239.0000      9.0758    -80.0611 100000.0000    116.1001
  1239.2500     10.0357    -80.1532 100000.0000    114.6794
  1239.5000     10.8616    -80.3306 100000.0000    113.2441
  1239.7500     11.6459    -80.4923 100000.0000    112.6881
  1240.0000     12.5438    -80.5824 100000.0000    111.9316
  1240.2500     13.7733    -80.6178 100000.0000    111.0988
  1240.5000     15.3748    -80.6700 100000.0000    109.0555
  1240.7500     17.0982    -80.8086 100000.0000    107.1450
  1241.0000     18.6323    -81.0456 100000.0000    103.3537
  1241.2500     19.8613    -81.3115 100000.0000    100.2214
  1241.5000     20.8535    -81.4806 100000.0000     95.1990
  1241.7500     21.7249    -81.4326 100000.0000     92.1802
  1242.0000     22.5458    -81.1122 100000.0000     88.7804
  1242.2500     23.2623    -80.5524 100000.0000     87.4032
  1242.5000     23.7030    -79.8605 100000.0000     86.9310
  1242.7500     23.7205    -79.1778 100000.0000     87.9629
  1243.0000     23.2776    -78.6251 100000.0000     91.8626
  1243.2500     22.4469    -78.2483     44.5207     95.8048
  1243.5000     21.4121    -78.0007     19.3280    102.3177
  1243.7500     20.3884    -77.7845     13.8738    105.9122
  1244.0000     19.4584    -77.5284     11.8201    108.8930
  1244.2500     18.4746    -77.2344     10.9365    109.4174
  1244.5000     17.2317    -76.9548     10.5729    109.5478
  1244.7500     15.7910    -76.7270     10.4821    110.1790
  1245.0000     14.4732    -76.5387     10.5584    112.6347
  1245.2500     13.5113    -76.3581     10.7414    115.0512
  1245.5000     12.8653    -76.1874     10.9706    119.2572
  1245.7500     12.3533    -76.0717     11.1762    122.3868
  1246.0000     11.8351    -76.0575     11.2943    127.6200
  1246.2500     11.2995    -76.1494     11.2915    131.2232
  1246.5000     10.8596    -76.3098     11.1734    135.9428
  1246.7500     10.6074    -76.4954     10.9738    138.1152
  1247.0000     10.4556    -76.6874     10.7377    139.1964
  1247.2500     10.2514    -76.8921     10.5079    138.2323
  1247.5000      9.9931    -77.1187     10.3166    134.6069
  1247.7500      9.7903    -77.3577     10.1807    131.4847
  1248.0000      9.7055    -77.5758     10.1020    127.5105
  1248.2500      9.7259    -77.7286     10.0718    126.1778
  1248.5000      9.7916    -77.7829     10.0764    126.5636
  1248.7500      9.7913    -77.7336     10.1040    127.9997
  1249.0000      9.5866    -77.6076     10.1481    130.8102
  1249.2500      9.1126    -77.4524     10.2073    132.7843
  1249.5000      8.4852    -77.3178     10.2826    136.1245
  1249.7500      7.9751    -77.2368     10.3744    138.7229
  1250.0000      7.8379    -77.2168     10.4827    142.4083
  1250.2500      8.1716    -77.2419     10.6101    143.9040
  1250.5000      8.8754    -77.2823     10.7623    144.0966
  1250.7500      9.6811    -77.3085     10.9440    143.3957
  1251.0000     10.2985    -77.3069     11.1520    142.8696
  1251.2500     10.6171    -77.2965     11.3726    143.5966
  1251.5000     10.7530    -77.3282     11.5870    145.9595
  1251.7500     10.8829    -77.4571     11.7845    147.3139
  1252.0000     11.0736    -77.7073     11.9708    147.0617
  1252.2500     11.3035    -78.0641     12.1646    145.0652
  1252.5000     11.5732    -78.4994     12.3820    140.7011
  1252.7500     11.8908    -78.9888     12.6200    138.1391
  1253.0000     12.2185    -79.4996     12.8549    136.0179
  1253.2500     12.5001    -79.9786     13.0548    135.4471
  1253.5000     12.6858    -80.3691     13.1982    134.3774
  1253.7500     12.7125    -80.6416     13.2845    132.9952
  1254.0000     12.5316    -80.8016     13.3292    130.5426
  1254.2500     12.1912    -80.8750     13.3551    129.5144
  1254.5000     11.8468    -80.8966     13.3862    129.6168
  1254.7500     11.6613    -80.9138     13.4482    130.4026
  1255.0000     11.6824    -80.9822     13.5665    131.3868
  1255.2500     11.7984    -81.1363     13.7596    131.3695
  1255.5000     11.8432    -81.3517     14.0319    129.8001
  1255.7500     11.7587    -81.5396     14.3693    127.3475
  1256.0000     11.6377    -81.5966     14.7441    120.8360
  1256.2500     11.6441    -81.4760     15.1247    114.5599
  1256.5000     11.8730    -81.2210     15.4858    103.3053
  1256.7500     12.2657    -80.9293     15.8139     95.7020
  1257.0000     12.7296    -80.6796     16.1057     86.1802
  1257.2500     13.3379    -80.4819     16.3641     81.9012
  1257.5000     14.2796    -80.2896     16.5924     78.7074
  1257.7500     15.5922    -80.0505     16.7903     78.0890
  1258.0000     17.0658    -79.7484     16.9492     78.1709
  1258.2500     18.4127    -79.4085     17.0500     78.7349
  1258.5000     19.3900    -79.0802     17.0670     81.1249
  1258.7500     19.7502    -78.8178     16.9773     84.2743
  1259.0000     19.3470    -78.6678     16.7739     91.4912
  1259.2500     18.3486    -78.6579     16.4731     97.6168
  1259.5000     17.1462    -78.7849     16.1109    107.8375
  1259.7500     16.0715    -79.0139     15.7296    114.8010
  1260.0000     15.2431    -79.2979     15.3617    124.7826
  1260.2500     14.6056    -79.6060     15.0205    130.7273
  1260.5000     14.0759    -79.9319     14.7008    137.3058
  1260.7500     13.6076    -80.2759     14.3866    139.2443
  1261.0000     13.1515    -80.6254     14.0622    138.4748
  1261.2500     12.6761    -80.9545     13.7226    136.8605
  1261.5000     12.2363    -81.2418     13.3779    135.5550
  1261.7500     11.9236    -81.4829     13.0494    135.8806
  1262.0000     11.7465    -81.6855     12.7609    136.7953
  1262.2500     11.6326    -81.8526     12.5307    136.7979
  1262.5000     11.5480    -81.9739     12.3685    135.7084
  1262.7500     11.5294    -82.0303     12.2771    134.6601
  1263.0000     11.5675    -82.0141     12.2533    133.0044
  1263.2500     11.5676    -81.9497     12.2900    131.7601
  1263.5000     11.4738    -81.8968     12.3764    129.5434
  1263.7500     11.3341    -81.9215     12.4995    127.9930
  1264.0000     11.2449    -82.0562     12.6483    126.1303
  1264.2500     11.2763    -82.2834     12.8199    125.4776
  1264.5000     11.4076    -82.5556     13.0206    125.3490
  1264.7500     11.5656    -82.8247     13.2608    125.2943
  1265.0000     11.7448    -83.0560     13.5456    123.5677
  1265.2500     12.0079    -83.2300     13.8716    120.4742
  1265.5000     12.3809    -83.3443     14.2306    112.9781
  1265.7500     12.7873    -83.4112     14.6176    106.9868
  1266.0000     13.1089    -83.4472     15.0373     98.1954
  1266.2500     13.3349    -83.4639     15.5016     92.8844
  1266.5000     13.6275    -83.4713     16.0224     85.5432
  1266.7500     14.2257    -83.4863     16.6044     80.8475
  1267.0000     15.1976    -83.5279     17.2423     74.2230
  1267.2500     16.3043    -83.6036     17.9234     70.4949
  1267.5000     17.2187    -83.7040     18.6319     66.6927
  1267.7500     17.8066    -83.8150     19.3548     65.4570
  1268.0000     18.1855    -83.9341     20.0843     64.9730
  1268.2500     18.5762    -84.0731     20.8164     64.9531
  1268.5000     19.0593    -84.2476     21.5425     64.3263
  1268.7500     19.5530    -84.4640     22.2397     63.2218
