~Version Information
VERS.                      2.0: CWLS Log ASCII Standard - VERSION 2.0
WRAP.                       NO: One line per depth step
~Well Information Block
STRT.FT               647.0000: 
STOP.FT              1167.5000: 
STEP.FT                 0.2500: 
NULL.                -999.2500: 
COMP.          Pioneer Natural Resources: COMPANY
WELL.             Linda T 32-3: WELL
FLD.           Purgatoire River: FIELD
LOC.           1350' FNL & 2290' FEL: LOCATION
PROV.                 Colorado: PROVINCE
CNTY.               Las Animas: COUNTRY
SRVC.                Patterson: SERVICE COMPANY
DATE.          Sat Feb 05 06:41:02 2005: LOG DATE
UWI.           05 071 08215 00: UNIQUE WELL ID
~Curve Information Block
DEPT.FT            0 000 00 00: Depth
SN.Ohm-m                      : IEL Short Normal
SP.mV                         : IEL Spontaneous Potential
DIR.Ohm-m                     : IEL Induction Resistivity
GR.GAPI                       : Gamma Ray
~Parameter Information Block
~A  Depth        SN          SP         DIR          GR     
# ...
   982.0000     22.2799     48.0993     23.1331     93.8666
   982.2500     22.5917     47.9821     23.1117     94.6408
   982.5000     22.8601     47.8960     23.1000     96.9185
   982.7500     23.0597     47.8424     23.1263     98.1389
   983.0000     23.1806     47.8112     23.2009     98.6883
   983.2500     23.2596     47.7914     23.3177     98.2921
   983.5000     23.3379     47.7818     23.4626     97.0417
   983.7500     23.3818     47.7949     23.6201     96.0615
   984.0000     23.2879     47.8479     23.7778     94.9957
   984.2500     23.0194     47.9482     23.9277     95.0440
   984.5000     22.6855     48.0834     24.0682     96.9321
   984.7500     22.4224     48.2266     24.1982     99.3400
   985.0000     22.2806     48.3483     24.3107    103.5486
   985.2500     22.2500     48.4318     24.3925    105.8928
   985.5000     22.3109     48.4819     24.4324    108.0031
   985.7500     22.4450     48.5274     24.4304    108.6498
   986.0000     22.6335     48.6126     24.4028    108.9963
   986.2500     22.8652     48.7795     24.3808    108.8221
   986.5000     23.1463     49.0470     24.4068    107.5449
   986.7500     23.4850     49.3980     24.5245    105.8059
   987.0000     23.8603     49.7844     24.7639    101.7903
   987.2500     24.2227     50.1471     25.1230     98.3109
   987.5000     24.5279     50.4408     25.5553     92.5010
   987.7500     24.7580     50.6498     25.9716     88.7981
   988.0000     24.9121     50.7888     26.2654     84.4379
   988.2500     24.9910     50.8914     26.3554     82.5034
   988.5000     24.9860     50.9970     26.2179     80.4502
   988.7500     24.8747     51.1369     25.8855     79.1327
   989.0000     24.6277     51.3192     25.4146     77.1770
   989.2500     24.2303     51.5237     24.8540     76.3841
   989.5000     23.7122     51.7194     24.2336     76.6668
   989.7500     23.1460     51.8865     23.5722     77.7388
   990.0000     22.5900     52.0219     22.8905     79.9759
   990.2500     22.0466     52.1304     22.2160     81.5451
   990.5000     21.4960     52.2152     21.5793     83.6517
   990.7500     20.9434     52.2737     21.0067     84.7018
   991.0000     20.4196     52.2983     20.5148     85.6141
   991.2500     19.9439     52.2813     20.1051     85.9361
   991.5000     19.4996     52.2246     19.7617     86.3126
   991.7500     19.0614     52.1459     19.4552     86.4246
   992.0000     18.6445     52.0740     19.1515     85.9330
   992.2500     18.3035     52.0325     18.8233     85.0146
   992.5000     18.0695     52.0234     18.4595     82.8416
   992.7500     17.9128     52.0247     18.0684     80.9525
   993.0000     17.7746     52.0004     17.6744     77.5975
   993.2500     17.6152     51.9181     17.3104     75.2709
   993.5000     17.4352     51.7680     17.0078     72.4182
   993.7500     17.2663     51.5727     16.7883     71.2805
   994.0000     17.1475     51.3779     16.6590     70.7641
   994.2500     17.0993     51.2316     16.6130     71.1225
   994.5000     17.1129     51.1667     16.6328     72.6666
   994.7500     17.1636     51.1956     16.6986     74.1974
   995.0000     17.2364     51.3117     16.7984     76.3912
   995.2500     17.3429     51.4958     16.9325     77.2200
   995.5000     17.5123     51.7225     17.1107     77.1315
   995.7500     17.7664     51.9622     17.3422     76.3218
   996.0000     18.1090     52.1802     17.6258     74.3658
   996.2500     18.5316     52.3444     17.9462     72.7689
   996.5000     19.0150     52.4438     18.2772     70.4406
   996.7500     19.5251     52.4939     18.5862     69.3631
   997.0000     20.0167     52.5213     18.8329     69.0939
   997.2500     20.4442     52.5455     18.9724     69.9319
   997.5000     20.7693     52.5756     18.9719     72.5148
   997.7500     20.9606     52.6147     18.8384     74.8546
   998.0000     21.0058     52.6591     18.6278     78.5900
   998.2500     20.9151     52.6971     18.4217     80.7314
   998.5000     20.6948     52.7158     18.2885     82.7979
   998.7500     20.3370     52.7089     18.2569     83.3675
   999.0000     19.8446     52.6788     18.3079     83.3755
   999.2500     19.2671     52.6304     18.3841     83.1410
   999.5000     18.7052     52.5668     18.4132     83.0195
   999.7500     18.2444     52.4906     18.3436     83.3416
  1000.0000     17.8944     52.4086     18.1709     84.4043
  1000.2500     17.6241     52.3314     17.9340     85.2664
  1000.5000     17.4214     52.2685     17.6841     86.5631
  1000.7500     17.2907     52.2279     17.4559     87.5359
  1001.0000     17.2164     52.2193     17.2625     89.3518
  1001.2500     17.1632     52.2560     17.1072     90.7027
  1001.5000     17.1114     52.3470     16.9936     92.5744
  1001.7500     17.0695     52.4862     16.9242     93.5995
  1002.0000     17.0518     52.6526     16.8952     94.9374
  1002.2500     17.0629     52.8213     16.8981     95.8861
  1002.5000     17.0945     52.9754     16.9270     97.5387
  1002.7500     17.1215     53.1070     16.9819     98.5482
  1003.0000     17.1162     53.2128     17.0608     98.9490
  1003.2500     17.0837     53.2922     17.1515     97.8839
  1003.5000     17.0607     53.3519     17.2350     93.8956
  1003.7500     17.0791     53.4025     17.3007     89.9292
  1004.0000     17.1611     53.4447     17.3591     83.1209
  1004.2500     17.3179     53.4577     17.4379     78.6971
  1004.5000     17.5234     53.4077     17.5648     73.0393
  1004.7500     17.7247     53.2735     17.7512     70.0969
  1005.0000     17.8987     53.0663     17.9888     66.7207
  1005.2500     18.0790     52.8264     18.2577     64.8211
  1005.5000     18.3106     52.5984     18.5375     61.9977
  1005.7500     18.5960     52.4062     18.8140     60.1352
  1006.0000     18.9033     52.2461     19.0777     57.8343
  1006.2500     19.2125     52.0992     19.3229     56.9320
  1006.5000     19.5357     51.9511     19.5506     56.7023
  1006.7500     19.8981     51.8046     19.7729     57.1127
  1007.0000     20.3130     51.6799     20.0098     57.8468
  1007.2500     20.7626     51.6029     20.2787     57.9440
  1007.5000     21.1885     51.5874     20.5816     57.1192
  1007.7500     21.5236     51.6213     20.9013     56.1057
  1008.0000     21.7421     51.6685     21.2096     54.6680
  1008.2500     21.8705     51.6900     21.4822     54.1305
  1008.5000     21.9556     51.6692     21.7085     53.9597
  1008.7500     22.0276     51.6231     21.8894     54.0172
  1009.0000     22.0918     51.5877     22.0281     54.0783
  1009.2500     22.1511     51.5901     22.1264     54.1800
  1009.5000     22.2117     51.6325     22.1901     54.7522
  1009.7500     22.2582     51.7030     22.2318     55.5508
  1010.0000     22.2531     51.7939     22.2613     57.4496
  1010.2500     22.1674     51.9054     22.2732     59.1508
  1010.5000     21.9992     52.0416     22.2458     62.0939
  1010.7500     21.7655     52.2096     22.1592     64.0080
  1011.0000     21.4867     52.4158     22.0131     66.2782
  1011.2500     21.1831     52.6556     21.8303     67.3615
  1011.5000     20.8764     52.9103     21.6412     68.8914
  1011.7500     20.5825     53.1600     21.4625     70.1691
  1012.0000     20.3060     53.3966     21.2892     72.3381
  1012.2500     20.0513     53.6253     21.1034     73.5662
  1012.5000     19.8315     53.8524     20.8936     74.5838
  1012.7500     19.6559     54.0724     20.6664     74.6777
  1013.0000     19.5235     54.2636     20.4400     74.1603
  1013.2500     19.4234     54.3954     20.2291     73.5845
  1013.5000     19.3384     54.4442     20.0396     72.7138
  1013.7500     19.2684     54.4061     19.8735     72.1630
  1014.0000     19.2541     54.2985     19.7337     71.1313
  1014.2500     19.3278     54.1518     19.6219     70.2327
  1014.5000     19.4492     53.9956     19.5371     68.9214
  1014.7500     19.5419     53.8465     19.4754     68.4115
  1015.0000     19.5609     53.7056     19.4319     68.4803
  1015.2500     19.5026     53.5686     19.4047     68.9843
