~Version Information
VERS.                      2.0: CWLS Log ASCII Standard - VERSION 2.0
WRAP.                       NO: One line per depth step
~Well Information Block
STRT.FT               375.0000: 
STOP.FT              2637.2500: 
STEP.FT                 0.2500: 
NULL.                -999.2500: 
COMP.          Pioneer Natural Resources: COMPANY
WELL.            Cortina 23-25: WELL
FLD.           Purgatoire River: FIELD
LOC.           2344' FWL & 2526' FSL----: LOCATION
PROV.                 Colorado: PROVINCE
CNTY.               Las Animas: COUNTRY
SRVC.                Patterson: SERVICE COMPANY
DATE.          Wed Mar 23 19:09:49 2005: LOG DATE
UWI.           05 071 08340 00: UNIQUE WELL ID
~Curve Information Block
DEPT.FT            0 000 00 00: Depth
DIR.Ohm-m                     : IEL Induction Resistivity
SN.Ohm-m                      : IEL Short Normal
SP.mV                         : IEL Spontaneous Potential
GR.GAPI                       : Gamma Ray
~Parameter Information Block
~A  Depth       DIR          SN          SP          GR     
# ...
  2619.5000     17.5498     21.8985      0.5797      0.3761
  2619.7500     16.5795     20.6883      1.1427      0.1035
  2620.0000     15.8215     19.6921      1.6054      0.0094
  2620.2500     15.2641     18.8483      1.9324      0.0000
  2620.5000     14.8654     18.0964      2.1064   -999.2500
  2620.7500     14.5810     17.4413      2.1292   -999.2500
  2621.0000     14.3847     16.9667      2.0209   -999.2500
  2621.2500     14.2789     16.8036      1.8160   -999.2500
  2621.5000     14.2928     17.0691      1.5585   -999.2500
  2621.7500     14.4688     17.7994      1.2959   -999.2500
  2622.0000     14.8425     18.9074      1.0747   -999.2500
  2622.2500     15.4208     20.2017      0.9360   -999.2500
  2622.5000     16.1632     21.4645      0.9126   -999.2500
  2622.7500     16.9738     22.5357      1.0270   -999.2500
  2623.0000     17.7149     23.3404      1.2891   -999.2500
  2623.2500     18.2469     23.8514      1.6949   -999.2500
  2623.5000     18.4781     24.0437      2.2258   -999.2500
  2623.7500     18.3953     23.8949      2.8496   -999.2500
  2624.0000     18.0604     23.4337      3.5226   -999.2500
  2624.2500     17.7396     22.7740      4.1942   -999.2500
  2624.5000     17.2273     22.0788      4.8121   -999.2500
  2624.7500     16.7871     21.4754      5.3275   -999.2500
  2625.0000     16.4761     21.0008      5.7012   -999.2500
  2625.2500     16.3105     20.6188      5.9076   -999.2500
  2625.5000     16.2752     20.2828      5.9383   -999.2500
  2625.7500     16.3418     19.9881      5.8038   -999.2500
  2626.0000     16.4856     19.7898      5.5321   -999.2500
  2626.2500     16.7044     19.7930      5.1663   -999.2500
  2626.5000     17.0356     20.1170      4.7585   -999.2500
  2626.7500     17.5752     20.8244      4.3627   -999.2500
  2627.0000     18.5080     21.8437      4.0279   -999.2500
  2627.2500     20.1684     22.9595      3.7903   -999.2500
  2627.5000     23.1807     23.9100      3.6696   -999.2500
  2627.7500     28.3433     24.5270      3.6662   -999.2500
  2628.0000     39.2648     24.8051      3.7626   -999.2500
  2628.2500     64.3703     24.8618      3.9268   -999.2500
  2628.5000    145.8786     24.8441      4.1145   -999.2500
  2628.7500   2828.4685     24.8502      4.2784   -999.2500
  2629.0000 100000.0000     24.9013      4.3667   -999.2500
  2629.2500 100000.0000     24.9637      4.3236   -999.2500
  2629.5000 100000.0000     24.9984      4.0850   -999.2500
  2629.7500 100000.0000     25.0020      3.5709   -999.2500
  2630.0000 100000.0000     25.0245      2.6752   -999.2500
  2630.2500 100000.0000     25.1663      1.2567   -999.2500
  2630.5000 100000.0000     25.5596     -0.8639   -999.2500
  2630.7500 100000.0000     26.3223     -3.8960   -999.2500
  2631.0000 100000.0000     27.4800     -8.0524   -999.2500
  2631.2500 100000.0000     28.9001    -13.5058   -999.2500
  2631.5000 100000.0000     30.2885    -20.3326   -999.2500
  2631.7500 100000.0000     31.2284    -28.4604   -999.2500
  2632.0000 100000.0000     31.1679    -37.6377   -999.2500
  2632.2500 100000.0000     29.4110    -47.4430   -999.2500
  2632.5000 100000.0000     25.3859    -57.3388   -999.2500
  2632.7500 100000.0000     19.2424    -66.7606   -999.2500
  2633.0000 100000.0000     12.1916    -75.2147   -999.2500
  2633.2500 100000.0000      5.9498    -82.3587   -999.2500
  2633.5000 100000.0000      1.6586    -88.0412   -999.2500
  2633.7500 100000.0000     -0.6372    -92.2938   -999.2500
  2634.0000 100000.0000     -1.5935    -95.2872   -999.2500
  2634.2500 100000.0000     -1.9038    -97.2687   -999.2500
  2634.5000 100000.0000     -1.9822    -98.5018   -999.2500
  2634.7500 100000.0000     -1.9976    -99.2232   -999.2500
  2635.0000 100000.0000   -999.2500    -99.6199   -999.2500
  2635.2500  79873.4063   -999.2500    -99.8249   -999.2500
  2635.5000   4268.3906   -999.2500    -99.9244   -999.2500
  2635.7500   2780.1587   -999.2500    -99.9698   -999.2500
  2636.0000   2379.4565   -999.2500    -99.9893   -999.2500
  2636.2500   2246.0010   -999.2500    -99.9971   -999.2500
  2636.5000   2202.5659   -999.2500   -999.2500   -999.2500
  2636.7500   2189.8557   -999.2500   -999.2500   -999.2500
  2637.0000   2186.6348   -999.2500   -999.2500   -999.2500
  2637.2500 100000.0000   -999.2500   -999.2500   -999.2500
