~Version Information
VERS.                      2.0: CWLS Log ASCII Standard - VERSION 2.0
WRAP.                       NO: One line per depth step
~Well Information Block
STRT.FT               652.0000: 
STOP.FT              1880.5000: 
STEP.FT                 0.2500: 
NULL.                -999.2500: 
COMP.          Pioneer Natural Resources: COMPANY
WELL.          Corkscrew 33-12 Tr: WELL
FLD.           Purgatoire River: FIELD
LOC.           1870' FSL & 1706' FEL: LOCATION
PROV.                 Colorado: PROVINCE
CNTY.               Las Animas: COUNTRY
SRVC.                Patterson: SERVICE COMPANY
DATE.          Mon Mar 28 22:58:28 2005: LOG DATE
UWI.           05 071 08295 00: UNIQUE WELL ID
~Curve Information Block
DEPT.FT            0 000 00 00: Depth
SN.Ohm-m                      : IEL Short Normal
SP.mV                         : IEL Spontaneous Potential
DIR.Ohm-m                     : IEL Induction Resistivity
GR.GAPI                       : Gamma Ray
~Parameter Information Block
~A  Depth        SN          SP         DIR          GR     
# ...
  1858.0000     20.1564     54.9850     17.1892     67.1104
  1858.2500     20.1250     54.7665     17.2791     65.1171
  1858.5000     20.1130     54.5402     17.3594     61.3830
  1858.7500     20.1089     54.2832     17.4300     58.5064
  1859.0000     20.1031     53.9756     17.4860     54.1655
  1859.2500     20.0752     53.6009     17.5065     51.7226
  1859.5000     20.0093     53.1440     17.4628     49.2238
  1859.7500     19.9195     52.5933     17.3440     48.2163
  1860.0000     19.8458     51.9479     17.1727     47.1235
  1860.2500     19.8192     51.2246     16.9928     46.5295
  1860.5000     19.8426     50.4619     16.8369     46.1526
  1860.7500     19.8920     49.7160     16.7026     46.4837
  1861.0000     19.9294     49.0467     16.5560     47.7709
  1861.2500     19.9289     48.4994     16.3592     48.7625
  1861.5000     19.8920     48.0911     16.0933     49.4316
  1861.7500     19.8372     47.8070     15.7493     48.6673
  1862.0000     19.7865     47.6078     15.2960     44.6312
  1862.2500     19.7628     47.4461     14.6791     39.6367
  1862.5000     19.7859     47.2820     13.8820     29.1613
  1862.7500     19.8618     47.0946     12.9899     21.3267
  1863.0000     19.9716     46.8888     12.1641     10.9565
  1863.2500     20.0798     46.6910     11.5476      6.0652
  1863.5000     20.1625     46.5338     11.2000      1.9605
  1863.7500     20.2247     46.4348     11.0984      0.7780
  1864.0000     20.2995     46.3850     11.1757      0.1483
  1864.2500     20.4215     46.3546     11.3696      0.0404
  1864.5000     20.5918     46.3093     11.6563      0.0037
  1864.7500     20.8027     46.2240     12.0455      0.0000
  1865.0000     21.0745     46.0879     12.5454   -999.2500
  1865.2500     21.4050     45.9045     13.1315   -999.2500
  1865.5000     21.7407     45.6911     13.7439   -999.2500
  1865.7500     22.0314     45.4733     14.3120   -999.2500
  1866.0000     22.2560     45.2730     14.7853   -999.2500
  1866.2500     22.3937     45.0971     15.1534   -999.2500
  1866.5000     22.4292     44.9307     15.4456   -999.2500
  1866.7500     22.4064     44.7364     15.7118   -999.2500
  1867.0000     22.4421     44.4607     15.9922   -999.2500
  1867.2500     22.6589     44.0586     16.2961   -999.2500
  1867.5000     23.1085     43.5265     16.5127   -999.2500
  1867.7500     23.7463     42.9196     16.7557   -999.2500
  1868.0000     24.4484     42.3366     16.8994   -999.2500
  1868.2500     25.0447     41.8859     16.9384   -999.2500
  1868.5000     25.3719     41.6546     16.9225   -999.2500
  1868.7500     25.3302     41.6924     16.9318   -999.2500
  1869.0000     24.9200     42.0070     17.0268   -999.2500
  1869.2500     24.2559     42.5624     17.2066   -999.2500
  1869.5000     23.5182     43.2788     17.4098   -999.2500
  1869.7500     22.8479     44.0406     17.5629   -999.2500
  1870.0000     22.2855     44.7214     17.6578   -999.2500
  1870.2500     21.8037     45.2219     17.8116   -999.2500
  1870.5000     21.3725     45.5000     18.2758   -999.2500
  1870.7500     20.9902     45.5768     19.4220   -999.2500
  1871.0000     20.6739     45.5168     21.9421   -999.2500
  1871.2500     20.4521     45.3905     26.3512   -999.2500
  1871.5000     20.3550     45.2403     34.0903   -999.2500
  1871.7500     20.3777     45.0723     47.1728   -999.2500
  1872.0000     20.4613     44.8806     67.9282   -999.2500
  1872.2500     20.5345     44.6806     96.5833   -999.2500
  1872.5000     20.5736     44.5222    127.2351   -999.2500
  1872.7500     20.6134     44.4820    150.1023   -999.2500
  1873.0000     20.7111     44.6402    161.5965   -999.2500
  1873.2500     20.9050     45.0446    165.8517   -999.2500
  1873.5000     21.1839     45.6791    168.2973   -999.2500
  1873.7500     21.4496     46.4665    172.7562   -999.2500
  1874.0000     21.5180     47.3088  15714.3086   -999.2500
  1874.2500     21.1919     48.1309 100000.0000   -999.2500
  1874.5000     20.3501     48.8999 100000.0000   -999.2500
  1874.7500     19.0131     49.6274 100000.0000   -999.2500
  1875.0000     17.3719     50.3578 100000.0000   -999.2500
  1875.2500     15.7191     51.1346 100000.0000   -999.2500
  1875.5000     14.2868     51.9495 100000.0000   -999.2500
  1875.7500     13.1449     52.6716 100000.0000   -999.2500
  1876.0000     12.2333     52.9444 100000.0000   -999.2500
  1876.2500     11.4422     52.0432 100000.0000   -999.2500
  1876.5000     10.6835     48.8679 100000.0000   -999.2500
  1876.7500      9.8973     42.4351 100000.0000   -999.2500
  1877.0000      8.9002     32.8680 100000.0000   -999.2500
  1877.2500      7.2233     21.9553 100000.0000   -999.2500
  1877.5000      4.5094     12.3042 100000.0000   -999.2500
  1877.7500      1.3066      5.6662 100000.0000   -999.2500
  1878.0000     -1.2045      2.1121 100000.0000   -999.2500
  1878.2500     -2.4811      0.6303 100000.0000   -999.2500
  1878.5000     -2.8991      0.1493 100000.0000   -999.2500
  1878.7500     -2.9871      0.0276 100000.0000   -999.2500
  1879.0000     -2.9990      0.0037 100000.0000   -999.2500
  1879.2500   -999.2500   -999.2500 100000.0000   -999.2500
  1879.5000   -999.2500   -999.2500 100000.0000   -999.2500
  1879.7500   -999.2500   -999.2500 100000.0000   -999.2500
  1880.0000   -999.2500   -999.2500 100000.0000   -999.2500
  1880.2500   -999.2500   -999.2500 100000.0000   -999.2500
  1880.5000   -999.2500   -999.2500 100000.0000   -999.2500
