~Version Information
VERS.                      2.0: CWLS Log ASCII Standard - VERSION 2.0
WRAP.                       NO: One line per depth step
~Well Information Block
STRT.FT               350.0000: 
STOP.FT              1391.5000: 
STEP.FT                 0.2500: 
NULL.                -999.2500: 
COMP.          Petrogulf Corporation: COMPANY
WELL.             Leier 17-42R: WELL
FLD.           Purgatorie River: FIELD
LOC.           2398' FNL & 1109' FEL: LOCATION
PROV.                 Colorado: PROVINCE
CNTY.               Las Animas: COUNTRY
SRVC.                Patterson: SERVICE COMPANY
DATE.          Mon Oct 17 09:42:26 2005: LOG DATE
UWI.                          : UNIQUE WELL ID
~Curve Information Block
DEPT.FT            0 000 00 00: Depth
SP.mV                         : DIL Spontaneous Potential
RILD.Ohm-m                    : DIL Deep Resistivity
RILM.Ohm-m                    : DIL Medium Resistivity
RLL3.Ohm-m                    : DIL Shallow Resistivity
GR.GAPI                       : Gamma Ray
~Parameter Information Block
~A  Depth        SP         RILD        RILM        RLL3         GR     
# ...
   630.0000    210.2750     15.8295     17.7829     21.8586    126.4894
   630.2500    210.6303     15.9364     18.2098     23.0487    127.8824
   630.5000    210.8888     16.0219     18.5480     23.9697    126.9287
   630.7500    211.0776     16.0796     18.7665     24.3503    124.9651
   631.0000    211.2244     16.0987     18.8437     24.0509    122.2248
   631.2500    211.3471     16.0647     18.7710     23.1711    121.5008
   631.5000    211.4465     15.9633     18.5536     21.9681    122.1758
   631.7500    211.5080     15.7843     18.2075     20.6705    123.1891
   632.0000    211.5130     15.5261     17.7557     19.3840    124.7958
   632.2500    211.4538     15.1968     17.2244     18.1465    126.0139
   632.5000    211.3403     14.8135     16.6392     17.0194    128.0943
   632.7500    211.1984     14.3974     16.0233     16.0993    129.1183
   633.0000    211.0602     13.9687     15.3971     15.4526    129.1552
   633.2500    210.9531     13.5433     14.7783     15.0466    128.2415
   633.5000    210.8896     13.1321     14.1821     14.7422    126.2227
   633.7500    210.8622     12.7437     13.6217     14.3724    124.7484
   634.0000    210.8484     12.3859     13.1085     13.8551    122.8539
   634.2500    210.8251     12.0662     12.6515     13.2416    122.3748
   634.5000    210.7836     11.7899     12.2571     12.6579    123.7410
   634.7500    210.7348     11.5582     11.9288     12.2063    125.9337
   635.0000    210.7026     11.3681     11.6673     11.9249    129.4925
   635.2500    210.7110     11.2137     11.4703     11.8197    130.6341
   635.5000    210.7759     11.0886     11.3334     11.9008    128.9321
   635.7500    210.9036     10.9884     11.2505     12.1663    125.9019
   636.0000    211.0949     10.9109     11.2148     12.5497    121.0011
   636.2500    211.3472     10.8549     11.2192     12.9111    118.9355
   636.5000    211.6568     10.8189     11.2568     13.1108    118.6009
   636.7500    212.0220     10.8001     11.3210     13.1120    119.9419
   637.0000    212.4493     10.7947     11.4044     13.0109    123.1591
   637.2500    212.9571     10.7991     11.4984     12.9629    125.4363
   637.5000    213.5737     10.8103     11.5930     13.0739    128.5235
   637.7500    214.3257     10.8267     11.6771     13.3365    130.4633
   638.0000    215.2221     10.8472     11.7410     13.6384    133.2721
   638.2500    216.2407     10.8712     11.7782     13.8331    134.6488
   638.5000    217.3237     10.8984     11.7877     13.8326    134.8652
   638.7500    218.3854     10.9286     11.7746     13.6525    133.7432
   639.0000    219.3302     10.9612     11.7482     13.3806    131.8602
   639.2500    220.0735     10.9955     11.7195     13.1209    131.7858
   639.5000    220.5630     11.0300     11.6977     12.9653    134.3701
   639.7500    220.7934     11.0631     11.6888     12.9735    137.4845
   640.0000    220.8054     11.0929     11.6944     13.1392    143.0927
   640.2500    220.6686     11.1173     11.7125     13.3762    146.8307
   640.5000    220.4541     11.1339     11.7390     13.5667    150.8895
   640.7500    220.2147     11.1406     11.7691     13.6435    151.4014
   641.0000    219.9787     11.1362     11.7986     13.6327    147.9319
   641.2500    219.7579     11.1226     11.8245     13.6201    143.5418
   641.5000    219.5588     11.1049     11.8448     13.6714    136.5317
   641.7500    219.3888     11.0895     11.8586     13.7689    132.9529
   642.0000    219.2551     11.0814     11.8658     13.8155    130.4320
   642.2500    219.1601     11.0816     11.8674     13.7022    130.8006
   642.5000    219.0968     11.0866     11.8649     13.3936    133.8829
   642.7500    219.0460     11.0897     11.8596     12.9629    136.8982
   643.0000    218.9742     11.0824     11.8514     12.5603    141.2962
   643.2500    218.8372     11.0572     11.8375     12.3466    143.2564
   643.5000    218.5887     11.0097     11.8118     12.4258    143.9356
   643.7500    218.1910     10.9396     11.7656     12.7859    143.2583
   644.0000    217.6247     10.8510     11.6895     13.2710    142.0018
   644.2500    216.8957     10.7503     11.5772     13.6376    141.2505
   644.5000    216.0336     10.6448     11.4281     13.6891    139.1884
   644.7500    215.0843     10.5416     11.2482     13.3908    136.8487
   645.0000    214.1008     10.4458     11.0491     12.8658    133.4650
   645.2500    213.1352     10.3594     10.8449     12.2885    132.8066
   645.5000    212.2325     10.2808     10.6492     11.7804    135.3545
   645.7500    211.4240     10.2065     10.4723     11.3835    138.6950
   646.0000    210.7259     10.1321     10.3201     11.0958    143.6437
   646.2500    210.1452     10.0547     10.1945     10.9124    145.6504
   646.5000    209.6907      9.9739     10.0942     10.8370    146.3131
   646.7500    209.3766      9.8909     10.0156     10.8674    145.8993
   647.0000    209.2165      9.8084      9.9544     10.9834    145.4700
   647.2500    209.2103      9.7300      9.9063     11.1574    145.7644
   647.5000    209.3363      9.6599      9.8674     11.3753    146.9581
   647.7500    209.5537      9.6033      9.8356     11.6331    147.5752
   648.0000    209.8143      9.5646      9.8098     11.9001    146.3102
   648.2500    210.0735      9.5466      9.7907     12.0956    143.3726
   648.5000    210.2998      9.5489      9.7800     12.1324    137.0717
   648.7500    210.4787      9.5682      9.7802     12.0006    133.1959
   649.0000    210.6133      9.5990      9.7931     11.7998    129.8761
   649.2500    210.7177      9.6348      9.8198     11.6757    129.6167
   649.5000    210.8087      9.6684      9.8588     11.7187    131.7876
   649.7500    210.8982      9.6932      9.9068     11.9184    134.4720
   650.0000    210.9903      9.7041      9.9578     12.1968    138.9679
   650.2500    211.0845      9.6986     10.0044     12.4709    141.2649
   650.5000    211.1805      9.6773     10.0392     12.6858    142.4520
   650.7500    211.2830      9.6438     10.0554     12.8169    141.6864
   651.0000    211.4008      9.6037     10.0492     12.8649    139.1924
   651.2500    211.5415      9.5635     10.0197     12.8556    137.6159
   651.5000    211.7079      9.5296      9.9698     12.8258    137.0015
   651.7500    211.8942      9.5082      9.9056     12.7897    138.0753
   652.0000    212.0813      9.5043      9.8355     12.7129    140.6681
   652.2500    212.2305      9.5199      9.7690     12.5312    141.5618
   652.5000    212.2835      9.5530      9.7157     12.2145    139.4490
   652.7500    212.1742      9.5977      9.6833     11.8264    135.5888
   653.0000    211.8528      9.6462      9.6775     11.5183    128.1938
   653.2500    211.3176      9.6919      9.7007     11.4460    124.0388
   653.5000    210.6464      9.7311      9.7527     11.6620    121.3915
   653.7500    210.0134      9.7631      9.8310     12.0682    122.3767
   654.0000    209.6713      9.7890      9.9311     12.4831    126.4566
   654.2500    209.8807      9.8109     10.0475     12.7908    129.1225
   654.5000    210.7965      9.8323     10.1735     13.0607    130.4182
   654.7500    212.3833      9.8583     10.3018     13.5419    129.2208
   655.0000    214.4366      9.8949     10.4244     14.4935    125.7907
   655.2500    216.7081      9.9467     10.5337     15.8971    123.3489
   655.5000    219.0236     10.0137     10.6236     17.2680    120.2130
   655.7500    221.2995     10.0899     10.6913     17.8665    118.6794
   656.0000    223.4800     10.1654     10.7375     17.2748    117.6964
   656.2500    225.4898     10.2301     10.7666     15.7964    118.1246
   656.5000    227.2473     10.2769     10.7840     14.2211    120.0138
   656.7500    228.7077     10.3028     10.7935     13.2121    121.5142
   657.0000    229.8804     10.3067     10.7955     12.9387    123.3910
   657.2500    230.8074     10.2863     10.7862     13.1715    124.5459
   657.5000    231.5283     10.2389     10.7588     13.5692    126.8986
   657.7500    232.0615     10.1648     10.7060     13.8711    128.9430
