~Version Information
VERS.                      2.0: CWLS Log ASCII Standard - VERSION 2.0
WRAP.                       NO: One line per depth step
~Well Information Block
STRT.FT               745.2500: 
STOP.FT              2003.5000: 
STEP.FT                 0.2500: 
NULL.                -999.2500: 
COMP.          Petrogulf Corporation: COMPANY
WELL.            Montoya 6-14V: WELL
FLD.           Purgatorie River: FIELD
LOC.           318' FSL & 882' FWL: LOCATION
CNTY.               Las Animas: COUNTY
SRVC.                         : SERVICE COMPANY
DATE.          Fri Aug 13 04:55:06 2004: LOG DATE
UWI.           05 071 08020 00: UNIQUE WELL ID
STAT.                 Colorado: STATE
~Curve Information Block
DEPT.FT            0 000 00 00: Depth
SP.mV                         : DIL Spontaneous Potential
RILD.Ohm-m                    : DIL Deep Resistivity
RILM.Ohm-m                    : DIL Medium Resistivity
RLL3.Ohm-m                    : DIL Shallow Resistivity
GR.GAPI                       : Gamma Ray
~Parameter Information Block
~A  Depth        SP         RILD        RILM        RLL3         GR     
# ...
  1809.2500     35.2587     10.2040      9.8508     14.4527    154.7059
  1809.5000     35.2689     10.3651      9.9470     14.4107    154.2846
  1809.7500     35.2740     10.5435     10.0583     14.1572    154.8793
  1810.0000     35.2754     10.7219     10.1928     13.7473    157.5554
  1810.2500     35.2742     10.8802     10.3569     13.3036    160.4614
  1810.5000     35.2706     11.0013     10.5550     12.9967    165.5756
  1810.7500     35.2633     11.0772     10.7880     12.9919    168.6146
  1811.0000     35.2492     11.1138     11.0542     13.3859    171.1678
  1811.2500     35.2244     11.1308     11.3497     14.1627    171.0040
  1811.5000     35.1859     11.1567     11.6701     15.1908    167.9218
  1811.7500     35.1327     11.2209     12.0120     16.2635    164.5733
  1812.0000     35.0671     11.3456     12.3753     17.1666    159.3232
  1812.2500     34.9942     11.5410     12.7631     17.7558    156.4117
  1812.5000     34.9212     11.8042     13.1826     18.0152    152.9094
  1812.7500     34.8553     12.1207     13.6428     18.0652    150.8051
  1813.0000     34.8026     12.4685     14.1526     18.1082    147.9711
  1813.2500     34.7665     12.8232     14.7184     18.3427    146.4949
  1813.5000     34.7473     13.1632     15.3407     18.9071    144.5374
  1813.7500     34.7433     13.4722     16.0122     19.8820    142.7134
  1814.0000     34.7506     13.7408     16.7156     21.3307    138.2524
  1814.2500     34.7650     13.9655     17.4233     23.3090    134.3279
  1814.5000     34.7820     14.1485     18.0987     25.7995    128.6464
  1814.7500     34.7980     14.2956     18.7018     28.5956    125.9594
  1815.0000     34.8108     14.4152     19.1970     31.2326    123.7397
  1815.2500     34.8202     14.5151     19.5625     33.0754    122.7586
  1815.5000     34.8278     14.5996     19.7973     33.5642    121.2911
  1815.7500     34.8367     14.6688     19.9227     32.4884    120.8466
  1816.0000     34.8507     14.7200     19.9771     30.1094    122.5406
  1816.2500     34.8732     14.7522     20.0060     27.0608    125.4449
  1816.5000     34.9063     14.7704     20.0528     24.1091    130.8871
  1816.7500     34.9505     14.7857     20.1506     21.9155    133.6965
  1817.0000     35.0048     14.8119     20.3184     20.8879    134.2318
  1817.2500     35.0669     14.8596     20.5607     21.1337    131.2679
  1817.5000     35.1343     14.9330     20.8691     22.4960    121.9437
  1817.7500     35.2042     15.0310     21.2262     24.6471    113.6930
  1818.0000     35.2738     15.1503     21.6105     27.2002    101.6652
  1818.2500     35.3404     15.2887     22.0016     29.7829     95.6160
  1818.5000     35.4009     15.4440     22.3837     32.0519     90.6555
  1818.7500     35.4518     15.6093     22.7466     33.6888     89.8231
  1819.0000     35.4894     15.7679     23.0831     34.4643     91.2119
  1819.2500     35.5103     15.8943     23.3831     34.4008     93.3435
  1819.5000     35.5121     15.9619     23.6273     33.9496     97.8808
  1819.7500     35.4943     15.9552     23.7839     33.9901    101.5820
  1820.0000     35.4587     15.8786     23.8122     35.5037    106.8509
  1820.2500     35.4086     15.7547     23.6734     38.9885    108.7698
  1820.5000     35.3483     15.6144     23.3478     43.9377    107.3459
  1820.7500     35.2816     15.4870     22.8488     48.7901    103.8421
  1821.0000     35.2111     15.3949     22.2257     51.5363     98.1030
  1821.2500     35.1381     15.3544     21.5538     50.7188     96.4805
  1821.5000     35.0627     15.3778     20.9167     46.2173     99.9229
  1821.7500     34.9848     15.4752     20.3895     39.2940    105.7735
  1822.0000     34.9046     15.6532     20.0313     31.8923    116.7358
  1822.2500     34.8230     15.9127     19.8834     25.7173    123.4175
  1822.5000     34.7410     16.2481     19.9732     21.7057    130.6041
  1822.7500     34.6598     16.6495     20.3181     20.0990    133.4819
  1823.0000     34.5802     17.1078     20.9289     20.8501    135.1684
  1823.2500     34.5027     17.6203     21.8110     23.9341    134.1715
  1823.5000     34.4280     18.1916     22.9620     29.3358    128.6243
  1823.7500     34.3578     18.8291     24.3679     36.8110    122.3828
  1824.0000     34.2953     19.5348     25.9953     45.7058    111.0259
  1824.2500     34.2457     20.2970     27.7827     55.0436    103.5673
  1824.5000     34.2156     21.0863     29.6310     63.8415     94.3687
  1824.7500     34.2128     21.8557     31.3985     71.4033     89.7959
  1825.0000     34.2446     22.5453     32.9078     77.3759     84.3089
  1825.2500     34.3162     23.0932     33.9709     81.6038     80.7332
  1825.5000     34.4293     23.4537     34.4352     83.9899     74.8061
  1825.7500     34.5809     23.6180     34.2354     84.4794     70.7957
  1826.0000     34.7634     23.6261     33.4235     83.0759     66.1750
  1826.2500     34.9643     23.5580     32.1573     79.7729     65.0395
  1826.5000     35.1687     23.5073     30.6511     74.4780     67.5259
  1826.7500     35.3604     23.5517     29.1168     67.1251     72.3118
  1827.0000     35.5238     23.7326     27.7243     57.9953     84.0678
  1827.2500     35.6460     24.0467     26.5865     47.9898     94.2859
  1827.5000     35.7179     24.4458     25.7644     38.5642    110.4101
  1827.7500     35.7353     24.8444     25.2790     31.3296    119.3952
  1828.0000     35.6996     25.1370     25.1211     27.6137    126.9650
  1828.2500     35.6179     25.2268     25.2569     28.2418    127.3652
  1828.5000     35.5023     25.0598     25.6282     33.5115    121.6000
  1828.7500     35.3682     24.6479     26.1496     43.1511    114.3854
  1829.0000     35.2323     24.0647     26.7076     56.1615    100.5619
  1829.2500     35.1100     23.4154     27.1677     70.6983     90.9466
  1829.5000     35.0134     22.7968     27.3929     84.2524     78.8328
  1829.7500     34.9509     22.2679     27.2745     94.2008     73.4918
  1830.0000     34.9264     21.8348     26.7624     98.5172     70.2935
  1830.2500     34.9409     21.4533     25.8790     96.3217     71.4011
  1830.5000     34.9930     21.0441     24.7078     88.0808     78.1350
  1830.7500     35.0792     20.5209     23.3629     75.4495     86.0344
  1831.0000     35.1948     19.8243     21.9562     60.8137    101.7964
  1831.2500     35.3339     18.9459     20.5747     46.6318    113.3632
  1831.5000     35.4895     17.9280     19.2730     34.7683    129.3384
  1831.7500     35.6547     16.8429     18.0767     26.0944    137.8225
  1832.0000     35.8238     15.7647     16.9900     20.5192    146.2986
  1832.2500     35.9932     14.7520     16.0051     17.3591    149.1197
  1832.5000     36.1619     13.8420     15.1087     15.7775    150.0224
  1832.7500     36.3322     13.0532     14.2882     15.0739    149.2662
  1833.0000     36.5081     12.3896     13.5337     14.7706    147.4944
  1833.2500     36.6947     11.8443     12.8398     14.5776    146.5121
  1833.5000     36.8963     11.4018     12.2046     14.3317    146.1696
  1833.7500     37.1148     11.0418     11.6291     13.9606    146.9896
  1834.0000     37.3489     10.7422     11.1148     13.4633    149.8310
  1834.2500     37.5937     10.4840     10.6628     12.8905    152.7278
  1834.5000     37.8414     10.2533     10.2727     12.3130    158.4474
  1834.7500     38.0826     10.0425      9.9421     11.7930    162.6986
  1835.0000     38.3080      9.8479      9.6667     11.3687    167.7320
  1835.2500     38.5093      9.6672      9.4405     11.0545    168.9762
  1835.5000     38.6805      9.4968      9.2564     10.8484    167.3820
  1835.7500     38.8183      9.3318      9.1069     10.7376    165.0389
  1836.0000     38.9216      9.1677      8.9850     10.7029    161.7861
  1836.2500     38.9918      9.0023      8.8847     10.7211    160.4161
  1836.5000     39.0314      8.8373      8.8012     10.7697    159.2977
  1836.7500     39.0440      8.6788      8.7316     10.8327    158.7556
  1837.0000     39.0334      8.5359      8.6743     10.9031    157.9015
