~Version Information
VERS.                      2.0: CWLS Log ASCII Standard - VERSION 2.0
WRAP.                       NO: One line per depth step
~Well Information Block
STRT.FT               500.0000: 
STOP.FT              2732.5000: 
STEP.FT                 0.2500: 
NULL.                -999.2500: 
COMP.          Pioneer Natural Resources: COMPANY
WELL.          Dude Canyon 22-32: WELL
FLD.           Purgatoire River: FIELD
LOC.           1662' FNL & 2446' FWL----: LOCATION
PROV.                 Colorado: PROVINCE
CNTY.               Las Animas: COUNTRY
SRVC.                Patterson: SERVICE COMPANY
DATE.          Thu Mar 10 07:15:42 2005: LOG DATE
UWI.           05 071 08257 00: UNIQUE WELL ID
~Curve Information Block
DEPT.FT            0 000 00 00: Depth
DIR.Ohm-m                     : IEL Induction Resistivity
GR.GAPI                       : Gamma Ray
SN.Ohm-m                      : IEL Short Normal
SP.mV                         : IEL Spontaneous Potential
~Parameter Information Block
~A  Depth       DIR          GR          SN          SP     
# ...
  2108.0000     14.2524    154.7854     18.2288    -44.0488
  2108.2500     13.6298    158.7798     17.3445    -42.6269
  2108.5000     13.1608    161.2464     16.6372    -41.3943
  2108.7500     12.8488    160.5494     16.1262    -40.3242
  2109.0000     12.6945    156.4832     15.8256    -39.3914
  2109.2500     12.6990    152.6909     15.7415    -38.5738
  2109.5000     12.8619    147.7231     15.8605    -37.8530
  2109.7500     13.1773    145.6948     16.1418    -37.2157
  2110.0000     13.6279    143.8551     16.5204    -36.6570
  2110.2500     14.1817    142.4718     16.9281    -36.1819
  2110.5000     14.7930    139.2055     17.3206    -35.8043
  2110.7500     15.4098    136.0804     17.6980    -35.5440
  2111.0000     15.9854    129.7799     18.1013    -35.4203
  2111.2500     16.4865    124.7430     18.5799    -35.4460
  2111.5000     16.8932    117.9148     19.1462    -35.6234
  2111.7500     17.1925    115.6015     19.7454    -35.9421
  2112.0000     17.3722    117.3627     20.2645    -36.3797
  2112.2500     17.4215    121.5701     20.5761    -36.9039
  2112.5000     17.3388    129.6859     20.5940    -37.4769
  2112.7500     17.1392    134.9025     20.3060    -38.0596
  2113.0000     16.8539    141.9716     19.7686    -38.6186
  2113.2500     16.5196    146.4750     19.0766    -39.1323
  2113.5000     16.1667    152.4580     18.3302    -39.5956
  2113.7500     15.8136    155.0177     17.6100    -40.0218
  2114.0000     15.4667    156.0059     16.9629    -40.4396
  2114.2500     15.1216    155.6020     16.3999    -40.8867
  2114.5000     14.7644    155.5971     15.9069    -41.3991
  2114.7500     14.3771    156.1855     15.4630    -42.0027
  2115.0000     13.9476    155.9312     15.0553    -42.7050
  2115.2500     13.4793    153.8390     14.6803    -43.4936
  2115.5000     12.9914    148.2261     14.3336    -44.3379
  2115.7500     12.5096    144.2738     13.9995    -45.1960
  2116.0000     12.0556    140.5420     13.6539    -46.0213
  2116.2500     11.6412    140.2868     13.2727    -46.7694
  2116.5000     11.2711    143.4147     12.8386    -47.4013
  2116.7500     10.9466    147.5216     12.3440    -47.8852
  2117.0000     10.6684    155.0807     11.7949    -48.1957
  2117.2500     10.4365    159.2410     11.2126    -48.3137
  2117.5000     10.2480    161.0188     10.6314    -48.2260
  2117.7500     10.0979    158.8075     10.0921    -47.9270
  2118.0000      9.9798    153.0889      9.6402    -47.4218
  2118.2500      9.8868    150.3029      9.3251    -46.7289
  2118.5000      9.8110    151.1457      9.1925    -45.8815
  2118.7500      9.7431    155.3063      9.2637    -44.9268
  2119.0000      9.6738    164.0462      9.5118    -43.9200
  2119.2500      9.5963    168.9244      9.8596    -42.9185
  2119.5000      9.5083    171.6251     10.2069    -41.9757
  2119.7500      9.4131    170.2037     10.4755    -41.1368
  2120.0000      9.3195    165.3234     10.6365    -40.4381
  2120.2500      9.2398    161.6202     10.7057    -39.9068
  2120.5000      9.1876    156.7260     10.7183    -39.5618
  2120.7500      9.1749    154.3924     10.7104    -39.4132
  2121.0000      9.2121    153.1770     10.7135    -39.4620
  2121.2500      9.3071    153.9240     10.7544    -39.7004
  2121.5000      9.4663    155.7216     10.8531    -40.1126
  2121.7500      9.6928    155.8655     11.0201    -40.6766
  2122.0000      9.9856    152.7239     11.2580    -41.3654
  2122.2500     10.3401    148.2666     11.5653    -42.1483
  2122.5000     10.7499    138.8548     11.9372    -42.9914
  2122.7500     11.2109    131.2864     12.3636    -43.8591
  2123.0000     11.7221    118.3238     12.8324    -44.7158
  2123.2500     12.2836    108.5712     13.3329    -45.5293
  2123.5000     12.8893     92.6226     13.8567    -46.2741
  2123.7500     13.5202     81.9673     14.3938    -46.9352
  2124.0000     14.1418     68.2334     14.9289    -47.5100
  2124.2500     14.7106     61.6730     15.4412    -48.0080
  2124.5000     15.1887     56.1834     15.9070    -48.4479
  2124.7500     15.5575     54.8905     16.3054    -48.8539
  2125.0000     15.8228     54.8694     16.6218    -49.2521
  2125.2500     16.0079     55.0801     16.8511    -49.6683
  2125.5000     16.1420     54.2302     17.0011    -50.1277
  2125.7500     16.2511     52.4603     17.0933    -50.6542
  2126.0000     16.3555     48.2727     17.1576    -51.2690
  2126.2500     16.4699     45.0460     17.2197    -51.9875
  2126.5000     16.6051     40.7108     17.2934    -52.8155
  2126.7500     16.7675     38.6485     17.3825    -53.7471
  2127.0000     16.9593     37.0932     17.4872    -54.7656
  2127.2500     17.1791     37.0112     17.6079    -55.8465
  2127.5000     17.4240     38.0446     17.7488    -56.9623
  2127.7500     17.6914     39.3321     17.9188    -58.0864
  2128.0000     17.9789     41.7926     18.1289    -59.1943
  2128.2500     18.2828     43.5087     18.3862    -60.2640
  2128.5000     18.5959     45.7824     18.6918    -61.2744
  2128.7500     18.9070     46.9924     19.0409    -62.2033
  2129.0000     19.2033     48.1120     19.4242    -63.0254
  2129.2500     19.4721     47.9654     19.8291    -63.7116
  2129.5000     19.7012     45.5176     20.2447    -64.2284
  2129.7500     19.8811     42.4938     20.6662    -64.5408
  2130.0000     20.0110     37.7375     21.0937    -64.6159
  2130.2500     20.1038     35.8629     21.5273    -64.4281
  2130.5000     20.1841     36.0889     21.9607    -63.9610
  2130.7500     20.2760     37.7457     22.3753    -63.2076
  2131.0000     20.3883     40.7655     22.7354    -62.1653
  2131.2500     20.5029     42.3432     22.9866    -60.8312
  2131.5000     20.5703     43.2580     23.0593    -59.1993
  2131.7500     20.5134     42.6839     22.8764    -57.2632
  2132.0000     20.2453     40.5545     22.3664    -55.0234
  2132.2500     19.6990     39.2455     21.4892    -52.4968
  2132.5000     18.8597     39.3477     20.2715    -49.7241
  2132.7500     17.7798     41.4635     18.8248    -46.7711
  2133.0000     16.5623     48.2517     17.3187    -43.7241
  2133.2500     15.3228     55.6835     15.9158    -40.6812
  2133.5000     14.1538     72.5655     14.7116    -37.7423
  2133.7500     13.1076     88.1808     13.7211    -34.9979
  2134.0000     12.2003    117.0819     12.9094    -32.5198
  2134.2500     11.4260    137.7242     12.2321    -30.3537
  2134.5000     10.7712    164.6495     11.6575    -28.5139
  2134.7500     10.2240    176.5094     11.1670    -26.9852
  2135.0000      9.7757    182.8714     10.7513    -25.7289
  2135.2500      9.4199    180.7983     10.4103    -24.6942
  2135.5000      9.1503    172.9019     10.1522    -23.8309
  2135.7500      8.9610    166.9364      9.9859    -23.1000
  2136.0000      8.8478    159.1671      9.9142    -22.4798
  2136.2500      8.8087    154.9629      9.9328    -21.9658
  2136.5000      8.8438    149.4814     10.0351    -21.5663
  2136.7500      8.9540    145.9136     10.2168    -21.2931
  2137.0000      9.1405    140.1516     10.4773    -21.1520
  2137.2500      9.4045    135.9941     10.8192    -21.1344
  2137.5000      9.7475    129.9771     11.2442    -21.2138
  2137.7500     10.1698    126.7006     11.7476    -21.3463
  2138.0000     10.6701    122.8120     12.3136    -21.4768
  2138.2500     11.2449    119.8452     12.9166    -21.5489
  2138.5000     11.8890    112.4748     13.5324    -21.5170
  2138.7500     12.5963    104.9010     14.1577    -21.3559
  2139.0000     13.3603     90.2152     14.8260    -21.0668
  2139.2500     14.1755     79.4754     15.6060    -20.6750
  2139.5000     15.0407     64.8156     16.5730    -20.2222
  2139.7500     15.9588     57.5727     17.7639    -19.7546
  2140.0000     16.9284     51.8856     19.1399    -19.3126
  2140.2500     17.9291     51.2711     20.5854    -18.9234
  2140.5000     18.9117     53.3648     21.9420    -18.5978
  2140.7500     19.8008     55.5893     23.0560    -18.3317
  2141.0000     20.5119     58.3690     23.8156    -18.1111
  2141.2500     20.9738     58.9744     24.1697    -17.9194
