~Version Information
VERS.                      2.0: CWLS Log ASCII Standard - VERSION 2.0
WRAP.                       NO: One line per depth step
~Well Information Block
STRT.FT                -9.0000: 
STOP.FT              2130.0000: 
STEP.FT                 0.2500: 
NULL.                -999.2500: 
COMP.          Pioneer Natural Resources: COMPANY
WELL.               King 22-13: WELL
FLD.           Purgatorie River: FIELD
LOC.           2419' FNL & 1806' FWL: LOCATION
PROV.                 Colorado: PROVINCE
CNTY.               Las Animas: COUNTRY
SRVC.                Patterson: SERVICE COMPANY
DATE.          Wed Apr 20 09:20:28 2005: LOG DATE
UWI.           05-071-08318-00: UNIQUE WELL ID
~Curve Information Block
DEPT.FT            0 000 00 00: Depth
CCL.                          : Casing Collar Locator
TT3.usec                      : CBL 3' Travel Time
AMP3.mV                       : CBL 3' Amplitude
GR.GAPI                       : Gamma Ray
~Parameter Information Block
~A  Depth       CCL         TT3         AMP3         GR     
# ...
  2101.5000      0.0000    703.9777      2.2637     74.2792
  2101.7500      0.0000    689.2468      2.2733     75.0086
  2102.0000      0.0000    685.9865      2.2856     78.4817
  2102.2500      0.0000    691.8312      2.2960     82.8977
  2102.5000      0.0000    701.1231      2.3000     86.4475
  2102.7500      0.0000    707.9567      2.2936     88.6513
  2103.0000      0.0000    709.8101      2.2763     90.1461
  2103.2500      0.0000    708.9211      2.2559     91.4747
  2103.5000      0.0000    709.0037      2.2467     92.3644
  2103.7500      0.0000    710.4875      2.2577     92.1452
  2104.0000      0.0000    710.1824      2.2834     90.4602
  2104.2500      0.0000    705.5805      2.3098     87.4987
  2104.5000      0.0000    697.8606      2.3258     84.0151
  2104.7500      0.0000    690.0391      2.3296     81.3242
  2105.0000      0.0000    683.5132      2.3279     80.8045
  2105.2500      0.0000    677.3500      2.3309     82.9301
  2105.5000      0.0000    670.2403      2.3465     86.7599
  2105.7500      0.0000    662.1675      2.3778     90.4977
  2106.0000      0.0000    654.1944      2.4230     92.7396
  2106.2500      0.0000    647.3446      2.4768     93.4759
  2106.5000      0.0000    642.3062      2.5297     93.9257
  2106.7500      0.0000    640.0254      2.5677     95.2701
  2107.0000      0.0000    641.9007      2.5787     97.7204
  2107.2500      0.0000    648.7189      2.5617    100.9656
  2107.5000      0.0000    659.1813      2.5279    104.9433
  2107.7500      0.0000    669.8134      2.4909    109.5357
  2108.0000      0.0000    676.9056      2.4575    113.8178
  2108.2500      0.0000    678.6033      2.4288    116.3601
  2108.5000      0.0000    675.1661      2.4056    116.3422
  2108.7500      0.0000    668.1492      2.3919    114.0848
  2109.0000      0.0000    660.1580      2.3896    110.5920
  2109.2500      0.0000    654.6768      2.3937    106.8562
  2109.5000      0.0000    654.9819      2.3958    103.5892
  2109.7500      0.0000    662.9952      2.3942    101.2795
  2110.0000      0.0000    679.0129      2.3980    100.1926
  2110.2500      0.0000    701.3638      2.4166    100.3954
  2110.5000      0.0000    725.7610      2.4471    101.8339
  2110.7500      0.0000    746.2514      2.4771    104.0647
  2111.0000      0.0000    757.9261      2.5016    105.9269
  2111.2500      0.0000    758.8402      2.5308    106.1823
  2111.5000      0.0000    750.3033      2.5820    104.6671
  2111.7500      0.0000    736.4849      2.6647    102.3681
  2112.0000      0.0000    722.6974      2.7730    100.4451
  2112.2500      0.0000    712.2205      2.8887     99.3803
  2112.5000      0.0000    704.7145      2.9912     98.5728
  2112.7500      0.0000    698.3102      3.0671     96.5116
  2113.0000      0.0000    692.9281      3.1142     91.8377
  2113.2500      0.0000    691.2508      3.1342     84.4681
  2113.5000      0.0000    696.9108      3.1234     75.3664
  2113.7500      0.0000    711.4542      3.0715     65.2099
  2114.0000      0.0000    731.9179      2.9722     53.7208
  2114.2500      0.0000    751.1682      2.8370     40.6256
  2114.5000      0.0000    762.1141      2.6938     27.0287
  2114.7500      0.0000    762.9166      2.5702     15.2468
  2115.0000      0.0000    758.0009      2.4766      7.0964
  2115.2500      0.0000    753.7045      2.4069      2.6751
  2115.5000      0.0000    753.2826      2.3492      0.8067
  2115.7500      0.0000    755.9537      2.2942      0.1926
  2116.0000      0.0000    759.2734      2.2376      0.0360
  2116.2500      0.0000    761.0708      2.1844      0.0049
  2116.5000      0.0000    759.9566      2.1530      0.0000
  2116.7500      0.0000    755.7673      2.1679   -999.2500
  2117.0000      0.0000    750.0774      2.2461   -999.2500
  2117.2500      0.0000    745.4951      2.3905   -999.2500
  2117.5000      0.0000    743.1659      2.5948   -999.2500
  2117.7500      0.0000    740.0806      2.8477   -999.2500
  2118.0000      0.0000    729.7905      3.1304   -999.2500
  2118.2500      0.0000    706.4956      3.4151   -999.2500
  2118.5000      0.0000    667.1506      3.6628   -999.2500
  2118.7500      0.0000    609.0944      3.8152   -999.2500
  2119.0000      0.0000    528.6596      3.7911   -999.2500
  2119.2500      0.0000    425.4038      3.5177   -999.2500
  2119.5000      0.0000    308.1522      2.9993   -999.2500
  2119.7500      0.0000    195.0644      2.3560   -999.2500
  2120.0000      0.0000    105.0345      1.7666   -999.2500
  2120.2500      0.0000     47.0319      1.3546   -999.2500
  2120.5000      0.0000     17.2048      1.1324   -999.2500
  2120.7500      0.0000      5.0710      1.0395   -999.2500
  2121.0000      0.0000      1.1899      1.0094   -999.2500
  2121.2500      0.0000      0.2178      1.0017   -999.2500
  2121.5000      0.0000      0.0290      1.0002   -999.2500
  2121.7500      0.0000   -999.2500   -999.2500   -999.2500
  2122.0000      0.0000   -999.2500   -999.2500   -999.2500
  2122.2500      0.0000   -999.2500   -999.2500   -999.2500
  2122.5000      0.0000   -999.2500   -999.2500   -999.2500
  2122.7500      0.0000   -999.2500   -999.2500   -999.2500
  2123.0000      0.0000   -999.2500   -999.2500   -999.2500
  2123.2500      0.0000   -999.2500   -999.2500   -999.2500
  2123.5000      0.0000   -999.2500   -999.2500   -999.2500
  2123.7500      0.0000   -999.2500   -999.2500   -999.2500
  2124.0000      0.0000   -999.2500   -999.2500   -999.2500
  2124.2500      0.0000   -999.2500   -999.2500   -999.2500
  2124.5000      0.0000   -999.2500   -999.2500   -999.2500
  2124.7500      0.0000   -999.2500   -999.2500   -999.2500
  2125.0000      0.0000   -999.2500   -999.2500   -999.2500
  2125.2500      0.0000   -999.2500   -999.2500   -999.2500
  2125.5000      0.0000   -999.2500   -999.2500   -999.2500
  2125.7500      0.0000   -999.2500   -999.2500   -999.2500
  2126.0000      0.0000   -999.2500   -999.2500   -999.2500
  2126.2500      0.0000   -999.2500   -999.2500   -999.2500
  2126.5000      0.0000   -999.2500   -999.2500   -999.2500
  2126.7500      0.0000   -999.2500   -999.2500   -999.2500
  2127.0000      0.0000   -999.2500   -999.2500   -999.2500
  2127.2500      0.0000   -999.2500   -999.2500   -999.2500
  2127.5000   -999.2500   -999.2500   -999.2500   -999.2500
  2127.7500   -999.2500   -999.2500   -999.2500   -999.2500
  2128.0000   -999.2500   -999.2500   -999.2500   -999.2500
  2128.2500   -999.2500   -999.2500   -999.2500   -999.2500
  2128.5000   -999.2500   -999.2500   -999.2500   -999.2500
  2128.7500   -999.2500   -999.2500   -999.2500   -999.2500
  2129.0000   -999.2500   -999.2500   -999.2500   -999.2500
  2129.2500   -999.2500   -999.2500   -999.2500   -999.2500
  2129.5000   -999.2500   -999.2500   -999.2500   -999.2500
  2129.7500   -999.2500   -999.2500   -999.2500   -999.2500
  2130.0000   -999.2500   -999.2500   -999.2500   -999.2500
