~Version Information
VERS.                      2.0: CWLS Log ASCII Standard - VERSION 2.0
WRAP.                       NO: One line per depth step
~Well Information Block
STRT.FT                -8.2500: 
STOP.FT              2239.2500: 
STEP.FT                 0.2500: 
NULL.                -999.2500: 
COMP.          Pioneer Natural Resources: COMPANY
WELL.            Moo Moo 31-36: WELL
FLD.           Purgatorie River: FIELD
LOC.           612' FNL & 2326' FEL--: LOCATION
PROV.                       CO: PROVINCE
CNTY.               Las Animas: COUNTRY
SRVC.          Patterson Wireline: SERVICE COMPANY
DATE.          Thu Jun 23 10:04:07 2005: LOG DATE
UWI.           05 071 08395 00: UNIQUE WELL ID
~Curve Information Block
DEPT.FT            0 000 00 00: Depth
CCL.                          : Casing Collar Locator
TT3.usec                      : CBL 3' Travel Time
AMP3.mV                       : CBL 3' Amplitude
GR.GAPI                       : Gamma Ray
~Parameter Information Block
~A  Depth       CCL         TT3         AMP3         GR     
# ...
  1331.7500      0.0000    792.8652      4.5209     81.7895
  1332.0000      0.0000    801.3281      4.6049     81.8947
  1332.2500      0.0000    807.2578      4.6484     86.2474
  1332.5000      0.0000    808.3074      4.6655     94.5013
  1332.7500      0.0000    806.5145      4.6681    104.2085
  1333.0000      0.0000    804.4188      4.6692    112.0003
  1333.2500      0.0000    801.7034      4.6805    115.6180
  1333.5000      0.0000    795.1757      4.7097    114.8510
  1333.7500      0.0000    781.5125      4.7532    110.7984
  1334.0000      0.0000    760.3341      4.7917    104.8436
  1334.2500      0.0000    735.1887      4.8050     98.3005
  1334.5000      0.0000    711.6619      4.7896     92.2752
  1334.7500      0.0000    694.1121      4.7550     87.4130
  1335.0000      0.0000    683.6797      4.7091     83.9102
  1335.2500      0.0000    678.8334      4.6597     81.7800
  1335.5000      0.0000    677.2478      4.6212     80.9969
  1335.7500      0.0000    677.1520      4.5921     81.4295
  1336.0000      0.0000    677.5875      4.5314     82.7954
  1336.2500      0.0000    678.1259      4.4011     84.7421
  1336.5000      0.0000    678.6080      4.2384     86.8760
  1336.7500      0.0000    679.0564      4.1496     88.6696
  1337.0000      0.0000    679.7377      4.2015     89.6337
  1337.2500      0.0000    681.3779      4.3372     89.7462
  1337.5000      0.0000    685.4324      4.4316     89.4300
  1337.7500      0.0000    694.1119      4.4214     88.9309
  1338.0000      0.0000    709.7294      4.3495     88.0873
  1338.2500      0.0000    733.2118      4.2905     86.8598
  1338.5000      0.0000    762.4700      4.2799     85.6367
  1338.7500      0.0000    792.2728      4.3199     84.8789
  1339.0000      0.0000    816.6163      4.3969     84.8947
  1339.2500      0.0000    832.0261      4.4756     85.8911
  1339.5000      0.0000    838.9020      4.5120     87.6052
  1339.7500      0.0000    840.2125      4.4908     88.8984
  1340.0000      0.0000    839.3657      4.4381     88.5216
  1340.2500      0.0000    838.8389      4.3867     86.5973
  1340.5000      0.0000    839.7281      4.3431     84.8252
  1340.7500      0.0000    841.8569      4.2920     84.8474
  1341.0000      0.0000    844.2325      4.2251     86.6263
  1341.2500      0.0000    845.6743      4.1581     88.6664
  1341.5000      0.0000    845.3107      4.1239     89.7194
  1341.7500      0.0000    842.9016      4.1504     89.8890
  1342.0000      0.0000    839.0392      4.2412     89.9712
  1342.2500      0.0000    834.9354      4.3718     90.2032
  1342.5000      0.0000    831.5665      4.5014     90.1746
  1342.7500      0.0000    828.9730      4.5870     89.6995
  1343.0000      0.0000    826.6167      4.5920     89.2464
  1343.2500      0.0000    824.2621      4.4998     89.5692
  1343.5000      0.0000    822.1779      4.3327     91.1811
  1343.7500      0.0000    820.6728      4.1497     93.9513
  1344.0000      0.0000    819.7713      4.0124     96.9251
  1344.2500      0.0000    819.2899      3.9444     98.7090
  1344.5000      0.0000    819.0143      3.9293     98.3588
  1344.7500      0.0000    818.7784      3.9386     95.9265
  1345.0000      0.0000    818.3773      3.9593     92.1800
  1345.2500      0.0000    817.3589      3.9970     88.1160
  1345.5000      0.0000    814.8202      4.0657     84.8342
  1345.7500      0.0000    809.7241      4.1730     83.2613
  1346.0000      0.0000    802.1751      4.3064     83.3770
  1346.2500      0.0000    794.7063      4.4312     83.8285
  1346.5000      0.0000    791.2942      4.5102     82.8809
  1346.7500      0.0000    793.9604      4.5294     79.9896
  1347.0000      0.0000    800.7272      4.5006     76.2445
  1347.2500      0.0000    807.6194      4.4493     73.2511
  1347.5000      0.0000    812.0843      4.4057     71.9068
  1347.7500      0.0000    814.0292      4.3957     72.1887
  1348.0000      0.0000    814.5479      4.4263     73.4992
  1348.2500      0.0000    814.6051      4.4806     74.9940
  1348.5000      0.0000    814.6707      4.5304     76.1859
  1348.7500      0.0000    814.8784      4.5524     77.5526
  1349.0000      0.0000    815.2407      4.5402     80.0612
  1349.2500      0.0000    815.8218      4.5046     83.8261
  1349.5000      0.0000    816.8142      4.4579     87.6745
  1349.7500      0.0000    818.4219      4.3997     90.3262
  1350.0000      0.0000    820.4959      4.3272     91.6400
  1350.2500      0.0000    822.0528      4.2559     92.3429
  1350.5000      0.0000    821.1538      4.2169     92.7215
  1350.7500      0.0000    815.3299      4.2329     92.0706
  1351.0000      0.0000    802.7469      4.2981     89.5832
  1351.2500      0.0000    784.4447      4.3820     85.4614
  1351.5000      0.0000    765.9858      4.4509     80.9609
  1351.7500      0.0000    754.4598      4.4829     77.5250
  1352.0000      0.0000    750.7916      4.4648     75.9282
  1352.2500      0.0000    745.9874      4.3897     75.9872
  1352.5000      0.0000    728.2048      4.2706     76.9047
  1352.7500      0.0000    694.7503      4.1489     77.9637
  1353.0000      0.0000    656.0376      4.0744     79.0343
  1353.2500      0.0000    626.5634      4.0735     80.3844
  1353.5000      0.0000    612.3160      4.1392     81.9177
  1353.7500      0.0000    609.2576      4.2400     82.7763
  1354.0000      0.0000    614.0648      4.3320     81.9577
  1354.2500      0.0000    631.2031      4.3751     79.3674
  1354.5000      0.0000    665.6279      4.3624     76.1726
  1354.7500      0.0000    711.5339      4.3287     74.1044
  1355.0000      0.0000    752.9948      4.3097     74.2697
  1355.2500      0.0000    775.7118      4.3006     76.3384
  1355.5000      0.0000    776.8661      4.2731     78.8499
  1355.7500      0.0000    765.3917      4.2242     80.5386
  1356.0000      0.0000    754.8448      4.1832     81.2527
  1356.2500      0.0000    754.9023      4.1749     81.4021
  1356.5000      0.0000    766.3523      4.1916     80.9728
  1356.7500      0.0000    782.2358      4.2099     79.6524
  1357.0000      0.0000    794.1078      4.2198     77.7149
  1357.2500      0.0000    798.0714      4.2243     76.1928
  1357.5000      0.0000    794.7639      4.2206     76.0086
  1357.7500      0.0000    784.8312      4.2031     77.1774
  1358.0000      0.0000    767.4557      4.1811     78.9271
  1358.2500      0.0000    744.1138      4.1710     80.3437
  1358.5000      0.0000    720.8746      4.1752     80.8366
  1358.7500      0.0000    704.7788      4.1874     80.3216
  1359.0000      0.0000    698.6554      4.2062     79.2320
  1359.2500      0.0000    700.0851      4.2278     78.2992
  1359.5000      0.0000    704.3843      4.2438     78.2097
  1359.7500      0.0000    707.8665      4.2559     79.4233
  1360.0000      0.0000    708.9106      4.2770     82.1541
  1360.2500      0.0000    707.2856      4.3098     86.2814
  1360.5000      0.0000    703.4849      4.3354     91.1953
  1360.7500      0.0000    698.8509      4.3334     95.8383
  1361.0000      0.0000    695.4760      4.3091     99.0376
  1361.2500      0.0000    694.8127      4.2894     99.9751
  1361.5000      0.0000    696.1396      4.2905     98.5632
  1361.7500      0.0000    696.9814      4.3050     95.5928
  1362.0000      0.0000    695.2189      4.3207     92.4524
  1362.2500      0.0000    690.3951      4.3376     90.3075
  1362.5000      0.0000    683.2697      4.3554     89.3780
  1362.7500      0.0000    675.1850      4.3593     89.2151
  1363.0000      0.0000    668.1272      4.3397     89.5676
  1363.2500      0.0000    664.4891      4.3139     90.8385
  1363.5000      0.0000    666.1862      4.3085     94.0555
  1363.7500      0.0000    674.4485      4.3249    100.3842
  1364.0000      0.0000    690.3774      4.3359    109.8752
  1364.2500      0.0000    714.1392      4.3169    120.4818
  1364.5000      0.0000    742.1250      4.2687    129.2825
  1364.7500      0.0000    765.5416      4.2094    135.2336
  1365.0000      0.0000    774.1093      4.1527    140.1429
