~Version Information
 VERS.                                  2.0 : CWLS LAS VERSION
 WRAP.                                   NO : WRAPING MODE
 SWARE .                 MController 2.5.0J : SOFTWARE VERSION
~Well Information
 WELL.                      Robinson 15-12R : WELL
 COMP.                Petrogulf Corporation : COMPANY
 FLD.                      Purgatoire River : FIELD
 LOC.                SW/NW Sec 15 T33S R67W : LOCATION
 DATE.                          09/12-13/05 : DATE(S) LOGGED
 SRVC.       BLANCO Geological Services LLC : SERVICE COMPANY
 STAT.                                   CO : STATE
 CNTY.                           Las Animas : COUNTY
 CTRY.                                  USA : COUNTRY
 API.                       05-071-08307-00 : API NUMBER
 STRT.FT                               1.00 : START DEPTH
 STOP.FT                            1460.00 : STOP DEPTH
 STEP.FT                               1.00 : DEPTH INCREMENT
 NULL.                                -9999 : NULL VALUE
~Curve information
 DEPTH.FT                                   :
 ROP.MIN/FT                                 :
 GAS.UNITS                                  :
~ASCII Log data
         1.0     -9999.00          2.1 
         2.0        20.23          2.3 
         3.0         0.15          0.7 
         4.0         0.10          1.0 
         5.0         0.40          1.2 
         6.0         0.70          1.2 
         7.0         1.07          4.3 
         8.0         1.25          4.5 
         9.0         0.13          5.2 
        10.0         0.07          5.9 
        11.0         1.57         11.7 
        12.0         0.20         11.8 
        13.0         0.37         12.2 
        14.0         0.47         12.8 
        15.0         0.38         12.7 
        16.0         0.37         13.1 
        17.0         0.40         12.8 
        18.0         0.37         13.3 
        19.0         0.27         13.3 
        20.0         0.27         13.3 
        21.0         0.37         13.9 
        22.0         0.23         13.7 
        23.0         0.27         13.7 
        24.0         0.37         13.9 
        25.0         1.88         14.7 
        26.0         0.33         14.9 
        27.0         0.40         14.9 
        28.0         0.30         14.9 
        29.0         0.30         15.1 
        30.0         0.30         15.0 
        31.0         0.32         15.2 
        32.0         0.27         15.2 
        33.0         0.33         15.3 
        34.0         0.27         15.1 
        35.0         0.13         15.0 
        36.0         0.27         15.2 
        37.0         0.27         15.1 
        38.0         0.30         15.3 
        39.0         0.23         15.4 
        40.0         0.27         14.8 
        41.0         0.23         15.3 
        42.0         0.33         15.5 
        43.0         0.42         15.4 
        44.0         0.37         19.4 
        45.0         0.30        111.7 
        46.0         0.23        120.5 
        47.0         0.23        111.2 
        48.0         0.17         80.7 
        49.0         0.17         64.9 
        50.0         0.37         48.0 
        51.0         0.20         27.0 
        52.0         0.23         21.4 
        53.0         0.23         17.3 
        54.0         0.27         14.6 
        55.0         0.27         13.4 
        56.0         0.58         13.1 
        57.0         0.23         12.9 
        58.0         0.17         13.2 
        59.0         0.23         13.6 
        60.0         0.13         13.7 
        61.0         0.30         13.7 
        62.0         0.20         14.4 
        63.0         0.27         14.6 
        64.0         0.20         15.1 
        65.0         0.23         14.7 
        66.0         0.13         14.5 
        67.0         0.20         15.3 
        68.0         0.27         15.7 
        69.0         0.38         15.9 
        70.0         0.27         15.8 
        71.0         0.23         15.7 
        72.0         0.30         15.7 
        73.0         0.23         15.9 
        74.0         0.27         16.0 
        75.0         0.30         15.9 
        76.0         0.30         16.0 
        77.0         0.27         15.9 
        78.0         0.27         16.0 
        79.0         0.30         15.7 
        80.0         0.30         15.9 
        81.0         0.32         15.8 
        82.0         0.30         15.3 
        83.0         0.37         15.8 
        84.0         0.43         15.8 
        85.0         0.33         15.9 
        86.0         1.23         16.2 
        87.0         0.27         16.2 
        88.0         0.23         15.9 
        89.0         0.28         15.5 
        90.0         0.23         16.0 
        91.0         0.23         16.3 
        92.0         0.40         16.4 
        93.0         0.40         15.9 
        94.0         0.67         16.3 
        95.0         0.43         16.2 
        96.0         0.53         16.5 
        97.0         0.25         16.4 
        98.0         0.23         15.7 
        99.0         0.10         16.3 
       100.0         0.13         16.4 
       101.0         0.10         16.5 
       102.0         0.10         16.0 
       103.0         0.17         16.3 
       104.0         0.10         16.0 
       105.0         0.07         15.8 
       106.0         0.13         16.3 
       107.0         0.13         16.3 
       108.0         0.20         15.9 
       109.0         0.30         16.2 
       110.0         0.23         16.1 
       111.0         0.27         16.2 
       112.0         0.23         16.4 
       113.0         0.30         16.3 
       114.0         0.23         16.3 
       115.0         0.25         16.1 
       116.0         1.43         16.5 
       117.0         0.20         16.3 
       118.0         0.23         16.6 
       119.0         0.23         16.5 
       120.0         0.20         16.5 
       121.0         0.17         16.6 
       122.0         0.30         16.4 
       123.0         0.23         16.6 
       124.0         0.27         16.4 
       125.0         0.32         16.3 
       126.0         0.23         16.4 
       127.0         0.27         16.4 
       128.0         0.27         16.5 
       129.0         0.23         16.5 
       130.0         0.23         16.3 
       131.0         0.27         16.6 
       132.0         0.27         16.6 
       133.0         0.23         16.5 
       134.0         0.27         16.9 
       135.0         0.27         16.8 
       136.0         0.30         16.8 
       137.0         0.25         16.6 
       138.0         0.37         17.1 
       139.0         0.30         17.1 
       140.0         0.30         17.0 
       141.0         0.27         16.8 
       142.0         0.23         16.6 
       143.0         0.23         17.1 
       144.0         0.23         17.0 
       145.0         0.27         16.4 
       146.0         1.48         17.3 
       147.0         0.23         17.2 
       148.0         0.23         17.2 
       149.0         0.23         17.0 
       150.0         0.20         16.7 
       151.0         0.27         16.8 
       152.0         0.33         16.9 
       153.0         0.20         16.7 
       154.0         0.13         16.9 
       155.0         0.17         17.1 
       156.0         0.10         17.1 
       157.0         0.17         17.4 
       158.0         0.10         17.4 
       159.0         0.17         17.5 
       160.0         0.13         16.6 
       161.0         0.13         17.1 
       162.0         0.07         17.0 
       163.0         0.10         16.9 
       164.0         0.08         16.6 
       165.0         0.17         16.8 
       166.0         0.13         16.9 
       167.0         0.37         17.1 
       168.0         0.27         17.0 
       169.0         0.20         16.9 
       170.0         0.13         16.8 
       171.0         0.20         17.0 
       172.0         0.10         16.8 
       173.0         0.20         17.1 
       174.0         0.13         16.1 
       175.0         0.27         16.9 
       176.0         0.70         17.2 
       177.0         0.20         17.1 
       178.0         0.13         17.1 
       179.0         0.15         16.5 
       180.0         0.30         16.8 
       181.0         0.30         16.8 
       182.0         0.23         16.6 
       183.0         0.27         16.6 
       184.0         0.23         16.6 
       185.0         0.30         16.1 
       186.0         0.27         16.7 
       187.0         0.27         16.8 
       188.0         0.23         16.9 
       189.0         0.27         17.0 
       190.0         0.27         16.5 
       191.0         0.27         17.2 
       192.0         0.28         17.0 
       193.0         0.27         17.3 
       194.0         0.30         17.3 
       195.0         0.27         17.2 
       196.0         0.27         17.1 
       197.0         0.23         17.2 
       198.0         0.33         17.2 
       199.0         0.33         17.3 
       200.0         0.33         17.1 
