~Version Information
VERS.                      2.0: CWLS Log ASCII Standard - VERSION 2.0
WRAP.                       NO: One line per depth step
~Well Information Block
STRT.FT                -7.2500: 
STOP.FT               765.5000: 
STEP.FT                 0.2500: 
NULL.                -999.2500: 
COMP.          Pioneer Natural Resources: COMPANY
WELL.          Barrelman 41-27: WELL
FLD.           Purgatorie River: FIELD
LOC.           371' FNL & 493' FEL--: LOCATION
PROV.                       CO: PROVINCE
CNTY.               Las Animas: COUNTRY
SRVC.          Patterson Wireline: SERVICE COMPANY
DATE.          Wed May 25 09:32:20 2005: LOG DATE
UWI.           05 071 08334 00: UNIQUE WELL ID
~Curve Information Block
DEPT.FT            0 000 00 00: Depth
CCL.                          : Casing Collar Locator
TT3.usec                      : CBL 3' Travel Time
AMP3.mV                       : CBL 3' Amplitude
GR.GAPI                       : Gamma Ray
~Parameter Information Block
~A  Depth       CCL         TT3         AMP3         GR     
# ...
   428.2500      0.0000    842.5793      8.6277     44.9129
   428.5000      0.0000    846.1818      8.7805     44.5054
   428.7500      0.0000    849.6402      8.9672     44.0433
   429.0000      0.0000    852.0193      9.1687     43.5607
   429.2500      0.0000    852.6271      9.3580     43.1798
   429.5000      0.0000    851.2015      9.5110     42.9135
   429.7500      0.0000    847.9410      9.6143     42.5268
   430.0000      0.0000    843.6774      9.6680     41.7308
   430.2500      0.0000    839.8326      9.6830     40.5901
   430.5000      0.0000    837.6825      9.6740     39.5547
   430.7500      0.0000    837.5037      9.6488     38.8923
   431.0000      0.0000    838.6188      9.6059     38.2753
   431.2500      0.0000    840.4104      9.5402     37.2038
   431.5000      0.0000    843.1185      9.4506     35.7376
   431.7500      0.0000    847.4745      9.3411     34.5464
   432.0000      0.0000    853.8627      9.2215     34.1911
   432.2500      0.0000    862.0944      9.1037     34.5620
   432.5000      0.0000    871.5201      8.9924     35.1792
   432.7500      0.0000    880.9631      8.8757     35.9741
   433.0000      0.0000    888.9473      8.7340     37.6293
   433.2500      0.0000    894.4027      8.5631     41.0549
   433.5000      0.0000    897.0280      8.3841     46.4305
   433.7500      0.0000    896.9695      8.2285     52.5955
   434.0000      0.0000    894.5913      8.1163     57.4208
   434.2500      0.0000    890.7960      8.0504     59.1596
   434.5000      0.0000    887.2272      8.0261     57.7209
   434.7500      0.0000    885.6655      8.0405     54.5564
   435.0000      0.0000    887.0068      8.0945     51.2888
   435.2500      0.0000    890.6984      8.1823     48.6230
   435.5000      0.0000    895.1061      8.2782     46.5277
   435.7500      0.0000    898.4497      8.3385     45.0363
   436.0000      0.0000    899.7659      8.3262     44.5418
   436.2500      0.0000    899.7131      8.2376     45.4148
   436.5000      0.0000    900.7972      8.1076     47.5918
   436.7500      0.0000    905.4719      7.9909     50.5282
   437.0000      0.0000    912.7227      7.9356     53.3180
   437.2500      0.0000    917.9780      7.9645     54.9267
   437.5000      0.0000    918.3531      8.0730     54.6781
   437.7500      0.0000    916.5761      8.2362     52.6934
   438.0000      0.0000    917.5533      8.4191     49.7758
   438.2500      0.0000    922.4291      8.5884     46.8168
   438.5000      0.0000    927.9360      8.7245     44.3145
   438.7500      0.0000    930.2374      8.8308     42.3722
   439.0000      0.0000    927.7693      8.9272     40.9619
   439.2500      0.0000    921.4998      9.0325     40.0771
   439.5000      0.0000    914.1850      9.1469     39.6509
   439.7500      0.0000    909.1686      9.2521     39.4150
   440.0000      0.0000    908.7768      9.3236     38.9649
   440.2500      0.0000    913.1303      9.3444     38.1103
   440.5000      0.0000    920.2987      9.3094     37.1742
   440.7500      0.0000    927.6142      9.2225     36.7948
   441.0000      0.0000    933.1832      9.0949     37.3463
   441.2500      0.0000    936.5593      8.9459     38.6649
   441.5000      0.0000    938.2305      8.7971     40.5043
   441.7500      0.0000    938.4200      8.6602     43.1920
   442.0000      0.0000    936.0476      8.5355     47.4664
   442.2500      0.0000    928.9015      8.4213     53.3874
   442.5000      0.0000    915.6898      8.3234     59.7226
   442.7500      0.0000    898.8820      8.2503     64.9093
   443.0000      0.0000    885.0573      8.2053     68.5117
   443.2500      0.0000    880.7773      8.1879     71.3330
   443.5000      0.0000    887.3625      8.1998     74.2340
   443.7500      0.0000    900.1949      8.2403     77.3142
   444.0000      0.0000    913.1102      8.2973     80.0495
   444.2500      0.0000    922.7732      8.3481     81.5248
   444.5000      0.0000    929.1125      8.3730     80.5817
   444.7500      0.0000    933.1292      8.3666     76.7391
   445.0000      0.0000    935.2185      8.3373     71.3884
   445.2500      0.0000    934.7728      8.2972     67.2813
   445.5000      0.0000    930.2057      8.2512     66.2506
   445.7500      0.0000    919.8212      8.1982     67.7592
   446.0000      0.0000    903.9169      8.1418     69.8681
   446.2500      0.0000    886.2583      8.0941     71.1737
   446.5000      0.0000    872.3536      8.0647     71.5460
   446.7500      0.0000    865.6922      8.0486     71.4022
   447.0000      0.0000    865.6347      8.0322     70.9211
   447.2500      0.0000    868.3701      8.0086     70.1775
   447.5000      0.0000    869.7048      7.9834     69.5836
   447.7500      0.0000    867.9689      7.9645     69.6892
   448.0000      0.0000    864.7413      7.9500     70.5784
   448.2500      0.0000    862.4545      7.9288     71.7101
   448.5000      0.0000    861.8566      7.8920     72.3384
   448.7500      0.0000    862.0904      7.8464     72.0421
   449.0000      0.0000    862.0154      7.8150     70.9270
   449.2500      0.0000    860.8023      7.8201     69.3944
   449.5000      0.0000    858.2701      7.8625     67.6944
   449.7500      0.0000    855.3063      7.9157     65.6545
   450.0000      0.0000    853.2061      7.9425     62.8641
   450.2500      0.0000    852.2259      7.9222     59.1702
   450.5000      0.0000    851.2643      7.8663     54.9800
   450.7500      0.0000    849.1607      7.8038     51.0540
   451.0000      0.0000    845.8207      7.7514     47.9960
   451.2500      0.0000    841.8126      7.6987     45.9230
   451.5000      0.0000    837.2046      7.6263     44.5530
   451.7500      0.0000    831.4943      7.5338     43.4905
   452.0000      0.0000    824.7944      7.4454     42.4402
   452.2500      0.0000    818.3591      7.3873     41.2854
   452.5000      0.0000    813.5765      7.3627     40.0573
   452.7500      0.0000    810.8413      7.3511     38.8955
   453.0000      0.0000    809.6120      7.3316     38.0702
   453.2500      0.0000    809.1514      7.3060     37.8522
   453.5000      0.0000    808.9960      7.2986     38.1233
   453.7500      0.0000    808.9698      7.3361     38.2482
   454.0000      0.0000    809.0809      7.4282     37.6065
   454.2500      0.0000    809.5256      7.5647     36.2796
   454.5000      0.0000    810.8162      7.7214     35.1169
   454.7500      0.0000    813.8144      7.8668     35.1344
   455.0000      0.0000    819.3350      7.9704     36.8569
   455.2500      0.0000    827.3289      8.0136     40.2420
   455.5000      0.0000    836.3998      7.9952     45.1751
   455.7500      0.0000    844.4630      7.9287     51.7725
   456.0000      0.0000    850.0862      7.8374     59.9542
   456.2500      0.0000    853.1505      7.7495     68.7543
   456.5000      0.0000    854.2429      7.6865     76.4259
   456.7500      0.0000    853.4563      7.6515     81.6271
   457.0000      0.0000    849.4783      7.6209     84.4745
   457.2500      0.0000    839.7062      7.5433     86.0743
   457.5000      0.0000    822.2814      7.3626     87.0375
   457.7500      0.0000    799.4573      7.0736     86.8844
   458.0000      0.0000    778.8574      6.7517     85.0818
   458.2500      0.0000    769.2510      6.4996     82.2418
   458.5000      0.0000    773.5643      6.3646     79.8110
   458.7500      0.0000    786.1805      6.3229     78.6858
   459.0000      0.0000    797.6586      6.3276     78.5355
   459.2500      0.0000    802.3639      6.3459     78.5003
   459.5000      0.0000    802.1448      6.3645     78.1151
   459.7500     -2.0000    803.2418      6.3824     77.4205
   460.0000      0.0000    809.7548      6.4013     76.7002
   460.2500      0.0000    819.8489      6.4257     76.5092
   460.5000      0.0000    827.8388      6.4763     77.5631
   460.7500      0.0000    829.6395      6.5992     79.9824
   461.0000      0.0000    826.1851      6.8427     82.6868
   461.2500      0.0000    821.7495      7.2138     83.9337
   461.5000      0.0000    819.4195      7.6546     82.5866
