~Version Information
VERS.                      2.0: CWLS Log ASCII Standard - VERSION 2.0
WRAP.                       NO: One line per depth step
~Well Information Block
STRT.FT                -8.2500: 
STOP.FT              2239.2500: 
STEP.FT                 0.2500: 
NULL.                -999.2500: 
COMP.          Pioneer Natural Resources: COMPANY
WELL.            Moo Moo 31-36: WELL
FLD.           Purgatorie River: FIELD
LOC.           612' FNL & 2326' FEL--: LOCATION
PROV.                       CO: PROVINCE
CNTY.               Las Animas: COUNTRY
SRVC.          Patterson Wireline: SERVICE COMPANY
DATE.          Thu Jun 23 10:04:07 2005: LOG DATE
UWI.           05 071 08395 00: UNIQUE WELL ID
~Curve Information Block
DEPT.FT            0 000 00 00: Depth
CCL.                          : Casing Collar Locator
TT3.usec                      : CBL 3' Travel Time
AMP3.mV                       : CBL 3' Amplitude
GR.GAPI                       : Gamma Ray
~Parameter Information Block
~A  Depth       CCL         TT3         AMP3         GR     
# ...
   125.7500      0.0000    898.8530      3.6457     90.1176
   126.0000      0.0000    845.9664      3.6429     84.0819
   126.2500      0.0000    805.8169      3.6168     79.9297
   126.5000      0.0000    782.9444      3.5815     77.9966
   126.7500      0.0000    773.0806      3.5571     77.0180
   127.0000      0.0000    769.8778      3.5510     75.4630
   127.2500      0.0000    769.1529      3.5606     72.6170
   127.5000      0.0000    769.1066      3.5768     68.7173
   127.7500      0.0000    769.2283      3.5817     64.4180
   128.0000      0.0000    769.4271      3.5598     60.2523
   128.2500      0.0000    769.6804      3.5105     56.5027
   128.5000      0.0000    769.9493      3.4486     53.4368
   128.7500      0.0000    770.1713      3.3985     51.6859
   129.0000      0.0000    770.2961      3.3823     52.3586
   129.2500      0.0000    770.3074      3.4049     56.3815
   129.5000      0.0000    770.2261      3.4467     63.3722
   129.7500      0.0000    770.1025      3.4755     71.4229
   130.0000      0.0000    769.9977      3.4715     78.3708
   130.2500      0.0000    769.9572      3.4369     83.1791
   130.5000      0.0000    769.9918      3.3825     85.9549
   130.7500      0.0000    770.0883      3.3140     87.0542
   131.0000      0.0000    770.2711      3.2358     86.6857
   131.2500      0.0000    770.7288      3.1589     85.2275
   131.5000      0.0000    771.9978      3.0984     83.3723
   131.7500      0.0000    775.0504      3.0704     81.8891
   132.0000      0.0000    780.9774      3.0863     81.4855
   132.2500      0.0000    790.2302      3.1371     82.6292
   132.5000      0.0000    802.0288      3.1947     85.0066
   132.7500      0.0000    814.4773      3.2436     87.3931
   133.0000      0.0000    825.1037      3.2920     88.6582
   133.2500      0.0000    831.5186      3.3457     88.8978
   133.5000      0.0000    832.4597      3.3912     89.2080
   133.7500      0.0000    828.7430      3.4124     90.4162
   134.0000      0.0000    822.7380      3.4068     92.3800
   134.2500      0.0000    816.5959      3.3819     94.4207
   134.5000      0.0000    811.2518      3.3480     95.9171
   134.7500      0.0000    806.9030      3.3176     96.4753
   135.0000      0.0000    803.3575      3.3054     96.1376
   135.2500      0.0000    799.3998      3.3243     95.5962
   135.5000      0.0000    792.8742      3.3824     95.6730
   135.7500      0.0000    782.7838      3.4703     96.3926
   136.0000      0.0000    771.4102      3.5457     96.9200
   136.2500      0.0000    763.4910      3.5486     96.4566
   136.5000      0.0000    762.6884      3.4465     94.8358
   136.7500      0.0000    768.6446      3.2666     92.2680
   137.0000      0.0000    777.4297      3.0854     89.0293
   137.2500      0.0000    785.0302      2.9913     85.6157
   137.5000      0.0000    790.4585      3.0445     82.7436
   137.7500      0.0000    795.3284      3.2515     80.6403
   138.0000      0.0000    800.9233      3.5646     78.4644
   138.2500      0.0000    806.6297      3.9078     74.9605
   138.5000      0.0000    811.0594      4.2082     69.7796
   138.7500      0.0000    813.6399      4.4192     63.9529
   139.0000      0.0000    814.8018      4.5267     59.0834
   139.2500      0.0000    815.2509      4.5415     56.2200
   139.5000      0.0000    815.4501      4.4831     55.4502
   139.7500      0.0000    815.5769      4.3667     56.3270
   140.0000      0.0000    815.6736      4.2018     58.3297
   140.2500      0.0000    815.7532      4.0018     60.7031
   140.5000      0.0000    815.8145      3.7992     62.2232
   140.7500      0.0000    815.7845      3.6502     61.8458
   141.0000      0.0000    815.4279      3.6157     59.7177
   141.2500      0.0000    814.2689      3.7249     57.0511
   141.5000      0.0000    811.6895      3.9534     54.8507
   141.7500      0.0000    807.4588      4.2366     53.0723
   142.0000      0.0000    802.5247      4.5038     51.0811
   142.2500      0.0000    799.0587      4.7053     48.7685
   142.5000      0.0000    799.0087      4.8194     47.1614
   142.7500      0.0000    802.3515      4.8474     47.7113
   143.0000      0.0000    807.1134      4.8029     50.6996
   143.2500      0.0000    811.1472      4.7013     54.5427
   143.5000      0.0000    813.5696      4.5542     57.0399
   143.7500      0.0000    814.6654      4.3701     57.2429
   144.0000      0.0000    815.0402      4.1554     55.9481
   144.2500      0.0000    815.0643      3.9155     54.5064
   144.5000      0.0000    814.7441      3.6646     53.3260
   144.7500      0.0000    813.7219      3.4406     51.6820
   145.0000      0.0000    811.3946      3.3021     49.0596
   145.2500      0.0000    807.4270      3.2999     46.3653
   145.5000      0.0000    802.5352      3.4436     45.3082
   145.7500      0.0000    798.5381      3.6959     46.5774
   146.0000      0.0000    797.0474      3.9963     49.0038
   146.2500      0.0000    798.1215      4.2900     50.6616
   146.5000      0.0000    800.6641      4.5415     50.5449
   146.7500      0.0000    803.8348      4.7324     49.0678
   147.0000      0.0000    807.3580      4.8574     47.2830
   147.2500      0.0000    810.7575      4.9235     46.0488
   147.5000      0.0000    813.1262      4.9481     45.8108
   147.7500      0.0000    813.6240      4.9526     46.5890
   148.0000      0.0000    811.8103      4.9541     47.9657
   148.2500      0.0000    807.8459      4.9602     49.3719
   148.5000      0.0000    802.9643      4.9703     50.4497
   148.7500      0.0000    799.4647      4.9804     51.0007
   149.0000      0.0000    799.3424      4.9868     50.7732
   149.2500      0.0000    802.5994      4.9869     49.6241
   149.5000      0.0000    807.2819      4.9775     47.8846
   149.7500      0.0000    811.2428      4.9537     46.3870
   150.0000      0.0000    813.5396      4.9113     45.9886
   150.2500      0.0000    814.2838      4.8524     46.8920
   150.5000      0.0000    813.7323      4.7866     48.3738
   150.7500      0.0000    811.7812      4.7242     49.3621
   151.0000      0.0000    808.1675      4.6690     49.3930
   151.2500      0.0000    802.9709      4.6175     48.9476
   151.5000      0.0000    796.9149      4.5681     48.7870
   151.7500      0.0000    791.3578      4.5246     49.1576
   152.0000      0.0000    787.9847      4.4876     49.8686
   152.2500      0.0000    787.9139      4.4425     50.9041
   152.5000      0.0000    790.6255      4.3658     52.4965
   152.7500      0.0000    794.0896      4.2475     54.5474
   153.0000      0.0000    796.1880      4.1052     56.2796
   153.2500      0.0000    795.8326      3.9719     56.6457
   153.5000      0.0000    793.3008      3.8706     55.1717
   153.7500      0.0000    790.3293      3.8042     52.4124
   154.0000      0.0000    789.3346      3.7637     49.4629
   154.2500      0.0000    791.3919      3.7377     47.0838
   154.5000      0.0000    794.9073      3.7150     45.6157
   154.7500      0.0000    796.9854      3.6837     45.4595
   155.0000      0.0000    796.2846      3.6325     46.9949
   155.2500      0.0000    794.2123      3.5507     50.2090
   155.5000      0.0000    793.3264      3.4328     54.9247
   155.7500      0.0000    795.0204      3.2878     61.0463
   156.0000      0.0000    798.7516      3.1384     68.1725
   156.2500      0.0000    802.6645      3.0058     75.5547
   156.5000      0.0000    804.4462      2.8978     82.9002
   156.7500      0.0000    802.2239      2.8106     90.5255
   157.0000      0.0000    795.4944      2.7371     98.1758
   157.2500      0.0000    785.3912      2.6708    104.3471
   157.5000      0.0000    773.9631      2.6086    107.4653
   157.7500      0.0000    763.3749      2.5582    107.3549
   158.0000      0.0000    755.8482      2.5359    105.1501
   158.2500      0.0000    754.1176      2.5492    102.2442
   158.5000      0.0000    761.7327      2.5826     99.5976
   158.7500      0.0000    782.7582      2.6073     97.4617
   159.0000      0.0000    819.7073      2.6068     95.3062
