~Version Information
VERS.                      2.0: CWLS Log ASCII Standard - VERSION 2.0
WRAP.                       NO: One line per depth step
~Well Information Block
STRT.FT                -7.0500: 
STOP.FT              3072.6000: 
STEP.FT                 0.0500: 
NULL.                -999.2500: 
COMP.          Pioneer Natural Resources: COMPANY
WELL.              Stones 24-8: WELL
FLD.           Purgatoire River: FIELD
LOC.           648' FSL & 2264' FWL--: LOCATION
PROV.                 Colorado: PROVINCE
CNTY.               Las Animas: COUNTRY
SRVC.                Patterson: SERVICE COMPANY
DATE.          Fri Feb 04 12:43:19 2005: LOG DATE
UWI.           05 071 07945 00: UNIQUE WELL ID
~Curve Information Block
DEPT.FT            0 000 00 00: Depth
CCL.                          : Casing Collar Locator
TT3.usec                      : CBL 3' Travel Time
AMP3.mV                       : CBL 3' Amplitude
GR.GAPI                       : Gamma Ray
~Parameter Information Block
~A  Depth       CCL         TT3         AMP3         GR     
# ...
  2036.4500      0.0000    673.8340      1.4285     76.4386
  2036.5000      0.0000    673.9559      1.3670     79.8334
  2036.5500      0.0000    673.9559      1.3670     79.8334
  2036.6000      0.0000    673.9559      1.3670     79.8334
  2036.6500      0.0000    673.9559      1.3670     79.8334
  2036.7000      0.0000    673.9559      1.3670     79.8334
  2036.7500      0.0000    675.6887      1.3211     82.7290
  2036.8000      0.0000    675.6887      1.3211     82.7290
  2036.8500      0.0000    675.6887      1.3211     82.7290
  2036.9000      0.0000    675.6887      1.3211     82.7290
  2036.9500      0.0000    675.6887      1.3211     82.7290
  2037.0000      0.0000    681.4650      1.2663     83.9285
  2037.0500      0.0000    681.4650      1.2663     83.9285
  2037.1000      0.0000    681.4650      1.2663     83.9285
  2037.1500      0.0000    681.4650      1.2663     83.9285
  2037.2000      0.0000    681.4650      1.2663     83.9285
  2037.2500      0.0000    695.0934      1.1864     82.5172
  2037.3000      0.0000    695.0934      1.1864     82.5172
  2037.3500      0.0000    695.0934      1.1864     82.5172
  2037.4000      0.0000    695.0934      1.1864     82.5172
  2037.4500      0.0000    695.0934      1.1864     82.5172
  2037.5000      0.0000    719.4215      1.0774     79.3775
  2037.5500      0.0000    719.4215      1.0774     79.3775
  2037.6000      0.0000    719.4215      1.0774     79.3775
  2037.6500      0.0000    719.4215      1.0774     79.3775
  2037.7000      0.0000    719.4215      1.0774     79.3775
  2037.7500      0.0000    751.6466      0.9497     76.2886
  2037.8000      0.0000    751.6466      0.9497     76.2886
  2037.8500      0.0000    751.6466      0.9497     76.2886
  2037.9000      0.0000    751.6466      0.9497     76.2886
  2037.9500      0.0000    751.6466      0.9497     76.2886
  2038.0000      0.0000    780.9732      0.8253     73.8170
  2038.0500      0.0000    780.9732      0.8253     73.8170
  2038.1000      0.0000    780.9732      0.8253     73.8170
  2038.1500      0.0000    780.9732      0.8253     73.8170
  2038.2000      0.0000    780.9732      0.8253     73.8170
  2038.2500      0.0000    794.0900      0.7281     71.1929
  2038.3000      0.0000    794.0900      0.7281     71.1929
  2038.3500      0.0000    794.0900      0.7281     71.1929
  2038.4000      0.0000    794.0900      0.7281     71.1929
  2038.4500      0.0000    794.0900      0.7281     71.1929
  2038.5000      0.0000    786.0139      0.6713     68.1534
  2038.5500      0.0000    786.0139      0.6713     68.1534
  2038.6000      0.0000    786.0139      0.6713     68.1534
  2038.6500      0.0000    786.0139      0.6713     68.1534
  2038.7000      0.0000    786.0139      0.6713     68.1534
  2038.7500      0.0000    765.2655      0.6527     66.1168
  2038.8000      0.0000    765.2655      0.6527     66.1168
  2038.8500      0.0000    765.2655      0.6527     66.1168
  2038.9000      0.0000    765.2655      0.6527     66.1168
  2038.9500      0.0000    765.2655      0.6527     66.1168
  2039.0000      0.0000    746.3530      0.6620     67.5856
  2039.0500      0.0000    746.3530      0.6620     67.5856
  2039.1000      0.0000    746.3530      0.6620     67.5856
  2039.1500      0.0000    746.3530      0.6620     67.5856
  2039.2000      0.0000    746.3530      0.6620     67.5856
  2039.2500      0.0000    736.7269      0.6921     74.7187
  2039.3000      0.0000    736.7269      0.6921     74.7187
  2039.3500      0.0000    736.7269      0.6921     74.7187
  2039.4000      0.0000    736.7269      0.6921     74.7187
  2039.4500      0.0000    736.7269      0.6921     74.7187
  2039.5000      0.0000    732.1447      0.7417     88.0286
  2039.5500      0.0000    732.1447      0.7417     88.0286
  2039.6000      0.0000    732.1447      0.7417     88.0286
  2039.6500      0.0000    732.1447      0.7417     88.0286
  2039.7000      0.0000    732.1447      0.7417     88.0286
  2039.7500      0.0000    724.3668      0.8098    105.5012
  2039.8000      0.0000    724.3668      0.8098    105.5012
  2039.8500      0.0000    724.3668      0.8098    105.5012
  2039.9000      0.0000    724.3668      0.8098    105.5012
  2039.9500      0.0000    724.3668      0.8098    105.5012
  2040.0000      0.0000    710.8440      0.8930    122.6386
  2040.0500      0.0000    710.8440      0.8930    122.6386
  2040.1000      0.0000    710.8440      0.8930    122.6386
  2040.1500      0.0000    710.8440      0.8930    122.6386
  2040.2000      0.0000    710.8440      0.8930    122.6386
  2040.2500      0.0000    695.8094      0.9904    134.3122
  2040.3000      0.0000    695.8094      0.9904    134.3122
  2040.3500      0.0000    695.8094      0.9904    134.3122
  2040.4000      0.0000    695.8094      0.9904    134.3122
  2040.4500      0.0000    695.8094      0.9904    134.3122
  2040.5000      0.0000    684.4124      1.1075    137.8418
  2040.5500      0.0000    684.4124      1.1075    137.8418
  2040.6000      0.0000    684.4124      1.1075    137.8418
  2040.6500      0.0000    684.4124      1.1075    137.8418
  2040.7000      0.0000    684.4124      1.1075    137.8418
  2040.7500      0.0000    678.3082      1.2492    134.6717
  2040.8000      0.0000    678.3082      1.2492    134.6717
  2040.8500      0.0000    678.3082      1.2492    134.6717
  2040.9000      0.0000    678.3082      1.2492    134.6717
  2040.9500      0.0000    678.3082      1.2492    134.6717
  2041.0000      0.0000    676.1108      1.4089    129.0651
  2041.0500      0.0000    676.1108      1.4089    129.0651
  2041.1000      0.0000    676.1108      1.4089    129.0651
  2041.1500      0.0000    676.1108      1.4089    129.0651
  2041.2000      0.0000    676.1108      1.4089    129.0651
  2041.2500      0.0000    675.7631      1.5678    125.1206
  2041.3000      0.0000    675.7631      1.5678    125.1206
  2041.3500      0.0000    675.7631      1.5678    125.1206
  2041.4000      0.0000    675.7631      1.5678    125.1206
  2041.4500      0.0000    675.7631      1.5678    125.1206
  2041.5000      0.0000    675.9047      1.7045    124.2210
  2041.5500      0.0000    675.9047      1.7045    124.2210
  2041.6000      0.0000    675.9047      1.7045    124.2210
  2041.6500      0.0000    675.9047      1.7045    124.2210
  2041.7000      0.0000    675.9047      1.7045    124.2210
  2041.7500      0.0000    675.9451      1.8017    124.2508
  2041.8000      0.0000    675.9451      1.8017    124.2508
  2041.8500      0.0000    675.9451      1.8017    124.2508
  2041.9000      0.0000    675.9451      1.8017    124.2508
  2041.9500      0.0000    675.9451      1.8017    124.2508
  2042.0000      0.0000    675.7058      1.8446    121.5727
  2042.0500      0.0000    675.7058      1.8446    121.5727
  2042.1000      0.0000    675.7058      1.8446    121.5727
  2042.1500      0.0000    675.7058      1.8446    121.5727
  2042.2000      0.0000    675.7058      1.8446    121.5727
  2042.2500      0.0000    675.0845      1.8220    114.9014
  2042.3000      0.0000    675.0845      1.8220    114.9014
  2042.3500      0.0000    675.0845      1.8220    114.9014
  2042.4000      0.0000    675.0845      1.8220    114.9014
  2042.4500      0.0000    675.0845      1.8220    114.9014
  2042.5000      0.0000    673.8826      1.7351    107.3080
  2042.5500      0.0000    673.8826      1.7351    107.3080
  2042.6000      0.0000    673.8826      1.7351    107.3080
  2042.6500      0.0000    673.8826      1.7351    107.3080
  2042.7000      0.0000    673.8826      1.7351    107.3080
  2042.7500      0.0000    671.8298      1.6018    103.7066
  2042.8000      0.0000    671.8298      1.6018    103.7066
  2042.8500      0.0000    671.8298      1.6018    103.7066
  2042.9000      0.0000    671.8298      1.6018    103.7066
  2042.9500      0.0000    671.8298      1.6018    103.7066
  2043.0000      0.0000    668.8868      1.4508    106.3252
  2043.0500      0.0000    668.8868      1.4508    106.3252
  2043.1000      0.0000    668.8868      1.4508    106.3252
