~Version Information
VERS.                      2.0: CWLS Log ASCII Standard - VERSION 2.0
WRAP.                       NO: One line per depth step
~Well Information Block
STRT.FT                 6.5000: 
STOP.FT              1054.0000: 
STEP.FT                 0.2500: 
NULL.                -999.2500: 
COMP.          Pioneer Natural Resources: COMPANY
WELL.            Galileo 21-11: WELL
FLD.           Purgatoire River: FIELD
LOC.           407' FNL & 2394' FWL: LOCATION
PROV.                 Colorado: PROVINCE
CNTY.               Las Animas: COUNTRY
SRVC.                Patterson: SERVICE COMPANY
DATE.          Sat Apr 16 10:31:00 2005: LOG DATE
UWI.           05 071 08353 00: UNIQUE WELL ID
~Curve Information Block
DEPT.FT            0 000 00 00: Depth
GR.GAPI                       : Gamma Ray
CCL.                          : Casing Collar Locator
TT3.usec                      : CBL 3' Travel Time
AMP3.mV                       : CBL 3' Amplitude
~Parameter Information Block
~A  Depth        GR         CCL         TT3         AMP3    
# ...
   140.5000    104.6097      0.0000   1350.0000      6.8842
   140.7500    103.5924      0.0000   1350.0000      6.5930
   141.0000    102.8293      0.0000   1350.0000      6.4575
   141.2500    102.0325      0.0000   1350.0000      6.5001
   141.5000    100.4337      0.0000   1350.0000      6.6586
   141.7500     97.7553      0.0000   1350.0000      6.7955
   142.0000     94.9144      0.0000   1350.0000      6.7885
   142.2500     93.3628      0.0000   1350.0000      6.6237
   142.5000     93.9007      0.0000   1349.9664      6.3957
   142.7500     96.2282      0.0000   1349.7478      6.2263
   143.0000     99.3024      0.0000   1348.6371      6.1984
   143.2500    101.9967      0.0000   1344.2772      6.3469
   143.5000    103.7644      0.0000   1330.9614      6.6773
   143.7500    104.7958      0.0000   1299.5985      7.1737
   144.0000    105.2201      0.0000   1243.3088      7.7869
   144.2500    104.0720      0.0000   1168.5259      8.4219
   144.5000     99.4608      0.0000   1100.8925      8.9610
   144.7500     90.1766      0.0000   1073.2047      9.3278
   145.0000     77.1599      0.0000   1100.7701      9.5377
   145.2500     63.2660      0.0000   1168.3524      9.6774
   145.5000     51.5926      0.0000   1243.1624      9.8355
   145.7500     43.9633      0.0000   1299.5111     10.0507
   146.0000     40.5381      0.0000   1330.9229     10.3076
   146.2500     40.3999      0.0000   1344.2643     10.5602
   146.5000     42.6186      0.0000   1348.6002     10.7574
   146.7500     46.9632      0.0000   1349.5282     10.8568
   147.0000     53.4747      0.0000   1348.8208     10.8257
   147.2500     61.4670      0.0000   1345.3832     10.6490
   147.5000     69.4475      0.0000   1335.3420     10.3481
   147.7500     76.2155      0.0000   1313.1085      9.9836
   148.0000     81.6821      0.0000   1275.7520      9.6189
   148.2500     86.4394      0.0000   1229.1941      9.2816
   148.5000     90.7524      0.0000   1189.2411      8.9683
   148.7500     94.0524      0.0000   1173.4032      8.6780
   149.0000     95.3810      0.0000   1189.2754      8.4197
   149.2500     94.4755      0.0000   1229.2428      8.1853
   149.5000     92.5044      0.0000   1275.7930      7.9393
   149.7500     91.5002      0.0000   1313.1329      7.6455
   150.0000     92.8898      0.0000   1335.3529      7.2965
   150.2500     96.5917      0.0000   1345.3868      6.9178
   150.5000    101.5249      0.0000   1348.8553      6.5593
   150.7500    106.6154      0.0000   1349.7813      6.2821
   151.0000    110.9141      0.0000   1349.9664      6.1348
   151.2500    113.1396      0.0000   1350.0000      6.1289
   151.5000    112.1797      0.0000   1350.0000      6.2367
   151.7500    108.3933      0.0000   1350.0000      6.4094
   152.0000    103.7181      0.0000   1350.0000      6.5963
   152.2500    100.1659      0.0000   1350.0000      6.7612
   152.5000     98.5494      0.0000   1350.0000      6.8979
   152.7500     98.6853      0.0000   1350.0000      7.0278
   153.0000    100.1600      0.0000   1350.0000      7.1748
   153.2500    102.4974      0.0000   1350.0000      7.3464
   153.5000    105.0192      0.0000   1350.0000      7.5421
   153.7500    107.0226      0.0000   1350.0000      7.7665
   154.0000    108.1148      0.0000   1350.0000      8.0148
   154.2500    108.3281      0.0000   1350.0000      8.2515
   154.5000    108.0091      0.0000   1350.0000      8.4237
   154.7500    107.5009      0.0000   1350.0000      8.5061
   155.0000    106.7502      0.0000   1350.0000      8.5295
   155.2500    105.3799      0.0000   1350.0000      8.5581
   155.5000    103.3587      0.0000   1350.0000      8.6341
   155.7500    101.2642      0.0000   1350.0000      8.7457
   156.0000     99.5956      0.0000   1350.0000      8.8496
   156.2500     98.2514      0.0000   1350.0000      8.9178
   156.5000     97.0535      0.0000   1350.0000      8.9549
   156.7500     96.5858      0.0000   1350.0000      8.9721
   157.0000     98.1588      0.0000   1350.0000      8.9667
   157.2500    102.6610      0.0000   1350.0000      8.9333
   157.5000    109.2268      0.0000   1350.0000      8.8776
   157.7500    115.2465      0.0000   1350.0000      8.8068
   158.0000    118.1683      0.0000   1350.0000      8.7191
   158.2500    117.3511      0.0000   1350.0000      8.6227
   158.5000    114.0720      0.0000   1349.9719      8.5630
   158.7500    110.1003      0.0000   1349.7743      8.6134
   159.0000    106.5609      0.0000   1348.7930      8.8151
   159.2500    103.9951      0.0000   1344.9155      9.1150
   159.5000    102.9495      0.0000   1333.1112      9.3683
   159.7500    103.8675      0.0000   1305.7043      9.4297
   160.0000    106.2223      0.0000   1258.1735      9.2613
   160.2500    108.3162      0.0000   1199.4457      8.9428
   160.5000    108.5235      0.0000   1154.7411      8.5632
   160.7500    106.5656      0.0000   1149.7428      8.1443
   161.0000    103.3001      0.0000   1187.7068      7.7039
   161.2500     99.7073      0.0000   1246.1832      7.3371
   161.5000     96.3834      0.0000   1297.6514      7.1578
   161.7500     93.5062      0.0000   1329.2234      7.1807
   162.0000     90.8685      0.0000   1343.5192      7.3047
   162.2500     88.1651      0.0000   1348.4135      7.3956
   162.5000     85.4756      0.0000   1349.6956      7.3852
   162.7500     83.3365      0.0000   1349.9576      7.3366
   163.0000     82.1754      0.0000   1350.0000      7.4076
   163.2500     81.8553      0.0000   1350.0000      7.6887
   163.5000     81.9609      0.0000   1349.9664      8.0766
   163.7500     82.5177      0.0000   1349.7810      8.3772
   164.0000     84.2219      0.0000   1348.8879      8.5172
   164.2500     87.6632      0.0000   1345.6019      8.5832
   164.5000     92.2098      0.0000   1336.4529      8.6765
   164.7500     96.0487      0.0000   1317.4689      8.8055
   165.0000     97.7829      0.0000   1289.0352      8.9170
   165.2500     97.8263      0.0000   1260.3392      8.9713
   165.5000     97.8508      0.0000   1244.4230      8.9686
   165.7500     98.9589      0.0000   1243.8208      8.9292
   166.0000    100.6527      0.0000   1243.4950      8.8825
   166.2500    101.5147      0.0000   1224.7738      8.8762
   166.5000    100.6902      0.0000   1188.1210      8.9719
   166.7500     98.6737      0.0000   1158.0040      9.2060
   167.0000     96.7422      0.0000   1161.2192      9.5543
   167.2500     95.7919      0.0000   1201.2826      9.9380
   167.5000     95.8702      0.0000   1257.0680     10.2646
   167.7500     96.6414      0.0000   1304.0947     10.4721
   168.0000     97.9323      0.0000   1332.1039     10.5546
   168.2500     99.7829      0.0000   1344.5035     10.5479
   168.5000    102.0964      0.0000   1348.6720     10.4966
   168.7500    104.3301      0.0000   1349.7479     10.4423
   169.0000    105.8008      0.0000   1349.9664     10.4299
   169.2500    106.3727      0.0000   1350.0000     10.4918
   169.5000    106.4711      0.0000   1350.0000     10.6182
   169.7500    106.4171      0.0000   1350.0000     10.7624
   170.0000    106.1687      0.0000   1350.0000     10.8822
   170.2500    105.6529      0.0000   1349.9664     10.9619
   170.5000    104.9942      0.0000   1349.7811     10.9943
   170.7500    104.4454      0.0000   1348.8884     10.9612
   171.0000    104.1002      0.0000   1345.6034     10.8473
   171.2500    103.4556      0.0000   1336.4576     10.6758
   171.5000    101.4859      0.0000   1317.5135     10.5206
   171.7500     97.7072      0.0000   1289.3073     10.4638
   172.0000     93.0437      0.0000   1261.6925     10.5204
   172.2500     89.1359      0.0000   1249.9346     10.6121
   172.5000     86.9552      0.0000   1261.6925     10.6326
   172.7500     86.5499      0.0000   1289.3073     10.5338
   173.0000     87.7801      0.0000   1317.5135     10.3409
   173.2500     90.4393      0.0000   1336.4576     10.1003
   173.5000     93.5757      0.0000   1345.6034      9.8372
   173.7500     95.6276      0.0000   1348.8884      9.5584
