~Version Information
VERS.                      2.0: CWLS Log ASCII Standard - VERSION 2.0
WRAP.                       NO: One line per depth step
~Well Information Block
STRT.FT               454.0000: 
STOP.FT              1392.0000: 
STEP.FT                 0.2500: 
NULL.                -999.2500: 
COMP.          Pioneer Natural Resources: COMPANY
WELL.          Lorencito 6-3-34-66: WELL
FLD.           Purgatoire River: FIELD
LOC.           2545' FNL & 1914' FWL: LOCATION
STAT.                 Colorado: State
CNTY.               Las Animas: COUNTY
CTRY. USA : Country
SECT. 3 : Section
TOWN. 34S : Township
RANG. 66W : Range
SRVC.                Patterson: SERVICE COMPANY
DATE.          Fri Sep 09 22:07:39 2005: LOG DATE
API.           05 071 08369 00: UNIQUE WELL ID
~Curve Information Block
DEPT.FT            0 000 00 00: Depth
SN.Ohm-m                      : IEL Short Normal
SP.mV                         : IEL Spontaneous Potential
DIR.Ohm-m                     : IEL Induction Resistivity
GR.GAPI                       : Gamma Ray
~Parameter Information Block
~A  Depth        SN          SP         DIR          GR     
# ...
   688.5000   2000.0000   2000.0000     24.8735     61.6292
   688.7500   2000.0000   2000.0000     25.3988     61.8200
   689.0000   2000.0000   2000.0000     25.7737     61.9699
   689.2500   2000.0000   2000.0000     25.9960     61.8598
   689.5000   2000.0000   2000.0000     26.0825     61.8030
   689.7500   2000.0000   2000.0000     26.0589     62.0719
   690.0000   2000.0000   2000.0000     25.9465     62.9636
   690.2500   2000.0000   2000.0000     25.7635     63.7798
   690.5000   2000.0000     69.4409     25.5295     65.1255
   690.7500   2000.0000     68.0631     25.2665     65.8968
   691.0000   2000.0000     66.7240     24.9954     66.3627
   691.2500   2000.0000     65.5351     24.7286     66.0559
   691.5000     32.4236     64.5776     24.4638     65.0142
   691.7500     32.1937     63.8550     24.1840     64.3938
   692.0000     32.0109     63.3160     23.8671     64.2053
   692.2500     31.8778     62.9764     23.5005     64.6041
   692.5000     31.7792     63.0411     23.0956     65.4236
   692.7500     31.6867     63.8593     22.6901     65.6260
   693.0000     31.5849     65.6850     22.3402     64.9267
   693.2500     31.4902     68.4280     22.1031     63.9820
   693.5000     31.4412     71.6245     22.0199     62.7870
   693.7500     31.4729     74.6680     22.1050     62.6263
   694.0000     31.6029     77.1213     22.3390     63.4348
   694.2500     31.8342     78.8925     22.6725     64.2459
   694.5000     32.1549     80.1949     23.0358     64.6869
   694.7500     32.5245     81.3563     23.3582     63.9129
   695.0000     32.8605     82.6056     23.5917     61.2579
   695.2500     33.0612     83.9557     23.7284     59.2328
   695.5000     33.0670     85.2315     23.8005     57.3178
   695.7500     32.9185     86.1999     23.8655     57.1878
   696.0000     32.7501     86.7091     23.9816     58.3411
   696.2500     32.7052     86.7582     24.1917     59.5292
   696.5000     32.8378     86.4674     24.5107     61.3241
   696.7500     33.0890     85.9886     24.9253     62.2991
   697.0000     33.3540     85.4362     25.4047     62.9393
   697.2500     33.5714     84.8755     25.9162     62.5418
   697.5000     33.7513     84.3260     26.4435     60.9904
   697.7500     33.9375     83.7473     26.9994     60.0777
   698.0000     34.1559     83.0557     27.6211     60.2332
   698.2500     34.3998     82.2127     28.3545     61.4327
   698.5000     34.6454     81.3204     29.2284     63.6233
   698.7500     34.8714     80.6161     30.2268     64.4516
   699.0000     35.0661     80.3457     31.2689     64.2618
   699.2500     35.2253     80.6010     32.2114     63.6341
   699.5000     35.3495     81.2411     32.8807     63.0318
   699.7500     35.4400     81.9659     33.1393     63.1151
   700.0000     35.4900     82.4945     32.9492     63.6906
   700.2500     35.4813     82.7031     32.3902     64.1843
   700.5000     35.3875     82.6193     31.6190     65.1543
   700.7500     35.1872     82.3242     30.7966     66.0550
   701.0000     34.8771     81.8875     30.0414     67.6618
   701.2500     34.4824     81.3736     29.4079     68.7100
   701.5000     34.0622     80.8526     28.8977     69.9587
   701.7500     33.7014     80.3700     28.4836     70.3588
   702.0000     33.4804     79.9156     28.1293     69.7952
   702.2500     33.4361     79.4370     27.8094     68.5489
   702.5000     33.5430     78.8843     27.5159     65.9424
   702.7500     33.7317     78.2487     27.2556     64.1650
   703.0000     33.9325     77.5808     27.0425     61.7492
   703.2500     34.1107     76.9753     26.8870     60.3233
   703.5000     34.2691     76.5091     26.7909     58.7130
   703.7500     34.4206     76.1819     26.7448     58.1953
   704.0000     34.5532     75.9363     26.7301     58.2785
   704.2500     34.6199     75.7403     26.7249     58.7573
   704.5000     34.5665     75.6323     26.7071     59.9161
   704.7500     34.3772     75.6712     26.6624     60.9470
   705.0000     34.1011     75.8621     26.5851     62.6973
   705.2500     33.8338     76.1461     26.4778     63.7168
   705.5000     33.6652     76.4515     26.3492     64.3961
   705.7500     33.6334     76.7414     26.2086     64.0501
   706.0000     33.7155     77.0181     26.0641     62.5022
   706.2500     33.8571     77.2907     25.9218     61.1992
   706.5000     34.0121     77.5417     25.7888     59.7015
   706.7500     34.1602     77.7334     25.6732     59.3589
   707.0000     34.2969     77.8506     25.5871     60.0758
   707.2500     34.4156     77.9205     25.5437     61.4225
   707.5000     34.5019     77.9808     25.5536     64.6589
   707.7500     34.5455     78.0406     25.6202     67.2039
   708.0000     34.5537     78.0807     25.7380     70.0258
   708.2500     34.5495     78.0714     25.8943     70.2596
   708.5000     34.5579     77.9859     26.0716     67.5439
   708.7500     34.5907     77.8152     26.2540     64.1680
   709.0000     34.6412     77.5829     26.4310     58.3684
   709.2500     34.6914     77.3341     26.5981     54.9488
   709.5000     34.7236     77.1017     26.7545     51.4756
   709.7500     34.7308     76.8914     26.8973     50.3583
   710.0000     34.7231     76.6890     27.0198     49.9509
   710.2500     34.7243     76.4606     27.1101     50.0354
   710.5000     34.7565     76.1447     27.1576     50.0232
   710.7500     34.8186     75.6718     27.1591     49.8126
   711.0000     34.8795     75.0154     27.1271     49.4205
   711.2500     34.9007     74.2288     27.0900     49.2647
   711.5000     34.8710     73.4289     27.0893     49.1657
   711.7500     34.8253     72.7490     27.1675     49.0446
   712.0000     34.8253     72.3030     27.3545     48.7068
   712.2500     34.9190     72.1755     27.6544     48.5944
   712.5000     35.1098     72.4062     28.0368     49.1405
   712.7500     35.3556     72.9566     28.4311     50.0973
   713.0000     35.5900     73.7031     28.7379     52.0713
   713.2500     35.7468     74.4913     28.8523     53.3855
   713.5000     35.7766     75.2079     28.6999     54.9542
   713.7500     35.6572     75.8016     28.2651     55.8056
   714.0000     35.4053     76.2664     27.5981     57.4026
   714.2500     35.0848     76.6212     26.7937     59.0485
   714.5000     34.7928     76.8938     25.9571     62.4799
   714.7500     34.6122     77.1067     25.1785     65.1077
   715.0000     34.5548     77.2734     24.5186     68.9260
   715.2500     34.5453     77.3989     24.0105     71.1900
   715.5000     34.4746     77.4783     23.6649     73.9320
   715.7500     34.2862     77.4985     23.4758     75.0406
   716.0000     34.0217     77.4472     23.4254     75.1257
   716.2500     33.7913     77.3188     23.4846     74.1905
   716.5000     33.7087     77.1141     23.6189     72.1099
   716.7500     33.8476     76.8372     23.7892     70.7997
   717.0000     34.2353     76.4907     23.9584     69.2767
   717.2500     34.8655     76.0710     24.0957     68.4143
   717.5000     35.7036     75.5772     24.1806     67.1407
   717.7500     36.6829     75.0221     24.2023     66.4841
   718.0000     37.7041     74.4259     24.1550     66.4655
   718.2500     38.6544     73.8007     24.0346     67.3561
   718.5000     39.4470     73.1522     23.8383     69.7618
   718.7500     40.0559     72.5026     23.5659     71.5869
   719.0000     40.5189     71.8978     23.2267     73.9075
   719.2500     40.8935     71.3726     22.8415     75.1500
   719.5000     41.1917     70.9095     22.4420     77.4102
   719.7500     41.3360     70.4499     22.0630     79.9427
   720.0000     41.1783     69.9558     21.7318     86.0519
   720.2500     40.5731     69.4463     21.4582     91.4450
   720.5000     39.4555     68.9633     21.2298    100.3114
   720.7500     37.8707     68.5250     21.0120    116.6173
   721.0000     35.9463     68.1280     20.7589    124.7811
   721.2500     33.8450     67.7794     20.4259    129.1410
   721.5000     31.7257     67.5051     19.9865    134.2747
   721.7500     29.7174     67.3194     19.4412    149.7850
