~Version Information
VERS.                      2.0: CWLS Log ASCII Standard - VERSION 2.0
WRAP.                       NO: One line per depth step
~Well Information Block
STRT.FT               550.0000: 
STOP.FT              1577.7500: 
STEP.FT                 0.2500: 
NULL.                -999.2500: 
COMP.          Pioneer Natural Resources: COMPANY
WELL.          Kristin 22-23 Tr: WELL
FLD.           Purgatoire River: FIELD
LOC.           2273' FNL & 2029' FWL: LOCATION
PROV.                 Colorado: PROVINCE
CNTY.               Las Animas: COUNTRY
SRVC.                Patterson: SERVICE COMPANY
DATE.          Thu Jan 20 21:18:23 2005: LOG DATE
UWI.           05 071 08259 00: UNIQUE WELL ID
~Curve Information Block
DEPT.FT            0 000 00 00: Depth
SN.Ohm-m                      : IEL Short Normal
SP.mV                         : IEL Spontaneous Potential
DIR.Ohm-m                     : IEL Induction Resistivity
GR.GAPI                       : Gamma Ray
~Parameter Information Block
~A  Depth        SN          SP         DIR          GR     
# ...
   952.0000     28.4153   -203.9879     16.7858     70.4159
   952.2500     31.7478   -206.9007     17.7125     67.8159
   952.5000     35.2928   -209.7018     18.6306     66.3560
   952.7500     38.6148   -212.2927     19.5682     66.1833
   953.0000     41.2616   -214.5836     20.5276     66.3688
   953.2500     42.9327   -216.4875     21.4731     66.8581
   953.5000     43.5499   -217.9088     22.3335     68.7013
   953.7500     43.2007   -218.7370     23.0116     70.9641
   954.0000     42.0230   -218.8556     23.3941     75.9606
   954.2500     40.1348   -218.1704     23.3709     79.9338
   954.5000     37.6515   -216.6523     22.8726     85.4276
   954.7500     34.7468   -214.3739     21.9125     88.1506
   955.0000     31.6745   -211.5226     20.5974     91.3579
   955.2500     28.7104   -208.3775     19.0897     93.9893
   955.5000     26.0515   -205.2534     17.5481    100.1379
   955.7500     23.7553   -202.4337     16.0893    105.7564
   956.0000     21.7681   -200.1167     14.7821    115.6758
   956.2500     20.0138   -198.3920     13.6587    122.7802
   956.5000     18.4587   -197.2506     12.7271    133.1991
   956.7500     17.1117   -196.6174     11.9801    139.0070
   957.0000     15.9896   -196.3886     11.4034    143.5907
   957.2500     15.0949   -196.4610     10.9828    142.6829
   957.5000     14.4131   -196.7476     10.7093    135.2677
   957.7500     13.9182   -197.1790     10.5792    127.6652
   958.0000     13.5833   -197.6966     10.5903    115.8088
   958.2500     13.3953   -198.2405     10.7372    109.1862
   958.5000     13.3676   -198.7388     11.0102    101.8352
   958.7500     13.5297   -199.1027     11.3931     98.1614
   959.0000     13.8867   -199.2324     11.8608     93.9438
   959.2500     14.3716   -199.0356     12.3737     92.4884
   959.5000     14.8378   -198.4522     12.8726     93.7780
   959.7500     15.1142   -197.4757     13.2812     97.1496
   960.0000     15.0863   -196.1602     13.5229    104.4860
   960.2500     14.7406   -194.6076     13.5479    109.4771
   960.5000     14.1582   -192.9419     13.3578    115.2421
   960.7500     13.4801   -191.2805     13.0065    117.7450
   961.0000     12.8545   -189.7150     12.5757    120.8696
   961.2500     12.3791   -188.3040     12.1409    123.6903
   961.5000     12.0669   -187.0766     11.7485    129.5226
   961.7500     11.8626   -186.0377     11.4121    133.4490
   962.0000     11.6954   -185.1744     11.1226    137.0772
   962.2500     11.5244   -184.4606     10.8629    137.5533
   962.5000     11.3503   -183.8620     10.6206    136.3598
   962.7500     11.1933   -183.3430     10.3933    135.1482
   963.0000     11.0641   -182.8730     10.1869    133.8693
   963.2500     10.9508   -182.4296     10.0100    133.8603
   963.5000     10.8298   -182.0000      9.8675    135.2200
   963.7500     10.6867   -181.5792      9.7570    136.4895
   964.0000     10.5246   -181.1685      9.6686    137.6230
   964.2500     10.3545   -180.7748      9.5887    137.5428
   964.5000     10.1858   -180.4097      9.5037    136.7974
   964.7500     10.0215   -180.0880      9.4046    136.5940
   965.0000      9.8595   -179.8253      9.2877    137.7478
   965.2500      9.6941   -179.6343      9.1537    139.7655
   965.5000      9.5230   -179.5210      9.0066    144.5498
   965.7500      9.3525   -179.4828      8.8532    148.4722
   966.0000      9.1983   -179.5073      8.7032    154.0340
   966.2500      9.0773   -179.5727      8.5666    156.4979
   966.5000      8.9966   -179.6505      8.4501    157.1422
   966.7500      8.9480   -179.7092      8.3539    155.5903
   967.0000      8.9112   -179.7206      8.2729    151.5155
   967.2500      8.8640   -179.6669      8.1986    148.6149
   967.5000      8.7919   -179.5465      8.1230    145.4260
   967.7500      8.6902   -179.3759      8.0405    144.4683
   968.0000      8.5593   -179.1868      7.9498    144.4213
   968.2500      8.3987   -179.0179      7.8529    144.6198
   968.5000      8.2084   -178.9043      7.7545    143.9920
   968.7500      7.9988   -178.8688      7.6592    142.6918
   969.0000      7.7982   -178.9163      7.5700    140.0786
   969.2500      7.6464   -179.0362      7.4868    138.5967
   969.5000      7.5687   -179.2102      7.4063    137.8046
   969.7500      7.5547   -179.4214      7.3234    138.6206
   970.0000      7.5644   -179.6617      7.2327    141.8686
   970.2500      7.5545   -179.9326      7.1298    144.8460
   970.5000      7.4992   -180.2384      7.0129    149.0926
   970.7500      7.3958   -180.5776      6.8844    151.1254
   971.0000      7.2588   -180.9353      6.7504    152.5176
   971.2500      7.1102   -181.2842      6.6186    152.2992
   971.5000      6.9720   -181.5929      6.4961    150.3473
   971.7500      6.8601   -181.8407      6.3886    148.1814
   972.0000      6.7818   -182.0320      6.3001    144.4021
   972.2500      6.7365   -182.2019      6.2342    142.1662
   972.5000      6.7190   -182.4077      6.1943    140.2771
   972.7500      6.7235   -182.7076      6.1844    140.2232
   973.0000      6.7489   -183.1330      6.2086    141.3557
   973.2500      6.8022   -183.6677      6.2712    142.2351
   973.5000      6.8970   -184.2452      6.3762    142.8572
   973.7500      7.0413   -184.7684      6.5259    142.7447
   974.0000      7.2213   -185.1434      6.7194    142.2945
   974.2500      7.3970   -185.3121      6.9508    142.1285
   974.5000      7.5191   -185.2671      7.2081    142.2747
   974.7500      7.5565   -185.0442      7.4750    142.6466
   975.0000      7.5169   -184.6994      7.7348    143.8177
   975.2500      7.4503   -184.2869      7.9745    145.1186
   975.5000      7.4335   -183.8488      8.1875    147.6692
   975.7500      7.5421   -183.4182      8.3736    149.5280
   976.0000      7.8194   -183.0279      8.5368    152.1584
   976.2500      8.2557   -182.7135      8.6820    153.4240
   976.5000      8.7914   -182.5061      8.8132    153.6209
   976.7500      9.3440   -182.4185      8.9331    152.3154
   977.0000      9.8426   -182.4337      9.0440    148.7889
   977.2500     10.2429   -182.5037      9.1487    146.0485
   977.5000     10.5196   -182.5615      9.2482    141.9933
   977.7500     10.6546   -182.5399      9.3390    139.3380
   978.0000     10.6389   -182.3906      9.4118    135.4807
   978.2500     10.4856   -182.0941      9.4551    133.3549
   978.5000     10.2357   -181.6602      9.4615    132.0239
   978.7500      9.9454   -181.1208      9.4318    133.0895
   979.0000      9.6618   -180.5217      9.3736    137.9800
   979.2500      9.4040   -179.9143      9.2957    142.7478
   979.5000      9.1622   -179.3495      9.2019    149.6363
   979.7500      8.9185   -178.8718      9.0903    152.5750
   980.0000      8.6716   -178.5124      8.9570    153.4731
   980.2500      8.4502   -178.2828      8.8032    152.1008
   980.5000      8.3005   -178.1727      8.6397    148.5113
   980.7500      8.2578   -178.1514      8.4840    146.0450
   981.0000      8.3230   -178.1764      8.3539    143.4900
   981.2500      8.4618   -178.2041      8.2616    142.6115
   981.5000      8.6250   -178.2013      8.2105    141.4393
   981.7500      8.7732   -178.1520      8.1978    140.1699
   982.0000      8.8889   -178.0592      8.2170    138.1217
   982.2500      8.9728   -177.9408      8.2611    137.8419
   982.5000      9.0334   -177.8220      8.3242    140.7830
   982.7500      9.0794   -177.7267      8.4019    144.9383
   983.0000      9.1181   -177.6717      8.4918    152.2867
   983.2500      9.1561   -177.6649      8.5925    155.8621
   983.5000      9.1987   -177.7082      8.7005    155.8714
   983.7500      9.2502   -177.8018      8.8092    151.5282
   984.0000      9.3166   -177.9483      8.9110    140.2658
   984.2500      9.4091   -178.1534      9.0048    131.8436
   984.5000      9.5380   -178.4230      9.1008    121.3413
   984.7500      9.6995   -178.7590      9.2171    116.6316
   985.0000      9.8731   -179.1560      9.3697    112.4439
   985.2500     10.0386   -179.6020      9.5648    110.7478
