~Version Information
VERS.                      2.0: CWLS Log ASCII Standard - VERSION 2.0
WRAP.                       NO: One line per depth step
~Well Information Block
STRT.FT                 1.5000: 
STOP.FT              1895.2500: 
STEP.FT                 0.2500: 
NULL.                -999.2500: 
COMP.          Petrogulf Corporation: COMPANY
WELL.             State 16-32R: WELL
FLD.           Purgatorie River: FIELD
LOC.           1849' FNL & 1677' FEL: LOCATION
CNTY.               Las Animas: COUNTY
SRVC.                         : SERVICE COMPANY
DATE.          Thu May 20 08:40:19 2004: LOG DATE
UWI.           05 071 08033 00: UNIQUE WELL ID
STAT.                 Colorado: STATE
~Curve Information Block
DEPT.FT            0 000 00 00: Depth
GR.GAPI                       : Gamma Ray
CCL.                          : Casing Collar Locator
TT3.usec                      : CBL 3' Travel Time
AMP3.mV                       : CBL 3' Amplitude
~Parameter Information Block
~A  Depth        GR         CCL         TT3         AMP3    
# ...
  1743.5000    138.5184      0.0000    242.9282     25.4976
  1743.7500    141.4438      0.0000    242.6612     26.8357
  1744.0000    143.2560      0.0000    242.3641     28.1224
  1744.2500    143.6774      0.0000    242.0423     29.4163
  1744.5000    142.9579      0.0000    241.7335     30.5394
  1744.7500    141.6499      0.0000    241.5392     31.1111
  1745.0000    139.8786      0.0000    241.5254     31.0393
  1745.2500    137.3721      0.0000    241.6640     30.5656
  1745.5000    134.0803      0.0000    241.9472     29.6272
  1745.7500    130.3984      0.0000    242.6084     27.8415
  1746.0000    127.0606      0.0000    244.4738     25.3358
  1746.2500    125.2967      0.0000    249.1469     22.8302
  1746.5000    126.7175      0.0000    257.6507     20.8410
  1746.7500    132.1606      0.0000    268.0197     19.3384
  1747.0000    140.4306      0.0000    276.2534     18.0663
  1747.2500    148.7097      0.0000    280.4646     16.8075
  1747.5000    154.4084      0.0000    281.8430     15.4631
  1747.7500    156.5517      0.0000    282.1407     14.0983
  1748.0000    155.6285      0.0000    282.2255     12.8701
  1748.2500    152.6456      0.0000    282.3342     11.8963
  1748.5000    148.6741      0.0000    282.4807     11.2156
  1748.7500    145.0615      0.0000    282.6289     10.7869
  1749.0000    143.1094      0.0000    283.0074     10.4593
  1749.2500    142.8432      0.0000    284.9010     10.0047
  1749.5000    142.5715      0.0000    291.9909      9.2950
  1749.7500    140.5936      0.0000    311.6606      8.4229
  1750.0000    137.3571      0.0000    353.7867      7.5696
  1750.2500    135.1279      0.0000    421.0825      6.8496
  1750.5000    135.0886      0.0000    495.7028      6.2949
  1750.7500    135.1654      0.0000    548.0532      5.8702
  1751.0000    131.3074      0.0000    565.7872      5.4888
  1751.2500    121.1381      0.0000    562.1997      5.0840
  1751.5000    106.1576      0.0000    557.3350      4.6800
  1751.7500     90.3030      0.0000    559.4338      4.3628
  1752.0000     76.8620      0.0000    564.0099      4.1919
  1752.2500     67.1784      0.0000    565.4363      4.1701
  1752.5000     61.6116      0.0000    563.4927      4.2609
  1752.7500     60.7191      0.0000    559.8328      4.4096
  1753.0000     65.3463      0.0000    554.4290      4.6181
  1753.2500     75.8887      0.0000    544.4836      4.9479
  1753.5000     91.3255      0.0000    520.6222      5.3766
  1753.7500    108.7853      0.0000    472.2620      5.7591
  1754.0000    124.4271      0.0000    408.8286      5.9767
  1754.2500    135.3649      0.0000    358.2308      6.0702
  1754.5000    141.0985      0.0000    334.9164      6.1844
  1754.7500    143.1931      0.0000    333.2877      6.4020
  1755.0000    143.5087      0.0000    347.9347      6.7193
  1755.2500    142.9249      0.0000    372.9407      7.1129
  1755.5000    141.9233      0.0000    390.9161      7.5259
  1755.7500    141.6526      0.0000    395.2053      7.8505
  1756.0000    143.4343      0.0000    405.0573      7.9772
  1756.2500    147.3518      0.0000    432.8906      7.8588
  1756.5000    151.9117      0.0000    472.5977      7.5266
  1756.7500    155.0036      0.0000    511.5377      7.0844
  1757.0000    154.8476      0.0000    523.1361      6.6619
  1757.2500    150.3118      0.0000    487.4725      6.3018
  1757.5000    140.9413      0.0000    425.5216      5.9558
  1757.7500    127.0680      0.0000    382.2345      5.6166
  1758.0000    110.0530      0.0000    388.0802      5.3341
  1758.2500     92.3861      0.0000    445.6233      5.1256
  1758.5000     77.0985      0.0000    528.5616      5.0043
  1758.7500     66.5452      0.0000    594.6255      5.0331
  1759.0000     61.3858      0.0000    617.6368      5.2399
  1759.2500     60.5289      0.0000    598.4398      5.5508
  1759.5000     61.9407      0.0000    550.4680      5.8918
  1759.7500     63.6219      0.0000    491.4552      6.3425
  1760.0000     64.2414      0.0000    433.8946      7.0715
  1760.2500     63.2808      0.0000    380.9810      8.0252
  1760.5000     60.7372      0.0000    338.4535      8.9259
  1760.7500     56.8571      0.0000    312.2436      9.6613
  1761.0000     52.2689      0.0000    299.6976     10.3822
  1761.2500     48.0271      0.0000    294.4040     11.2606
  1761.5000     45.0328      2.0000    292.0203     12.3052
  1761.7500     43.3933      0.0000    290.6586     13.4364
  1762.0000     42.4904      0.0000    289.5125     14.6093
  1762.2500     41.5877      0.0000    287.6841     15.7197
  1762.5000     40.3567      0.0000    284.1979     16.6816
  1762.7500     39.0560      0.0000    279.5900     17.5156
  1763.0000     38.3053      0.0000    276.7082     17.9952
  1763.2500     38.5867      0.0000    277.3809     17.9389
  1763.5000     39.9013      0.0000    279.7173     17.8597
  1763.7500     41.8797      0.0000    281.2050     18.1557
  1764.0000     44.0877      0.0000    281.4823     18.4325
  1764.2500     46.1585      0.0000    280.9824     18.4365
  1764.5000     47.8256      0.0000    279.2553     18.5644
  1764.7500     49.0462      0.0000    274.7990     19.1562
  1765.0000     49.9514      0.0000    266.7681     20.0163
  1765.2500     50.4745      0.0000    257.8726     20.6729
  1765.5000     50.1752      0.0000    253.7861     20.7121
  1765.7500     48.6895      0.0000    257.6719     19.9341
  1766.0000     46.2639      0.0000    266.5733     18.4468
  1766.2500     43.6043      0.0000    274.7132     16.5670
  1766.5000     41.2104      0.0000    279.2034     14.6141
  1766.7500     39.0723      0.0000    280.8945     12.8671
  1767.0000     37.0925      0.0000    281.4658     11.5690
  1767.2500     35.5916      0.0000    281.8010     10.8194
  1767.5000     35.2805      0.0000    282.1188     10.5331
  1767.7500     37.0158      0.0000    282.3195     10.5718
  1768.0000     41.9470      0.0000    282.2521     10.8728
  1768.2500     51.8097      0.0000    281.9359     11.4201
  1768.5000     68.4028      0.0000    281.5293     12.1733
  1768.7500     91.8916      0.0000    280.9619     13.1669
  1769.0000    119.1325      0.0000    279.3648     14.6039
  1769.2500    144.0239      0.0000    274.8873     16.6432
  1769.5000    160.5075      0.0000    266.2852     19.0937
  1769.7500    166.1133      0.0000    255.5241     21.4211
  1770.0000    162.9716      0.0000    246.8376     23.0994
  1770.2500    155.8112      0.0000    242.3790     24.0280
  1770.5000    149.4134      0.0000    241.0149     24.5309
  1770.7500    147.1848      0.0000    240.8815     24.9353
  1771.0000    150.2886      0.0000    241.0373     25.2943
  1771.2500    157.0862      0.0000    241.2440     25.4331
  1771.5000    163.8887      0.0000    241.4178     25.2226
  1771.7500    167.1168      0.0000    241.4196     24.8222
  1772.0000    165.3551      0.0000    241.1687     24.4955
  1772.2500    159.9138      0.0000    240.8046     24.2671
  1772.5000    153.8247      0.0000    240.5852     24.0084
  1772.7500    150.0010      0.0000    240.6339     23.7321
  1773.0000    149.6120      0.0000    240.8762     23.5851
  1773.2500    151.7730      0.0000    241.1715     23.6391
  1773.5000    154.7548      0.0000    241.4272     23.8210
  1773.7500    157.5465      0.0000    241.6104     24.0593
  1774.0000    160.4788      0.0000    241.6931     24.4287
  1774.2500    164.5066      0.0000    241.6487     25.0755
  1774.5000    169.8113      0.0000    241.5139     26.0128
  1774.7500    175.2792      0.0000    241.3812     27.0988
  1775.0000    179.7745      0.0000    241.3091     28.2472
  1775.2500    183.6384      0.0000    241.2807     29.5156
  1775.5000    188.1366      0.0000    241.2642     30.8667
  1775.7500    193.2760      0.0000    241.2667     31.9735
  1776.0000    196.8490      0.0000    241.2812     32.5545
  1776.2500    196.2220      0.0000    241.2368     32.7803
  1776.5000    190.9223      0.0000    241.0954     32.9767
  1776.7500    183.0946      0.0000    240.9544     33.2036
