~Version Information
VERS.                      2.0: CWLS Log ASCII Standard - VERSION 2.0
WRAP.                       NO: One line per depth step
~Well Information Block
STRT.FT                -9.5000: 
STOP.FT              2893.0000: 
STEP.FT                 0.2500: 
NULL.                -999.2500: 
COMP.          Pioneer Natural Resources: COMPANY
WELL.          Old Yeller 31-32: WELL
FLD.           Purgatoire River: FIELD
LOC.           1832' FEL & 793' FNL----: LOCATION
STAT.                 Colorado: State
CNTY.               Las Animas: COUNTY
CTRY. USA : Country
SECT. 32 : Section
TOWN. 32S : Township
RANG. 67W : Range
SRVC.                         : SERVICE COMPANY
DATE.          Fri Sep 02 16:45:38 2005: LOG DATE
API. 05-071-08356                         : UNIQUE WELL ID
~Curve Information Block
DEPT.FT            0 000 00 00: Depth
CCL.                          : Casing Collar Locator
TT3.usec                      : CBL 3' Travel Time
AMP5.mV                       : CBL 5' Amplitude
GR.GAPI                       : Gamma Ray
~Parameter Information Block
~A  Depth       CCL         TT3         AMP5         GR     
# ...
  2670.5000      0.0000    590.2261      0.8223     63.2481
  2670.7500      0.0000    588.9176      0.4741     64.8877
  2671.0000      0.0000    588.6728      1.0834     65.9502
  2671.2500      0.0000    590.4563      0.7352     66.8825
  2671.5000      0.0000    592.8854      0.9964     68.6804
  2671.7500      0.0000    593.8439      0.3000     72.0236
  2672.0000      0.0000    592.3082      0.7352     76.2713
  2672.2500      0.0000    588.7982      0.9093     79.5295
  2672.5000      0.0000    583.9704      0.6482     80.0786
  2672.7500      0.0000    576.6615      1.0834     77.8175
  2673.0000      0.0000    563.3075      0.4741     74.2196
  2673.2500      0.0000    540.0685      0.5611     71.0053
  2673.5000      0.0000    506.9197      0.6482     69.0231
  2673.7500      0.0000    470.1718      0.9093     68.1565
  2674.0000      0.0000    439.9020      0.4741     67.7921
  2674.2500      0.0000    423.9489      0.5611     67.2300
  2674.5000      0.0000    423.7000      0.6482     65.9472
  2674.7500      0.0000    433.9352      0.6482     63.7788
  2675.0000      0.0000    445.3741      0.3870     61.0481
  2675.2500      0.0000    449.1389     -0.0482     58.5523
  2675.5000      0.0000    442.0490      1.0834     57.0294
  2675.7500      0.0000    428.7747      0.6482     56.4447
  2676.0000      0.0000    418.5051      0.5611     56.1066
  2676.2500      0.0000    419.5002      0.3000     55.6085
  2676.5000      0.0000    435.8345      0.3000     55.2782
  2676.7500      0.0000    466.6369      0.8223     55.6363
  2677.0000      0.0000    507.1292      0.0389     56.7769
  2677.2500      0.0000    551.1492      0.3000     58.3704
  2677.5000      0.0000    592.4846      0.3000     59.9312
  2677.7500      0.0000    622.7512      0.3870     61.0465
  2678.0000      0.0000    630.0948      0.4741     61.6847
  2678.2500      0.0000    605.0767      0.4741     62.3680
  2678.5000     -2.0000    550.5331      0.3870     63.7839
  2678.7500     -2.0000    484.0573      0.5611     66.0007
  2679.0000      0.0000    428.3400      0.7352     68.0586
  2679.2500      2.0000    398.6887      0.5611     68.5220
  2679.5000      0.0000    398.5227      0.3870     66.7334
  2679.7500      0.0000    422.3465      0.7352     63.6020
  2680.0000      0.0000    459.6768      0.5611     60.9365
  2680.2500      0.0000    497.6138      0.4741     59.8669
  2680.5000      0.0000    523.2690      0.3000     60.0213
  2680.7500      0.0000    526.7614      0.2129     60.2122
  2681.0000      0.0000    506.0403      0.3000     59.6633
  2681.2500      0.0000    471.5932      0.1259     58.5221
  2681.5000      0.0000    443.1547      1.6927     57.4363
  2681.7500      0.0000    436.1459      1.1705     57.0283
  2682.0000      0.0000    449.6956      0.3870     58.0159
  2682.2500      0.0000    468.9980      0.7352     61.6244
  2682.5000      0.0000    480.3091      0.4741     69.1920
  2682.7500      0.0000    483.4164      0.8223     80.9020
  2683.0000      0.0000    488.3601      0.9093     94.9576
  2683.2500      0.0000    500.9682      0.9964    108.3218
  2683.5000      0.0000    515.1306      1.5186    118.5594
  2683.7500      0.0000    520.6248      0.9964    124.9788
  2684.0000      0.0000    515.2735      1.3446    128.0915
  2684.2500      0.0000    506.6736      1.3446    128.5316
  2684.5000      0.0000    503.6412      0.9093    126.8864
  2684.7500      0.0000    508.4516      1.1705    124.0783
  2685.0000      0.0000    516.4830      1.4316    121.1836
  2685.2500      0.0000    520.6353      1.3446    118.7888
  2685.5000      0.0000    515.8831      1.1705    116.8443
  2685.7500      0.0000    502.2029      1.3446    115.3288
  2686.0000      0.0000    485.3876      0.7352    114.8732
  2686.2500      0.0000    474.7383      0.9964    116.2494
  2686.5000      0.0000    477.8337      0.9964    118.9999
  2686.7500      0.0000    495.0782      1.2575    121.0509
  2687.0000      0.0000    518.6602      0.8223    120.1963
  2687.2500      0.0000    538.5861      0.9093    115.8932
  2687.5000      0.0000    551.1272      1.0834    109.6577
  2687.7500      0.0000    560.6512      0.9964    104.1331
  2688.0000      0.0000    573.1677      1.0834    101.6775
  2688.2500      0.0000    589.8931      0.8223    103.1212
  2688.5000      0.0000    607.4720      1.3446    107.3213
  2688.7500      0.0000    622.1456      1.1705    111.8089
  2689.0000      0.0000    631.8032      1.2575    114.2390
  2689.2500      0.0000    635.0775      0.8223    113.9207
  2689.5000      0.0000    631.0071      1.0834    112.2434
  2689.7500      0.0000    620.5082      1.3446    111.2517
  2690.0000      0.0000    607.0876      1.0834    111.6304
  2690.2500      0.0000    594.9249      0.9093    112.3979
  2690.5000      0.0000    586.0723      0.8223    112.5177
  2690.7500      0.0000    579.4032      0.7352    112.2463
  2691.0000      0.0000    571.7418      0.7352    112.8635
  2691.2500      0.0000    560.0975      0.6482    115.4698
  2691.5000      0.0000    543.8661      0.9093    119.8961
  2691.7500      0.0000    525.6835      0.9964    124.4087
  2692.0000      0.0000    509.9690      0.9093    126.6643
  2692.2500      0.0000    500.3387      0.9964    125.3625
  2692.5000      0.0000    498.4039      0.9964    121.2199
  2692.7500      0.0000    504.3281      0.7352    116.5375
  2693.0000      0.0000    517.2537      1.0834    113.9082
  2693.2500      0.0000    534.6433      0.4741    114.8558
  2693.5000      0.0000    551.6750      1.1705    118.9663
  2693.7500      0.0000    561.9689      0.5611    124.1330
  2694.0000      0.0000    559.9041      0.7352    127.8679
  2694.2500      0.0000    543.7227      0.6482    128.5619
  2694.5000      0.0000    517.2462      0.7352    125.9417
  2694.7500      0.0000    488.2023      0.9093    121.0104
  2695.0000      0.0000    464.3112      0.5611    115.6955
  2695.2500      0.0000    450.2269      0.6482    111.9420
  2695.5000      0.0000    446.7643      0.7352    110.5463
  2695.7500      0.0000    451.4494      0.9093    110.8531
  2696.0000      0.0000    459.4081      0.6482    111.7730
  2696.2500      0.0000    464.9541      0.9093    112.8680
  2696.5000      0.0000    464.2565      0.5611    114.2028
  2696.7500      0.0000    457.5241      1.1705    115.4501
  2697.0000      0.0000    448.6165      1.1705    115.5681
  2697.2500      0.0000    442.4666      0.4741    113.4441
  2697.5000      0.0000    443.1757      0.8223    108.9968
  2697.7500      0.0000    453.5131      1.3446    103.6803
  2698.0000      0.0000    473.1763      0.6482     99.4868
  2698.2500      0.0000    495.4241      0.5611     97.2711
  2698.5000      0.0000    507.6286      0.9093     96.3542
  2698.7500      0.0000    499.6250      0.9093     95.5717
  2699.0000      0.0000    472.7795      0.9093     94.1316
  2699.2500      0.0000    438.9743      0.9093     91.7977
  2699.5000      0.0000    410.6207      0.8223     89.1405
  2699.7500      0.0000    392.9278      0.9964     87.5972
  2700.0000      0.0000    384.3431      0.8223     88.5331
  2700.2500      0.0000    381.0998      0.9093     91.9123
  2700.5000      0.0000    380.3554      1.2575     96.1720
  2700.7500      0.0000    380.8014      0.9964     99.4908
  2701.0000      0.0000    382.1980      0.6482    100.9991
  2701.2500      0.0000    384.8719      0.9093    101.0324
  2701.5000      0.0000    389.3292      0.9093    100.8471
  2701.7500      0.0000    395.8237      1.1705    102.0176
  2702.0000      0.0000    404.0374      0.9964    105.3386
  2702.2500      0.0000    413.1890      0.8223    110.0775
  2702.5000      0.0000    422.4585      0.8223    114.6623
  2702.7500      0.0000    431.1775      1.4316    118.0671
  2703.0000      0.0000    438.7174      0.7352    120.2522
  2703.2500      0.0000    444.5481      0.6482    121.5580
  2703.5000      0.0000    448.4590      0.7352    122.2780
  2703.7500      0.0000    450.4390      0.9093    122.8508
