~Version Information
VERS.                      2.0: CWLS Log ASCII Standard - VERSION 2.0
WRAP.                       NO: One line per depth step
~Well Information Block
STRT.FT               550.0000: 
STOP.FT              2042.5000: 
STEP.FT                 0.2500: 
NULL.                -999.2500: 
COMP.          Petrogulf Corporation: COMPANY
WELL.          Robinson 15-12V: WELL
FLD.           Purgatorie River: FIELD
LOC.           1788' FNL & 466' FWL: LOCATION
PROV.                 Colorado: PROVINCE
CNTY.               Las Animas: COUNTRY
SRVC.                Patterson: SERVICE COMPANY
DATE.          Mon Sep 12 10:04:59 2005: LOG DATE
UWI.                          : UNIQUE WELL ID
~Curve Information Block
DEPT.FT            0 000 00 00: Depth
SP.mV                         : DIL Spontaneous Potential
RILD.Ohm-m                    : DIL Deep Resistivity
RILM.Ohm-m                    : DIL Medium Resistivity
RLL3.Ohm-m                    : DIL Shallow Resistivity
GR.GAPI                       : Gamma Ray
~Parameter Information Block
~A  Depth        SP         RILD        RILM        RLL3         GR     
# ...
   746.0000   2000.0000     14.5725     12.7277   2000.0000    134.4517
   746.2500   2000.0000     14.7578     12.8550   2000.0000    132.3038
   746.5000   2000.0000     14.8890     13.3097   2000.0000    132.2955
   746.7500   2000.0000     15.4389     14.0386   2000.0000    130.0895
   747.0000   2000.0000     17.0846     14.9862   2000.0000    124.1803
   747.2500   2000.0000     17.7238     16.0559   2000.0000    121.1646
   747.5000   2000.0000     18.1459     16.6417   2000.0000    125.0458
   747.7500   2000.0000     18.7878     18.1107   2000.0000    129.0972
   748.0000   2000.0000     19.1313     18.8858   2000.0000    122.9027
   748.2500   2000.0000     19.1007     19.7947   2000.0000    124.4951
   748.5000   2000.0000     18.2813     20.3773   2000.0000    113.9663
   748.7500   2000.0000     17.5063     20.5968   2000.0000    105.5708
   749.0000   2000.0000     16.6552     21.3531   2000.0000    102.3167
   749.2500   2000.0000     15.8740     19.5340   2000.0000     99.7154
   749.5000   2000.0000     14.7766     18.1834   2000.0000    113.4575
   749.7500   2000.0000     13.8222     16.0233   2000.0000    122.1917
   750.0000   2000.0000     12.9663     13.8810   2000.0000    135.6803
   750.2500   2000.0000     12.8157     12.3655   2000.0000    147.3114
   750.5000   2000.0000     11.6397     11.0828   2000.0000    154.0144
   750.7500   2000.0000     11.1011      9.8703   2000.0000    148.4247
   751.0000   2000.0000     10.6152      9.1900   2000.0000    157.7323
   751.2500   2000.0000     10.1737      8.6696   2000.0000    158.1537
   751.5000   2000.0000      9.7587      8.0668   2000.0000    155.1130
   751.7500   2000.0000      9.2926      7.7788   2000.0000    151.9408
   752.0000   2000.0000      8.9639      7.5356   2000.0000    156.4778
   752.2500   2000.0000      8.7199      7.3063   2000.0000    156.3345
   752.5000   2000.0000      8.3840      7.1010   2000.0000    153.0603
   752.7500   2000.0000      8.2697      6.9515   2000.0000    158.3994
   753.0000   2000.0000      8.2534      6.8480   2000.0000    165.3464
   753.2500   2000.0000      8.4135      6.9101   2000.0000    166.7473
   753.5000   2000.0000      8.5720      6.9772   2000.0000    152.5703
   753.7500   2000.0000      8.6613      7.1708   2000.0000    150.7805
   754.0000   2000.0000      9.1153      7.2726   2000.0000    163.0404
   754.2500   2000.0000      9.3979      7.7750   2000.0000    162.2127
   754.5000   2000.0000      9.6783      8.2953   2000.0000    161.6375
   754.7500   2000.0000     10.3084      8.7540   2000.0000    157.1865
   755.0000   2000.0000     10.6772      9.2435   2000.0000    157.2578
   755.2500   2000.0000     10.9186      9.8782   2000.0000    160.2011
   755.5000   2000.0000     11.5026     10.6465   2000.0000    143.6784
   755.7500   2000.0000     11.9635     11.5823   2000.0000    136.4244
   756.0000   2000.0000     12.0818     12.5651   2000.0000    114.7871
   756.2500   2000.0000     12.4275     13.3995   2000.0000    110.5559
   756.5000   2000.0000     12.7183     13.7473   2000.0000    112.1344
   756.7500   2000.0000     12.9531     14.0247   2000.0000    115.2186
   757.0000   2000.0000     13.4998     13.4844   2000.0000    129.2206
   757.2500   2000.0000     14.0114     13.2176   2000.0000    147.2418
   757.5000   2000.0000     14.8432     13.0218   2000.0000    159.8163
   757.7500   2000.0000     15.3896     12.7304   2000.0000    160.5962
   758.0000   2000.0000     15.2843     13.3576   2000.0000    159.9583
   758.2500   2000.0000     15.4257     14.3241   2000.0000    156.4477
   758.5000   2000.0000     15.3203     14.0991   2000.0000    155.8751
   758.7500   2000.0000     15.1916     14.8832   2000.0000    155.4207
   759.0000   2000.0000     15.2883     14.7942   2000.0000    161.1037
   759.2500   2000.0000     15.6735     14.7435   2000.0000    153.1130
   759.5000   2000.0000     15.7976     14.5902   2000.0000    142.0111
   759.7500   2000.0000     15.3936     15.0039   2000.0000    138.0661
   760.0000   2000.0000     15.3586     15.1922   2000.0000    137.9742
   760.2500   2000.0000     15.9106     15.7517   2000.0000    134.1334
   760.5000   2000.0000     17.5589     16.3323   2000.0000    136.7338
   760.7500   2000.0000     17.5313     16.4568   2000.0000    144.3775
   761.0000   2000.0000     17.4309     16.9397   2000.0000    137.4664
   761.2500   2000.0000     18.5018     17.1019   2000.0000    130.0016
   761.5000   2000.0000     19.6690     17.4509   2000.0000    124.5504
   761.7500   2000.0000     20.1796     18.7198   2000.0000    123.2387
   762.0000   2000.0000     20.7935     19.3047   2000.0000    128.9451
   762.2500   2000.0000     20.1909     20.1188   2000.0000    126.9504
   762.5000   2000.0000     21.8370     21.5112   2000.0000    124.5644
   762.7500   2000.0000     21.8230     21.7530   2000.0000    118.2243
   763.0000   2000.0000     24.1108     21.3195   2000.0000    122.2973
   763.2500   2000.0000     23.1240     22.1591   2000.0000    121.3539
   763.5000   2000.0000     24.1086     23.4025   2000.0000    119.6632
   763.7500   2000.0000     24.7729     24.1898   2000.0000    115.4385
   764.0000   2000.0000     25.5260     25.0472   2000.0000    105.4742
   764.2500   2000.0000     24.3287     27.2928   2000.0000    105.0870
   764.5000   2000.0000     26.0395     29.0560   2000.0000     99.4395
   764.7500   2000.0000     27.6869     29.1417   2000.0000     93.9660
   765.0000   2000.0000     26.6382     28.1231   2000.0000     94.2205
   765.2500   2000.0000     28.4210     27.9875   2000.0000     93.2778
   765.5000   2000.0000     27.1018     27.8413   2000.0000     95.0153
   765.7500   2000.0000     26.5021     28.1678   2000.0000     95.9787
   766.0000   2000.0000     27.4855     29.1522   2000.0000     95.1687
   766.2500   2000.0000     29.2224     27.3868   2000.0000     91.3345
   766.5000   2000.0000     27.6113     28.2141   2000.0000     94.2632
   766.7500   2000.0000     27.9364     32.1486   2000.0000    100.1838
   767.0000   2000.0000     30.3894     28.7676   2000.0000    102.3023
   767.2500   2000.0000     30.2786     27.9464   2000.0000    102.1825
   767.5000   2000.0000     32.3731     28.7528   2000.0000    104.8989
   767.7500   2000.0000     30.2024     29.5754   2000.0000    102.0568
   768.0000   2000.0000     29.4747     30.8437   2000.0000     98.6713
   768.2500   2000.0000     29.2495     28.5145   2000.0000     96.8642
   768.5000   2000.0000     28.6372     30.7617   2000.0000     92.5205
   768.7500   2000.0000     29.2950     28.6339   2000.0000     88.9824
   769.0000   2000.0000     28.6846     27.2736   2000.0000     85.2786
   769.2500   2000.0000     30.5643     28.5103   2000.0000     86.6235
   769.5000   2000.0000     30.9164     28.4202   2000.0000     90.8484
   769.7500   2000.0000     30.8709     28.5576   2000.0000     94.0630
   770.0000   2000.0000     33.6827     27.9970   2000.0000     86.2897
   770.2500   2000.0000     31.2236     27.7657   2000.0000     80.6784
   770.5000   2000.0000     33.7258     30.1903   2000.0000     82.6418
   770.7500   2000.0000     30.5022     28.9846   2000.0000     76.9422
   771.0000   2000.0000     30.1293     33.8003   2000.0000     77.6451
   771.2500   2000.0000     35.1066     37.1450   2000.0000     76.0797
   771.5000   2000.0000     34.6330     38.8326   2000.0000     75.1098
   771.7500   2000.0000     33.6749     32.9212   2000.0000     77.2704
   772.0000   2000.0000     35.1081     34.1201   2000.0000     77.5816
   772.2500   2000.0000     36.3072     33.6687   2000.0000     80.6172
   772.5000   2000.0000     37.2980     33.0322   2000.0000     75.7728
   772.7500   2000.0000     34.0544     33.0089   2000.0000     76.8497
   773.0000   2000.0000     36.4694     35.9303   2000.0000     71.9173
   773.2500   2000.0000     37.8311     36.0783   2000.0000     77.8296
   773.5000   2000.0000     35.6189     36.5371   2000.0000     78.3285
   773.7500   2000.0000     31.8076     40.6054   2000.0000     79.9737
