~Version Information
 VERS.                                  2.0 : CWLS LAS VERSION
 WRAP.                                   NO : WRAPING MODE
 SWARE .                 MController 2.5.0E : SOFTWARE VERSION
~Well Information
 WELL.                    Dude canyon 22-32 : WELL
 COMP.    Pioneer Natural Resources USA Inc : COMPANY
 FLD.                      Purgatoire River : FIELD
 LOC.                SE/NW Sec 32 T32S R67W : LOCATION
 DATE.                         3/06-07/2005 : DATE(S) LOGGED
 SRVC.       Blanco Geological Services LLC : SERVICE COMPANY
 STAT.                                   CO : STATE
 CNTY.                           Las Animas : COUNTY
 CTRY.                                  USA : COUNTRY
 API.                       05-071-08257-00 : API NUMBER
 STRT.FT                             494.00 : START DEPTH
 STOP.FT                            2760.00 : STOP DEPTH
 STEP.FT                               1.00 : DEPTH INCREMENT
 NULL.                                -9999 : NULL VALUE
~Curve information
 DEPTH.FT                                   :
 ROP.MIN/FT                                 :
 GAS.UNITS                                  :
~ASCII Log data
# ...
      694.00        0.200          5.7 
      695.00        0.467          5.4 
      696.00        1.000          5.2 
      697.00        0.200          4.6 
      698.00        0.433          4.6 
      699.00        0.383          4.7 
      700.00        0.400          5.1 
      701.00        0.333          4.3 
      702.00        0.300          4.9 
      703.00        0.367          4.7 
      704.00        0.333          4.5 
      705.00        0.200          4.3 
      706.00        0.300          4.4 
      707.00        0.267          4.3 
      708.00        0.267          4.3 
      709.00        0.333          4.2 
      710.00        0.317          4.3 
      711.00        0.333          4.7 
      712.00        0.333          4.5 
      713.00        0.333          4.4 
      714.00        0.333          4.4 
      715.00        0.333          4.1 
      716.00        0.400          4.4 
      717.00        0.467          4.3 
      718.00        0.400          4.4 
      719.00        0.517          4.6 
      720.00        5.783         12.0 
      721.00        0.500          6.4 
      722.00        0.417          4.4 
      723.00        0.400          5.1 
      724.00        0.333          5.2 
      725.00        0.133          5.0 
      726.00        0.133          4.7 
      727.00        0.167          4.8 
      728.00        0.200          5.2 
      729.00        0.267          4.9 
      730.00        0.267          5.5 
      731.00        0.267          6.9 
      732.00        0.267          8.4 
      733.00        0.233          9.0 
      734.00        0.233          8.8 
      735.00        0.283          8.1 
      736.00        0.300          7.0 
      737.00        0.333          4.6 
      738.00        0.300          4.1 
      739.00        0.300          4.3 
      740.00        0.300          5.0 
      741.00        0.200          5.1 
      742.00        0.167          5.3 
      743.00        0.133          5.1 
      744.00        0.200          5.3 
      745.00        0.300          5.0 
      746.00        0.300          5.1 
      747.00        0.233          5.0 
      748.00        0.383          5.4 
      749.00        0.367          5.9 
      750.00        4.650         14.9 
      751.00        0.233          3.9 
      752.00        0.267          3.7 
      753.00        0.367          3.6 
      754.00        0.300          3.7 
      755.00        0.317          3.9 
      756.00        0.300          4.3 
      757.00        0.300          4.1 
      758.00        0.333          3.9 
      759.00        0.300          3.8 
      760.00        0.300          3.7 
      761.00        0.300          3.6 
      762.00        0.300          4.8 
      763.00        0.233          6.5 
      764.00        0.267          6.9 
      765.00        0.200          6.9 
      766.00        0.133          6.5 
      767.00        0.283          5.9 
      768.00        0.167          4.9 
      769.00        0.233          4.4 
      770.00        0.567          4.0 
      771.00        0.167          3.9 
      772.00        0.133          4.0 
      773.00        0.167          3.9 
      774.00        0.133          3.8 
      775.00        0.167          3.9 
      776.00        0.167          4.0 
      777.00        0.233          4.3 
      778.00        0.167          3.9 
      779.00        0.233          4.3 
      780.00        5.200         11.7 
      781.00        0.167          3.8 
      782.00        0.133          3.7 
      783.00        0.267          3.6 
      784.00        0.200          3.7 
      785.00        0.133          3.5 
      786.00        0.167          3.5 
      787.00        0.100          3.4 
      788.00        0.167          3.3 
      789.00        0.167          3.8 
      790.00        0.300          3.4 
      791.00        0.417          3.8 
      792.00        0.367          3.4 
      793.00        0.333          6.8 
      794.00        0.267         10.3 
      795.00        0.333         11.3 
      796.00        0.267          9.6 
      797.00        0.267          7.8 
      798.00        0.300          5.4 
      799.00        0.267          3.7 
      800.00        0.233          3.1 
      801.00        0.267          3.4 
      802.00        0.317          3.3 
      803.00        0.167          3.6 
      804.00        0.167          3.4 
      805.00        0.133          3.1 
      806.00        0.267          3.2 
      807.00        0.200          3.2 
      808.00        0.400          3.5 
      809.00        0.333          3.6 
      810.00        4.917         11.5 
      811.00        0.350         20.7 
      812.00        0.233         25.2 
      813.00        0.233         25.7 
      814.00        0.267         23.6 
      815.00        0.267         27.7 
      816.00        0.267         32.5 
      817.00        0.200         32.4 
      818.00        0.267         30.5 
      819.00        0.233         23.8 
      820.00        0.167         15.9 
      821.00        0.200         11.8 
      822.00        0.133          8.4 
      823.00        0.167          7.1 
      824.00        0.167          5.4 
      825.00        0.183          4.9 
      826.00        0.133          3.8 
      827.00        0.200          3.5 
      828.00        0.167          3.0 
      829.00        0.167          2.6 
      830.00        0.133          2.7 
      831.00        0.133          2.4 
      832.00        0.167          2.7 
      833.00        0.233          2.7 
      834.00        0.267          3.1 
      835.00        0.233          3.1 
      836.00        0.167          3.1 
      837.00        0.333          3.1 
      838.00        0.267          3.1 
      839.00        0.333          3.0 
      840.00        4.567         11.6 
      841.00        0.267          5.5 
      842.00        0.600          3.6 
      843.00        0.267          2.2 
      844.00        0.200          2.1 
      845.00        0.200          2.0 
      846.00        0.200          2.0 
      847.00        0.133          1.7 
      848.00        0.233          1.9 
      849.00        0.333          1.9 
      850.00        0.450          2.2 
      851.00        0.267          2.4 
      852.00        0.367          2.2 
      853.00        0.700          2.0 
      854.00        0.667          2.2 
      855.00        0.467          2.5 
      856.00        0.517         10.1 
      857.00        0.533         12.9 
      858.00        0.333          9.3 
      859.00        0.333          4.9 
      860.00        0.267          2.4 
      861.00        0.200          2.0 
      862.00        0.167          2.2 
      863.00        0.233          2.4 
      864.00        0.167          2.1 
      865.00        0.167          2.0 
      866.00        0.133          2.0 
      867.00        0.133          1.9 
      868.00        0.300          2.6 
      869.00        0.350          2.4 
      870.00        8.200         65.0 
      871.00        0.167          2.0 
      872.00        0.267          2.2 
      873.00        0.133          2.3 
      874.00        0.167          3.0 
      875.00        0.133          3.2 
      876.00        0.167          3.5 
      877.00        0.167          3.7 
      878.00        0.300          3.7 
      879.00        0.450          2.3 
      880.00        0.300          1.5 
      881.00        0.200          1.5 
      882.00        0.267          1.4 
      883.00        0.300          1.8 
      884.00        0.167          1.6 
      885.00        0.233          1.9 
      886.00        0.700          2.4 
      887.00        0.333          2.2 
      888.00        0.367          2.3 
      889.00        0.383          2.0 
      890.00        0.367          1.7 
      891.00        0.367          1.7 
      892.00        0.367          1.5 
      893.00        0.367          1.4 
