~Version Information
VERS.                      2.0: CWLS Log ASCII Standard - VERSION 2.0
WRAP.                       NO: One line per depth step
~Well Information Block
STRT.FT               240.0000: 
STOP.FT               966.2000: 
STEP.FT                 0.1000: 
NULL.                -999.2500: 
COMP.          Pioneer Natural Resources: COMPANY
WELL.          New Mexico 21-5: WELL
FLD.           Purgatoire River: FIELD
LOC.           175' FNL & 1700' FWL: LOCATION
PROV.                 Colorado: PROVINCE
CNTY.               Las Animas: COUNTRY
SRVC.                Patterson: SERVICE COMPANY
DATE.          Mon Dec 13 06:55:26 2004: LOG DATE
UWI.           05 071 08234 00: UNIQUE WELL ID
~Curve Information Block
DEPT.FT            0 000 00 00: Depth
DCAL.in                       : CDL Caliper
RHOB.g/cc                     : CDL Bulk Density
RHOC.g/cc                     : CDL Density Correction
DPOR.pu                       : CDL Density Porosity
NPOR.pu                       : Neutron Porosity
GR.GAPI                       : Gamma Ray
~Parameter Information Block
~A  Depth       DCAL        RHOB        RHOC        DPOR        NPOR         GR     
   240.0000      8.1729      2.5093     -0.1327      8.5281     35.8110     63.4080
   240.1000      8.1729      2.5199     -0.1232      7.8879     36.1047     62.9158
   240.2000      8.1729      2.5186     -0.1297      7.9665     36.4984     60.2800
   240.3000      8.1745      2.5028     -0.1479      8.9224     36.5313     56.6097
   240.4000      8.1745      2.4769     -0.1351     10.4938     36.0985     55.0520
   240.5000      8.1771      2.4588     -0.1600     11.5892     35.6323     57.5276
   240.6000      8.1771      2.4683     -0.1892     11.0105     35.5280     62.0734
   240.7000      8.1771      2.4969     -0.1167      9.2775     35.7115     64.6565
   240.8000      8.1785      2.5160     -0.1186      8.1189     35.9000     64.3193
   240.9000      8.1785      2.5149     -0.1237      8.1849     35.9961     63.2692
   241.0000      8.1785      2.5017     -0.1372      8.9892     35.8899     64.2905
   241.1000      8.1785      2.4826     -0.1394     10.1476     35.7082     66.6868
   241.2000      8.1785      2.4620     -0.1580     11.3956     35.9983     67.3618
   241.3000      8.1784      2.4442     -0.1614     12.4738     36.5878     65.1993
   241.4000      8.1784      2.4283     -0.1541     13.4345     36.7961     61.0312
   241.5000      8.1780      2.4174     -0.1995     14.0946     36.6128     57.2199
   241.6000      8.1780      2.4196     -0.1454     13.9644     36.2987     55.8615
   241.7000      8.1780      2.4325     -0.1390     13.1790     36.1117     56.8660
   241.8000      8.1779      2.4550     -0.1869     11.8187     36.1835     57.7953
   241.9000      8.1779      2.4868     -0.1102      9.8922     36.3628     56.2339
   242.0000      8.1784      2.5004     -0.0621      9.0647     36.6271     55.0856
   242.1000      8.1784      2.4718     -0.1421     10.7970     36.9948     58.8266
   242.2000      8.1784      2.4212     -0.1912     13.8642     37.3230     65.2320
   242.3000      8.1770      2.3832     -0.2056     16.1708     37.5529     69.4550
   242.4000      8.1770      2.3689     -0.1667     17.0349     37.7610     71.7831
   242.5000      8.1748      2.3666     -0.1699     17.1745     38.0766     75.1147
   242.6000      8.1748      2.3619     -0.1553     17.4587     38.5246     78.7978
   242.7000      8.1748      2.3491     -0.1811     18.2392     38.7963     80.1054
   242.8000      8.1754      2.3270     -0.1406     19.5735     38.6875     78.9355
   242.9000      8.1754      2.2970     -0.2139     21.3937     38.5468     78.0817
   243.0000      8.1766      2.2707     -0.2279     22.9895     38.6680     78.4756
   243.1000      8.1766      2.2604     -0.1728     23.6116     38.8016     79.2446
   243.2000      8.1766      2.2655     -0.2079     23.3025     38.6432     81.0535
   243.3000      8.1771      2.2838     -0.1860     22.1953     38.2835     83.3183
   243.4000      8.1771      2.3165     -0.1770     20.2106     37.9958     85.7203
   243.5000      8.1791      2.3506     -0.1206     18.1482     37.9711     90.5169
   243.6000      8.1791      2.3621     -0.1219     17.4507     38.3249     95.9282
   243.7000      8.1791      2.3486     -0.1469     18.2680     38.7710     96.8726
   243.8000      8.1869      2.3301     -0.1710     19.3883     38.8395     93.3201
   243.9000      8.1869      2.3246     -0.1935     19.7192     38.6682     89.6629
   244.0000      8.1943      2.3351     -0.1745     19.0836     38.6447     88.6039
   244.1000      8.1943      2.3497     -0.1533     18.2022     38.6463     88.5906
   244.2000      8.1943      2.3547     -0.1453     17.8954     38.4123     85.7460
   244.3000      8.1904      2.3482     -0.1445     18.2893     38.1701     80.0555
   244.4000      8.1904      2.3426     -0.1755     18.6305     38.1646     75.6054
   244.5000      8.1847      2.3498     -0.1865     18.1911     38.3997     74.3136
   244.6000      8.1847      2.3643     -0.1474     17.3170     38.7226     75.0082
   244.7000      8.1847      2.3758     -0.1619     16.6206     38.8621     74.1526
   244.8000      8.1825      2.3851     -0.1330     16.0532     38.7743     69.9141
   244.9000      8.1825      2.3909     -0.0982     15.7037     38.4764     65.1548
   245.0000      8.1819      2.3889     -0.1424     15.8271     37.7467     64.0778
   245.1000      8.1819      2.3851     -0.1475     16.0515     36.9064     65.2025
   245.2000      8.1819      2.3736     -0.1036     16.7526     36.7063     63.7220
   245.3000      8.1807      2.3335     -0.0875     19.1801     37.0346     61.7133
   245.4000      8.1807      2.2937     -0.2142     21.5955     37.4068     63.7846
   245.5000      8.1765      2.3055     -0.1654     20.8793     37.7022     68.6844
   245.6000      8.1765      2.3470     -0.1613     18.3661     37.9590     73.5067
   245.7000      8.1765      2.3610     -0.1055     17.5157     38.2637     75.8225
   245.8000      8.1750      2.3399     -0.1739     18.7955     38.5718     72.7192
   245.9000      8.1750      2.3194     -0.1524     20.0348     38.7858     65.8627
   246.0000      8.1780      2.3221     -0.1773     19.8725     38.8800     61.2658
   246.1000      8.1780      2.3401     -0.1436     18.7846     38.9083     63.2309
   246.2000      8.1780      2.3555     -0.1374     17.8509     38.9294     70.2708
   246.3000      8.1792      2.3578     -0.1227     17.7097     38.9887     78.7710
   246.4000      8.1792      2.3467     -0.1392     18.3793     39.0544     86.4184
   246.5000      8.1763      2.3301     -0.1572     19.3857     39.1458     90.9487
   246.6000      8.1763      2.3113     -0.1151     20.5251     39.4038     91.0179
   246.7000      8.1763      2.2851     -0.1577     22.1126     39.6433     89.3127
   246.8000      8.1758      2.2567     -0.2000     23.8375     39.5866     89.2317
   246.9000      8.1758      2.2408     -0.2430     24.8023     39.2789     88.9684
   247.0000      8.1791      2.2407     -0.1911     24.8056     38.8023     86.0931
   247.1000      8.1791      2.2407     -0.1789     24.8051     38.3016     83.6931
   247.2000      8.1791      2.2358     -0.2252     25.1036     37.9585     87.2659
   247.3000      8.1810      2.2396     -0.1938     24.8710     37.8193     93.4780
   247.4000      8.1810      2.2459     -0.1337     24.4925     37.7225     94.1493
   247.5000      8.1803      2.2354     -0.1721     25.1291     37.3452     91.3067
   247.6000      8.1803      2.2162     -0.2417     26.2928     36.7510     89.3074
   247.7000      8.1803      2.2070     -0.1736     26.8494     36.4890     86.1875
   247.8000      8.1803      2.2091     -0.1987     26.7191     36.7127     81.6204
   247.9000      8.1803      2.2178     -0.1731     26.1910     36.9608     78.5952
   248.0000      8.1811      2.2318     -0.1861     25.3484     36.9570     77.7330
   248.1000      8.1811      2.2485     -0.1445     24.3313     36.6827     77.1194
   248.2000      8.1811      2.2651     -0.1448     23.3256     36.1489     74.6847
   248.3000      8.1805      2.2896     -0.1588     21.8403     35.6204     69.6923
   248.4000      8.1805      2.3377     -0.1842     18.9264     35.5198     64.2316
   248.5000      8.1798      2.4051     -0.0537     14.8420     35.8919     61.2696
   248.6000      8.1798      2.4592     -0.0503     11.5618     36.3111     59.5238
   248.7000      8.1798      2.4789     -0.0696     10.3718     36.4901     57.0790
   248.8000      8.1802      2.4790     -0.1158     10.3658     36.3304     55.9517
   248.9000      8.1802      2.4809     -0.1004     10.2487     35.8730     57.7974
   249.0000      8.1813      2.4733     -0.0625     10.7119     35.5085     62.0310
   249.1000      8.1813      2.4361     -0.1628     12.9619     35.7048     68.7536
   249.2000      8.1813      2.3879     -0.1728     15.8866     36.5209     74.9011
   249.3000      8.1826      2.3585     -0.1618     17.6656     37.4599     77.3845
   249.4000      8.1826      2.3472     -0.1357     18.3531     37.9618     77.5364
   249.5000      8.1827      2.3362     -0.1330     19.0165     38.1911     74.9971
