~Version Information
VERS.                      2.0: CWLS Log ASCII Standard - VERSION 2.0
WRAP.                       NO: One line per depth step
~Well Information Block
STRT.FT               840.0000: 
STOP.FT              2266.0000: 
STEP.FT                 0.1000: 
NULL.                -999.2500: 
COMP.          Pioneer Natural Resources: COMPANY
WELL.              Tonto 42-23: WELL
FLD.           Purgatoire River: FIELD
LOC.           2217' FNL & 423' FEL: LOCATION
PROV.                 Colorado: PROVINCE
CNTY.               Las Animas: COUNTRY
SRVC.                Patterson: SERVICE COMPANY
DATE.          Mon Apr 18 07:15:48 2005: LOG DATE
UWI.           05 071 08335 00: UNIQUE WELL ID
~Curve Information Block
DEPT.FT            0 000 00 00: Depth
DCAL.in                       : CDL Caliper
RHOB.g/cc                     : CDL Bulk Density
RHOC.g/cc                     : CDL Density Correction
DPOR.pu                       : CDL Density Porosity
GR.GAPI                       : Gamma Ray
NPOR.pu                       : Neutron Porosity
~Parameter Information Block
~A  Depth       DCAL        RHOB        RHOC        DPOR         GR         NPOR    
# ...
  1972.8000      7.8662      2.5584      0.0211      5.5529     78.9441     26.4144
  1972.9000      7.8662      2.5981      0.1053      3.1452     83.9046     25.3625
  1973.0000      7.8661      2.6214      0.1084      1.7309     85.6488     23.5942
  1973.1000      7.8661      2.6278      0.1229      1.3484     86.0696     21.9095
  1973.2000      7.8661      2.6302      0.1333      1.2028     84.6753     20.9706
  1973.3000      7.8696      2.6352      0.0811      0.8983     79.1863     21.3371
  1973.4000      7.8696      2.6454      0.1199      0.2766     70.6340     22.3941
  1973.5000      7.8259      2.6453      0.1614      0.2825     63.7084     23.0321
  1973.6000      7.8259      2.6224      0.1081      1.6715     59.9817     23.2876
  1973.7000      7.8259      2.6026      0.0645      2.8723     56.8844     23.1499
  1973.8000      7.8115      2.6040      0.1001      2.7888     53.3758     22.4944
  1973.9000      7.8115      2.6007      0.1048      2.9896     49.4077     21.8172
  1974.0000      7.8208      2.5764      0.0655      4.4583     45.4017     21.3843
  1974.1000      7.8208      2.5466      0.0623      6.2678     44.1822     21.2185
  1974.2000      7.8208      2.5281      0.0096      7.3861     47.3121     21.3311
  1974.3000      7.8057      2.5318      0.0730      7.1663     53.2436     21.5323
  1974.4000      7.8057      2.5557      0.0430      5.7139     58.0558     21.6795
  1974.5000      7.8112      2.5840      0.1253      4.0024     57.5128     21.9659
  1974.6000      7.8112      2.6039      0.1335      2.7949     54.5417     22.6779
  1974.7000      7.8112      2.6254      0.1402      1.4888     54.4836     23.5855
  1974.8000      7.8142      2.6532      0.1967     -0.1949     55.8340     23.6774
  1974.9000      7.8142      2.6658      0.1875     -0.9576     55.5166     22.4256
  1975.0000      7.8108      2.6486      0.1353      0.0833     54.1209     20.6385
  1975.1000      7.8108      2.6141      0.1033      2.1738     53.9863     19.2169
  1975.2000      7.8108      2.5818      0.0365      4.1343     56.8082     18.5220
  1975.3000      7.8311      2.5607     -0.0424      5.4098     59.8085     18.8259
  1975.4000      7.8311      2.5515     -0.0041      5.9722     58.5050     19.5801
  1975.5000      7.8394      2.5518      0.0181      5.9498     53.4747     19.7181
  1975.6000      7.8394      2.5693      0.0162      4.8923     49.4489     19.3863
  1975.7000      7.8394      2.5972      0.0956      3.2001     48.1808     19.6964
  1975.8000      7.8483      2.5996      0.1109      3.0559     48.8981     20.6741
  1975.9000      7.8483      2.5716      0.0267      4.7534     52.2633     21.2758
  1976.0000      7.8429      2.5495      0.0056      6.0916     56.6924     21.2609
  1976.1000      7.8429      2.5467      0.0461      6.2598     58.2740     20.7932
  1976.2000      7.8429      2.5502      0.0111      6.0501     57.5359     19.8603
  1976.3000      7.8517      2.5514      0.0560      5.9772     56.1696     18.9587
  1976.4000      7.8517      2.5470      0.0333      6.2404     53.4616     18.6246
  1976.5000      7.8799      2.5453      0.0231      6.3464     50.8554     18.8827
  1976.6000      7.8799      2.5592      0.0671      5.5035     49.8342     19.2905
  1976.7000      7.8799      2.5820      0.0507      4.1201     49.3789     19.5244
  1976.8000      7.8849      2.5969      0.0723      3.2210     48.8914     19.9385
  1976.9000      7.8849      2.6055      0.0590      2.6977     49.0973     20.7024
  1977.0000      7.8816      2.6184      0.0895      1.9168     49.6356     21.4358
  1977.1000      7.8816      2.6216      0.1621      1.7233     50.1858     21.5910
  1977.2000      7.8816      2.5966      0.0699      3.2348     49.5669     21.5559
  1977.3000      7.8560      2.5658      0.0693      5.1058     47.4436     22.2737
  1977.4000      7.8560      2.5679      0.0203      4.9757     46.0045     23.2529
  1977.5000      7.8336      2.5987      0.1443      3.1094     46.7571     23.2424
  1977.6000      7.8336      2.6226      0.0817      1.6578     48.0925     22.0205
  1977.7000      7.8336      2.6268      0.0798      1.4056     47.4932     20.6547
  1977.8000      7.8236      2.6210      0.0761      1.7569     45.7428     20.5556
  1977.9000      7.8236      2.6186      0.1041      1.9026     44.8281     21.6722
  1978.0000      7.8242      2.6132      0.1007      2.2288     43.2522     22.3953
  1978.1000      7.8242      2.5958      0.0668      3.2855     40.5686     21.9220
  1978.2000      7.8242      2.5905      0.0344      3.6057     39.6271     21.1151
  1978.3000      7.8371      2.6198      0.0531      1.8292     41.0094     20.7088
  1978.4000      7.8371      2.6568      0.1227     -0.4116     42.6706     20.5638
  1978.5000      7.8428      2.6622      0.0969     -0.7388     42.3526     20.4703
  1978.6000      7.8428      2.6368      0.1034      0.7984     40.0404     20.4190
  1978.7000      7.8428      2.5956      0.1194      3.2984     38.6293     20.2272
  1978.8000      7.8389      2.5536      0.0428      5.8445     39.4493     20.0740
  1978.9000      7.8389      2.5398      0.0589      6.6785     41.0629     20.2533
  1979.0000      7.8397      2.5594      0.0244      5.4920     41.2647     20.5604
  1979.1000      7.8397      2.5855      0.0916      3.9084     39.4253     20.8877
  1979.2000      7.8397      2.6016      0.0932      2.9309     36.6563     21.1897
  1979.3000      7.8396      2.6093      0.0446      2.4642     33.8588     20.7941
  1979.4000      7.8396      2.6118      0.1164      2.3167     32.2233     19.4091
  1979.5000      7.8390      2.6070      0.1105      2.6051     31.6668     17.8928
  1979.6000      7.8390      2.5920      0.0578      3.5145     29.6254     17.4037
  1979.7000      7.8390      2.5697      0.0791      4.8648     26.4850     18.0929
  1979.8000      7.8490      2.5486      0.0478      6.1436     26.1152     19.0671
  1979.9000      7.8490      2.5409      0.0242      6.6099     28.7386     19.7050
  1980.0000      7.8314      2.5494      0.0132      6.0977     31.3036     20.1015
  1980.1000      7.8314      2.5613      0.0177      5.3777     32.4508     20.0795
  1980.2000      7.8314      2.5702      0.0422      4.8349     31.0932     19.4775
  1980.3000      7.8375      2.5827      0.0315      4.0782     27.8741     18.7708
  1980.4000      7.8375      2.6036      0.0402      2.8129     26.7559     18.4265
  1980.5000      7.8386      2.6267      0.0912      1.4137     30.0992     18.4548
  1980.6000      7.8386      2.6326      0.1122      1.0548     37.6961     18.9169
  1980.7000      7.8386      2.5999      0.1317      3.0357     45.2390     20.1633
  1980.8000      7.8367      2.5280      0.0542      7.3923     46.6061     22.0748
  1980.9000      7.8367      2.4498     -0.0059     12.1353     43.7344     23.7201
  1981.0000      7.8320      2.4003     -0.0163     15.1304     39.9891     24.2196
  1981.1000      7.8320      2.3845      0.0309     16.0902     35.0710     23.6358
  1981.2000      7.8320      2.3879      0.0123     15.8873     32.4465     23.1757
  1981.3000      7.8425      2.4058     -0.0035     14.8015     37.6592     23.4181
  1981.4000      7.8425      2.4421      0.0663     12.6022     49.7289     23.7404
  1981.5000      7.8235      2.4915      0.1417      9.6047     61.3620     24.1213
  1981.6000      7.8235      2.5468      0.1757      6.2568     67.6571     24.8514
  1981.7000      7.8235      2.5925      0.2941      3.4848     68.5395     25.8922
  1981.8000      7.8328      2.6064      0.2583      2.6435     68.6189     27.1055
  1981.9000      7.8328      2.5914      0.2111      3.5534     74.6422     27.9046
  1982.0000      7.7806      2.5676      0.1677      4.9966     86.6739     28.0841
  1982.1000      7.7806      2.5465      0.1270      6.2721     97.8585     28.2775
  1982.2000      7.7806      2.5306      0.1027      7.2392    101.3669     28.5759
  1982.3000      7.7003      2.5234      0.0826      7.6735     98.5782     28.5637
