~Version Information
VERS.                      2.0: CWLS Log ASCII Standard - VERSION 2.0
WRAP.                       NO: One line per depth step
~Well Information Block
STRT.FT               259.0000: 
STOP.FT              2382.0000: 
STEP.FT                 0.2500: 
NULL.                -999.2500: 
COMP.          Pioneer Natural Resources: COMPANY
WELL.          Foothills 12-36: WELL
FLD.           Purgatoire River: FIELD
LOC.           2450' FNL & 201' FWL: LOCATION
PROV.                 Colorado: PROVINCE
CNTY.               Las Animas: COUNTRY
SRVC.                Patterson: SERVICE COMPANY
DATE.          Thu Apr 21 03:00:58 2005: LOG DATE
UWI.           05 071 08339 00: UNIQUE WELL ID
~Curve Information Block
DEPT.FT            0 000 00 00: Depth
SN.Ohm-m                      : IEL Short Normal
SP.mV                         : IEL Spontaneous Potential
DIR.Ohm-m                     : IEL Induction Resistivity
GR.GAPI                       : Gamma Ray
~Parameter Information Block
~A  Depth        SN          SP         DIR          GR     
# ...
   661.0000   2000.0000   2000.0000      8.5929    126.3311
   661.2500   2000.0000   2000.0000      8.6104    126.3040
   661.5000   2000.0000   2000.0000      8.6531    124.7833
   661.7500   2000.0000   2000.0000      8.7163    123.9510
   662.0000   2000.0000   2000.0000      8.7968    125.1686
   662.2500   2000.0000   2000.0000      8.8929    128.2299
   662.5000   2000.0000   2000.0000      9.0078    135.2712
   662.7500   2000.0000   2000.0000      9.1497    140.2372
   663.0000   2000.0000   2000.0000      9.3292    146.0382
   663.2500   2000.0000   2000.0000      9.5536    148.4679
   663.5000   2000.0000   2000.0000      9.8214    150.6314
   663.7500   2000.0000   2000.0000     10.1204    151.5151
   664.0000   2000.0000   2000.0000     10.4320    151.8645
   664.2500   2000.0000   2000.0000     10.7399    151.0091
   664.5000   2000.0000   2000.0000     11.0388    147.7192
   664.7500   2000.0000   2000.0000     11.3383    144.4696
   665.0000   2000.0000   2000.0000     11.6593    139.1368
   665.2500   2000.0000   2000.0000     12.0266    136.0512
   665.5000   2000.0000   2000.0000     12.4595    133.0644
   665.7500   2000.0000   2000.0000     12.9627    132.1474
   666.0000   2000.0000   2000.0000     13.5211    131.5987
   666.2500   2000.0000   2000.0000     14.1031    131.5122
   666.5000   2000.0000   2000.0000     14.6772    132.1288
   666.7500   2000.0000   2000.0000     15.2307    133.1672
   667.0000   2000.0000   2000.0000     15.7714    134.8825
   667.2500   2000.0000   2000.0000     16.3068    135.2845
   667.5000   2000.0000   2000.0000     16.8199    133.6030
   667.7500   2000.0000   2000.0000     17.2696    130.8180
   668.0000   2000.0000   2000.0000     17.6195    125.0503
   668.2500   2000.0000   2000.0000     17.8678    121.0681
   668.5000   2000.0000   2000.0000     18.0511    116.1288
   668.7500   2000.0000   2000.0000     18.2215    113.7805
   669.0000   2000.0000   2000.0000     18.4202    111.6414
   669.2500   2000.0000   2000.0000     18.6627    111.0485
   669.5000   2000.0000   2000.0000     18.9377    111.0904
   669.7500   2000.0000   2000.0000     19.2176    111.3979
   670.0000   2000.0000   2000.0000     19.4772    111.6510
   670.2500   2000.0000   2000.0000     19.7079    111.4751
   670.5000   2000.0000   2000.0000     19.9184    110.6939
   670.7500   2000.0000   2000.0000     20.1230    109.9876
   671.0000   2000.0000   2000.0000     20.3274    109.1784
   671.2500   2000.0000   2000.0000     20.5235    109.1808
   671.5000   2000.0000   2000.0000     20.6969    110.2741
   671.7500   2000.0000   2000.0000     20.8454    111.5351
   672.0000   2000.0000   2000.0000     20.9932    113.6848
   672.2500   2000.0000   2000.0000     21.1823    115.1120
   672.5000   2000.0000   2000.0000     21.4419    117.1622
   672.7500   2000.0000   2000.0000     21.7591    118.4196
   673.0000   2000.0000   2000.0000     22.0756    119.9826
   673.2500   2000.0000   2000.0000     22.3162    120.6412
   673.5000   2000.0000   2000.0000     22.4267    120.5735
   673.7500   2000.0000   2000.0000     22.3898    119.5841
   674.0000   2000.0000   2000.0000     22.2119    116.7967
   674.2500   2000.0000   2000.0000     21.9053    114.4324
   674.5000   2000.0000   2000.0000     21.4890    110.7665
   674.7500   2000.0000   2000.0000     21.0019    108.4789
   675.0000   2000.0000   2000.0000     20.5048    105.7591
   675.2500   2000.0000   2000.0000     20.0615    104.9280
   675.5000   2000.0000   2000.0000     19.7159    106.1529
   675.7500   2000.0000   2000.0000     19.4793    108.8514
   676.0000   2000.0000   2000.0000     19.3315    115.0408
   676.2500   2000.0000   2000.0000     19.2307    119.7500
   676.5000   2000.0000   2000.0000     19.1312    126.1644
   676.7500   2000.0000   2000.0000     19.0052    129.2858
   677.0000   2000.0000   2000.0000     18.8541    131.4311
   677.2500   2000.0000   2000.0000     18.6963    131.0919
   677.5000   2000.0000   2000.0000     18.5459    128.6685
   677.7500   2000.0000   2000.0000     18.4053    126.5966
   678.0000   2000.0000   2000.0000     18.2796    124.1820
   678.2500   2000.0000   2000.0000     18.1915    123.4490
   678.5000   2000.0000   2000.0000     18.1748    123.5238
   678.7500   2000.0000   2000.0000     18.2543    123.9867
   679.0000   2000.0000   2000.0000     18.4289    124.6580
   679.2500   2000.0000   2000.0000     18.6740    124.8140
   679.5000   2000.0000   2000.0000     18.9550    124.2158
   679.7500   2000.0000   2000.0000     19.2415    123.0816
   680.0000   2000.0000   2000.0000     19.5157    120.3127
   680.2500   2000.0000   2000.0000     19.7757    118.0397
   680.5000   2000.0000   2000.0000     20.0330    114.5646
   680.7500   2000.0000   2000.0000     20.3043    112.3763
   681.0000   2000.0000   2000.0000     20.5954    109.4272
   681.2500   2000.0000   2000.0000     20.8889    107.7832
   681.5000   2000.0000   2000.0000     21.1462    105.8682
   681.7500   2000.0000   2000.0000     21.3263    104.9623
   682.0000   2000.0000   2000.0000     21.4068    104.6268
   682.2500   2000.0000   2000.0000     21.3844    105.7296
   682.5000   2000.0000   2000.0000     21.2586    110.2550
   682.7500   2000.0000   2000.0000     21.0204    114.8839
   683.0000   2000.0000   2000.0000     20.6600    122.2095
   683.2500   2000.0000   2000.0000     20.1819    126.0971
   683.5000   2000.0000   2000.0000     19.6027    129.8297
   683.7500   2000.0000   2000.0000     18.9431    131.4632
   684.0000   2000.0000   2000.0000     18.2294    133.7176
   684.2500   2000.0000   2000.0000     17.5042    135.2242
   684.5000   2000.0000   2000.0000     16.8233    136.9702
   684.7500   2000.0000   2000.0000     16.2381    137.4435
   685.0000   2000.0000   2000.0000     15.7780    136.9289
   685.2500   2000.0000   2000.0000     15.4462    135.9958
   685.5000   2000.0000   2000.0000     15.2248    134.6856
   685.7500   2000.0000   2000.0000     15.0785    134.5295
   686.0000   2000.0000   2000.0000     14.9610    135.7093
   686.2500   2000.0000   2000.0000     14.8281    136.9455
   686.5000   2000.0000   2000.0000     14.6545    138.2507
   686.7500   2000.0000   2000.0000     14.4415    138.4588
   687.0000   2000.0000   2000.0000     14.2079    138.3013
   687.2500   2000.0000   2000.0000     13.9706    138.4553
   687.5000   2000.0000   2000.0000     13.7336    139.5725
   687.7500   2000.0000   2000.0000     13.4918    140.6396
   688.0000   2000.0000   2000.0000     13.2453    141.7065
   688.2500   2000.0000   2000.0000     13.0097    141.6915
   688.5000   2000.0000   2000.0000     12.8111    140.8513
   688.7500   2000.0000   2000.0000     12.6710    140.1890
   689.0000   2000.0000   2000.0000     12.5929    139.6132
   689.2500   2000.0000   2000.0000     12.5631    139.6383
   689.5000   2000.0000   2000.0000     12.5616    140.3615
   689.7500   2000.0000   2000.0000     12.5754    141.2787
   690.0000   2000.0000   2000.0000     12.6020    142.9760
   690.2500   2000.0000   2000.0000     12.6454    143.9978
   690.5000   2000.0000   2000.0000     12.7082    144.9308
   690.7500   2000.0000   2000.0000     12.7856    145.0613
   691.0000   2000.0000   2000.0000     12.8655    144.5730
   691.2500   2000.0000   2000.0000     12.9302    143.9591
   691.5000   2000.0000   2000.0000     12.9618    142.9606
   691.7500   2000.0000   2000.0000     12.9490    142.1133
   692.0000   2000.0000   2000.0000     12.8952    139.5493
   692.2500   2000.0000   2000.0000     12.8232    136.4508
   692.5000   2000.0000   2000.0000     12.7690    130.1111
   692.7500   2000.0000   2000.0000     12.7691    125.7627
   693.0000   2000.0000   2000.0000     12.8479    121.0815
   693.2500   2000.0000   2000.0000     13.0140    119.8868
   693.5000   2000.0000   2000.0000     13.2617    120.6653
   693.7500   2000.0000   2000.0000     13.5744    121.8883
   694.0000   2000.0000   2000.0000     13.9292    122.5193
   694.2500   2000.0000   2000.0000     14.3022    121.1853
