~Version Information
VERS.                      2.0: CWLS Log ASCII Standard - VERSION 2.0
WRAP.                       NO: One line per depth step
~Well Information Block
STRT.FT               555.5000: 
STOP.FT              2179.0000: 
STEP.FT                 0.2500: 
NULL.                -999.2500: 
COMP.          Petrogulf Corporation: COMPANY
WELL.            Montoya 6-14R: WELL
FLD.           Purgatorie River: FIELD
LOC.           867' FSL & 751' FWL: LOCATION
CNTY.               Las Animas: COUNTY
SRVC.                         : SERVICE COMPANY
DATE.          Mon Nov 15 07:02:23 2004: LOG DATE
UWI.           05 071 08242 00: UNIQUE WELL ID
STAT.                 Colorado: STATE
~Curve Information Block
DEPT.FT            0 000 00 00: Depth
SP.mV                         : DIL Spontaneous Potential
RILD.Ohm-m                    : DIL Deep Resistivity
RILM.Ohm-m                    : DIL Medium Resistivity
RLL3.Ohm-m                    : DIL Shallow Resistivity
GR.GAPI                       : Gamma Ray
~Parameter Information Block
~A  Depth        SP         RILD        RILM        RLL3         GR     
# ...
  1311.5000   -184.5853     14.7859     14.2698     15.8380    116.2455
  1311.7500   -183.9905     14.6111     14.2080     16.1227    114.8499
  1312.0000   -183.0479     14.5140     14.2052     16.4317    111.9546
  1312.2500   -181.7976     14.5007     14.2549     16.7290    110.1160
  1312.5000   -180.2962     14.5762     14.3551     17.0046    108.1877
  1312.7500   -178.6124     14.7442     14.5083     17.2718    107.4591
  1313.0000   -176.8286     15.0073     14.7210     17.5620    106.7984
  1313.2500   -175.0498     15.3660     15.0024     17.9239    106.5158
  1313.5000   -173.3972     15.8187     15.3646     18.4400    106.5667
  1313.7500   -172.0087     16.3607     15.8210     19.2554    107.0374
  1314.0000   -171.0164     16.9834     16.3856     20.6129    107.9174
  1314.2500   -170.5258     17.6727     17.0718     22.8833    108.0349
  1314.5000   -170.5967     18.4085     17.8903     26.5566    106.7717
  1314.7500   -171.2254     19.1632     18.8459     32.1581    104.8450
  1315.0000   -172.3429     19.9025     19.9330     40.0714    100.0953
  1315.2500   -173.8296     20.5881     21.1283     50.2930     95.3855
  1315.5000   -175.5367     21.1813     22.3834     62.2061     85.8054
  1315.7500   -177.3159     21.6492     23.6189     74.5007     78.2113
  1316.0000   -179.0409     21.9699     24.7236     85.3440     66.7681
  1316.2500   -180.6216     22.1361     25.5690     92.8110     60.2903
  1316.5000   -181.9993     22.1544     26.0380     95.4467     53.9690
  1316.7500   -183.1405     22.0420     26.0613     92.7360     52.7192
  1317.0000   -184.0260     21.8212     25.6442     85.2696     56.0367
  1317.2500   -184.6454     21.5163     24.8657     74.5337     61.7066
  1317.5000   -185.0009     21.1491     23.8507     62.4201     74.1187
  1317.7500   -185.1049     20.7398     22.7336     50.6833     83.4925
  1318.0000   -184.9834     20.3069     21.6285     40.5540     96.2010
  1318.2500   -184.6678     19.8678     20.6169     32.6152    102.5071
  1318.5000   -184.1822     19.4394     19.7477     26.9055    108.2352
  1318.7500   -183.5373     19.0374     19.0435     23.1346    110.1022
  1319.0000   -182.7250     18.6758     18.5082     20.8893    111.2491
  1319.2500   -181.7253     18.3655     18.1335     19.7670    111.4047
  1319.5000   -180.5239     18.1133     17.9027     19.4275    111.1417
  1319.7500   -179.1235     17.9226     17.7931     19.5944    110.8535
  1320.0000   -177.5668     17.7924     17.7776     20.0392    110.6270
  1320.2500   -175.9392     17.7188     17.8264     20.5714    110.6610
  1320.5000   -174.3633     17.6947     17.9091     21.0376    110.7989
  1320.7500   -172.9809     17.7106     17.9976     21.3264    110.8846
  1321.0000   -171.9249     17.7551     18.0691     21.3756    111.0424
  1321.2500   -171.2902     17.8142     18.1085     21.1764    111.1063
  1321.5000   -171.1195     17.8726     18.1093     20.7650    110.9023
  1321.7500   -171.3916     17.9146     18.0725     20.2072    110.5878
  1322.0000   -172.0322     17.9252     18.0041     19.5816    110.3049
  1322.2500   -172.9343     17.8926     17.9116     18.9646    110.5231
  1322.5000   -173.9816     17.8099     17.8009     18.4217    111.5653
  1322.7500   -175.0713     17.6760     17.6750     18.0067    112.5987
  1323.0000   -176.1309     17.4965     17.5324     17.7611    114.2817
  1323.2500   -177.1246     17.2812     17.3689     17.7129    115.2689
  1323.5000   -178.0453     17.0423     17.1782     17.8696    116.1530
  1323.7500   -178.9052     16.7922     16.9554     18.2074    116.0734
  1324.0000   -179.7207     16.5422     16.6982     18.6643    114.5022
  1324.2500   -180.5040     16.3009     16.4089     19.1429    112.3913
  1324.5000   -181.2493     16.0756     16.0950     19.5260    107.9767
  1324.7500   -181.9398     15.8722     15.7680     19.7051    104.7731
  1325.0000   -182.5392     15.6956     15.4428     19.6084    101.1744
  1325.2500   -183.0014     15.5499     15.1347     19.2214    100.6136
  1325.5000   -183.2716     15.4375     14.8585     18.5897    103.4501
  1325.7500   -183.2937     15.3588     14.6263     17.8036    107.3825
  1326.0000   -183.0284     15.3111     14.4467     16.9730    114.2111
  1326.2500   -182.4623     15.2889     14.3244     16.2023    117.9738
  1326.5000   -181.6228     15.2837     14.2603     15.5722    121.1067
  1326.7500   -180.5793     15.2855     14.2513     15.1340    121.6369
  1327.0000   -179.4375     15.2847     14.2912     14.9125    121.1485
  1327.2500   -178.3229     15.2735     14.3712     14.9124    120.4512
  1327.5000   -177.3566     15.2481     14.4807     15.1241    118.8826
  1327.7500   -176.6366     15.2086     14.6079     15.5255    117.3100
  1328.0000   -176.2211     15.1595     14.7406     16.0783    114.2993
  1328.2500   -176.1169     15.1082     14.8667     16.7247    112.2004
  1328.5000   -176.2827     15.0630     14.9750     17.3862    109.3897
  1328.7500   -176.6451     15.0316     15.0560     17.9704    107.8604
  1329.0000   -177.1216     15.0192     15.1035     18.3873    106.3204
  1329.2500   -177.6443     15.0277     15.1159     18.5694    105.9873
  1329.5000   -178.1838     15.0549     15.0966     18.4923    106.7579
  1329.7500   -178.7493     15.0953     15.0546     18.1844    108.1416
  1330.0000   -179.3806     15.1407     15.0024     17.7229    111.2758
  1330.2500   -180.1197     15.1812     14.9545     17.2147    113.6341
  1330.5000   -180.9828     15.2075     14.9239     16.7697    116.3890
  1330.7500   -181.9384     15.2116     14.9201     16.4729    117.1020
  1331.0000   -182.9069     15.1886     14.9474     16.3642    116.2724
  1331.2500   -183.7720     15.1377     15.0040     16.4311    114.8355
  1331.5000   -184.4140     15.0619     15.0829     16.6157    112.3981
  1331.7500   -184.7462     14.9676     15.1732     16.8329    111.1080
  1332.0000   -184.7409     14.8629     15.2621     16.9950    109.9528
  1332.2500   -184.4401     14.7564     15.3379     17.0350    109.4737
  1332.5000   -183.9417     14.6560     15.3922     16.9217    108.7333
  1332.7500   -183.3728     14.5667     15.4215     16.6644    108.3107
  1333.0000   -182.8429     14.4915     15.4273     16.3048    108.4495
  1333.2500   -182.4190     14.4309     15.4157     15.9025    109.3109
  1333.5000   -182.1001     14.3835     15.3955     15.5189    111.3814
  1333.7500   -181.8239     14.3468     15.3768     15.2047    112.7266
  1334.0000   -181.4868     14.3185     15.3692     14.9946    113.9554
  1334.2500   -180.9744     14.2965     15.3805     14.9069    114.2549
  1334.5000   -180.2026     14.2795     15.4153     14.9484    114.5148
  1334.7500   -179.1453     14.2670     15.4748     15.1185    114.8520
  1335.0000   -177.8474     14.2585     15.5560     15.4131    115.5282
  1335.2500   -176.4237     14.2536     15.6512     15.8256    115.8199
  1335.5000   -175.0309     14.2508     15.7489     16.3428    115.7150
  1335.7500   -173.8303     14.2477     15.8340     16.9403    115.3646
  1336.0000   -172.9404     14.2402     15.8902     17.5760    114.7260
  1336.2500   -172.4024     14.2231     15.9014     18.1876    114.2422
  1336.5000   -172.1689     14.1912     15.8547     18.6982    113.2391
  1336.7500   -172.1223     14.1402     15.7427     19.0281    112.4688
  1337.0000   -172.1157     14.0676     15.5639     19.1150    111.8767
  1337.2500   -172.0221     13.9737     15.3239     18.9296    112.2704
  1337.5000   -171.7761     13.8607     15.0335     18.4861    114.0230
  1337.7500   -171.3824     13.7326     14.7075     17.8385    115.5497
  1338.0000   -170.9040     13.5935     14.3625     17.0675    117.5589
  1338.2500   -170.4236     13.4474     14.0149     16.2618    118.4038
  1338.5000   -170.0076     13.2974     13.6798     15.5009    118.6477
  1338.7500   -169.6848     13.1462     13.3698     14.8439    118.0189
  1339.0000   -169.4559     12.9959     13.0947     14.3260    115.8238
  1339.2500   -169.3124     12.8492     12.8608     13.9606    113.6748
