~Version Information
VERS.                      2.0: CWLS Log ASCII Standard - VERSION 2.0
WRAP.                       NO: One line per depth step
~Well Information Block
STRT.FT               575.0000: 
STOP.FT              2016.2500: 
STEP.FT                 0.2500: 
NULL.                -999.2500: 
COMP.          Pioneer Natural Resources: COMPANY
WELL.          Bucksnort 41-35: WELL
FLD.           Purgatoire River: FIELD
LOC.           117' FNL & 463' FEL--: LOCATION
PROV.                 Colorado: PROVINCE
CNTY.               Las Animas: COUNTRY
SRVC.                Patterson: SERVICE COMPANY
DATE.          Thu Jul 21 10:13:55 2005: LOG DATE
UWI.           05 071 08401 00: UNIQUE WELL ID
~Curve Information Block
DEPT.FT            0 000 00 00: Depth
SN.Ohm-m                      : IEL Short Normal
SP.mV                         : IEL Spontaneous Potential
DIR.Ohm-m                     : IEL Induction Resistivity
GR.GAPI                       : Gamma Ray
~Parameter Information Block
~A  Depth        SN          SP         DIR          GR     
# ...
  1044.0000     11.7169    -48.1065     11.4987    138.9854
  1044.2500     12.1141    -48.1755     11.9018    136.0229
  1044.5000     12.5178    -48.0553     12.2265    132.5182
  1044.7500     12.9907    -47.7748     12.4455    131.2288
  1045.0000     13.5590    -47.4092     12.5211    131.2878
  1045.2500     14.2082    -47.0722     12.4130    132.4837
  1045.5000     14.8894    -46.8967     12.1061    134.0987
  1045.7500     15.5257    -47.0063     11.6436    133.4256
  1046.0000     16.0412    -47.4826     11.1310    128.7190
  1046.2500     16.4191    -48.3337     10.7096    124.2122
  1046.5000     16.7323    -49.4766     10.5372    118.4176
  1046.7500     17.1011    -50.7422     10.8218    116.0793
  1047.0000     17.6083    -51.9078     11.9606    114.0278
  1047.2500     18.2598    -52.7533     15.0225    112.6211
  1047.5000     19.0129    -53.1251     24.4634    109.6092
  1047.7500     19.8130    -52.9890    110.7762    107.1282
  1048.0000     20.6052    -52.4519 100000.0000    103.0825
  1048.2500     21.3470    -51.7436 100000.0000    100.2985
  1048.5000     22.0334    -51.1631 100000.0000     96.4128
  1048.7500     22.6919    -51.0051 100000.0000     94.4770
  1049.0000     23.3389    -51.4935 100000.0000     93.3806
  1049.2500     23.9476    -52.7407 100000.0000     94.1410
  1049.5000     24.4634    -54.7438 100000.0000     97.4296
  1049.7500     24.8398    -57.4154     44.1356    100.6362
  1050.0000     25.0558    -60.6341     22.4381    105.8735
  1050.2500     25.1036    -64.2976     16.0050    108.9793
  1050.5000     24.9674    -68.3610     12.5357    111.9323
  1050.7500     24.6238    -72.8533     10.0226    112.1461
  1051.0000     24.0725    -77.8747      8.1553    109.4167
  1051.2500     23.3700    -83.5771      7.0169    106.2041
  1051.5000     22.6225    -90.1412      6.8094    101.9724
  1051.7500     21.9297    -97.7553      8.3638    101.1647
  1052.0000     21.3303   -106.6083     20.0386    103.6964
  1052.2500     20.7952   -116.8940 100000.0000    106.7564
  1052.5000     20.2445   -128.8279 100000.0000    110.6002
  1052.7500     19.5505   -142.6698 100000.0000    111.9129
  1053.0000     18.5422   -158.7395 100000.0000    113.1007
  1053.2500     17.0540   -177.4105 100000.0000    114.6106
  1053.5000     15.0210   -199.0689 100000.0000    118.9410
  1053.7500     12.5594   -224.0298 100000.0000    122.5369
  1054.0000      9.9563   -252.4221      3.7829    126.2452
  1054.2500      7.5465   -284.0676      0.8769    125.8585
  1054.5000      5.5522   -318.3908      0.3898    119.2500
  1054.7500      4.0067   -354.3994      0.2174    110.8990
  1055.0000      2.8152   -390.7575      0.1561     94.4098
  1055.2500      1.8764   -425.9478      0.1554     82.7800
  1055.5000      1.1501   -458.4923      0.2146     68.3510
  1055.7500      0.6369   -487.1707      0.3806     62.4141
  1056.0000      0.3262   -511.1814      0.8243     59.1852
  1056.2500      0.1735   -530.2031      2.7667     59.3517
  1056.5000      0.1175   -544.3489 100000.0000     59.7997
  1056.7500      0.1074   -554.0295 100000.0000     59.0809
  1057.0000      0.1141   -559.7719 100000.0000     56.5854
  1057.2500      0.1250   -562.0431 100000.0000     54.7001
  1057.5000      0.1344   -561.1185 100000.0000     52.3395
  1057.7500      0.1378   -557.0220 100000.0000     50.9078
  1058.0000      0.1332   -549.5432 100000.0000     48.1128
  1058.2500      0.1209   -538.3217 100000.0000     45.5494
  1058.5000      0.1040   -522.9755 100000.0000     41.2707
  1058.7500      0.0871   -503.2420 100000.0000     39.0088
  1059.0000      0.0769   -479.0985 100000.0000     38.0465
  1059.2500      0.0836   -450.8367      1.9919     39.5767
  1059.5000      0.1293   -419.0768      0.6228     45.5482
  1059.7500      0.2705   -384.7223      0.2555     52.1059
  1060.0000      0.6337   -348.8675      0.1134     65.6344
  1060.2500      1.4364   -312.6794      0.0613     76.5565
  1060.5000      2.9421   -277.2819      0.0468     94.2270
  1060.7500      5.3156   -243.6551      0.0538    105.8579
  1061.0000      8.4466   -212.5661      0.0915    121.1597
  1061.2500     11.9073   -184.5341      0.2061    128.6472
  1061.5000     15.1342   -159.8291      0.5258    134.1890
  1061.7500     17.7116   -138.4996      1.8113    134.1998
  1062.0000     19.5259   -120.4211 100000.0000    130.9023
  1062.2500     20.7132   -105.3541 100000.0000    128.2812
  1062.5000     21.5118    -93.0012 100000.0000    125.8873
  1062.7500     22.1392    -83.0531 100000.0000    125.5258
  1063.0000     22.7230    -75.2167 100000.0000    125.6468
  1063.2500     23.2800    -69.2245 100000.0000    125.2139
  1063.5000     23.7507    -64.8257     83.0151    122.7588
  1063.7500     24.0636    -61.7690      9.1987    119.8282
  1064.0000     24.1829    -59.7906      6.2277    114.0473
  1064.2500     24.1255    -58.6081      5.9631    109.8242
  1064.5000     23.9612    -57.9258      6.8434    103.8301
  1064.7500     23.7860    -57.4486      8.7470    100.4438
  1065.0000     23.6658    -56.9084     11.9142     97.1419
  1065.2500     23.5961    -56.0923     17.2942     96.8981
  1065.5000     23.5148    -54.8720     30.2150    100.2901
  1065.7500     23.3440    -53.2273    178.3871    104.5364
  1066.0000     23.0195    -51.2519 100000.0000    111.5783
  1066.2500     22.5047    -49.1344 100000.0000    115.4386
  1066.5000     21.7925    -47.1171 100000.0000    118.8651
  1066.7500     20.8941    -45.4387 100000.0000    119.4968
  1067.0000     19.8283    -44.2808 100000.0000    118.7879
  1067.2500     18.6264    -43.7364 100000.0000    118.2762
  1067.5000     17.3488    -43.8068 100000.0000    119.3916
  1067.7500     16.0887    -44.4245 100000.0000    121.8289
  1068.0000     14.9439    -45.4887 100000.0000    127.1528
  1068.2500     13.9725    -46.8932     23.4275    130.8203
  1068.5000     13.1743    -48.5387     13.1590    134.9952
  1068.7500     12.5113    -50.3279     10.2767    136.4262
  1069.0000     11.9422    -52.1540      9.2225    136.6381
  1069.2500     11.4384    -53.8959      8.8884    135.9967
  1069.5000     10.9813    -55.4274      8.8980    134.9611
  1069.7500     10.5550    -56.6391      9.0771    134.7349
  1070.0000     10.1446    -57.4677      9.3169    135.7541
  1070.2500      9.7399    -57.9087      9.5341    137.6243
  1070.5000      9.3407    -58.0176      9.6691    142.1449
  1070.7500      8.9514    -57.8886      9.6931    145.7898
  1071.0000      8.5674    -57.6198      9.6059    150.9510
  1071.2500      8.1692    -57.2780      9.4259    153.5040
  1071.5000      7.7378    -56.8741      9.1787    154.9316
  1071.7500      7.2792    -56.3597      8.8926    153.8199
  1072.0000      6.8315    -55.6456      8.5959    149.2326
  1072.2500      6.4471    -54.6383      8.3130    145.0373
  1072.5000      6.1652    -53.2837      8.0617    139.0611
  1072.7500      5.9989    -51.6045      7.8529    136.4016
  1073.0000      5.9395    -49.7153      7.6924    135.4951
  1073.2500      5.9648    -47.8085      7.5837    136.7956
  1073.5000      6.0418    -46.1142      7.5283    139.9706
  1073.7500      6.1317    -44.8443      7.5256    141.6157
  1074.0000      6.2097    -44.1399      7.5710    141.7918
  1074.2500      6.2854    -44.0408      7.6566    140.1794
  1074.5000      6.3985    -44.4845      7.7728    135.9056
  1074.7500      6.5851    -45.3311      7.9100    132.5491
  1075.0000      6.8470    -46.4081      8.0610    127.7582
  1075.2500      7.1530    -47.5524      8.2214    124.8823
  1075.5000      7.4643    -48.6404      8.3893    120.7826
  1075.7500      7.7569    -49.6008      8.5649    118.2055
  1076.0000      8.0239    -50.4107      8.7485    115.3870
  1076.2500      8.2648    -51.0817      8.9390    114.8806
  1076.5000      8.4771    -51.6453      9.1325    116.8379
  1076.7500      8.6573    -52.1380      9.3227    119.8673
  1077.0000      8.8085    -52.5926      9.5033    126.1610
  1077.2500      8.9410    -53.0347      9.6704    130.7014
