~Version Information
VERS.                      2.0: CWLS Log ASCII Standard - VERSION 2.0
WRAP.                       NO: One line per depth step
~Well Information Block
STRT.FT               664.0000: 
STOP.FT              1615.5000: 
STEP.FT                 0.2500: 
NULL.                -999.2500: 
COMP.          Petrogulf Corporation: COMPANY
WELL.          Great Plains 22-21R: WELL
FLD.           Purgatorie River: FIELD
LOC.           73' FNL & 1992' FWL: LOCATION
PROV.                 Colorado: PROVINCE
CNTY.               Las Animas: COUNTRY
SRVC.                Patterson: SERVICE COMPANY
DATE.          Thu Sep 08 08:05:26 2005: LOG DATE
UWI.                          : UNIQUE WELL ID
~Curve Information Block
DEPT.FT            0 000 00 00: Depth
SP.mV                         : DIL Spontaneous Potential
RILD.Ohm-m                    : DIL Deep Resistivity
RILM.Ohm-m                    : DIL Medium Resistivity
RLL3.Ohm-m                    : DIL Shallow Resistivity
GR.GAPI                       : Gamma Ray
~Parameter Information Block
~A  Depth        SP         RILD        RILM        RLL3         GR     
# ...
  1168.0000    151.0262     15.8152     14.6456     13.5209   -999.2500
  1168.2500    150.8662     16.0526     14.7690     11.4969   -999.2500
  1168.5000    150.8513     15.8423     15.4498     11.3139   -999.2500
  1168.7500    150.9580     15.7903     16.2409     14.6156   -999.2500
  1169.0000    151.0407     15.7693     17.2480     24.9513   -999.2500
  1169.2500    151.1855     15.5714     18.0707     43.1906   -999.2500
  1169.5000    151.3352     15.7927     18.2418     51.5866   -999.2500
  1169.7500    151.3633     15.9090     17.9309     36.7175   -999.2500
  1170.0000    151.2049     15.7310     18.0587     23.3434   -999.2500
  1170.2500    150.9575     15.6591     18.5513     17.8561   -999.2500
  1170.5000    150.7517     15.6844     19.8382     18.8739   -999.2500
  1170.7500    150.6471     15.9595     21.7954     31.8170   -999.2500
  1171.0000    150.5653     15.4779     23.7841     63.5325   -999.2500
  1171.2500    150.5563     14.4944     25.4688     99.7131   -999.2500
  1171.5000    150.5878     13.2918     24.2952    116.2849   -999.2500
  1171.7500    150.8152     12.4640     20.9820    111.8362   -999.2500
  1172.0000    151.0855     11.6388     17.4001     87.5607   -999.2500
  1172.2500    151.3043     11.0189     14.1699     48.9605   -999.2500
  1172.5000    151.5146     10.6603     11.7644     20.2605   -999.2500
  1172.7500    151.8073     10.3775     10.4720     10.3777   -999.2500
  1173.0000    152.0474     10.1473      9.3156      8.2627   -999.2500
  1173.2500    152.4352      9.8928      8.6133      7.8611   -999.2500
  1173.5000    152.8799      9.8764      8.1759      7.7187   -999.2500
  1173.7500    153.2639      9.8286      7.8988      7.6330   -999.2500
  1174.0000    153.5251      9.9466      7.8403      7.1071   -999.2500
  1174.2500    153.6445      9.7702      7.9816      7.0251   -999.2500
  1174.5000    153.5933      9.6518      8.3609      7.4496   -999.2500
  1174.7500    153.3345      9.6821      8.9803     10.0596   -999.2500
  1175.0000    153.0517      9.7397      9.5959     17.5120   -999.2500
  1175.2500    152.6795      9.8391     10.4303     29.2172   -999.2500
  1175.5000    152.2938     10.2442     11.1491     38.1143   -999.2500
  1175.7500    151.9146     10.6767     11.6038     34.6865   -999.2500
  1176.0000    151.6523     11.2744     12.2371     25.9844   -999.2500
  1176.2500    151.4021     12.0113     12.8392     21.7195   -999.2500
  1176.5000    151.2269     13.0588     13.9008     20.5675   -999.2500
  1176.7500    151.0641     14.4443     15.4023     19.4490   -999.2500
  1177.0000    150.9157     16.0954     17.1917     19.1865   -999.2500
  1177.2500    150.7861     17.2666     19.5842     22.6930   -999.2500
  1177.5000    150.7781     17.7431     22.3113     29.3306   -999.2500
  1177.7500    150.7585     18.1962     25.0326     38.2059   -999.2500
  1178.0000    150.7098     18.5291     26.8499     44.7871   -999.2500
  1178.2500    150.7129     18.4952     27.6989     45.0295   -999.2500
  1178.5000    150.7122     18.3571     27.1683     42.8688   -999.2500
  1178.7500    150.6933     18.4035     26.9850     38.3382   -999.2500
  1179.0000    150.6467     18.0416     26.3879     31.6457   -999.2500
  1179.2500    150.5481     17.4029     24.9769     24.7919   -999.2500
  1179.5000    150.4341     16.6857     23.7124     21.1601   -999.2500
  1179.7500    150.3307     16.0861     22.9711     20.9971   -999.2500
  1180.0000    150.2659     15.4776     21.6414     22.5813   -999.2500
  1180.2500    150.0958     14.6326     20.4580     26.3834   -999.2500
  1180.5000    149.8983     13.5098     18.7333     28.1634   -999.2500
  1180.7500    149.7139     12.8036     16.4972     23.2182   -999.2500
  1181.0000    149.5330     12.1354     14.5331     19.2455   -999.2500
  1181.2500    149.3327     11.5301     12.8504     16.4635   -999.2500
  1181.5000    149.1735     11.2085     11.3691     13.2111   -999.2500
  1181.7500    149.1413     10.8195     10.3429     10.1888   -999.2500
  1182.0000    149.1888     10.5472      9.6175      8.5604   -999.2500
  1182.2500    149.2817     10.3845      9.2114      8.2176   -999.2500
  1182.5000    149.3043     10.2715      9.0521      8.3842   -999.2500
  1182.7500    149.3309     10.3513      9.0071      8.9996   -999.2500
  1183.0000    149.4604     10.4844      8.9865      9.1074   -999.2500
  1183.2500    149.5739     10.4748      9.1875      9.0587   -999.2500
  1183.5000    149.5877     10.5192      9.5537      9.3491   -999.2500
  1183.7500    149.4830     10.6174     10.1804     10.7029   -999.2500
  1184.0000    149.4216     10.9359     10.9377     12.8376   -999.2500
  1184.2500    149.3808     11.2300     11.5745     16.2909   -999.2500
  1184.5000    149.3706     11.6580     12.5471     20.0564   -999.2500
  1184.7500    149.3994     12.2333     13.8285     23.5492   -999.2500
  1185.0000    149.4168     12.7378     14.8642     26.7496   -999.2500
  1185.2500    149.4678     13.3418     15.7352     27.9584   -999.2500
  1185.5000    149.6592     13.6978     16.7894     27.8066   -999.2500
  1185.7500    149.9531     14.2589     17.4185     26.3205   -999.2500
  1186.0000    150.1786     14.5916     18.3915     23.5594   -999.2500
  1186.2500    150.3556     14.4409     19.0564     21.6936   -999.2500
  1186.5000    150.4932     13.9339     19.0517     25.8091   -999.2500
  1186.7500    150.6133     13.5079     18.2689     39.4668   -999.2500
  1187.0000    150.7035     12.9584     16.4980     52.7735   -999.2500
  1187.2500    150.7517     12.5200     14.5116     37.9073   -999.2500
  1187.5000    150.7654     12.2256     12.7062     18.7710   -999.2500
  1187.7500    150.8186     11.6976     11.5001     10.3812   -999.2500
  1188.0000    150.7345     11.2509     10.6157      8.0459   -999.2500
  1188.2500    150.5278     10.8391     10.0449      8.4612   -999.2500
  1188.5000    150.4145     10.4209      9.8828      9.1901   -999.2500
  1188.7500    150.2938     10.0893      9.7377     10.0080   -999.2500
  1189.0000    150.0454      9.7901      9.4654     10.3845   -999.2500
  1189.2500    149.7928      9.4336      9.3258     10.5990   -999.2500
  1189.5000    149.5081      9.1559      9.0752     10.8324   -999.2500
  1189.7500    149.2800      9.0011      8.9247     10.7734   -999.2500
  1190.0000    149.0739      8.8898      8.7317     10.7526   -999.2500
  1190.2500    148.9680      8.9984      8.6401     11.5167   -999.2500
  1190.5000    148.8631      9.0052      8.8217     11.8172   -999.2500
  1190.7500    148.7099      9.1658      8.8891     11.3406   -999.2500
  1191.0000    148.6488      9.3698      9.0020     10.7212   -999.2500
  1191.2500    148.8209      9.4713      9.2883     10.1633   -999.2500
  1191.5000    149.1436      9.7333      9.6763     10.7234   -999.2500
  1191.7500    149.4437      9.9857     10.1634     12.3240   -999.2500
  1192.0000    149.5695     10.2073     10.5513     16.0259   -999.2500
  1192.2500    149.7876     10.5354     10.7776     19.6047   -999.2500
  1192.5000    150.0544     10.8335     11.1661     17.8569   -999.2500
  1192.7500    150.1690     11.2694     11.2930     15.3885   -999.2500
  1193.0000    150.1056     11.6548     11.4926     13.8246   -999.2500
  1193.2500    149.9386     12.5431     11.8768     12.9310   -999.2500
  1193.5000    149.7015     13.1789     12.5977     12.7861   -999.2500
  1193.7500    149.3649     14.0109     13.8832     14.2721   -999.2500
  1194.0000    148.9888     15.0653     15.7411     19.4595   -999.2500
  1194.2500    148.7570     15.8933     18.0173     32.3987   -999.2500
  1194.5000    148.5453     16.6544     20.2024     55.8795   -999.2500
  1194.7500    148.2300     17.4305     22.4879     79.2501   -999.2500
  1195.0000    147.8946     17.9184     24.3799     92.6826   -999.2500
  1195.2500    147.5257     18.6177     26.5600     99.0979   -999.2500
  1195.5000    147.2198     19.5290     28.6499    100.6496   -999.2500
  1195.7500    146.8976     19.9109     31.1151     93.0145   -999.2500
