~Version Information
VERS.                      2.0: CWLS Log ASCII Standard - VERSION 2.0
WRAP.                       NO: One line per depth step
~Well Information Block
STRT.FT               780.0000: 
STOP.FT              3152.2000: 
STEP.FT                 0.1000: 
NULL.                -999.2500: 
COMP.          Pioneer Natural Resources: COMPANY
WELL.            Paradise 13-8: WELL
FLD.           Purgatoire River: FIELD
LOC.           1896' FSL & 1120' FWL: LOCATION
PROV.                 Colorado: PROVINCE
CNTY.               Las Animas: COUNTRY
SRVC.                Patterson: SERVICE COMPANY
DATE.          Sat Jan 22 20:51:32 2005: LOG DATE
UWI.           05 071 07946 00: UNIQUE WELL ID
~Curve Information Block
DEPT.FT            0 000 00 00: Depth
DCAL.in                       : CDL Caliper
RHOB.g/cc                     : CDL Bulk Density
RHOC.g/cc                     : CDL Density Correction
DPOR.pu                       : CDL Density Porosity
NPOR.pu                       : Neutron Porosity
GR.GAPI                       : Gamma Ray
~Parameter Information Block
~A  Depth       DCAL        RHOB        RHOC        DPOR        NPOR         GR     
# ...
  1096.8000      8.0683      2.5550      0.0456      5.7564     27.3509     97.9670
  1096.9000      8.0683      2.5352      0.0028      6.9557     27.9804     97.2372
  1097.0000      8.0685      2.5212      0.0044      7.8037     28.2379    100.7703
  1097.1000      8.0685      2.5255      0.0114      7.5472     28.1040    103.4829
  1097.2000      8.0685      2.5432      0.0381      6.4697     27.9404    103.2676
  1097.3000      8.0692      2.5655      0.0318      5.1203     28.0541    103.2940
  1097.4000      8.0692      2.5787      0.0632      4.3227     28.5191    106.9679
  1097.5000      8.0697      2.5769      0.0338      4.4323     28.9617    113.1018
  1097.6000      8.0697      2.5750      0.0153      4.5427     29.1796    115.5515
  1097.7000      8.0697      2.5842      0.0032      3.9868     29.3427    113.0641
  1097.8000      8.0686      2.5913      0.0588      3.5559     29.4772    111.2556
  1097.9000      8.0686      2.5737      0.0740      4.6224     29.6928    112.7168
  1098.0000      8.0677      2.5436     -0.0321      6.4464     29.9523    114.8124
  1098.1000      8.0677      2.5441      0.0109      6.4195     29.7476    114.4617
  1098.2000      8.0677      2.5745      0.0650      4.5787     29.0594    114.1686
  1098.3000      8.0676      2.5933      0.0868      3.4388     28.4797    114.8328
  1098.4000      8.0676      2.5878      0.0453      3.7708     28.1005    111.6594
  1098.5000      8.0677      2.5810      0.0339      4.1826     27.5896    107.6732
  1098.6000      8.0677      2.5873      0.0479      3.7996     27.0162    110.6280
  1098.7000      8.0677      2.5984      0.0818      3.1244     26.8055    116.1165
  1098.8000      8.0678      2.6040      0.0682      2.7893     27.0687    116.5056
  1098.9000      8.0678      2.6021      0.0396      2.9042     27.5410    114.7076
  1099.0000      8.0685      2.5919      0.0484      3.5212     27.7764    113.9627
  1099.1000      8.0685      2.5761      0.0445      4.4815     27.4166    114.2213
  1099.2000      8.0685      2.5674     -0.0003      5.0036     26.9323    116.0023
  1099.3000      8.0698      2.5737      0.0363      4.6226     26.8786    117.4100
  1099.4000      8.0698      2.5779      0.0633      4.3683     26.9244    115.5062
  1099.5000      8.0711      2.5608      0.0479      5.4053     26.6929    111.9370
  1099.6000      8.0711      2.5283      0.0149      7.3768     26.1759    110.1645
  1099.7000      8.0711      2.4958      0.0409      9.3450     25.4040    108.4052
  1099.8000      8.0708      2.4773     -0.0120     10.4663     24.6206    108.2953
  1099.9000      8.0708      2.4817      0.0546     10.1987     24.3272    113.8513
  1100.0000      8.0682      2.4971      0.0157      9.2675     24.5689    119.1999
  1100.1000      8.0682      2.5102      0.0529      8.4708     24.8845    117.7056
  1100.2000      8.0682      2.5216      0.0383      7.7810     24.7362    112.3181
  1100.3000      8.0666      2.5371      0.0286      6.8395     24.1648    109.2156
  1100.4000      8.0666      2.5515      0.0692      5.9691     23.8949    110.7496
  1100.5000      8.0685      2.5511      0.0684      5.9941     24.0806    114.8810
  1100.6000      8.0685      2.5404      0.0265      6.6432     24.4251    117.1799
  1100.7000      8.0685      2.5354      0.0532      6.9426     24.9633    114.5366
  1100.8000      8.0695      2.5439      0.0265      6.4324     25.4349    108.9825
  1100.9000      8.0695      2.5646      0.0793      5.1771     25.3241    107.5320
  1101.0000      8.0671      2.5833      0.0569      4.0423     24.9832    113.7358
  1101.1000      8.0671      2.5860      0.0589      3.8790     24.9201    118.9202
  1101.2000      8.0671      2.5797      0.0515      4.2607     24.7482    113.8815
  1101.3000      8.0663      2.5821      0.0576      4.1142     24.3308    103.9340
  1101.4000      8.0663      2.5941      0.0734      3.3896     23.8971     98.3928
  1101.5000      8.0666      2.6023      0.0665      2.8934     23.6237     97.8668
  1101.6000      8.0666      2.5989      0.0447      3.0982     23.6464    100.3494
  1101.7000      8.0666      2.5859      0.0795      3.8827     23.7347    104.2973
  1101.8000      8.0674      2.5752      0.0177      4.5321     23.8024    107.1504
  1101.9000      8.0674      2.5801      0.0443      4.2337     24.0759    106.4740
  1102.0000      8.0688      2.5965      0.0868      3.2425     24.4489    100.8410
  1102.1000      8.0688      2.5993      0.1182      3.0719     24.4208     92.7527
  1102.2000      8.0688      2.5772      0.0661      4.4116     24.0163     89.2969
  1102.3000      8.0666      2.5490      0.0460      6.1193     23.7581     90.2530
  1102.4000      8.0666      2.5276      0.0441      7.4177     23.6443     88.2926
  1102.5000      8.0632      2.5121      0.0036      8.3563     23.4358     84.3229
  1102.6000      8.0632      2.5118     -0.0005      8.3769     23.1221     81.2209
  1102.7000      8.0632      2.5337      0.0424      7.0509     22.8323     77.5499
  1102.8000      8.0637      2.5670      0.0409      5.0308     22.8460     73.6862
  1102.9000      8.0637      2.5903      0.0677      3.6190     23.0945     71.0898
  1103.0000      8.0658      2.5809      0.1114      4.1888     23.1480     69.9538
  1103.1000      8.0658      2.5453      0.0092      6.3464     22.9120     70.4069
  1103.2000      8.0658      2.5271      0.0020      7.4455     22.3264     71.6527
  1103.3000      8.0660      2.5460      0.0049      6.3031     21.2685     72.5309
  1103.4000      8.0660      2.5681      0.0882      4.9659     20.3390     72.1901
  1103.5000      8.0657      2.5628      0.0709      5.2858     20.1958     69.3570
  1103.6000      8.0657      2.5489      0.0215      6.1261     20.4782     65.7893
  1103.7000      8.0657      2.5529      0.0422      5.8828     20.7244     66.0204
  1103.8000      8.0661      2.5624      0.0625      5.3101     21.0036     69.1055
  1103.9000      8.0661      2.5536      0.0682      5.8416     21.2191     68.5844
  1104.0000      8.0665      2.5360     -0.0069      6.9102     21.0541     64.0783
  1104.1000      8.0665      2.5312      0.0461      7.1983     20.6360     60.9788
  1104.2000      8.0665      2.5345      0.0791      7.0022     20.5556     61.3593
  1104.3000      8.0668      2.5342      0.0678      7.0162     20.9635     65.2319
  1104.4000      8.0668      2.5294      0.0553      7.3076     21.3358     71.9652
  1104.5000      8.0663      2.5226      0.0381      7.7196     21.1878     76.9143
  1104.6000      8.0663      2.5204      0.0265      7.8546     20.7551     75.3392
  1104.7000      8.0663      2.5242      0.0291      7.6231     20.6458     67.6929
  1104.8000      8.0581      2.5283      0.0346      7.3773     20.8031     59.3998
  1104.9000      8.0581      2.5319      0.0229      7.1562     21.0056     56.6640
  1105.0000      8.0519      2.5355      0.0393      6.9412     21.4572     61.6748
  1105.1000      8.0519      2.5313      0.0365      7.1939     21.9412     70.8257
  1105.2000      8.0519      2.5240     -0.0149      7.6362     21.9997     77.9190
  1105.3000      8.0656      2.5306      0.0258      7.2386     21.8254     80.9442
  1105.4000      8.0656      2.5513      0.0785      5.9829     21.7809     81.3010
  1105.5000      8.0821      2.5723      0.0478      4.7091     21.9162     79.5831
  1105.6000      8.0821      2.5787      0.0676      4.3196     22.1917     77.6263
  1105.7000      8.0821      2.5641      0.0259      5.2067     22.5833     79.0076
  1105.8000      8.0887      2.5407      0.0278      6.6232     22.9502     83.6774
  1105.9000      8.0887      2.5230      0.0302      7.6957     23.1341     87.1581
  1106.0000      8.0872      2.5172      0.0263      8.0483     23.1414     86.2514
  1106.1000      8.0872      2.5256      0.0331      7.5383     22.9428     81.9129
  1106.2000      8.0872      2.5398      0.0501      6.6766     22.5414     77.0218
  1106.3000      8.0834      2.5485      0.0287      6.1503     22.2354     74.0484
