~Version Information
VERS.                      2.0: CWLS Log ASCII Standard - VERSION 2.0
WRAP.                       NO: One line per depth step
~Well Information Block
STRT.FT               555.6000: 
STOP.FT              2132.0000: 
STEP.FT                 0.1000: 
NULL.                -999.2500: 
COMP.          Petrogulf Corporation: COMPANY
WELL.           Montoya 12-41R: WELL
FLD.           Purgatorie River: FIELD
LOC.           1086' FNL & 610' FEL: LOCATION
CNTY.               Las Animas: COUNTY
SRVC.                         : SERVICE COMPANY
DATE.          Thu Nov 18 08:45:51 2004: LOG DATE
UWI.           05 071 08241 00: UNIQUE WELL ID
STAT.                 Colorado: STATE
~Curve Information Block
DEPT.FT            0 000 00 00: Depth
DCAL.in                       : CDL Caliper
RHOB.g/cc                     : CDL Bulk Density
RHOC.g/cc                     : CDL Density Correction
DPOR.pu                       : CDL Density Porosity
GR.GAPI                       : Gamma Ray
NPOR.pu                       : Neutron Porosity
~Parameter Information Block
~A  Depth       DCAL        RHOB        RHOC        DPOR         GR         NPOR    
# ...
   574.8000   -999.2500   -999.2500   -999.2500   -999.2500     93.2959     38.0991
   574.9000   -999.2500   -999.2500   -999.2500   -999.2500     94.3198     38.3277
   575.0000   -999.2500   -999.2500   -999.2500   -999.2500     89.0992     38.6909
   575.1000   -999.2500   -999.2500   -999.2500   -999.2500     79.8368     39.1062
   575.2000   -999.2500   -999.2500   -999.2500   -999.2500     73.4410     39.6675
   575.3000   -999.2500   -999.2500   -999.2500   -999.2500     72.6263     40.2766
   575.4000   -999.2500   -999.2500   -999.2500   -999.2500     75.5917     40.6332
   575.5000   -999.2500   -999.2500   -999.2500   -999.2500     82.3082     40.7455
   575.6000   -999.2500   -999.2500   -999.2500   -999.2500     90.5578     40.8772
   575.7000   -999.2500   -999.2500   -999.2500   -999.2500     95.6061     41.1216
   575.8000   -999.2500   -999.2500   -999.2500   -999.2500     97.9456     41.3924
   575.9000   -999.2500   -999.2500   -999.2500   -999.2500     98.6687     41.5391
   576.0000   -999.2500   -999.2500   -999.2500   -999.2500     96.6124     41.5917
   576.1000   -999.2500   -999.2500   -999.2500   -999.2500     93.9341     41.7596
   576.2000   -999.2500   -999.2500   -999.2500   -999.2500     95.2406     42.0672
   576.3000   -999.2500   -999.2500   -999.2500   -999.2500    101.0843     42.3920
   576.4000   -999.2500   -999.2500   -999.2500   -999.2500    106.8480     42.5885
   576.5000   -999.2500   -999.2500   -999.2500   -999.2500    110.4197     42.5411
   576.6000   -999.2500   -999.2500   -999.2500   -999.2500    115.1563     42.2592
   576.7000   -999.2500   -999.2500   -999.2500   -999.2500    120.1784     41.9479
   576.8000   -999.2500   -999.2500   -999.2500   -999.2500    118.9304     41.6495
   576.9000   -999.2500   -999.2500   -999.2500   -999.2500    110.1523     41.3182
   577.0000   -999.2500   -999.2500   -999.2500   -999.2500    101.5032     41.1008
   577.1000   -999.2500   -999.2500   -999.2500   -999.2500     98.4300     41.0611
   577.2000   -999.2500   -999.2500   -999.2500   -999.2500     98.0424     41.1341
   577.3000   -999.2500   -999.2500   -999.2500   -999.2500     97.6228     41.2203
   577.4000   -999.2500   -999.2500   -999.2500   -999.2500     96.7567     41.2006
   577.5000   -999.2500   -999.2500   -999.2500   -999.2500     95.0924     41.0638
   577.6000   -999.2500   -999.2500   -999.2500   -999.2500     92.7794     40.9516
   577.7000   -999.2500   -999.2500   -999.2500   -999.2500     88.1145     41.0950
   577.8000   -999.2500   -999.2500   -999.2500   -999.2500     82.5547     41.3676
   577.9000   -999.2500   -999.2500   -999.2500   -999.2500     81.0602     41.3177
   578.0000   -999.2500   -999.2500   -999.2500   -999.2500     81.9837     40.9518
   578.1000   -999.2500   -999.2500   -999.2500   -999.2500     81.0309     40.7191
   578.2000   -999.2500   -999.2500   -999.2500   -999.2500     81.0928     40.7852
   578.3000   -999.2500   -999.2500   -999.2500   -999.2500     84.3736     41.0347
   578.4000   -999.2500   -999.2500   -999.2500   -999.2500     84.7995     41.3138
   578.5000   -999.2500   -999.2500   -999.2500   -999.2500     79.2207     41.4608
   578.6000   -999.2500   -999.2500   -999.2500   -999.2500     73.3259     41.5701
   578.7000   -999.2500   -999.2500   -999.2500   -999.2500     72.7006     41.8750
   578.8000   -999.2500   -999.2500   -999.2500   -999.2500     77.5025     42.2397
   578.9000   -999.2500   -999.2500   -999.2500   -999.2500     83.6262     42.4227
   579.0000   -999.2500   -999.2500   -999.2500   -999.2500     86.3917     42.5250
   579.1000   -999.2500   -999.2500   -999.2500   -999.2500     85.1436     42.6107
   579.2000   -999.2500   -999.2500   -999.2500   -999.2500     82.5086     42.6209
   579.3000   -999.2500   -999.2500   -999.2500   -999.2500     82.6184     42.6616
   579.4000   -999.2500   -999.2500   -999.2500   -999.2500     85.5441     42.7455
   579.5000   -999.2500   -999.2500   -999.2500   -999.2500     87.3320     42.7073
   579.6000   -999.2500   -999.2500      0.2475   -999.2500     87.9790     42.5822
   579.7000   -999.2500   -999.2500      0.2622   -999.2500     89.1860     42.4326
   579.8000   -999.2500   -999.2500      0.2741   -999.2500     90.9296     42.2194
   579.9000   -999.2500   -999.2500      0.2482   -999.2500     92.8953     42.1135
   580.0000      2.5404   -999.2500      0.2754   -999.2500     94.8461     42.2552
   580.1000      2.5404      2.1726      0.2935     28.9351     95.8467     42.5874
   580.2000      2.5404      2.2020      0.2802     27.1543     95.4035     42.9974
   580.3000      2.5389      2.2287      0.2879     25.5316     95.1456     43.2296
   580.4000      2.5389      2.2491      0.3191     24.2948     96.7352     43.0709
   580.5000      2.5383      2.2568      0.3116     23.8317     97.1767     42.6013
   580.6000      2.5383      2.2585      0.3133     23.7269     94.5756     42.1615
   580.7000      2.5383      2.2626      0.3243     23.4801     94.1493     42.0457
   580.8000      2.5309      2.2652      0.3232     23.3182     98.4805     42.1617
   580.9000      2.5309      2.2609      0.3165     23.5838    103.4635     42.2086
   581.0000      2.5284      2.2520      0.2881     24.1210    103.3827     42.1501
   581.1000      2.5284      2.2447      0.3209     24.5658     96.6852     42.1878
   581.2000      2.5284      2.2394      0.3244     24.8855     89.6720     42.2791
   581.3000      2.5385      2.2333      0.3218     25.2563     88.4737     42.2208
   581.4000      2.5385      2.2274      0.2812     25.6123     92.1733     41.9548
   581.5000      2.5444      2.2287      0.2676     25.5321     95.0442     41.5623
   581.6000      2.5444      2.2401      0.2998     24.8438     91.1189     41.2233
   581.7000      2.5444      2.2540      0.3431     24.0019     84.4785     41.1183
   581.8000      2.5416      2.2619      0.3279     23.5193     84.1598     41.1604
   581.9000      2.5416      2.2630      0.3178     23.4551     89.0375     41.1881
   582.0000      2.5360      2.2598      0.3133     23.6470     92.5335     41.1450
   582.1000      2.5360      2.2559      0.3127     23.8851     94.0144     41.0492
   582.2000      2.5360      2.2552      0.3105     23.9269     93.0061     40.9274
   582.3000      2.5349      2.2594      0.3258     23.6740     88.2708     40.8137
   582.4000      2.5349      2.2662      0.3301     23.2611     83.4758     40.7933
   582.5000      2.5422      2.2720      0.3644     22.9071     83.2485     40.9199
   582.6000      2.5422      2.2762      0.3368     22.6527     88.6068     41.0709
   582.7000      2.5422      2.2826      0.3403     22.2691     94.9609     41.0666
   582.8000      2.5504      2.2897      0.3607     21.8340     95.2883     41.0836
   582.9000      2.5504      2.2934      0.3433     21.6130     89.3527     41.3050
   583.0000      2.5490      2.2959      0.3452     21.4589     85.3255     41.4798
   583.1000      2.5490      2.2971      0.3738     21.3901     88.3656     41.4564
   583.2000      2.5490      2.2913      0.3669     21.7379     94.4937     41.2906
   583.3000      2.5372      2.2824      0.3513     22.2767     97.6970     40.9734
   583.4000      2.5372      2.2781      0.3617     22.5417     97.4033     40.6366
   583.5000      2.5291      2.2784      0.3484     22.5191     97.4317     40.5247
   583.6000      2.5291      2.2811      0.3580     22.3586     99.1930     40.6014
   583.7000      2.5291      2.2837      0.3505     22.1999    100.8384     40.6307
   583.8000      2.5278      2.2833      0.3522     22.2257    100.2578     40.5587
   583.9000      2.5278      2.2804      0.3484     22.3994     97.7421     40.4236
   584.0000      2.5275      2.2804      0.3382     22.4026     97.6107     40.3807
   584.1000      2.5275      2.2873      0.3427     21.9806    100.5100     40.5492
   584.2000      2.5275      2.2984      0.3713     21.3061    101.5776     40.6813
   584.3000      2.5278      2.3080      0.3595     20.7290     98.3549     40.7345
