~Version Information
VERS.                      2.0: CWLS Log ASCII Standard - VERSION 2.0
WRAP.                       NO: One line per depth step
~Well Information Block
STRT.FT                -7.5000: 
STOP.FT              1877.2500: 
STEP.FT                 0.2500: 
NULL.                -999.2500: 
COMP.          Pioneer Natural Resources: COMPANY
WELL.            Nova 11-14 Tr: WELL
FLD.           Purgatorie River: FIELD
LOC.           706' FNL & 1109' FWL--: LOCATION
PROV.                       CO: PROVINCE
CNTY.               Las Animas: COUNTRY
SRVC.          Patterson Wireline: SERVICE COMPANY
DATE.          Tue Jul 26 15:08:01 2005: LOG DATE
UWI.           05 071 08434 00: UNIQUE WELL ID
~Curve Information Block
DEPT.FT            0 000 00 00: Depth
CCL.                          : Casing Collar Locator
TT3.usec                      : CBL 3' Travel Time
AMP3.mV                       : CBL 3' Amplitude
GR.GAPI                       : Gamma Ray
~Parameter Information Block
~A  Depth       CCL         TT3         AMP3         GR     
# ...
   495.0000      0.0000    958.9424      9.6053     90.0951
   495.2500      0.0000    928.4335      9.4604     88.1914
   495.5000      0.0000    914.9523      9.3103     85.5018
   495.7500      0.0000    911.0641      9.1321     83.4225
   496.0000      0.0000    900.7307      8.9234     82.6437
   496.2500      0.0000    873.8094      8.6911     82.7528
   496.5000      0.0000    835.5467      8.4365     83.0722
   496.7500      0.0000    801.9899      8.1589     83.2441
   497.0000      0.0000    786.1393      7.8724     82.9653
   497.2500      0.0000    787.9294      7.5939     81.8914
   497.5000      0.0000    798.4185      7.2966     80.0938
   497.7500      0.0000    812.8195      6.9061     78.0755
   498.0000      0.0000    834.1429      6.3802     75.9663
   498.2500      0.0000    862.2293      5.7786     73.0603
   498.5000      0.0000    886.3044      5.2275     68.6038
   498.7500      0.0000    894.0104      4.8258     63.0462
   499.0000      0.0000    884.2906      4.5992     58.1996
   499.2500      2.0000    866.7236      4.5269     56.0189
   499.5000      0.0000    850.1599      4.5975     57.1603
   499.7500      0.0000    836.1025      4.8478     60.6821
   500.0000      0.0000    822.4914      5.3479     64.9731
   500.2500      0.0000    809.2573      6.1302     68.7712
   500.5000      0.0000    798.0098      7.1204     71.4580
   500.7500      0.0000    789.0045      8.1465     73.0115
   501.0000      0.0000    781.2252      9.0189     73.8897
   501.2500      0.0000    774.3731      9.6111     74.5554
   501.5000      0.0000    769.4619      9.8996     74.9075
   501.7500      0.0000    768.2143      9.9609     74.6250
   502.0000      0.0000    771.8019      9.9322     74.3552
   502.2500      0.0000    779.1625      9.9491     76.0408
   502.5000      0.0000    787.0053     10.0882     81.3464
   502.7500      0.0000    791.9080     10.3404     89.6975
   503.0000      0.0000    792.3599     10.6315     98.1713
   503.2500      0.0000    789.3130     10.8766    103.3675
   503.5000      0.0000    785.1776     11.0304    103.5300
   503.7500      0.0000    782.0826     11.1006     99.4898
   504.0000      0.0000    781.1638     11.1259     93.8365
   504.2500      0.0000    783.3380     11.1427     88.8641
   504.5000      0.0000    789.9995     11.1652     85.1930
   504.7500      0.0000    801.7807     11.1896     82.4303
   505.0000      0.0000    815.9393     11.2039     80.5515
   505.2500      0.0000    825.9767     11.1901     79.7649
   505.5000      0.0000    825.8908     11.1259     79.3365
   505.7500      0.0000    815.5756     10.9985     77.7371
   506.0000      0.0000    800.9038     10.8216     74.2801
   506.2500      0.0000    788.4048     10.6348     69.8643
   506.5000      0.0000    780.8415     10.4803     65.7935
   506.7500      0.0000    777.3845     10.3824     62.5699
   507.0000      0.0000    776.1155     10.3443     60.2799
   507.2500      0.0000    775.6595     10.3557     59.4155
   507.5000      0.0000    775.3912     10.4029     60.5364
   507.7500      0.0000    775.1180     10.4760     63.3976
   508.0000      0.0000    774.8267     10.5699     66.8933
   508.2500      0.0000    774.5831     10.6800     69.8981
   508.5000      0.0000    774.4940     10.7983     72.0726
   508.7500      0.0000    774.6411     10.9106     73.9042
   509.0000      0.0000    775.0082     10.9969     76.0628
   509.2500      0.0000    775.4673     11.0421     78.7966
   509.5000      0.0000    775.8516     11.0516     81.8792
   509.7500      0.0000    776.0485     11.0484     84.9123
   510.0000      0.0000    776.0400     11.0490     87.6067
   510.2500      0.0000    775.8874     11.0487     89.8967
   510.5000      0.0000    775.6890     11.0338     91.8901
   510.7500      0.0000    775.5333     11.0054     93.7366
   511.0000      0.0000    775.4649     10.9857     95.4892
   511.2500      0.0000    775.4852     11.0015     96.9283
   511.5000      0.0000    775.5728     11.0560     97.4556
   511.7500      0.0000    775.6850     11.1154     96.4610
   512.0000      0.0000    775.7479     11.1288     94.0821
   512.2500      0.0000    775.6801     11.0692     91.4927
   512.5000      0.0000    775.4509     10.9555     90.0972
   512.7500      0.0000    775.1100     10.8337     90.4641
   513.0000      0.0000    774.7571     10.7402     92.2769
   513.2500      0.0000    774.4854     10.6800     95.1298
   513.5000      0.0000    774.3439     10.6285     98.7592
   513.7500      0.0000    774.3289     10.5526    102.4407
   514.0000      0.0000    774.3990     10.4398    104.8493
   514.2500      0.0000    774.5009     10.3074    104.9472
   514.5000      0.0000    774.5925     10.1859    102.7636
   514.7500      0.0000    774.6608     10.0982     99.2245
   515.0000      0.0000    774.7394     10.0556     95.5307
   515.2500      0.0000    774.9045     10.0637     92.7692
   515.5000      0.0000    775.2196     10.1195     91.7726
   515.7500      0.0000    775.6586     10.1993     92.8930
   516.0000      0.0000    776.0962     10.2613     95.5663
   516.2500      0.0000    776.3993     10.2739     98.1224
   516.5000      0.0000    776.5369     10.2369     98.4244
   516.7500      0.0000    776.6612     10.1732     95.1035
   517.0000      0.0000    777.1683     10.1078     88.3996
   517.2500      0.0000    778.7598     10.0593     80.1134
   517.5000      0.0000    782.2338     10.0392     72.8662
   517.7500      0.0000    787.7463     10.0512     68.9198
   518.0000      0.0000    793.9892     10.0970     69.0642
   518.2500      0.0000    798.4448     10.1808     72.4731
   518.5000      0.0000    799.0206     10.2902     77.5467
   518.7500      0.0000    795.5854     10.3788     82.7022
   519.0000      0.0000    789.9083     10.3909     86.6340
   519.2500      0.0000    784.2987     10.3156     88.5359
   519.5000      0.0000    780.2742     10.2007     88.3716
   519.7500      0.0000    778.1164     10.1130     86.7867
   520.0000      0.0000    777.2850     10.0940     84.6994
   520.2500      0.0000    777.0853     10.1467     82.8486
   520.5000      0.0000    777.0636     10.2385     81.3916
   520.7500      0.0000    777.0646     10.3149     79.7735
   521.0000      0.0000    777.1203     10.3355     77.2203
   521.2500      0.0000    777.3174     10.3079     73.6538
   521.5000      0.0000    777.6761     10.2774     70.2193
   521.7500      0.0000    778.1104     10.2814     68.8483
   522.0000      0.0000    778.5159     10.3222     71.0813
   522.2500      0.0000    778.9442     10.3782     76.9707
   522.5000      0.0000    779.7286     10.4307     84.8462
   522.7500      0.0000    781.3347     10.4791     92.1534
   523.0000      0.0000    783.8192     10.5388     96.7355
   523.2500      0.0000    786.3076     10.6267     97.6432
   523.5000      0.0000    787.3365     10.7450     95.1755
   523.7500      0.0000    786.1277     10.8765     90.5068
   524.0000      0.0000    783.3967     10.9933     85.1197
   524.2500      0.0000    780.6531     11.0744     80.2399
   524.5000      0.0000    778.9208     11.1174     76.8156
   524.7500      0.0000    778.4175     11.1364     75.9602
   525.0000      0.0000    779.3314     11.1505     78.7967
   525.2500      0.0000    782.8331     11.1706     85.2379
   525.5000      0.0000    791.2437     11.1916     93.1181
   525.7500      0.0000    806.6757     11.1973     99.2130
   526.0000      0.0000    828.5436     11.1789    101.5037
   526.2500      0.0000    852.7812     11.1510    100.4811
   526.5000      0.0000    874.9724     11.1435     98.5118
   526.7500      0.0000    894.5305     11.1739     98.1915
   527.0000      0.0000    914.7668     11.2294    100.6776
   527.2500      0.0000    938.5902     11.2791    104.6489
   527.5000      0.0000    965.0067     11.3013    107.0784
   527.7500      0.0000    989.9683     11.3005    105.8445
   528.0000      0.0000   1010.0698     11.2998    101.4683
   528.2500      0.0000   1023.5446     11.3201     95.9853
