~Version Information
VERS.                      2.0: CWLS Log ASCII Standard - VERSION 2.0
WRAP.                       NO: One line per depth step
~Well Information Block
STRT.FT               362.0000: 
STOP.FT               983.0000: 
STEP.FT                 0.1000: 
NULL.                -999.2500: 
COMP.          Pioneer Natural Resources: COMPANY
WELL.             Tomcat 32-10: WELL
FLD.           Purgatoire River: FIELD
LOC.           2286' FNL & 2463' FEL: LOCATION
PROV.                 Colorado: PROVINCE
CNTY.               Las Animas: COUNTRY
SRVC.                Patterson: SERVICE COMPANY
DATE.          Tue Mar 22 11:24:45 2005: LOG DATE
UWI.           05 071 08301 00: UNIQUE WELL ID
~Curve Information Block
DEPT.FT            0 000 00 00: Depth
DCAL.in                       : CDL Caliper
RHOB.g/cc                     : CDL Bulk Density
RHOC.g/cc                     : CDL Density Correction
DPOR.pu                       : CDL Density Porosity
GR.GAPI                       : Gamma Ray
NPOR.pu                       : Neutron Porosity
~Parameter Information Block
~A  Depth       DCAL        RHOB        RHOC        DPOR         GR         NPOR    
# ...
   928.4000      7.9125      2.3533     -0.0332     17.9843    117.7319     25.8147
   928.5000      7.9059      2.3627     -0.0031     17.4127    111.2334     26.4503
   928.6000      7.9059      2.3811      0.0196     16.2949    106.5316     26.6647
   928.7000      7.9059      2.3969     -0.0072     15.3373    104.4852     26.3961
   928.8000      7.9035      2.4089      0.0244     14.6126    103.3131     26.0945
   928.9000      7.9035      2.4192      0.0356     13.9894    106.1541     26.0562
   929.0000      7.9096      2.4272      0.0033     13.5024    114.3591     26.0132
   929.1000      7.9096      2.4305      0.0479     13.3009    121.9525     25.7541
   929.2000      7.9096      2.4244      0.0373     13.6722    123.6408     25.5719
   929.3000      7.9189      2.4149      0.0130     14.2502    122.3852     25.6995
   929.4000      7.9189      2.4177      0.0335     14.0758    120.9546     25.8200
   929.5000      7.8855      2.4358      0.0264     12.9812    117.4897     25.7808
   929.6000      7.8855      2.4453      0.1072     12.4086    111.1931     25.7610
   929.7000      7.8855      2.4185      0.0506     14.0304    105.9899     25.6332
   929.8000      7.8668      2.3708     -0.0396     16.9226    106.1689     25.2497
   929.9000      7.8668      2.3429      0.0046     18.6125    107.4579     24.9510
   930.0000      7.8913      2.3418      0.0333     18.6805    107.1016     24.9329
   930.1000      7.8913      2.3507     -0.0105     18.1372    109.3901     24.7171
   930.2000      7.8913      2.3638      0.0279     17.3434    113.5727     24.2406
   930.3000      7.8950      2.3793      0.0213     16.4083    115.3848     24.0925
   930.4000      7.8950      2.3936      0.0255     15.5422    115.9552     24.3685
   930.5000      7.8896      2.4051      0.0428     14.8434    118.5734     24.7239
   930.6000      7.8896      2.4137      0.0262     14.3227    122.4117     24.9496
   930.7000      7.8896      2.4123      0.0524     14.4082    124.3907     24.9322
   930.8000      7.8936      2.3939      0.0408     15.5203    124.3447     24.6976
   930.9000      7.8936      2.3692     -0.0011     17.0174    123.5407     24.5128
   931.0000      7.8972      2.3537     -0.0262     17.9579    123.6228     24.6271
   931.1000      7.8972      2.3526      0.0075     18.0251    126.7152     24.9911
   931.2000      7.8972      2.3638     -0.0002     17.3437    131.6139     25.3560
   931.3000      7.8908      2.3778      0.0302     16.4975    133.0351     25.6125
   931.4000      7.8908      2.3852      0.0250     16.0458    128.9737     25.5653
   931.5000      7.9004      2.3903      0.0267     15.7382    122.8149     25.5370
   931.6000      7.9004      2.3960      0.0202     15.3967    117.4419     26.0657
   931.7000      7.9004      2.3996     -0.0044     15.1783    114.2799     26.6716
   931.8000      7.9009      2.4035      0.0210     14.9376    111.1481     26.7827
   931.9000      7.9009      2.4065      0.0269     14.7582    106.1618     26.6665
   932.0000      7.8966      2.4105      0.0327     14.5131    104.2222     26.6984
   932.1000      7.8966      2.4279      0.0210     13.4634    108.2291     26.7463
   932.2000      7.8966      2.4577      0.0513     11.6517    114.2614     26.5464
   932.3000      7.8906      2.4831      0.0600     10.1139    119.2484     26.2699
   932.4000      7.8906      2.4949      0.0435      9.4025    123.0776     26.2255
   932.5000      7.9008      2.4956      0.0236      9.3599    125.9027     26.4106
   932.6000      7.9008      2.4951      0.0103      9.3866    127.9122     26.5992
   932.7000      7.9008      2.5034     -0.0036      8.8832    130.2795     26.7039
   932.8000      7.9046      2.5124     -0.0207      8.3414    133.9648     26.7085
   932.9000      7.9046      2.5084     -0.0066      8.5790    136.0203     26.6247
   933.0000      7.9073      2.4959     -0.0479      9.3381    134.5370     26.5961
   933.1000      7.9073      2.4814      0.0071     10.2169    134.0883     26.6627
   933.2000      7.9073      2.4545      0.0142     11.8487    136.5813     26.6744
   933.3000      7.9214      2.4127     -0.0408     14.3801    139.8756     26.5360
   933.4000      7.9214      2.3809     -0.1001     16.3108    141.7270     26.2473
   933.5000      7.9224      2.3795     -0.0509     16.3909    139.1175     25.8763
   933.6000      7.9224      2.3974     -0.0005     15.3063    130.9909     25.5678
   933.7000      7.9224      2.4135      0.0249     14.3320    119.6447     25.3678
   933.8000      7.9201      2.4260      0.0041     13.5765    110.4670     25.3061
   933.9000      7.9201      2.4364      0.0347     12.9471    106.3428     25.2741
   934.0000      7.8961      2.4358      0.0475     12.9839    104.3518     25.0344
   934.1000      7.8961      2.4235      0.0118     13.7244    104.1564     24.6935
   934.2000      7.8961      2.4076      0.0531     14.6879    109.3721     24.4542
   934.3000      7.8885      2.3888      0.0223     15.8314    116.8501     24.2921
   934.4000      7.8885      2.3653      0.0324     17.2522    118.9073     24.3747
   934.5000      7.8957      2.3438      0.0200     18.5583    114.1224     24.8461
   934.6000      7.8957      2.3366     -0.0242     18.9948    108.7514     25.3216
   934.7000      7.8957      2.3484     -0.0104     18.2769    106.2857     25.1333
   934.8000      7.9073      2.3693      0.0235     17.0118    106.4148     24.4818
   934.9000      7.9073      2.3829      0.0445     16.1879    108.4704     24.3359
   935.0000      7.8893      2.3850      0.0739     16.0593    108.8370     24.6372
   935.1000      7.8893      2.3889     -0.0126     15.8270    108.4177     24.5243
   935.2000      7.8893      2.3980      0.0737     15.2729    110.1502     24.1852
   935.3000      7.8718      2.3962      0.0408     15.3793    109.9245     24.2085
   935.4000      7.8718      2.3812      0.0365     16.2916    106.2548     24.2449
   935.5000      7.8921      2.3726     -0.0179     16.8109    104.8819     24.0071
   935.6000      7.8921      2.3790      0.0686     16.4217    108.0472     23.9573
   935.7000      7.8921      2.3830      0.0653     16.1821    112.0037     24.2896
   935.8000      7.8897      2.3751      0.0256     16.6632    114.5838     24.6401
   935.9000      7.8897      2.3638      0.0280     17.3429    115.8851     24.7653
   936.0000      7.8817      2.3586      0.0311     17.6576    115.4663     24.8336
   936.1000      7.8817      2.3744      0.0109     16.7037    116.1258     25.1762
   936.2000      7.8817      2.4163      0.0764     14.1641    120.0757     25.7191
   936.3000      7.8787      2.4585      0.0689     11.6068    121.3269     26.0817
   936.4000      7.8787      2.4843      0.0517     10.0435    117.0173     26.1951
   936.5000      7.8773      2.5074      0.0751      8.6413    114.7796     26.3591
   936.6000      7.8773      2.5329      0.0837      7.0989    118.2096     26.7175
   936.7000      7.8773      2.5496      0.0798      6.0873    124.5548     26.9920
   936.8000      7.8777      2.5465      0.1041      6.2726    132.3156     26.9028
   936.9000      7.8777      2.5222      0.0695      7.7435    137.5448     26.7619
   937.0000      7.8700      2.4916      0.0359      9.6001    136.7676     26.8981
   937.1000      7.8700      2.4706      0.0514     10.8751    133.6652     27.1518
   937.2000      7.8700      2.4648      0.0045     11.2238    132.1270     27.2872
   937.3000      7.8795      2.4703      0.0930     10.8902    129.5553     27.2966
   937.4000      7.8795      2.4701      0.0425     10.9016    123.9952     27.1845
   937.5000      7.8825      2.4556      0.0578     11.7793    117.3235     26.9186
   937.6000      7.8825      2.4343      0.0325     13.0731    111.1588     26.6109
   937.7000      7.8825      2.4122      0.0548     14.4091    107.3913     26.3128
   937.8000      7.8704      2.3907      0.0146     15.7148    107.0683     25.9885
   937.9000      7.8704      2.3768      0.0270     16.5567    109.4625     25.7657
