~Version Information
VERS.                      2.0: CWLS Log ASCII Standard - VERSION 2.0
WRAP.                       NO: One line per depth step
~Well Information Block
STRT.FT               260.0000: 
STOP.FT              2272.0000: 
STEP.FT                 0.2500: 
NULL.                -999.2500: 
COMP.          Pioneer Natural Resources: COMPANY
WELL.            Moo Moo 31-36: WELL
FLD.           Purgatoire River: FIELD
LOC.           612' FNL & 2326' FEL: LOCATION
PROV.                 Colorado: PROVINCE
CNTY.               Las Animas: COUNTRY
SRVC.                Patterson: SERVICE COMPANY
DATE.          Fri Jun 17 07:45:39 2005: LOG DATE
UWI.           05 071 08395 00: UNIQUE WELL ID
~Curve Information Block
DEPT.FT            0 000 00 00: Depth
DIR.Ohm-m                     : IEL Induction Resistivity
SN.Ohm-m                      : IEL Short Normal
SP.mV                         : IEL Spontaneous Potential
GR.GAPI                       : Gamma Ray
~Parameter Information Block
~A  Depth       DIR          SN          SP          GR     
# ...
  2236.5000     23.0182     22.7158    225.7537    108.0578
  2236.7500     22.9033     22.7972    225.6529    106.9903
  2237.0000     22.8082     22.7715    225.4377    106.7583
  2237.2500     22.7357     22.5848    225.2569    107.2730
  2237.5000     22.6865     22.3543    225.2253    108.3944
  2237.7500     22.6571     22.2467    225.3644    108.9637
  2238.0000     22.6390     22.2982    225.6056    109.3635
  2238.2500     22.6227     22.4062    225.8529    109.5940
  2238.5000     22.6059     22.4896    226.0604    110.2270
  2238.7500     22.5979     22.5875    226.2646    110.5753
  2239.0000     22.6134     22.7598    226.5478    110.0820
  2239.2500     22.6608     22.9922    226.9567    108.8849
  2239.5000     22.7350     23.2307    227.4423    106.5522
  2239.7500     22.8207     23.3999    227.8792    105.3639
  2240.0000     22.9028     23.4556    228.1583    104.9344
  2240.2500     22.9746     23.5058    228.2638    105.6133
  2240.5000     23.0381     23.7340    228.2603    107.6971
  2240.7500     23.0986     24.1171    228.2192    109.3673
  2241.0000     23.1607     24.3707    228.1767    111.4261
  2241.2500     23.2274     24.2840    228.1557    112.1870
  2241.5000     23.3009     23.9852    228.1928    112.5144
  2241.7500     23.3842     23.7549    228.3205    112.5227
  2242.0000     23.4824     23.7037    228.5223    112.8068
  2242.2500     23.6036     23.7453    228.7200    113.3443
  2242.5000     23.7552     23.7961    228.8194    114.5384
  2242.7500     23.9397     23.8664    228.7824    115.4088
  2243.0000     24.1525     24.0127    228.6614    116.6825
  2243.2500     24.3840     24.3138    228.5597    117.5264
  2243.5000     24.6231     24.8317    228.5537    118.6877
  2243.7500     24.8597     25.5547    228.6519    119.1350
  2244.0000     25.0826     26.4268    228.8220    118.4398
  2244.2500     25.2794     27.3630    229.0442    116.4766
  2244.5000     25.4404     28.2493    229.3280    111.1913
  2244.7500     25.5631     29.0421    229.6701    107.0658
  2245.0000     25.6509     29.7906    230.0081    102.7206
  2245.2500     25.7069     30.5002    230.2422    102.2556
  2245.5000     25.7326     31.0611    230.3169    105.0919
  2245.7500     25.7316     31.3238    230.2620    108.1240
  2246.0000     25.7139     31.1759    230.1289    112.0790
  2246.2500     25.6935     30.5691    229.8926    113.7769
  2246.5000     25.6813     29.5555    229.4402    115.4595
  2246.7500     25.6760     28.3108    228.6770    116.3954
  2247.0000     25.6581     27.0766    227.6436    117.2736
  2247.2500     25.5939     26.0575    226.5323    117.1214
  2247.5000     25.4491     25.3641    225.5907    115.8559
  2247.7500     25.2051     24.9597    224.9925    114.8287
  2248.0000     24.8641     24.6693    224.7596    113.6780
  2248.2500     24.4462     24.3399    224.7637    113.0494
  2248.5000     23.9834     23.9593    224.7897    111.6031
  2248.7500     23.5136     23.6194    224.6240    110.1158
  2249.0000     23.0748     23.4102    224.1324    107.7576
  2249.2500     22.7029     23.3070    223.3016    106.9003
  2249.5000     22.4322     23.1672    222.2330    107.6813
  2249.7500     22.2938     22.9020    221.0925    109.3624
  2250.0000     22.3057     22.6036    220.0410    112.0186
  2250.2500     22.4598     22.4065    219.1796    112.9089
  2250.5000     22.7155     22.3250    218.5277    112.1536
  2250.7500     23.0090     22.3211    218.0365    110.2481
  2251.0000     23.2726     22.4122    217.6274    105.5688
  2251.2500     23.4587     22.6245    217.2345    101.5103
  2251.5000     23.5558     22.8945    216.8313     94.5109
  2251.7500     23.5929     23.1486    216.4422     89.2545
  2252.0000     23.6300     23.4344    216.1498     79.4722
  2252.2500     23.7350     23.8044    216.0856     70.6261
  2252.5000     23.9537     24.1882    216.3863     52.9869
  2252.7500     24.2851     24.5164    217.1316     39.4396
  2253.0000     24.6794     24.8149    218.3033     20.7598
  2253.2500     25.0619     25.1014    219.7863     11.6355
  2253.5000     25.3705     25.3111    221.4007      3.8074
  2253.7500     25.5827     25.3894    222.9458      1.5183
  2254.0000     25.7138     25.3744    224.2510      0.2905
  2254.2500     25.7941     25.3117    225.2334      0.0795
  2254.5000     25.8420     25.1864    225.9361      0.0071
  2254.7500     25.8530     24.9935    226.4975      0.0000
  2255.0000     25.8060     24.7746    227.0558   -999.2500
  2255.2500     25.6800     24.5602    227.6623   -999.2500
  2255.5000     25.4622     24.3416    228.2747   -999.2500
  2255.7500     25.1465     24.1096    228.8229   -999.2500
  2256.0000     24.7371     23.8883    229.2763   -999.2500
  2256.2500     24.2614     23.7019    229.6518   -999.2500
  2256.5000     23.7735     23.5208    229.9635   -999.2500
  2256.7500     23.3338     23.3112    230.1827   -999.2500
  2257.0000     22.9794     23.0906    230.2599   -999.2500
  2257.2500     22.7132     22.8812    230.1788   -999.2500
  2257.5000     22.5159     22.7120    229.9798   -999.2500
  2257.7500     22.3651     22.6216    229.7450   -999.2500
  2258.0000     22.2450     22.5790    229.5710   -999.2500
  2258.2500     22.1444     22.4989    229.5294   -999.2500
  2258.5000     22.0510     22.3506    229.6284   -999.2500
  2258.7500     21.9543     22.1516    229.8202   -999.2500
  2259.0000     21.4934     21.9072    230.0659   -999.2500
  2259.2500     21.4067     21.6410    230.3797   -999.2500
  2259.5000     21.3498     21.4166    230.7907   -999.2500
  2259.7500     21.3303     21.2712    231.2713   -999.2500
  2260.0000     21.3364     21.1776    231.7293   -999.2500
  2260.2500     21.3466     21.0898    232.0741   -999.2500
  2260.5000     21.3503     20.9905    232.2729   -999.2500
  2260.7500     21.3557     20.9013    232.3416   -999.2500
  2261.0000     21.3822     20.8608    232.2952   -999.2500
  2261.2500     21.4517     20.8716    232.1060   -999.2500
  2261.5000     21.6023     20.9060    231.6998   -999.2500
  2261.7500     21.9238     20.9695    231.0016   -999.2500
  2262.0000     22.5920     21.0935    230.0076   -999.2500
  2262.2500     23.8772     21.2827    228.8251   -999.2500
  2262.5000     26.7621     21.4731    227.6483   -999.2500
  2262.7500     30.5286     21.5589    226.6801   -999.2500
  2263.0000     36.0264     21.5497    226.0450   -999.2500
  2263.2500     43.1804     21.5972    225.7430   -999.2500
  2263.5000     51.1290     21.8016    225.6653   -999.2500
  2263.7500     58.2989     22.1456    225.6530   -999.2500
  2264.0000     63.3860     22.5548    225.5658   -999.2500
  2264.2500     66.2458     22.8892    225.3391   -999.2500
  2264.5000     67.6031     23.0087    225.0015   -999.2500
  2264.7500     68.2749     22.9438    224.6398   -999.2500
  2265.0000     68.8239     22.8829    224.3362   -999.2500
  2265.2500     69.5739     22.9742    224.1251   -999.2500
  2265.5000  26730.4824     23.2214    223.9977   -999.2500
  2265.7500 100000.0000     23.5258    223.9451   -999.2500
  2266.0000 100000.0000     23.7735    223.9957   -999.2500
  2266.2500 100000.0000     23.9370    224.2030   -999.2500
  2266.5000 100000.0000     24.0976    224.5996   -999.2500
  2266.7500 100000.0000     24.3439    225.1577   -999.2500
  2267.0000 100000.0000     24.6853    225.7678   -999.2500
  2267.2500 100000.0000     25.0660    226.0722   -999.2500
  2267.5000 100000.0000     25.4421    224.9613   -999.2500
  2267.7500 100000.0000     25.8385    219.7246   -999.2500
  2268.0000 100000.0000     26.2627    205.7772   -999.2500
  2268.2500 100000.0000     26.4693    178.6992   -999.2500
  2268.5000 100000.0000     25.7253    138.6028   -999.2500
  2268.7500 100000.0000     22.8098     92.7459   -999.2500
  2269.0000 100000.0000     17.0259     52.0606   -999.2500
  2269.2500 100000.0000      9.8395     24.0059   -999.2500
  2269.5000 100000.0000      4.1178      8.9574   -999.2500
  2269.7500 100000.0000      1.1923      2.6754   -999.2500
