~Version Information
VERS.                      2.0: CWLS Log ASCII Standard - VERSION 2.0
WRAP.                       NO: One line per depth step
~Well Information Block
STRT.FT               987.5000: 
STOP.FT              2426.0000: 
STEP.FT                 0.5000: 
NULL.                -999.2500: 
COMP.          Evergreen Operating Corporation: COMPANY
WELL.          McCullough 34-32: WELL
FLD.           Purgatorie River: FIELD
LOC.           261' FSL & 2098' FEL--: LOCATION
PROV.                 Colorado: PROVINCE
CNTY.               Las Animas: COUNTRY
SRVC.          Patterson Wireline: SERVICE COMPANY
DATE.          Mon May 17 13:38:56 2004: LOG DATE
UWI.           05-071-07953-00: UNIQUE WELL ID
~Curve Information Block
DEPT.FT            0 000 00 00: Depth
CCL.                          : Casing Collar Locator
TT3.usec                      : CBL 3' Travel Time
AMP3.mV                       : CBL 3' Amplitude
GR.GAPI                       : Gamma Ray
~Parameter Information Block
~A  Depth       CCL         TT3         AMP3         GR     
# ...
  2126.5000      0.0000    724.5038      7.6564     85.0044
  2127.0000      0.0000    714.8361      7.7084     84.5892
  2127.5000      0.0000    706.6176      7.6111     88.7627
  2128.0000      0.0000    688.4273      7.9237     90.5335
  2128.5000      0.0000    648.5223      8.0459     87.4913
  2129.0000      0.0000    640.9371      7.8273     84.0211
  2129.5000      0.0000    680.1428      7.1918     78.1482
  2130.0000      0.0000    698.9465      5.8313     72.2471
  2130.5000      0.0000    675.6396      5.1284     68.7568
  2131.0000      0.0000    644.3780      5.7739     67.2401
  2131.5000      0.0000    641.8123      6.3659     73.5150
  2132.0000      0.0000    686.7392      6.3227     87.9274
  2132.5000      0.0000    719.5388      6.8346     98.2806
  2133.0000      0.0000    725.1562      7.5661    100.4381
  2133.5000      0.0000    727.8685      7.9976    100.4908
  2134.0000      0.0000    716.1125      8.3761    102.0035
  2134.5000      0.0000    678.7319      8.6840    103.5170
  2135.0000      0.0000    662.4935      8.7988    100.8372
  2135.5000      0.0000    667.8099      8.5451     97.0296
  2136.0000      0.0000    639.6846      7.9411     95.0221
  2136.5000      0.0000    633.7545      7.2725     93.9485
  2137.0000      0.0000    650.1182      6.9542     90.6042
  2137.5000      0.0000    629.9857      7.1817     88.8935
  2138.0000      0.0000    627.0904      7.2534     93.0482
  2138.5000      0.0000    649.0002      7.1125     96.4037
  2139.0000      0.0000    607.6585      6.9149     94.4655
  2139.5000      0.0000    574.2728      6.7560     86.2921
  2140.0000      0.0000    639.6676      6.5455     80.3616
  2140.5000      0.0000    727.5649      5.2996     87.9121
  2141.0000      0.0000    772.7206      3.7772     92.1809
  2141.5000      0.0000    772.4144      3.4589     86.8107
  2142.0000      0.0000    757.4365      3.8049     82.6929
  2142.5000      0.0000    731.1653      3.9923     83.5270
  2143.0000      0.0000    710.7737      4.4724     85.0444
  2143.5000      0.0000    703.6502      5.2400     82.2395
  2144.0000      0.0000    688.4888      5.6484     78.8304
  2144.5000      0.0000    692.1244      5.9532     79.6997
  2145.0000      0.0000    727.1072      6.2020     79.9506
  2145.5000      0.0000    747.6666      6.4090     82.2216
  2146.0000      0.0000    719.0313      6.7290     87.4126
  2146.5000      0.0000    636.5148      7.1579     92.9103
  2147.0000      0.0000    563.4566      7.7719     97.9439
  2147.5000      0.0000    582.3482      7.8409    100.2192
  2148.0000      0.0000    623.0477      7.3530    101.0228
  2148.5000      0.0000    651.2081      6.7233     93.5053
  2149.0000      0.0000    692.4245      6.8549     84.3610
  2149.5000      0.0000    715.0333      7.4727     84.7518
  2150.0000      0.0000    724.7106      7.8735     85.5574
  2150.5000      0.0000    720.3923      8.0425     82.6487
  2151.0000      0.0000    703.7803      8.0034     85.2808
  2151.5000      0.0000    669.9643      7.9964     90.7955
  2152.0000      0.0000    625.8338      8.0897     91.4165
  2152.5000      0.0000    626.0164      8.0711     94.1328
  2153.0000      0.0000    637.0474      7.8677     99.0757
  2153.5000      0.0000    594.2058      7.5861     96.5079
  2154.0000      0.0000    523.0714      7.4189     92.4465
  2154.5000      0.0000    492.1101      7.4610    101.3589
  2155.0000      0.0000    518.6660      7.0559    110.4039
  2155.5000      0.0000    547.9276      6.2704    104.2071
  2156.0000      0.0000    550.8573      6.0050     96.8626
  2156.5000      0.0000    581.1476      6.0943     93.6334
  2157.0000      0.0000    655.5359      5.9155     86.9807
  2157.5000      0.0000    718.6799      6.0949     80.0538
  2158.0000      0.0000    733.1351      6.5859     77.1933
  2158.5000      0.0000    721.3769      6.4287     82.9822
  2159.0000      0.0000    711.9147      6.1423     89.6501
  2159.5000      0.0000    714.6158      5.9815     91.0332
  2160.0000      0.0000    716.9915      5.0673     93.7807
  2160.5000      0.0000    714.6268      3.7232     98.1653
  2161.0000      0.0000    712.4483      3.0949     98.2251
  2161.5000      0.0000    705.0273      2.8064     91.7033
  2162.0000      0.0000    686.1815      2.0738     84.7465
  2162.5000      0.0000    684.0955      1.7841     83.8605
  2163.0000      0.0000    717.2159      2.4927     95.6380
  2163.5000      0.0000    748.4000      3.3056    103.7688
  2164.0000      0.0000    745.8677      4.4209    102.9140
  2164.5000      0.0000    736.6011      6.2539    105.3198
  2165.0000      0.0000    736.7975      7.8693    106.9520
  2165.5000      0.0000    744.5800      8.7590    107.7031
  2166.0000      0.0000    754.0029      8.8873    108.0414
  2166.5000      0.0000    744.0314      8.4185    105.9795
  2167.0000      0.0000    716.3718      7.6619    106.5429
  2167.5000      0.0000    684.8102      7.0884    111.1366
  2168.0000      0.0000    635.3856      7.1635    108.5627
  2168.5000      0.0000    573.4011      7.4223     97.0055
  2169.0000      0.0000    574.0637      7.7123     86.1270
  2169.5000      0.0000    650.4436      8.0036     80.9714
  2170.0000      0.0000    707.1093      7.8762     83.6625
  2170.5000      0.0000    717.0654      7.6339     87.3948
  2171.0000      0.0000    720.8024      7.7540     88.0014
  2171.5000      0.0000    722.3247      7.6818     88.8571
  2172.0000      0.0000    712.9557      7.3030     90.5976
  2172.5000      0.0000    709.6981      6.6013     88.6097
  2173.0000      0.0000    710.0984      5.3353     82.2803
  2173.5000      0.0000    661.4415      4.8156     79.5910
  2174.0000      3.2776    563.5959      6.2053     84.4064
  2174.5000      0.0000    523.0358      7.7253     92.1019
  2175.0000      0.0000    569.9411      7.7414     97.9507
  2175.5000      0.0000    588.8676      7.1029     99.1922
  2176.0000      0.0000    532.2296      6.5400     94.3460
  2176.5000      0.0000    454.3863      6.3602     85.7324
  2177.0000      0.0000    406.5496      6.8608     81.4108
  2177.5000      0.0000    411.6222      7.3049     76.8617
  2178.0000      0.0000    427.0126      7.6456     66.8337
  2178.5000      0.0000    447.7104      7.8823     57.8413
  2179.0000      0.0000    500.3358      8.0255     52.5190
  2179.5000      0.0000    527.8882      8.0174     51.5560
  2180.0000      0.0000    532.9787      8.0168     52.5225
  2180.5000      0.0000    491.5070      8.1441     54.5020
  2181.0000      0.0000    468.4669      7.9330     56.6578
  2181.5000      0.0000    549.8949      7.4381     55.3833
  2182.0000      0.0000    622.3842      7.3479     51.8278
  2182.5000      0.0000    640.2639      7.7786     51.4417
  2183.0000      0.0000    653.0876      8.1634     58.7366
  2183.5000      0.0000    644.8053      8.3435     76.0336
  2184.0000      0.0000    649.1379      8.1803     91.8395
  2184.5000      0.0000    614.5873      7.7681     97.6890
  2185.0000      0.0000    495.6670      7.5244     98.1106
  2185.5000      0.0000    394.0636      7.1225     96.9589
  2186.0000      0.0000    366.8922      7.0238     94.3473
  2186.5000      0.0000    401.0355      7.8598     87.9098
  2187.0000      0.0000    472.2274      8.5891     82.8161
  2187.5000      0.0000    510.4630      8.3964     82.1219
  2188.0000      0.0000    471.5017      8.2754     84.3048
  2188.5000      0.0000    398.5420      8.7485     84.9911
  2189.0000      0.0000    364.1813      9.0075     78.7824
  2189.5000      0.0000    415.1797      9.2545     70.4956
  2190.0000      0.0000    524.6771      9.7814     69.4670
  2190.5000      0.0000    547.6862      9.5071     76.0627
  2191.0000      0.0000    464.0010      8.2364     85.5285
  2191.5000      0.0000    427.7051      7.0106     93.5140
  2192.0000      0.0000    517.9690      5.7558     96.7567
  2192.5000      0.0000    647.4621      4.0688     95.8238
  2193.0000      0.0000    708.2344      3.0636     92.1502
