~Version Information
VERS.                      2.0: CWLS Log ASCII Standard - VERSION 2.0
WRAP.                       NO: One line per depth step
~Well Information Block
STRT.FT               483.0000: 
STOP.FT              1701.5000: 
STEP.FT                 0.1000: 
NULL.                -999.2500: 
COMP.          Pioneer Natural Resources: COMPANY
WELL.            Mad Dog 42-31: WELL
FLD.           Purgatorie River: FIELD
LOC.           2064' FNL & 479' FEL: LOCATION
PROV.                 Colorado: PROVINCE
CNTY.               Las Animas: COUNTRY
SRVC.                         : SERVICE COMPANY
DATE.          Sun Oct 10 04:38:02 2004: LOG DATE
UWI.           05 071 08195 00: UNIQUE WELL ID
~Curve Information Block
DEPT.FT            0 000 00 00: Depth
LTEN.lb                       : Surface Line Tension
DCAL.in                       : CDL Caliper
RHOB.g/cc                     : CDL Bulk Density
RHOC.g/cc                     : CDL Density Correction
DPOR.pu                       : CDL Density Porosity
GR.GAPI                       : Gamma Ray
NPOR.pu                       : Neutron Porosity
~Parameter Information Block
~A  Depth       LTEN        DCAL        RHOB        RHOC        DPOR         GR         NPOR    
# ...
   970.2000    890.9540      7.8973      2.5680      0.1172      4.9675    164.9144     28.1184
   970.3000    865.6542      7.9424      2.5356      0.0355      6.9329    161.3350     27.7382
   970.4000    865.6542      7.9424      2.5185      0.0860      7.9725    159.5160     26.9282
   970.5000    978.1030      7.9915      2.5075      0.0317      8.6344    162.9224     26.8750
   970.6000    978.1030      7.9915      2.5081      0.0087      8.5992    167.6535     27.4885
   970.7000    978.1030      7.9915      2.5275      0.0709      7.4272    170.3601     27.8083
   970.8000    918.3373      8.0280      2.5417      0.0915      6.5626    171.0723     27.9865
   970.9000    918.3373      8.0280      2.5349      0.0747      6.9738    171.2501     28.4881
   971.0000    951.2198      8.0150      2.5216      0.0487      7.7832    173.6451     28.9741
   971.1000    951.2198      8.0150      2.5130      0.0735      8.3013    174.9386     29.2451
   971.2000    951.2198      8.0150      2.5092      0.0549      8.5320    169.0576     29.2381
   971.3000   1013.3419      8.0389      2.5156      0.0676      8.1481    154.8201     28.7598
   971.4000   1013.3419      8.0389      2.5379      0.0809      6.7952    136.2869     28.0485
   971.5000    924.1488      8.0640      2.5711      0.0778      4.7826    128.6364     27.3740
   971.6000    924.1488      8.0640      2.5919      0.1794      3.5183    140.7328     26.8623
   971.7000    924.1488      8.0640      2.5806      0.1059      4.2041    158.1014     26.8374
   971.8000    922.1224      7.9819      2.5562      0.0793      5.6852    163.8217     27.2025
   971.9000    922.1224      7.9819      2.5355      0.2004      6.9367    160.9401     27.4845
   972.0000    954.0703      7.9800      2.5062      0.1375      8.7122    161.8391     27.6396
   972.1000    954.0703      7.9800      2.4704      0.0964     10.8847    168.8745     27.9183
   972.2000    954.0703      7.9800      2.4434      0.0992     12.5184    172.3983     28.3951
   972.3000    878.8717      7.9720      2.4307      0.0863     13.2883    167.4644     28.9819
   972.4000    878.8717      7.9720      2.4372      0.0947     12.8952    163.9070     29.2596
   972.5000    887.4910      7.9879      2.4692      0.1290     10.9602    167.8155     29.1288
   972.6000    887.4910      7.9879      2.5241      0.1540      7.6325    168.3285     28.9589
   972.7000    887.4910      7.9879      2.5799      0.2377      4.2458    157.8176     29.0957
   972.8000    945.0009      8.0672      2.6091      0.2205      2.4793    144.9469     29.3180
   972.9000    945.0009      8.0672      2.6090      0.2119      2.4863    139.7375     29.1152
   973.0000    881.5734      8.1043      2.5866      0.2255      3.8432    141.5109     28.6165
   973.1000    881.5734      8.1043      2.5429      0.1599      6.4918    144.0307     27.9826
   973.2000    881.5734      8.1043      2.5010      0.0448      9.0314    142.6104     27.4739
   973.3000    876.5984      8.1048      2.4859      0.1025      9.9475    138.4394     27.4895
   973.4000    876.5984      8.1048      2.4893      0.0385      9.7364    138.8986     27.6387
   973.5000    913.9108      7.9960      2.4990      0.0260      9.1493    146.7382     27.3451
   973.6000    913.9108      7.9960      2.5123      0.0563      8.3461    152.8383     27.0261
   973.7000    913.9108      7.9960      2.5287      0.0889      7.3499    151.5910     27.0587
   973.8000    851.4722      7.9577      2.5463      0.0885      6.2846    147.0969     27.1907
   973.9000    851.4722      7.9577      2.5558      0.1022      5.7095    146.4492     27.4339
   974.0000    904.2244      7.9657      2.5508      0.1094      6.0129    151.8449     27.9149
   974.1000    904.2244      7.9657      2.5343      0.1286      7.0099    154.9523     28.4438
   974.2000    904.2244      7.9657      2.5093      0.1481      8.5251    153.5706     28.7027
   974.3000    894.6148      8.0162      2.4841      0.0917     10.0558    158.7211     28.7343
   974.4000    894.6148      8.0162      2.4772      0.0720     10.4707    172.4458     28.6333
   974.5000    898.9572      8.0301      2.4947      0.1108      9.4146    181.7936     28.3885
   974.6000    898.9572      8.0301      2.5259      0.1331      7.5199    179.2577     28.4205
   974.7000    898.9572      8.0301      2.5617      0.1889      5.3522    171.9190     28.9949
   974.8000    923.6199      7.9782      2.5938      0.2160      3.4083    167.9261     29.7524
   974.9000    923.6199      7.9782      2.6137      0.2604      2.1976    167.3297     30.1951
   975.0000    893.6679      7.9579      2.6169      0.2612      2.0053    168.4196     30.0365
   975.1000    893.6679      7.9579      2.6029      0.1967      2.8568    173.7918     29.5432
   975.2000    893.6679      7.9579      2.5701      0.1772      4.8398    183.7758     29.0584
   975.3000    936.4617      7.9778      2.5298      0.0559      7.2827    189.9077     28.4278
   975.4000    936.4617      7.9778      2.5145      0.0761      8.2137    185.0079     27.4914
   975.5000    930.7469      8.0203      2.5420      0.0708      6.5425    171.1675     26.5151
   975.6000    930.7469      8.0203      2.5967      0.1788      3.2280    159.3553     25.8295
   975.7000    930.7469      8.0203      2.6511      0.1569     -0.0670    154.9142     25.5164
   975.8000    891.5133      7.9515      2.6880      0.2236     -2.3047    149.4295     25.3383
   975.9000    891.5133      7.9515      2.6975      0.2148     -2.8767    136.6635     25.0256
   976.0000    901.7983      7.8757      2.6727      0.2217     -1.3759    122.9729     24.6945
   976.1000    901.7983      7.8757      2.6294      0.0414      1.2494    118.0390     24.4508
   976.2000    901.7983      7.8757      2.5985      0.0776      3.1226    120.3762     24.0618
   976.3000    897.6764      7.8491      2.5849      0.0732      3.9450    123.8069     23.6280
   976.4000    897.6764      7.8491      2.5781      0.0234      4.3603    128.0531     23.5359
   976.5000    923.9679      7.8255      2.5714      0.0147      4.7659    132.3048     23.9063
   976.6000    923.9679      7.8255      2.5552      0.0146      5.7463    138.6066     24.4469
   976.7000    923.9679      7.8255      2.5333      0.0132      7.0715    148.1582     25.0223
   976.8000    916.6443      7.8285      2.5251      0.0246      7.5713    154.0677     25.5518
   976.9000    916.6443      7.8285      2.5294      0.0604      7.3109    153.7646     25.7328
   977.0000    889.1594      7.8661      2.5221      0.0881      7.7490    154.6222     25.6810
   977.1000    889.1594      7.8661      2.5022      0.0171      8.9582    158.4707     25.4560
   977.2000    889.1594      7.8661      2.4853      0.0627      9.9800    159.8074     25.2760
   977.3000    921.3454      7.8511      2.4612      0.1092     11.4413    161.4469     25.8831
   977.4000    921.3454      7.8511      2.4229      0.0830     13.7640    169.4625     27.0575
   977.5000    892.9557      7.8504      2.3989      0.0529     15.2164    177.4339     27.6274
   977.6000    892.9557      7.8504      2.4077      0.0788     14.6878    173.0581     27.2126
   977.7000    892.9557      7.8504      2.4290      0.1041     13.3938    160.3035     26.4399
   977.8000    871.4243      7.8568      2.4489      0.0544     12.1900    153.2494     25.7647
   977.9000    871.4243      7.8568      2.4792      0.1203     10.3521    153.8867     25.7299
   978.0000    926.8001      7.8697      2.5203      0.1526      7.8584    154.5674     26.6370
   978.1000    926.8001      7.8697      2.5527      0.1986      5.8989    152.5860     27.5632
   978.2000    926.8001      7.8697      2.5663      0.1259      5.0718    149.4418     27.5402
   978.3000    891.5684      7.8877      2.5709      0.1108      4.7965    142.9963     26.9183
   978.4000    891.5684      7.8877      2.5805      0.1262      4.2096    131.7704     26.3607
   978.5000    933.3563      7.8885      2.5982      0.0828      3.1419    123.4395     26.0112
