~Version Information
VERS.                      2.0: CWLS Log ASCII Standard - VERSION 2.0
WRAP.                       NO: One line per depth step
~Well Information Block
STRT.FT               480.0000: 
STOP.FT              1994.2500: 
STEP.FT                 0.2500: 
NULL.                -999.2500: 
COMP.          Evergreen Operating Corporation: COMPANY
WELL.          McCullough 34-32 Tr: WELL
FLD.           Purgatoire River: FIELD
LOC.           394' FSL & 2077' FEL: LOCATION
PROV.                 Colorado: PROVINCE
CNTY.               Las Animas: COUNTRY
SRVC.                Patterson: SERVICE COMPANY
DATE.          Sun Sep 19 05:48:59 2004: LOG DATE
UWI.           05 071 08157 00: UNIQUE WELL ID
~Curve Information Block
DEPT.FT            0 000 00 00: Depth
SN.Ohm-m                      : IEL Short Normal
SP.mV                         : IEL Spontaneous Potential
DIR.Ohm-m                     : IEL Induction Resistivity
GR.GAPI                       : Gamma Ray
~Parameter Information Block
~A  Depth        SN          SP         DIR          GR     
# ...
   681.0000   2000.0000   2000.0000     29.2142     71.9250
   681.2500   2000.0000   2000.0000     29.8352     68.8854
   681.5000   2000.0000   2000.0000     30.7177     66.0015
   681.7500   2000.0000   2000.0000     31.8240     65.5878
   682.0000   2000.0000   2000.0000     33.0271     67.5492
   682.2500   2000.0000   2000.0000     34.1631     70.8945
   682.5000   2000.0000   2000.0000     35.1027     79.6727
   682.7500   2000.0000   2000.0000     35.7763     87.9260
   683.0000   2000.0000   2000.0000     36.1422    101.8145
   683.2500   2000.0000   2000.0000     36.1517    109.9131
   683.5000   2000.0000   2000.0000     35.7562    116.7107
   683.7500   2000.0000   2000.0000     34.9369    116.7361
   684.0000   2000.0000   2000.0000     33.7205    111.3342
   684.2500   2000.0000   2000.0000     32.1720    106.1678
   684.5000   2000.0000   2000.0000     30.3795     99.9890
   684.7500   2000.0000   2000.0000     28.4461     98.5090
   685.0000   2000.0000   2000.0000     26.4855    100.9461
   685.2500   2000.0000   2000.0000     24.6158    104.9527
   685.5000   2000.0000   2000.0000     22.9422    112.2081
   685.7500   2000.0000   2000.0000     21.5365    116.5107
   686.0000   2000.0000   2000.0000     20.4276    120.6567
   686.2500   2000.0000   2000.0000     19.6070    121.5757
   686.5000   2000.0000   2000.0000     19.0413    120.2895
   686.7500   2000.0000   2000.0000     18.6855    117.8801
   687.0000   2000.0000   2000.0000     18.4906    112.5252
   687.2500   2000.0000   2000.0000     18.4069    108.3321
   687.5000   2000.0000   2000.0000     18.3906    102.3844
   687.7500   2000.0000   2000.0000     18.4110     99.4744
   688.0000   2000.0000   2000.0000     18.4547     97.8075
   688.2500   2000.0000   2000.0000     18.5204     98.6824
   688.5000   2000.0000   2000.0000     18.6060    102.2170
   688.7500   2000.0000   2000.0000     18.7021    105.1457
   689.0000   2000.0000   2000.0000     18.8010    108.7632
   689.2500   2000.0000   2000.0000     18.9171    109.9652
   689.5000   2000.0000   2000.0000     19.0956    109.3191
   689.7500   2000.0000   2000.0000     19.3967    107.2032
   690.0000   2000.0000   2000.0000     19.8615    102.0724
   690.2500   2000.0000   2000.0000     20.4887     98.0601
   690.5000   2000.0000   2000.0000     21.2389     92.4957
   690.7500   2000.0000   2000.0000     22.0608     89.5816
   691.0000   2000.0000   2000.0000     22.9150     86.5882
   691.2500   2000.0000   2000.0000     23.7727     85.3820
   691.5000   2000.0000   2000.0000     24.5926     84.4444
   691.7500   2000.0000   2000.0000     25.2986     84.3003
   692.0000   2000.0000   2000.0000     25.7911     84.9413
   692.2500   2000.0000   2000.0000     25.9906     86.1211
   692.5000   2000.0000   2000.0000     25.8808     89.1388
   692.7500   2000.0000   2000.0000     25.5027     91.8319
   693.0000   2000.0000   2000.0000     24.9088     96.3011
   693.2500   2000.0000   2000.0000     24.1337     99.1373
   693.5000   2000.0000   2000.0000     23.2174    102.4868
   693.7500   2000.0000   2000.0000     22.2438    103.7852
   694.0000   2000.0000   2000.0000     21.3354    104.0061
   694.2500   2000.0000   2000.0000     20.6061    103.0767
   694.5000   2000.0000   2000.0000     20.1186    100.6888
   694.7500   2000.0000   2000.0000     19.8737     98.8836
   695.0000   2000.0000   2000.0000     19.8256     96.3367
   695.2500   2000.0000   2000.0000     19.9064     94.8141
   695.5000   2000.0000   2000.0000     20.0507     92.7590
   695.7500   2000.0000   2000.0000     20.2095     91.5800
   696.0000   2000.0000   2000.0000     20.3507     90.3536
   696.2500   2000.0000   2000.0000     20.4516     90.0410
   696.5000   2000.0000   2000.0000     20.4938     90.2682
   696.7500   2000.0000   2000.0000     20.4645     90.6849
   697.0000   2000.0000   2000.0000     20.3615     91.5353
   697.2500   2000.0000   2000.0000     20.1903     92.3763
   697.5000   2000.0000   2000.0000     19.9567     94.1679
   697.7500   2000.0000   2000.0000     19.6596     95.4216
   698.0000   2000.0000   2000.0000     19.2917     96.6928
   698.2500   2000.0000   2000.0000     18.8472     97.1806
   698.5000   2000.0000   2000.0000     18.3292     98.3547
   698.7500   2000.0000   2000.0000     17.7496     99.9684
   699.0000   2000.0000   2000.0000     17.1248    103.7355
   699.2500   2000.0000   2000.0000     16.4716    106.9058
   699.5000   2000.0000   2000.0000     15.8059    112.3427
   699.7500   2000.0000   2000.0000     15.1441    116.2386
   700.0000   2000.0000   2000.0000     14.5023    121.7027
   700.2500   2000.0000   2000.0000     13.8953    124.4759
   700.5000   2000.0000   2000.0000     13.3356    126.8534
   700.7500   2000.0000   2000.0000     12.8335    127.4047
   701.0000   2000.0000   2000.0000     12.3954    126.9275
   701.2500   2000.0000   2000.0000     12.0228    125.7131
   701.5000   2000.0000   2000.0000     11.7115    122.9053
   701.7500   2000.0000   2000.0000     11.4537    121.0867
   702.0000   2000.0000   2000.0000     11.2403    119.8414
   702.2500   2000.0000   2000.0000     11.0623    120.3467
   702.5000   2000.0000   2000.0000     10.9120    122.5240
   702.7500   2000.0000   2000.0000     10.7821    124.1522
   703.0000   2000.0000   2000.0000     10.6642    125.5995
   703.2500   2000.0000   2000.0000     10.5489    125.5611
   703.5000   2000.0000   2000.0000     10.4267    124.2078
   703.7500   2000.0000   2000.0000     10.2918    122.8024
   704.0000   2000.0000   2000.0000     10.1453    120.5670
   704.2500   2000.0000   2000.0000      9.9962    119.3540
   704.5000   2000.0000   2000.0000      9.8578    118.4034
   704.7500   2000.0000   2000.0000      9.7405    118.3062
   705.0000   2000.0000   2000.0000      9.6463    118.5300
   705.2500   2000.0000   2000.0000      9.5676    118.8285
   705.5000   2000.0000   2000.0000      9.4917    119.6882
   705.7500   2000.0000   2000.0000      9.4084    120.5629
   706.0000   2000.0000   2000.0000      9.3183    122.2342
   706.2500   2000.0000   2000.0000      9.2347    123.6754
   706.5000   2000.0000   2000.0000      9.1801    126.5011
   706.7500   2000.0000   2000.0000      9.1782    128.5992
   707.0000   2000.0000   2000.0000      9.2457    131.1570
   707.2500   2000.0000   2000.0000      9.3867    131.9597
   707.5000   2000.0000   2000.0000      9.5904    131.3843
   707.7500   2000.0000   2000.0000      9.8340    129.8529
   708.0000   2000.0000   2000.0000     10.0890    126.2595
   708.2500   2000.0000   2000.0000     10.3310    123.3201
   708.5000   2000.0000   2000.0000     10.5463    118.6056
   708.7500   2000.0000   2000.0000     10.7333    115.5607
   709.0000   2000.0000   2000.0000     10.8974    111.9572
   709.2500   2000.0000   2000.0000     11.0436    110.9531
   709.5000   2000.0000   2000.0000     11.1720    112.7653
   709.7500   2000.0000   2000.0000     11.2789    116.2172
   710.0000   2000.0000   2000.0000     11.3604    123.1862
   710.2500   2000.0000   2000.0000     11.4146    127.7087
   710.5000   2000.0000   2000.0000     11.4400    132.6872
   710.7500   2000.0000   2000.0000     11.4350    134.4066
   711.0000   2000.0000   2000.0000     11.4001    134.4445
   711.2500   2000.0000   2000.0000     11.3427    132.9821
   711.5000   2000.0000   2000.0000     11.2762    129.7521
   711.7500   2000.0000   2000.0000     11.2134    127.9434
   712.0000   2000.0000   2000.0000     11.1583    126.8772
   712.2500   2000.0000   2000.0000     11.1021    127.0355
   712.5000   2000.0000   2000.0000     11.0274    127.1141
   712.7500   2000.0000   2000.0000     10.9182    126.2846
   713.0000   2000.0000   2000.0000     10.7695    123.4291
   713.2500   2000.0000   2000.0000     10.5907    120.9714
   713.5000   2000.0000   2000.0000     10.4000    118.0714
   713.7500   2000.0000   2000.0000     10.2155    117.4864
   714.0000   2000.0000   2000.0000     10.0501    118.6822
   714.2500   2000.0000   2000.0000      9.9098    119.9412
