~Version Information
VERS.                      2.0: CWLS Log ASCII Standard - VERSION 2.0
WRAP.                       NO: One line per depth step
~Well Information Block
STRT.FT               -12.2500: 
STOP.FT              1948.2500: 
STEP.FT                 0.2500: 
NULL.                -999.2500: 
COMP.          Petrogulf Corporation: COMPANY
WELL.            Torcom 17-33R: WELL
FLD.           Purgatorie River: FIELD
LOC.           1483' FSL & 1804' FEL--: LOCATION
PROV.                       CO: PROVINCE
CNTY.               Las Animas: COUNTRY
SRVC.          Patterson Wireline: SERVICE COMPANY
DATE.          Fri Sep 30 10:11:43 2005: LOG DATE
UWI.           05 071 08096 00: UNIQUE WELL ID
~Curve Information Block
DEPT.FT            0 000 00 00: Depth
CCL.                          : Casing Collar Locator
TT3.usec                      : CBL 3' Travel Time
AMP3.mV                       : CBL 3' Amplitude
GR.GAPI                       : Gamma Ray
~Parameter Information Block
~A  Depth       CCL         TT3         AMP3         GR     
# ...
   758.2500      0.0000    431.5056      9.6318    103.8382
   758.5000      0.0000    421.9411      9.7068    100.1675
   758.7500      0.0000    421.6780      9.7786     95.5104
   759.0000      0.0000    429.5216      9.8276     92.5496
   759.2500      0.0000    444.9466      9.8461     92.2058
   759.5000      0.0000    465.0376      9.8344     93.1612
   759.7500      0.0000    482.4043      9.7942     93.8453
   760.0000      0.0000    488.0269      9.7287     94.3529
   760.2500      0.0000    478.1354      9.6499     95.8493
   760.5000      0.0000    457.5608      9.5816     98.6760
   760.7500      0.0000    435.0250      9.5583    101.8546
   761.0000      0.0000    416.0815      9.6145    104.1396
   761.2500      0.0000    401.3987      9.7703    104.8581
   761.5000      0.0000    389.8293     10.0194    103.8998
   761.7500      0.0000    380.8626     10.3299    101.6227
   762.0000      0.0000    374.3958     10.6585     98.8016
   762.2500      0.0000    369.6811     10.9667     96.1923
   762.5000      0.0000    365.2036     11.2306     94.0772
   762.7500      0.0000    359.4639     11.4418     92.4221
   763.0000      0.0000    351.9991     11.6019     91.3399
   763.2500      0.0000    343.8188     11.7126     91.1241
   763.5000      0.0000    336.7986     11.7637     91.7794
   763.7500      0.0000    332.5377     11.7341     92.7791
   764.0000      0.0000    331.7080     11.6059     93.5184
   764.2500      0.0000    334.3202     11.3832     93.8032
   764.5000      0.0000    340.4358     11.0987     93.5209
   764.7500      0.0000    350.9242     10.7926     92.2589
   765.0000      0.0000    367.3369     10.4808     89.8783
   765.2500      0.0000    389.6873     10.1506     87.0101
   765.5000      0.0000    413.6531      9.7991     84.2197
   765.7500      0.0000    431.8313      9.4626     81.0876
   766.0000      0.0000    440.0599      9.1927     76.8009
   766.2500      0.0000    441.8884      9.0071     71.4232
   766.5000      0.0000    444.9408      8.8790     66.0906
   766.7500      0.0000    452.8264      8.7701     62.1389
   767.0000      0.0000    461.3131      8.6669     60.3258
   767.2500      0.0000    462.1419      8.5894     60.5686
   767.5000      0.0000    450.3139      8.5683     61.9831
   767.7500      0.0000    428.1848      8.6070     63.3541
   768.0000      0.0000    403.1022      8.6604     64.0046
   768.2500      0.0000    381.5634      8.6606     64.3692
   768.5000      0.0000    365.7126      8.5708     65.7855
   768.7500      0.0000    354.6468      8.4168     69.7242
   769.0000      0.0000    347.5432      8.2625     76.7772
   769.2500      0.0000    344.7495      8.1575     85.8148
   769.5000      0.0000    346.4146      8.1066     94.2119
   769.7500      0.0000    351.1591      8.0846     99.5902
   770.0000      0.0000    356.6139      8.0717    101.7589
   770.2500      0.0000    361.1194      8.0694    102.6081
   770.5000      0.0000    364.9407      8.0861    103.7607
   770.7500      0.0000    370.5324      8.1216    104.6620
   771.0000      0.0000    382.2367      8.1676    103.2290
   771.2500      0.0000    405.0427      8.2164     97.9548
   771.5000      0.0000    441.8026      8.2580     89.1479
   771.7500      0.0000    490.1625      8.2770     78.6419
   772.0000      0.0000    542.1185      8.2622     68.8309
   772.2500      0.0000    587.3090      8.2197     61.8959
   772.5000      0.0000    617.6456      8.1694     59.4137
   772.7500      0.0000    629.4407      8.1298     61.9852
   773.0000      0.0000    621.7209      8.1063     68.7318
   773.2500      0.0000    594.1337      8.0938     77.4045
   773.5000      0.0000    548.7556      8.0881     85.6106
   773.7500      0.0000    493.7682      8.0958     91.9950
   774.0000      0.0000    442.0692      8.1337     96.2031
   774.2500      0.0000    403.9957      8.2171     98.3027
   774.5000      0.0000    381.8828      8.3433     98.6739
   774.7500      0.0000    371.6206      8.4877     98.0762
   775.0000      0.0000    367.6924      8.6219     97.2346
   775.2500      0.0000    366.3267      8.7351     96.2226
   775.5000      0.0000    365.7520      8.8366     94.4712
   775.7500      0.0000    365.3463      8.9381     91.4759
   776.0000      0.0000    364.9737      9.0423     87.3614
   776.2500      0.0000    364.6669      9.1486     82.7827
   776.5000      0.0000    364.5165      9.2652     78.4203
   776.7500      0.0000    364.6255      9.4112     74.5233
   777.0000      0.0000    365.2187      9.6011     70.8379
   777.2500      0.0000    367.0478      9.8167     67.0630
   777.5000      0.0000    372.0898      9.9960     63.5544
   777.7500      0.0000    383.9672     10.0708     61.4560
   778.0000      0.0000    406.7863     10.0359     61.8455
   778.2500      0.0000    441.8241      9.9850     64.6578
   778.5000      0.0000    484.4549     10.0587     68.4862
   778.7500      0.0000    525.1838     10.3324     71.3876
   779.0000      0.0000    554.9447     10.7475     72.0528
   779.2500      0.0000    570.2667     11.1509     70.6305
   779.5000      0.0000    574.4485     11.4063     68.5807
   779.7500      0.0000    574.6178     11.4745     67.4821
   780.0000     -2.0000    576.6555     11.3902     67.7540
   780.2500      0.0000    581.2337     11.1767     68.4824
   780.5000      0.0000    583.9386     10.8257     68.5287
   780.7500      0.0000    579.1281     10.3824     67.8633
   781.0000      0.0000    564.1274      9.9960     67.7072
   781.2500      0.0000    540.7228      9.8177     69.2948
   781.5000      0.0000    513.4292      9.8523     72.7600
   781.7500      0.0000    486.2287      9.9607     77.3538
   782.0000      0.0000    460.6368      9.9964     82.2675
   782.2500      0.0000    436.8506      9.9021     86.8372
   782.5000      0.0000    415.9777      9.7041     90.2870
   782.7500      0.0000    399.9185      9.4621     91.8321
   783.0000      0.0000    389.2615      9.2288     91.1544
   783.2500      0.0000    382.4417      9.0320     88.6198
   783.5000      0.0000    377.2340      8.8739     84.9989
   783.7500      0.0000    372.7744      8.7375     81.0423
   784.0000      0.0000    370.0184      8.5998     77.2315
   784.2500      0.0000    370.3325      8.4461     73.7075
   784.5000      0.0000    373.8533      8.2781     70.4482
   784.7500      0.0000    379.6606      8.1077     67.7756
   785.0000      0.0000    387.7593      7.9478     66.6851
   785.2500      0.0000    400.5531      7.8044     68.2403
   785.5000      0.0000    421.7008      7.6754     72.3842
   785.7500      0.0000    452.7773      7.5506     77.5642
   786.0000      0.0000    490.8704      7.4182     81.8464
   786.2500      0.0000    530.1310      7.2722     84.3550
   786.5000      0.0000    566.0067      7.1175     85.4146
   786.7500      0.0000    597.4579      6.9689     85.6024
   787.0000      0.0000    625.1464      6.8455     85.2827
   787.2500      0.0000    648.7070      6.7621     85.0257
   787.5000      0.0000    666.5889      6.7214     85.6544
   787.7500      0.0000    677.9361      6.7135     87.5058
   788.0000      0.0000    683.6651      6.7227     90.1038
   788.2500      0.0000    685.5836      6.7337     92.7785
   788.5000      0.0000    684.7765      6.7347     95.0284
   788.7500      0.0000    680.6835      6.7198     95.9647
   789.0000      0.0000    671.5089      6.6921     94.2393
   789.2500      0.0000    656.0743      6.6597     89.3526
   789.5000      0.0000    636.1962      6.6277     82.7264
   789.7500      0.0000    617.4707      6.5941     76.9618
   790.0000      0.0000    607.1107      6.5529     74.2187
   790.2500      0.0000    610.0960      6.5004     75.3384
   790.5000      0.0000    626.3852      6.4391     79.8824
   790.7500      0.0000    651.0062      6.3770     86.4982
   791.0000      0.0000    676.8568      6.3214     93.3407
   791.2500      0.0000    698.2950      6.2734     98.5374
   791.5000      0.0000    713.3910      6.2258    100.6949
