~Version Information
VERS.                      2.0: CWLS Log ASCII Standard - VERSION 2.0
WRAP.                       NO: One line per depth step
~Well Information Block
STRT.FT                -9.5000: 
STOP.FT              2893.0000: 
STEP.FT                 0.2500: 
NULL.                -999.2500: 
COMP.          Pioneer Natural Resources: COMPANY
WELL.          Old Yeller 31-32: WELL
FLD.           Purgatoire River: FIELD
LOC.           1832' FEL & 793' FNL----: LOCATION
STAT.                 Colorado: State
CNTY.               Las Animas: COUNTY
CTRY. USA : Country
SECT. 32 : Section
TOWN. 32S : Township
RANG. 67W : Range
SRVC.                         : SERVICE COMPANY
DATE.          Fri Sep 02 16:45:38 2005: LOG DATE
API. 05-071-08356                         : UNIQUE WELL ID
~Curve Information Block
DEPT.FT            0 000 00 00: Depth
CCL.                          : Casing Collar Locator
TT3.usec                      : CBL 3' Travel Time
AMP5.mV                       : CBL 5' Amplitude
GR.GAPI                       : Gamma Ray
~Parameter Information Block
~A  Depth       CCL         TT3         AMP5         GR     
# ...
  1732.5000      0.0000    621.2167      0.4741    144.1299
  1732.7500      0.0000    616.8582      0.9093    138.4791
  1733.0000      0.0000    598.5685      0.4741    135.6486
  1733.2500      0.0000    570.1962      0.2129    135.3487
  1733.5000      0.0000    537.9862      1.6927    136.2309
  1733.7500      0.0000    507.8612      0.3000    137.0683
  1734.0000      0.0000    485.3128      0.8223    137.3496
  1734.2500      0.0000    476.2571      0.5611    136.9141
  1734.5000      0.0000    485.7625      0.7352    135.4201
  1734.7500      0.0000    512.8403      0.7352    132.3848
  1735.0000      0.0000    546.7296      1.0834    127.7709
  1735.2500      0.0000    573.5489      0.8223    122.4907
  1735.5000      2.0000    588.8951      0.9093    118.0703
  1735.7500     -2.0000    599.6202      0.8223    115.6927
  1736.0000      0.0000    611.8852      1.3446    115.6945
  1736.2500      0.0000    621.7108      0.6482    117.7484
  1736.5000      0.0000    618.7799      0.7352    121.0635
  1736.7500      0.0000    597.0267      0.7352    124.6100
  1737.0000      0.0000    560.9917      1.0834    127.7893
  1737.2500      0.0000    522.5431      0.8223    130.9140
  1737.5000      0.0000    490.6680      0.9964    134.5321
  1737.7500      0.0000    465.4414      0.9093    138.2417
  1738.0000      0.0000    443.1595      1.1705    140.5124
  1738.2500      0.0000    423.9376      2.7373    139.7848
  1738.5000      0.0000    410.6363      0.7352    135.6619
  1738.7500      0.0000    402.7222      1.7798    129.2219
  1739.0000      0.0000    395.1196      1.0834    122.4808
  1739.2500      0.0000    383.6274      1.3446    117.4420
  1739.5000      0.0000    370.6245      1.9539    115.1455
  1739.7500      0.0000    365.2533      1.5186    115.2981
  1740.0000      0.0000    376.7919      1.4316    116.8628
  1740.2500      0.0000    405.3950      1.0834    118.9770
  1740.5000      0.0000    438.7050      1.5186    121.0701
  1740.7500      0.0000    460.1987      1.4316    122.4053
  1741.0000      0.0000    462.7199      1.8668    122.2561
  1741.2500      0.0000    452.5482      1.3446    120.6039
  1741.5000      0.0000    440.3404      1.1705    118.1212
  1741.7500      0.0000    431.1211      1.0834    115.3629
  1742.0000      0.0000    423.1317      0.9093    112.1961
  1742.2500      0.0000    412.6747      1.2575    107.9362
  1742.5000      0.0000    398.6076      1.3446    101.9577
  1742.7500      0.0000    383.9149      1.4316     94.4291
  1743.0000      0.0000    374.3835      0.7352     86.5805
  1743.2500      0.0000    375.0310      1.3446     80.0569
  1743.5000      0.0000    385.7868      0.9964     75.8709
  1743.7500      0.0000    399.4538      1.5186     73.9591
  1744.0000      0.0000    405.4696      0.9964     73.6050
  1744.2500      0.0000    398.3034      1.3446     74.1002
  1744.5000      0.0000    381.9507      1.0834     75.0258
  1744.7500      0.0000    365.1617      1.6057     76.0877
  1745.0000      0.0000    353.6312      0.9093     76.7822
  1745.2500      0.0000    347.5869      0.7352     76.2483
  1745.5000      0.0000    344.5479      1.4316     73.5973
  1745.7500      0.0000    342.3268      1.0834     68.6633
  1746.0000      0.0000    340.4897      1.1705     62.4298
  1746.2500      0.0000    341.1897      0.9093     56.4729
  1746.5000      0.0000    349.6842      1.0834     51.9136
  1746.7500      0.0000    373.2167      0.7352     48.9109
  1747.0000      0.0000    416.6311      1.3446     47.0423
  1747.2500      0.0000    475.5663      0.8223     46.0081
  1747.5000      0.0000    533.2397      1.0834     45.8646
  1747.7500      0.0000    567.4550      0.8223     46.6962
  1748.0000      0.0000    565.2076      0.7352     48.4083
  1748.2500      0.0000    533.2966      0.9093     50.9502
  1748.5000      0.0000    495.8992      0.9093     54.5477
  1748.7500      0.0000    479.9093      0.9093     59.6075
  1749.0000      0.0000    497.5972      1.2575     66.4049
  1749.2500      0.0000    539.0507      1.2575     74.7593
  1749.5000      0.0000    579.8704      1.4316     83.9383
  1749.7500      0.0000    597.2299      1.6057     92.8650
  1750.0000      0.0000    582.1831      1.2575    100.4070
  1750.2500      0.0000    541.3137      0.9093    105.6078
  1750.5000      0.0000    489.3676      1.3446    108.0099
  1750.7500      0.0000    440.1332      1.3446    108.0079
  1751.0000      0.0000    402.2698      0.9093    106.6757
  1751.2500      0.0000    380.5376      1.2575    104.9846
  1751.5000      0.0000    378.6023      1.2575    103.3161
  1751.7500      0.0000    399.9316      1.4316    101.8606
  1752.0000      0.0000    444.7289      1.2575    101.2887
  1752.2500      0.0000    504.3454      1.4316    102.7771
  1752.5000      0.0000    560.1083      1.3446    107.2974
  1752.7500      0.0000    592.2172      1.0834    114.7054
  1753.0000      0.0000    593.3095      0.9964    123.3813
  1753.2500      0.0000    573.9742      1.1705    131.0661
  1753.5000      0.0000    554.8477      1.0834    136.4595
  1753.7500      0.0000    552.8658      0.7352    139.8422
  1754.0000      0.0000    572.8270      1.0834    141.9291
  1754.2500      0.0000    608.0914      1.2575    142.5540
  1754.5000      0.0000    646.8157      1.4316    141.0329
  1754.7500      0.0000    678.4776      1.3446    137.6727
  1755.0000      0.0000    696.7895      0.9093    134.3782
  1755.2500      0.0000    697.9750      0.9964    133.4816
  1755.5000      0.0000    678.4551      1.3446    136.0036
  1755.7500      0.0000    637.1641      0.9964    141.0953
  1756.0000      0.0000    581.5226      0.9964    146.9328
  1756.2500      0.0000    528.7446      0.4741    151.8107
  1756.5000      0.0000    496.8959      0.9964    154.4983
  1756.7500      0.0000    491.7665      1.1705    154.1251
  1757.0000      0.0000    502.6765      0.6482    150.2912
  1757.2500      0.0000    512.7116      1.1705    143.5743
  1757.5000      0.0000    513.7563      1.2575    135.8329
  1757.7500      0.0000    510.4685      1.2575    129.4565
  1758.0000      0.0000    509.1940      0.8223    125.7918
  1758.2500      0.0000    506.3833      1.1705    124.3295
  1758.5000      0.0000    492.4932      0.9093    123.6594
  1758.7500      0.0000    466.3958      0.9964    123.0488
  1759.0000      0.0000    440.7513      0.9093    122.8847
  1759.2500      0.0000    432.2372      1.1705    123.8525
  1759.5000      0.0000    449.9219      0.9964    126.0404
  1759.7500      0.0000    492.3819      1.2575    128.6929
  1760.0000      0.0000    550.4296      0.6482    130.7118
  1760.2500      0.0000    610.1449      0.6482    131.7645
  1760.5000      0.0000    656.8474      0.9093    132.9725
  1760.7500      0.0000    679.7826      0.5611    135.9771
  1761.0000      0.0000    674.1104      1.0834    141.0470
  1761.2500      0.0000    640.7030      0.7352    146.3974
  1761.5000      0.0000    587.7494      0.7352    149.3808
  1761.7500      0.0000    532.8161      0.8223    148.0483
  1762.0000      0.0000    498.6914      0.7352    142.0392
  1762.2500      0.0000    501.7688      0.7352    132.9146
  1762.5000      0.0000    541.0264      0.9093    123.5982
  1762.7500      0.0000    596.3341      0.5611    116.6256
  1763.0000      0.0000    637.8971      0.9964    112.5271
  1763.2500      0.0000    641.5327      1.0834    109.9040
  1763.5000      0.0000    601.3126      0.6482    106.9239
  1763.7500      0.0000    532.4357      0.9964    102.8037
  1764.0000      0.0000    461.8785      0.7352     98.2703
  1764.2500      0.0000    413.2593      0.8223     94.8087
  1764.5000      0.0000    396.9424      1.1705     93.4035
  1764.7500      0.0000    409.4855      0.8223     93.8657
  1765.0000      0.0000    437.9978      0.7352     95.0226
  1765.2500      0.0000    466.3156      1.1705     95.4365
  1765.5000      0.0000    483.2844      1.3446     94.3566
  1765.7500      0.0000    489.8275      1.1705     92.4407
