~Version Information
 VERS.                                  2.0 : CWLS LAS VERSION
 WRAP.                                   NO : WRAPING MODE
 SWARE .                 MController 2.5.0J : SOFTWARE VERSION
~Well Information
 WELL.                         State 16-12V : WELL
 COMP.                Petrogulf Corporation : COMPANY
 FLD.                      Purgatoire River : FIELD
 LOC.                       05-071-08016-00 : LOCATION
 DATE.                             08/03/05 : DATE(S) LOGGED
 SRVC.       BLANCO Geological Services LLC : SERVICE COMPANY
 STAT.                                   CO : STATE
 CNTY.                           Las Animas : COUNTY
 CTRY.                                  USA : COUNTRY
 API.                       05-071-08016-00 : API NUMBER
 STRT.FT                             611.00 : START DEPTH
 STOP.FT                            2155.00 : STOP DEPTH
 STEP.FT                               1.00 : DEPTH INCREMENT
 NULL.                                -9999 : NULL VALUE
~Curve information
 DEPTH.FT                                   :
 ROP.MIN/FT                                 :
 GAS.UNITS                                  :
~ASCII Log data
# ...
       811.0         0.23          7.9 
       812.0         0.20          8.0 
       813.0         0.17          7.9 
       814.0         0.20          8.0 
       815.0         0.17          7.8 
       816.0         0.20          8.1 
       817.0         0.17          8.2 
       818.0         0.23          8.0 
       819.0         0.17          7.6 
       820.0         0.23          8.0 
       821.0         0.20          7.9 
       822.0         0.20          8.0 
       823.0         0.20          9.6 
       824.0         0.20         12.8 
       825.0         0.17         12.8 
       826.0         0.25         11.3 
       827.0         0.17          9.3 
       828.0         0.20          8.4 
       829.0         0.17          8.4 
       830.0         0.17          8.4 
       831.0         0.20          8.5 
       832.0         0.20          8.6 
       833.0         0.23          8.7 
       834.0         0.27         14.2 
       835.0         0.23         18.4 
       836.0         0.87         18.4 
       837.0         0.23          9.1 
       838.0         0.27          9.9 
       839.0         0.18          8.4 
       840.0         0.10          7.8 
       841.0         0.10          7.7 
       842.0         0.13          7.8 
       843.0         0.17          7.6 
       844.0         0.20          7.8 
       845.0         0.30          7.8 
       846.0         0.33          7.7 
       847.0         0.30          7.8 
       848.0         0.23          7.5 
       849.0         0.23          7.5 
       850.0         0.20          7.5 
       851.0         0.40          7.4 
       852.0         0.23          9.4 
       853.0         0.22          8.7 
       854.0         0.20          8.3 
       855.0         0.20          7.6 
       856.0         0.17          7.2 
       857.0         0.20          7.5 
       858.0         0.17          7.6 
       859.0         0.23          7.7 
       860.0         0.23          8.0 
       861.0         0.13          8.2 
       862.0         0.10          7.6 
       863.0         0.17          8.2 
       864.0         0.20          8.5 
       865.0         0.20          7.8 
       866.0         1.85          8.1 
       867.0         0.40          7.9 
       868.0         0.63          8.1 
       869.0         0.60          9.1 
       870.0         0.72          8.0 
       871.0         0.50          7.9 
       872.0         0.23          7.3 
       873.0         0.17          7.6 
       874.0         0.23          7.7 
       875.0         0.30          9.2 
       876.0         0.30          9.5 
       877.0         0.20          9.1 
       878.0         0.20          9.2 
       879.0         0.20          8.6 
       880.0         0.22          8.1 
       881.0         0.23          8.0 
       882.0         0.23          8.0 
       883.0         0.13          8.2 
       884.0         0.13          7.6 
       885.0         0.20          8.0 
       886.0         0.20          7.5 
       887.0         0.20          8.1 
       888.0         0.20          8.1 
       889.0         0.20          8.5 
       890.0         0.23          8.8 
       891.0         0.17          9.6 
       892.0         0.20         10.6 
       893.0         0.20         10.9 
       894.0         0.20         10.7 
       895.0         0.27         11.7 
       896.0         0.95         11.5 
       897.0         0.33          8.2 
       898.0         0.27          8.2 
       899.0         0.20          7.5 
       900.0         0.10          8.0 
       901.0         0.17          8.0 
       902.0         0.23          7.9 
       903.0         0.20          8.0 
       904.0         0.20          7.3 
       905.0         0.17          7.9 
       906.0         0.17          7.9 
       907.0         0.20          7.3 
       908.0         0.17          7.6 
       909.0         0.18          7.2 
       910.0         0.20          7.4 
       911.0         0.20          7.3 
       912.0         0.17          7.1 
       913.0         0.20          7.4 
       914.0         0.17          7.0 
       915.0         0.17          7.2 
       916.0         0.20          7.1 
       917.0         0.17          7.5 
       918.0         0.20          7.5 
       919.0         0.17          7.4 
       920.0         0.20          8.2 
       921.0         0.17          7.8 
       922.0         0.17          8.4 
       923.0         0.20          8.4 
       924.0         0.20          8.8 
       925.0         0.23          8.8 
       926.0         1.68         19.3 
       927.0         0.30         15.8 
       928.0         0.23         12.2 
       929.0         0.23         15.4 
       930.0         0.20         15.7 
       931.0         0.23         14.2 
       932.0         0.13         11.5 
       933.0         0.27         10.3 
       934.0         0.35          9.3 
       935.0         0.30          8.9 
       936.0         0.20          8.2 
       937.0         0.33          8.4 
       938.0         0.17          7.7 
       939.0         0.27          7.7 
       940.0         0.20          8.0 
       941.0         0.23          7.9 
       942.0         0.20          7.7 
       943.0         0.13          7.6 
       944.0         0.17          7.7 
       945.0         0.20          8.0 
       946.0         0.17          8.3 
       947.0         0.20          9.1 
       948.0         0.23          9.2 
       949.0         0.18         10.5 
       950.0         0.20         11.0 
       951.0         0.20         10.5 
       952.0         0.17          9.6 
       953.0         0.30         14.8 
       954.0         0.20         14.5 
       955.0         0.30         12.2 
       956.0         0.73          9.0 
       957.0         0.27          7.7 
       958.0         0.17          7.1 
       959.0         0.27          7.2 
       960.0         0.23          6.9 
       961.0         0.25          6.6 
       962.0         0.27          6.8 
       963.0         0.27          6.9 
       964.0         0.27          7.0 
       965.0         0.23          7.2 
       966.0         0.20          7.1 
       967.0         0.23          7.0 
       968.0         0.23          7.2 
       969.0         0.27          6.7 
       970.0         0.27          6.7 
       971.0         0.23          6.4 
       972.0         0.20          6.6 
       973.0         0.27          8.1 
       974.0         0.25          8.0 
       975.0         0.20          7.6 
       976.0         0.20          7.4 
       977.0         0.23          7.7 
       978.0         0.23          8.3 
       979.0         0.23          9.5 
       980.0         0.20         10.1 
       981.0         0.17         10.3 
       982.0         0.23          9.6 
       983.0         0.17          8.9 
       984.0         0.17          7.8 
       985.0         0.23          7.2 
       986.0         0.95          6.8 
       987.0         0.23          6.4 
       988.0         0.27          6.6 
       989.0         0.23          6.8 
       990.0         0.23          6.8 
       991.0         0.20          6.8 
       992.0         0.23          7.1 
       993.0         0.20          6.5 
       994.0         0.20          6.9 
       995.0         0.20          6.8 
       996.0         0.20          6.9 
       997.0         0.23          7.4 
       998.0         0.20          6.9 
       999.0         0.23          7.2 
      1000.0         0.20          6.8 
      1001.0         0.35          6.5 
      1002.0         0.27          6.5 
      1003.0         0.23          7.2 
      1004.0         0.30          7.6 
      1005.0         0.23          7.6 
      1006.0         0.37          7.8 
      1007.0         0.23          7.4 
      1008.0         0.20          8.3 
      1009.0         0.23          9.0 
      1010.0         0.27          9.7 
