~Version Information
VERS.                      2.0: CWLS Log ASCII Standard - VERSION 2.0
WRAP.                       NO: One line per depth step
~Well Information Block
STRT.FT                -9.5000: 
STOP.FT              2451.0000: 
STEP.FT                 0.2500: 
NULL.                -999.2500: 
COMP.          Petrogulf Corporation: COMPANY
WELL.           Vallejo 19-31V: WELL
FLD.           Purgatorie River: FIELD
LOC.           345' FNL & 2457' FEL: LOCATION
CNTY.               Las Animas: COUNTY
SRVC.                         : SERVICE COMPANY
DATE.          Mon Mar 08 08:24:37 2004: LOG DATE
UWI.           05-071-07919-00: UNIQUE WELL ID
STAT.                 Colorado: STATE
~Curve Information Block
DEPT.FT            0 000 00 00: Depth
MINMK.                        : Surface Line Tension
GR.GAPI                       : Gamma Ray
CCL.                          : Casing Collar Locator
TT3.usec                      : CBL 3' Travel Time
AMP3.mV                       : CBL 3' Amplitude
~Parameter Information Block
~A  Depth      MINMK         GR         CCL         TT3         AMP3    
# ...
  1950.5000      0.0000    124.6975      0.0000    267.0000     58.9929
  1950.7500      0.0000    122.9274      0.0000    267.0000     56.3877
  1951.0000      0.0000    120.6505      0.0000    267.0000     54.2657
  1951.2500      0.0000    118.2349      0.0000    267.0000     52.8232
  1951.5000      0.0000    115.4029      0.0000    267.0000     52.0747
  1951.7500      0.0000    111.5675      0.0000    267.0000     51.7776
  1952.0000      0.0000    107.2306      0.0000    266.9999     51.6233
  1952.2500      0.0000    104.1230      0.0000    266.9989     51.5530
  1952.5000      0.0000    103.4884      0.0000    266.9914     51.7799
  1952.7500      0.0000    104.4789      0.0000    266.9564     52.4390
  1953.0000      0.0000    104.7662      0.0000    266.8547     53.3766
  1953.2500      0.0000    102.8971      0.0000    266.6777     54.3164
  1953.5000      0.0000     99.5818      0.0000    266.5211     54.9502
  1953.7500      0.0000     96.4046      0.0000    266.5222     54.9080
  1954.0000      0.0000     93.8569      0.0000    266.6864     53.9858
  1954.2500      1.0000     91.1954      0.0000    266.8994     52.4492
  1954.5000      0.0000     87.8626      0.0000    267.1105     51.0217
  1954.7500      0.0000     84.3789      0.0000    267.3584     50.5705
  1955.0000      0.0000     81.8183      0.0000    267.6318     51.5630
  1955.2500      0.0000     80.7741      0.0000    267.8448     53.6431
  1955.5000      0.0000     80.8372      0.0000    267.9477     55.9078
  1955.7500      0.0000     80.8067      0.0000    267.9552     57.6066
  1956.0000      0.0000     79.5196      0.0000    267.8885     58.5469
  1956.2500      0.0000     76.8682      0.0000    267.7794     58.9875
  1956.5000      0.0000     74.1006      0.0000    267.6980     59.2116
  1956.7500      0.0000     72.9057      0.0000    267.6777     59.3487
  1957.0000      0.0000     74.1009      0.0000    267.6776     59.6161
  1957.2500      0.0000     77.1807      0.0000    267.6970     60.3123
  1957.5000      0.0000     80.8991      0.0000    267.7719     61.4898
  1957.7500      0.0000     83.9551      0.0000    267.8536     62.9618
  1958.0000      0.0000     85.2653      0.0000    267.8545     64.5187
  1958.2500      0.0000     84.3085      0.0000    267.7784     65.8981
  1958.5000      0.0000     81.5810      0.0000    267.7253     66.8022
  1958.7500      0.0000     78.2959      0.0000    267.7498     67.0793
  1959.0000      0.0000     75.3595      0.0000    267.7726     66.7402
  1959.2500      0.0000     72.8680      0.0000    267.7064     65.9054
  1959.5000      0.0000     70.6577      0.0000    267.5735     64.7967
  1959.7500      0.0000     68.8905      0.0000    267.4276     63.6848
  1960.0000      0.0000     67.7547      0.0000    267.3013     62.7226
  1960.2500      0.0000     66.8222      0.0000    267.2649     61.7135
  1960.5000      0.0000     65.1497      0.0000    267.3765     60.1631
  1960.7500      0.0000     62.0824      0.0000    267.6150     57.5181
  1961.0000      0.0000     57.8321      0.0000    268.1917     53.1498
  1961.2500      0.0000     53.3228      0.0000    270.2369     46.7716
  1961.5000      0.0000     49.5932      0.0000    275.8382     39.5837
  1961.7500      0.0000     47.2353      0.0000    285.9181     33.7461
  1962.0000      0.0000     46.2074      0.0000    297.6217     29.7663
  1962.2500      0.0000     46.2155      0.0000    306.2928     26.3878
  1962.5000      0.0000     47.4772      0.0000    310.3688     23.0783
  1962.7500      0.0000     51.0296      5.0000    311.7152     20.2216
  1963.0000      0.0000     57.8901      0.0000    312.5315     17.9422
  1963.2500      0.0000     67.8092      0.0000    314.3851     16.1385
  1963.5000      0.0000     79.1073      0.0000    318.7509     14.7211
  1963.7500      0.0000     89.7483      0.0000    325.7901     13.6638
  1964.0000      0.0000     98.4133      0.0000    332.2570     13.2564
  1964.2500      0.0000    104.7463      0.0000    333.8124     14.0739
  1964.5000      0.0000    108.8848      0.0000    330.1120     16.1307
  1964.7500      0.0000    110.8414      0.0000    323.9394     18.1798
  1965.0000      0.0000    110.5779      0.0000    317.3673     19.0549
  1965.2500      0.0000    108.7696      0.0000    311.8482     19.2835
  1965.5000      0.0000    106.8088      0.0000    308.2897     19.9612
  1965.7500      0.0000    105.6552      0.0000    306.2298     21.2024
  1966.0000      0.0000    105.2235      0.0000    304.8862     22.4718
  1966.2500      0.0000    105.0025      0.0000    304.0596     23.2851
  1966.5000      0.0000    104.6975      0.0000    303.7837     23.4821
  1966.7500      0.0000    104.4139      0.0000    304.2404     23.1813
  1967.0000      0.0000    104.7505      0.0000    306.2887     22.4254
  1967.2500      0.0000    106.4714      0.0000    311.5128     21.1402
  1967.5000      0.0000    109.6834      0.0000    320.5613     19.4304
  1967.7500      0.0000    113.5899      0.0000    330.9763     17.6394
  1968.0000      0.0000    117.2188      0.0000    338.2288     16.1571
  1968.2500      0.0000    120.0770      0.0000    339.4802     15.2196
  1968.5000      0.0000    122.0624      0.0000    335.5308     14.8285
  1968.7500      0.0000    123.1299      0.0000    329.4273     14.8234
  1969.0000      0.0000    123.3158      0.0000    323.1431     15.0620
  1969.2500      0.0000    122.9502      0.0000    316.9026     15.5243
  1969.5000      0.0000    122.5715      0.0000    311.6713     16.1909
  1969.7500      0.0000    122.6140      0.0000    308.7107     16.9113
  1970.0000      0.0000    123.2481      0.0000    307.6805     17.5423
  1970.2500      0.0000    124.2081      0.0000    307.4185     18.1353
  1970.5000      0.0000    124.5412      0.0000    307.1906     18.8374
  1970.7500      0.0000    122.9345      0.0000    306.7815     19.6422
  1971.0000      0.0000    118.6848      0.0000    306.3168     20.3118
  1971.2500      0.0000    112.2477      0.0000    306.0880     20.5874
  1971.5000      0.0000    104.8370      0.0000    306.2534     20.4335
  1971.7500      0.0000     97.7172      0.0000    306.7048     19.9691
  1972.0000      0.0000     91.6894      0.0000    307.2663     19.2974
  1972.2500      0.0000     86.8101      0.0000    307.8777     18.5039
  1972.5000      0.0000     82.5401      0.0000    308.5059     17.6956
  1972.7500      0.0000     78.3308      0.0000    308.9590     17.0626
  1973.0000      0.0000     74.0797      0.0000    308.9134     16.9094
  1973.2500      0.0000     70.0507      0.0000    308.1801     17.4783
  1973.5000      0.0000     66.6042      0.0000    306.7597     18.8332
  1973.7500      0.0000     64.1937      0.0000    304.3033     20.9047
  1974.0000      0.0000     63.4920      0.0000    299.6085     23.4175
  1974.2500      0.0000     65.0998      0.0000    291.8532     25.9185
  1974.5000      0.0000     68.8970      0.0000    283.0070     27.9977
  1974.7500      0.0000     73.8780      0.0000    277.2368     29.3316
  1975.0000      0.0000     78.8146      0.0000    277.3215     29.7385
  1975.2500      0.0000     82.8925      0.0000    282.8673     29.3513
  1975.5000      0.0000     85.6754      0.0000    291.0247     28.4016
  1975.7500      0.0000     86.9283      0.0000    298.9705     26.9381
  1976.0000      0.0000     86.8090      0.0000    306.8145     25.0046
  1976.2500      0.0000     86.0973      0.0000    316.3370     22.8450
  1976.5000      0.0000     85.9635      0.0000    326.7778     20.8075
  1976.7500      0.0000     87.2469      0.0000    334.9198     19.0656
  1977.0000      0.0000     89.9747      0.0000    339.2075     17.4901
  1977.2500      0.0000     93.7360      0.0000    340.8027     15.8923
  1977.5000      0.0000     98.2385      0.0000    341.2969     14.2723
  1977.7500      0.0000    103.1672      0.0000    341.6916     12.7681
  1978.0000      0.0000    107.8860      0.0000    343.9733     11.5038
  1978.2500      0.0000    111.7513      0.0000    354.9677     10.4903
