~Version Information
VERS.                      2.0: CWLS Log ASCII Standard - VERSION 2.0
WRAP.                       NO: One line per depth step
~Well Information Block
STRT.FT                -8.0000: 
STOP.FT              2410.0000: 
STEP.FT                 0.2500: 
NULL.                -999.2500: 
COMP.          Petrogulf Corporation: COMPANY
WELL.            Torcom 17-33V: WELL
FLD.           Purgatorie River: FIELD
LOC.           1544' FSL & 1746' FEL--: LOCATION
PROV.                       CO: PROVINCE
CNTY.               Las Animas: COUNTRY
SRVC.          Patterson Wireline: SERVICE COMPANY
DATE.          Wed Dec 10 17:24:27 2003: LOG DATE
UWI.                          : UNIQUE WELL ID
~Curve Information Block
DEPT.FT            0 000 00 00: Depth
CCL.                          : Casing Collar Locator
TT3.usec                      : CBL 3' Travel Time
AMP3.mV                       : CBL 3' Amplitude
GR.GAPI                       : Gamma Ray
~Parameter Information Block
~A  Depth       CCL         TT3         AMP3         GR     
# ...
   159.5000      0.0000    856.7908      4.7861     89.0890
   159.7500      0.0000    856.8668      4.6048     89.1995
   160.0000      0.0000    858.9265      4.4770     89.7052
   160.2500      0.0000    862.5324      4.4901     90.2539
   160.5000      0.0000    866.2092      4.6596     90.5935
   160.7500      0.0000    868.9241      4.9182     90.8640
   161.0000      0.0000    870.5551      5.1583     90.9528
   161.2500      0.0000    871.4253      5.2935     89.8423
   161.5000      0.0000    871.8713      5.2984     86.4288
   161.7500      0.0000    872.1567      5.2161     81.0790
   162.0000      0.0000    872.3415      5.1356     75.8187
   162.2500      0.0000    871.8199      5.1437     72.8946
   162.5000      0.0000    868.6838      5.2654     73.3969
   162.7500      0.0000    859.5607      5.4312     76.9216
   163.0000      0.0000    841.1558      5.5091     81.8822
   163.2500      0.0000    813.6029      5.3880     86.2524
   163.5000      0.0000    783.0037      5.0546     88.7434
   163.7500      0.0000    759.5558      4.6087     89.4857
   164.0000      0.0000    751.3414      4.2103     89.4701
   164.2500      0.0000    758.4566      3.9971     89.5434
   164.5000      0.0000    773.1335      4.0197     90.1530
   164.7500      0.0000    787.0844      4.2247     91.6136
   165.0000      2.0000    799.0176      4.4937     94.0492
   165.2500      2.0000    812.9384      4.7084     97.2028
   165.5000      0.0000    829.5388      4.8018    100.6773
   165.7500      0.0000    843.5809      4.7752    104.2931
   166.0000      0.0000    851.0253      4.6892    107.9952
   166.2500      0.0000    854.6533      4.6279    111.4622
   166.5000      0.0000    860.0911      4.6481    113.9426
   166.7500      0.0000    868.7229      4.7531    114.7157
   167.0000      0.0000    876.9142      4.9123    113.9421
   167.2500      0.0000    880.6631      5.0878    112.9368
   167.5000      0.0000    878.5621      5.2367    113.2888
   167.7500      0.0000    870.8690      5.3083    115.4813
   168.0000      0.0000    858.6849      5.2589    118.3317
   168.2500      0.0000    845.2423      5.0759    119.8652
   168.5000      0.0000    835.8480      4.7939    118.8283
   168.7500      0.0000    833.6839      4.4973    115.4755
   169.0000      0.0000    835.6394      4.2971    111.1489
   169.2500      0.0000    834.5881      4.2765    107.3458
   169.5000      0.0000    826.5933      4.4368    105.1042
   169.7500      0.0000    814.2574      4.6924    104.8531
   170.0000      0.0000    802.2018      4.9219    106.4502
   170.2500      0.0000    791.3624      5.0333    109.2530
   170.5000      0.0000    779.6772      5.0021    112.2307
   170.7500      0.0000    766.7438      4.8722    114.3451
   171.0000      0.0000    755.0856      4.7294    115.1008
   171.2500      0.0000    747.2283      4.6556    114.6745
   171.5000      0.0000    743.4272      4.6911    113.4381
   171.7500      0.0000    742.2575      4.8250    111.4732
   172.0000      0.0000    742.1833      5.0127    108.5634
   172.2500      0.0000    742.3469      5.1971    104.5295
   172.5000      0.0000    742.6069      5.3200     99.6907
   172.7500      0.0000    743.3591      5.3319     95.1332
   173.0000      0.0000    745.3303      5.2128     92.2683
   173.2500      0.0000    749.1987      4.9975     91.9239
   173.5000      0.0000    755.3170      4.7786     93.8570
   173.7500      0.0000    763.8641      4.6677     96.8029
   174.0000      0.0000    775.0158      4.7299     98.7228
   174.2500      0.0000    788.5010      4.9418     97.5629
   174.5000      0.0000    803.2839      5.2111     92.5311
   174.7500      0.0000    817.9500      5.4400     84.7059
   175.0000      0.0000    830.8952      5.5777     76.1627
   175.2500      0.0000    840.5790      5.6275     68.5927
   175.5000      0.0000    846.7595      5.6233     62.7711
   175.7500      0.0000    850.8111      5.6008     58.8762
   176.0000      0.0000    853.9779      5.5809     56.8277
   176.2500      0.0000    856.7150      5.5646     56.3431
   176.5000      0.0000    859.9816      5.5407     56.9665
   176.7500      0.0000    864.5875      5.4999     58.1908
   177.0000      0.0000    868.5636      5.4385     59.6326
   177.2500      0.0000    867.0041      5.3509     61.1731
   177.5000      0.0000    855.0667      5.2252     63.0318
   177.7500      0.0000    831.3971      5.0527     65.6347
   178.0000      0.0000    800.6996      4.8421     69.1587
   178.2500      0.0000    772.7735      4.6241     73.1768
   178.5000      0.0000    755.3712      4.4430     77.0142
   178.7500      0.0000    746.8193      4.3379     80.4431
   179.0000      0.0000    738.4205      4.3300     83.7058
   179.2500      0.0000    724.2958      4.4296     86.8729
   179.5000      0.0000    705.9398      4.6443     89.5839
   179.7500      0.0000    687.9531      4.9560     91.4737
   180.0000      0.0000    673.5001      5.2935     92.3727
   180.2500      0.0000    664.3716      5.5611     91.9622
   180.5000      0.0000    661.9969      5.7080     89.7351
   180.7500      0.0000    666.7836      5.7553     85.6470
   181.0000      0.0000    677.6441      5.7567     80.6973
   181.2500      0.0000    692.8691      5.7502     76.7513
   181.5000      0.0000    710.9365      5.7459     75.5931
   181.7500      0.0000    730.3140      5.7356     77.7058
   182.0000      0.0000    749.2906      5.7047     81.9241
   182.2500      0.0000    766.4977      5.6406     86.6530
   182.5000      0.0000    780.8942      5.5387     91.2750
   182.7500      0.0000    790.7416      5.4036     95.8391
   183.0000      0.0000    793.8085      5.2460     99.6858
   183.2500      0.0000    790.0772      5.0761    101.2626
   183.5000      0.0000    783.5237      4.8968     99.3617
   183.7500      0.0000    779.5059      4.6989     93.9995
   184.0000      0.0000    780.4261      4.4661     86.2030
   184.2500      0.0000    784.7677      4.1925     77.5929
   184.5000      0.0000    789.7366      3.8988     70.1367
   184.7500      0.0000    793.4311      3.6271     65.4793
   185.0000      0.0000    794.2557      3.4147     63.9633
   185.2500      0.0000    789.7001      3.2770     64.4147
   185.5000      0.0000    777.5700      3.2150     65.0843
   185.7500      0.0000    759.0803      3.2298     64.8556
   186.0000      0.0000    739.6873      3.3276     63.7815
   186.2500      0.0000    726.0580      3.5151     62.7653
   186.5000      0.0000    722.3137      3.7886     62.7179
   186.7500      0.0000    728.5041      4.1192     64.0326
   187.0000      0.0000    741.4498      4.4491     66.9914
   187.2500      2.0000    757.2204      4.7137     72.2169
   187.5000      1.8497    773.0631      4.8725     80.0366
   187.7500      0.0000    786.5034      4.9216     89.5209
   188.0000      0.0000    794.3408      4.8895     98.6672
   188.2500      0.0000    795.8530      4.8304    105.5961
   188.5000      0.0000    796.4578      4.8078    109.4249
   188.7500      0.0000    804.0414      4.8483    110.2197
   189.0000      0.0000    820.0922      4.9035    108.6472
   189.2500      0.0000    836.4573      4.8778    105.7860
   189.5000      0.0000    842.0049      4.7012    102.7305
   189.7500      0.0000    831.8712      4.3698     99.8852
   190.0000      0.0000    810.4220      3.9358     96.8932
   190.2500      0.0000    786.7615      3.4891     93.5636
   190.5000      0.0000    768.1648      3.1381     90.4436
   190.7500      0.0000    756.9308      2.9746     88.0530
   191.0000      0.0000    751.6177      3.0296     85.9989
   191.2500      0.0000    749.9633      3.2552     83.4732
   191.5000      0.0000    750.7008      3.5551     80.3781
   191.7500      0.0000    753.6465      3.8421     77.2311
   192.0000      0.0000    759.1206      4.0770     74.0012
   192.2500      0.0000    767.7798      4.2602     69.8182
   192.5000      0.0000    780.1859      4.4011     64.0820
   192.7500      0.0000    795.0316      4.4982     57.5369
