~Version Information
 VERS.                                  2.0 : CWLS LAS VERSION
 WRAP.                                   NO : WRAPING MODE
 SWARE .                 MController 2.5.0E : SOFTWARE VERSION
~Well Information
 WELL.                                  N/A : WELL
 COMP.                                  N/A : COMPANY
 FLD.                                   N/A : FIELD
 LOC.                                   N/A : LOCATION
 DATE.                                  N/A : DATE(S) LOGGED
 SRVC.                                  N/A : SERVICE COMPANY
 STAT.                                  N/A : STATE
 CNTY.                                  N/A : COUNTY
 CTRY.                                  N/A : COUNTRY
 API.                                   N/A : API NUMBER
 STRT.FT                             951.00 : START DEPTH
 STOP.FT                            2600.00 : STOP DEPTH
 STEP.FT                               1.00 : DEPTH INCREMENT
 NULL.                                -9999 : NULL VALUE
~Curve information
 DEPTH.FT                                   :
 ROP.MIN/FT                                 :
 GAS.UNITS                                  :
~ASCII Log data
# ...
     1551.00        0.183          1.5 
     1552.00        0.100          1.2 
     1553.00        0.167          1.4 
     1554.00        0.167          1.4 
     1555.00        0.167          1.2 
     1556.00        3.117          1.3 
     1557.00        0.300          0.6 
     1558.00        0.233          0.6 
     1559.00        0.167          0.6 
     1560.00        0.367          0.8 
     1561.00        0.333          0.9 
     1562.00        0.300          1.1 
     1563.00        0.300          1.3 
     1564.00        0.267          1.4 
     1565.00        0.267          1.2 
     1566.00        0.233          1.4 
     1567.00        0.250          1.3 
     1568.00        0.233          1.0 
     1569.00        0.233          1.0 
     1570.00        0.200          0.9 
     1571.00        0.167          1.1 
     1572.00        0.200          1.6 
     1573.00        0.167          1.5 
     1574.00        0.200          1.8 
     1575.00        0.167          2.8 
     1576.00        0.233          3.7 
     1577.00        0.233          5.1 
     1578.00        0.267          5.4 
     1579.00        0.233          5.2 
     1580.00        0.367          4.6 
     1581.00        0.300          3.6 
     1582.00        0.183          2.7 
     1583.00        0.167          2.6 
     1584.00        0.167          2.5 
     1585.00        0.200          2.5 
     1586.00        3.550          2.4 
     1587.00        0.233          1.5 
     1588.00        0.267          1.2 
     1589.00        0.333          1.1 
     1590.00        0.267          1.1 
     1591.00        0.333          1.3 
     1592.00        0.267          1.3 
     1593.00        0.333          1.2 
     1594.00        0.267          1.4 
     1595.00        0.283          1.5 
     1596.00        0.233          1.5 
     1597.00        0.233          1.3 
     1598.00        0.233          1.1 
     1599.00        0.267          0.9 
     1600.00        0.267          0.9 
     1601.00        0.233          1.0 
     1602.00        0.233          0.9 
     1603.00        0.333          1.2 
     1604.00        0.267          1.3 
     1605.00        0.233          1.6 
     1606.00        0.267          2.6 
     1607.00        0.267          3.8 
     1608.00        0.217          4.7 
     1609.00        0.200          6.6 
     1610.00        0.200          8.2 
     1611.00        0.267          9.8 
     1612.00        0.267          9.9 
     1613.00        0.233          9.2 
     1614.00        0.267          7.2 
     1615.00        0.200          5.1 
     1616.00        4.717          3.8 
     1617.00        0.383          1.2 
     1618.00        0.433          1.1 
     1619.00        0.300          1.2 
     1620.00        0.267          1.1 
     1621.00        0.233          1.3 
     1622.00        0.267          1.3 
     1623.00        0.233          1.2 
     1624.00        0.267          1.3 
     1625.00        0.233          1.5 
     1626.00        0.267          2.1 
     1627.00        0.267          1.8 
     1628.00        0.367          1.9 
     1629.00        0.417          1.7 
     1630.00        0.400          1.3 
     1631.00        0.400          1.1 
     1632.00        0.367          1.4 
     1633.00        0.333          1.8 
     1634.00        0.333          3.3 
     1635.00        0.300          4.6 
     1636.00        0.200          5.0 
     1637.00        0.267          5.0 
     1638.00        0.200          4.7 
     1639.00        0.200          4.1 
     1640.00        0.217          3.4 
     1641.00        0.200          3.2 
     1642.00        0.200          2.7 
     1643.00        0.200          2.4 
     1644.00        0.233          2.3 
     1645.00        0.267          2.4 
     1646.00        3.317          1.9 
     1647.00        0.433          0.9 
     1648.00        0.400          1.0 
     1649.00        0.333          1.0 
     1650.00        0.300          0.9 
     1651.00        0.267          1.0 
     1652.00        0.300          0.9 
     1653.00        0.317          1.0 
     1654.00        0.200          0.9 
     1655.00        0.300          0.9 
     1656.00        0.233          1.0 
     1657.00        0.233          0.9 
     1658.00        0.200          0.9 
     1659.00        0.200          1.0 
     1660.00        0.233          0.5 
     1661.00        0.267          1.5 
     1662.00        0.400          1.2 
     1663.00        0.300          1.2 
     1664.00        0.300          1.2 
     1665.00        0.350          1.0 
     1666.00        0.367          1.1 
     1667.00        0.300          1.2 
     1668.00        0.300          1.5 
     1669.00        0.300          1.7 
     1670.00        0.400          3.2 
     1671.00        0.333          4.0 
     1672.00        0.367          3.8 
     1673.00        0.433          3.2 
     1674.00        0.333          2.2 
     1675.00        0.383          1.4 
     1676.00        3.750          1.2 
     1677.00        0.100          0.1 
     1678.00        0.367          0.2 
     1679.00        0.333          0.1 
     1680.00        0.300          0.3 
     1681.00        0.300          0.5 
     1682.00        0.333          0.2 
     1683.00        0.300          0.1 
     1684.00        0.333          0.3 
     1685.00        0.233          0.3 
     1686.00        0.250          0.5 
     1687.00        0.233          0.8 
     1688.00        0.233          0.7 
     1689.00        0.233          0.5 
     1690.00        0.233          0.4 
     1691.00        0.233          0.5 
     1692.00        0.233          0.5 
     1693.00        0.233          0.7 
     1694.00        0.233          0.5 
     1695.00        0.300          0.5 
     1696.00        0.267          0.8 
     1697.00        0.300          1.2 
     1698.00        0.267          1.8 
     1699.00        0.283          2.9 
     1700.00        0.333          3.7 
     1701.00        0.233          3.8 
     1702.00        0.233          2.7 
     1703.00        0.267          2.1 
     1704.00        0.300          1.8 
     1705.00        0.233          0.8 
     1706.00        5.133          1.2 
     1707.00        0.567          1.8 
     1708.00        0.267          8.9 
     1709.00        0.233         15.8 
     1710.00        0.233         18.9 
     1711.00        0.233         25.2 
     1712.00        0.300         54.4 
     1713.00        0.233         61.9 
     1714.00        0.267         59.6 
     1715.00        0.233         43.6 
     1716.00        0.200         29.2 
     1717.00        0.267         20.7 
     1718.00        0.250         15.0 
     1719.00        0.233         11.3 
     1720.00        0.233         10.2 
     1721.00        0.233         10.4 
     1722.00        0.267         14.3 
     1723.00        0.200         19.2 
     1724.00        0.200         25.1 
     1725.00        0.233         34.5 
     1726.00        0.167         41.3 
     1727.00        0.233         54.5 
     1728.00        0.233         82.4 
     1729.00        0.200        141.7 
     1730.00        0.200        215.9 
     1731.00        0.200        240.1 
     1732.00        0.200        237.4 
     1733.00        0.250        200.2 
     1734.00        0.233        154.8 
     1735.00        0.267        105.8 
     1736.00        4.917         62.2 
     1737.00        1.067         20.4 
     1738.00        0.950         22.6 
     1739.00        1.000         24.1 
     1740.00        1.000         25.6 
     1741.00        0.917         25.3 
     1742.00        0.800         23.4 
     1743.00        0.700         25.6 
     1744.00        0.667         25.1 
     1745.00        0.917         25.7 
     1746.00        0.533         28.0 
     1747.00        0.500         30.5 
     1748.00        0.567         33.4 
     1749.00        0.500         33.9 
     1750.00        0.467         32.5 
