~Version Information
VERS.                      2.0: CWLS Log ASCII Standard - VERSION 2.0
WRAP.                       NO: One line per depth step
~Well Information Block
STRT.FT               811.0000: 
STOP.FT              2507.0000: 
STEP.FT                 0.1000: 
NULL.                -999.2500: 
COMP.          Petrogulf Corporation: COMPANY
WELL.               YWAM 7-32V: WELL
FLD.           Purgatoire River: FIELD
LOC.           2423' FNL & 2412' FEL: LOCATION
PROV.                 Colorado: PROVINCE
CNTY.               Las Animas: COUNTRY
SRVC.                Patterson: SERVICE COMPANY
DATE.          Mon Dec 15 07:18:47 2003: LOG DATE
UWI.                          : UNIQUE WELL ID
~Curve Information Block
DEPT.FT            0 000 00 00: Depth
DCAL.in                       : CDL Caliper
RHOB.g/cc                     : CDL Bulk Density
RHOC.g/cc                     : CDL Density Correction
DPOR.pu                       : CDL Density Porosity
NPOR.pu                       : Neutron Porosity
GR.GAPI                       : Gamma Ray
~Parameter Information Block
~A  Depth       DCAL        RHOB        RHOC        DPOR        NPOR         GR     
# ...
  1262.2000      8.5787      2.4031      0.0960     14.9617     30.1363    132.5287
  1262.3000      8.5800      2.4539      0.1388     11.8831     30.4753    126.3071
  1262.4000      8.5800      2.4974      0.1367      9.2493     30.4124    124.1072
  1262.5000      8.5931      2.5281      0.1732      7.3894     30.2835    124.4658
  1262.6000      8.5931      2.5381      0.1905      6.7814     30.3358    125.7667
  1262.7000      8.5931      2.5340      0.1896      7.0314     30.7067    128.5935
  1262.8000      8.6479      2.5262      0.2188      7.5021     31.3776    129.6693
  1262.9000      8.6479      2.5183      0.1662      7.9806     31.7996    128.9666
  1263.0000      8.7229      2.5183      0.1411      7.9809     31.1832    131.5841
  1263.1000      8.7229      2.5283      0.0959      7.3774     29.6493    137.9804
  1263.2000      8.7229      2.5388      0.0673      6.7377     28.2625    138.4597
  1263.3000      8.7286      2.5564      0.0092      5.6721     27.6811    130.0131
  1263.4000      8.7286      2.5918      0.1062      3.5290     27.7430    124.3914
  1263.5000      8.6869      2.6252      0.1320      1.5036     27.9344    129.6362
  1263.6000      8.6869      2.6363      0.1289      0.8293     28.0002    138.1371
  1263.7000      8.6869      2.6287      0.1250      1.2915     28.1265    138.1598
  1263.8000      8.5373      2.6029      0.0973      2.8527     27.9803    132.1219
  1263.9000      8.5373      2.5534      0.0451      5.8542     27.1607    130.0119
  1264.0000      8.5134      2.4935     -0.0095      9.4875     26.5926    129.9893
  1264.1000      8.5134      2.4423     -0.0121     12.5884     27.1649    128.2258
  1264.2000      8.5134      2.3997     -0.0417     15.1694     28.1611    126.6808
  1264.3000      8.5152      2.3633     -0.0641     17.3741     28.5388    126.5567
  1264.4000      8.5152      2.3443     -0.1023     18.5243     28.6416    128.9498
  1264.5000      8.5245      2.3358      0.0222     19.0441     29.1157    134.3483
  1264.6000      8.5245      2.3187     -0.0270     20.0818     29.6125    138.3147
  1264.7000      8.5245      2.3111     -0.0095     20.5420     29.8695    138.4509
  1264.8000      8.5403      2.3294      0.0828     19.4319     30.1190    138.0230
  1264.9000      8.5403      2.3508      0.0976     18.1329     30.2669    138.2171
  1265.0000      8.5397      2.3551      0.1127     17.8704     29.9768    137.6902
  1265.1000      8.5397      2.3517      0.1026     18.0776     29.2278    135.3345
  1265.2000      8.5397      2.3550      0.1121     17.8773     28.5114    131.8737
  1265.3000      8.5600      2.3555      0.1276     17.8478     28.2551    128.8784
  1265.4000      8.5600      2.3468      0.0397     18.3777     28.2470    126.3624
  1265.5000      8.5571      2.3494      0.0184     18.2155     28.2764    124.3925
  1265.6000      8.5571      2.3651      0.0526     17.2638     28.3870    122.5464
  1265.7000      8.5571      2.3714      0.0304     16.8875     28.6254    119.4650
  1265.8000      8.5538      2.3673      0.0261     17.1329     29.0008    116.0372
  1265.9000      8.5538      2.3685      0.0255     17.0585     29.3057    115.2841
  1266.0000      8.5513      2.3733      0.0505     16.7694     29.4069    118.8877
  1266.1000      8.5513      2.3658      0.0577     17.2267     29.5544    124.9097
  1266.2000      8.5513      2.3460      0.0168     18.4215     29.8050    128.7190
  1266.3000      8.5537      2.3269      0.0148     19.5813     30.2080    127.7449
  1266.4000      8.5537      2.3113      0.0337     20.5277     30.7384    124.2543
  1266.5000      8.5447      2.2873      0.0864     21.9791     31.1510    120.2131
  1266.6000      8.5447      2.2373      0.0938     25.0123     31.7702    115.8558
  1266.7000      8.5447      2.1638      0.0607     29.4672     32.5459    112.5875
  1266.8000      8.5662      2.0951      0.0493     33.6314     33.0899    115.1470
  1266.9000      8.5662      2.0587      0.0279     35.8373     33.5911    124.3296
  1267.0000      8.6907      2.0676      0.0849     35.2946     34.0625    131.9261
  1267.1000      8.6907      2.1188      0.1422     32.1910     34.1985    130.3556
  1267.2000      8.6907      2.1889      0.3076     27.9466     33.8955    122.2538
  1267.3000      8.8280      2.2471      0.3628     24.4189     33.5741    114.3643
  1267.4000      8.8280      2.2842      0.3262     22.1679     33.5081    112.1294
  1267.5000      9.4032      2.3041      0.3462     20.9637     33.3009    116.0322
  1267.6000      9.4032      2.3081      0.2764     20.7238     32.8068    118.2347
  1267.7000      9.4032      2.3153      0.1794     20.2829     32.4779    115.9864
  1267.8000      9.5545      2.3438      0.2021     18.5598     32.0423    113.4620
  1267.9000      9.5545      2.3761      0.2494     16.5986     31.1117    110.8782
  1268.0000      9.5513      2.3890      0.2517     15.8181     30.5075    108.9198
  1268.1000      9.5513      2.3808      0.2241     16.3172     30.5675    113.8321
  1268.2000      9.5513      2.3613      0.1975     17.4951     30.8802    123.9775
  1268.3000      9.3263      2.3421      0.1794     18.6609     31.3270    127.5267
  1268.4000      9.3263      2.3309      0.1539     19.3422     31.3712    122.5130
  1268.5000      8.9685      2.3256      0.1572     19.6603     30.8748    119.5951
  1268.6000      8.9685      2.3248      0.1052     19.7109     30.6937    125.0498
  1268.7000      8.9685      2.3345      0.1717     19.1184     31.3159    130.1546
  1268.8000      8.9272      2.3568      0.1636     17.7706     32.5719    127.7933
  1268.9000      8.9272      2.3877      0.2069     15.8999     33.7084    125.3523
  1269.0000      8.9307      2.4218      0.1864     13.8331     33.8952    128.0857
  1269.1000      8.9307      2.4514      0.2671     12.0355     33.6029    130.6386
  1269.2000      8.9307      2.4606      0.2917     11.4787     33.3603    131.3358
  1269.3000      8.9278      2.4401      0.2343     12.7204     32.8557    135.0060
  1269.4000      8.9278      2.4076      0.1606     14.6882     32.7234    138.2484
  1269.5000      8.9286      2.3871      0.1375     15.9315     33.2571    131.0413
  1269.6000      8.9286      2.3807      0.1252     16.3208     33.3443    116.1287
  1269.7000      8.9286      2.3832      0.0334     16.1696     32.8223    107.6233
  1269.8000      8.8888      2.3955      0.0660     15.4266     32.2448    112.1784
  1269.9000      8.8888      2.4061      0.0951     14.7839     31.5887    121.8538
  1270.0000      8.5765      2.4025      0.0651     14.9976     31.0052    125.6841
  1270.1000      8.5765      2.3979      0.0766     15.2800     30.6040    123.1588
  1270.2000      8.5765      2.4060      0.0902     14.7858     30.1934    118.5746
  1270.3000      8.4129      2.4184      0.0801     14.0386     29.8912    112.2665
  1270.4000      8.4129      2.4255      0.0650     13.6076     30.0104    107.5920
  1270.5000      8.3847      2.4255      0.0876     13.6061     30.6134    110.2388
  1270.6000      8.3847      2.4204      0.0462     13.9125     31.2878    117.5952
  1270.7000      8.3847      2.4237      0.0449     13.7177     31.4757    123.9685
  1270.8000      8.3804      2.4430      0.0768     12.5463     31.1520    127.3691
  1270.9000      8.3804      2.4594      0.1153     11.5536     30.8820    126.3600
  1271.0000      8.3745      2.4497      0.1156     12.1365     30.8429    123.0748
  1271.1000      8.3745      2.4249      0.0455     13.6413     30.8433    122.0117
  1271.2000      8.3745      2.4107      0.0610     14.5011     30.8321    122.1016
  1271.3000      8.3633      2.4068      0.0582     14.7385     30.6085    121.4655
  1271.4000      8.3633      2.4047      0.0316     14.8693     30.0067    121.5992
  1271.5000      8.3163      2.4103      0.0664     14.5292     29.1597    122.2550
  1271.6000      8.3163      2.4263      0.0850     13.5605     28.3972    121.4905
  1271.7000      8.3163      2.4448      0.0997     12.4370     27.9569    118.0558
