~Version Information
VERS.                      2.0: CWLS Log ASCII Standard - VERSION 2.0
WRAP.                       NO: One line per depth step
~Well Information Block
STRT.FT               595.0000: 
STOP.FT              1508.7500: 
STEP.FT                 0.2500: 
NULL.                -999.2500: 
COMP.          Pioneer Natural Resources: COMPANY
WELL.          Sumatra 34-22 Tr: WELL
FLD.           Purgatoire River: FIELD
LOC.           443' FSL & 2424' FEL--: LOCATION
PROV.                 Colorado: PROVINCE
CNTY.               Las Animas: COUNTRY
SRVC.                Patterson: SERVICE COMPANY
DATE.          Wed Jun 08 23:53:01 2005: LOG DATE
UWI.           05 071 08383 00: UNIQUE WELL ID
~Curve Information Block
DEPT.FT            0 000 00 00: Depth
SN.Ohm-m                      : IEL Short Normal
SP.mV                         : IEL Spontaneous Potential
DIR.Ohm-m                     : IEL Induction Resistivity
GR.GAPI                       : Gamma Ray
~Parameter Information Block
~A  Depth        SN          SP         DIR          GR     
# ...
   662.0000    682.8896   -529.4696     12.7422    138.1991
   662.2500    682.8896   -529.4688     12.9827    134.8631
   662.5000    682.8896   -529.4683     13.2449    130.0294
   662.7500    682.8896   -529.4683     13.5049    127.7710
   663.0000    682.8896   -529.4690     13.7532    126.7397
   663.2500    682.8896   -529.4702     13.9945    127.3347
   663.5000    682.8896   -529.4719     14.2353    128.4949
   663.7500    682.8896   -529.4739     14.4742    128.5432
   664.0000    682.8896   -529.4758     14.7005    127.1678
   664.2500    682.8896   -529.4777     14.9010    125.7013
   664.5000    682.8896   -529.4793     15.0665    123.5723
   664.7500    682.8896   -529.4807     15.1944    122.4503
   665.0000    682.8896   -529.4819     15.2876    121.1062
   665.2500    682.8896   -529.4830     15.3555    120.3587
   665.5000    682.8896   -529.4839     15.4156    119.8201
   665.7500    682.8896   -529.4847     15.4899    120.1959
   666.0000    682.8896   -529.4855     15.5956    121.8560
   666.2500    682.8896   -529.4861     15.7332    123.1850
   666.5000    682.8896   -529.4866     15.8843    124.4829
   666.7500    682.8896   -529.4870     16.0220    124.7497
   667.0000    682.8896   -529.4871     16.1290    125.1171
   667.2500    682.8896   -529.4871     16.2102    126.0434
   667.5000    682.8896   -529.4869     16.2894    128.7629
   667.7500    682.8896   -529.4864     16.3966    130.8866
   668.0000    682.8896   -529.4857     16.5564    133.1437
   668.2500    682.8896   -529.4849     16.7853    133.6111
   668.5000    682.8896   -529.4839     17.0976    132.8977
   668.7500    682.8896   -529.4832     17.5129    131.6794
   669.0000    682.8896   -529.4825     18.0616    128.7915
   669.2500    682.8896   -529.4820     18.7841    126.0567
   669.5000    682.8896   -529.4816     19.7263    120.4949
   669.7500    682.8896   -529.4813     20.9313    115.6847
   670.0000    682.8896   -529.4809     22.4303    106.9091
   670.2500    682.8896   -529.4804     24.2352    100.3970
   670.5000    682.8896   -529.4797     26.3385     90.6562
   670.7500    682.8896   -529.4786     28.7210     84.6941
   671.0000    682.8896   -529.4773     31.3595     76.9348
   671.2500    682.8896   -529.4758     34.2166     72.5567
   671.5000    682.8896   -529.4742     37.2171     67.1423
   671.7500    682.8896   -529.4725     40.2326     64.2824
   672.0000    682.8896   -529.4710     43.1013     60.9526
   672.2500    682.8896   -529.4695     45.6734     59.2066
   672.5000    682.8896   -529.4682     47.8498     57.0394
   672.7500    682.8896   -529.4670     49.5951     55.7881
   673.0000    682.8896   -529.4661     50.9258     54.1555
   673.2500    682.8896   -529.4654     51.8859     53.4282
   673.5000    682.8896   -529.4652     52.5160     53.7849
   673.7500    682.8896   -529.4654     52.8319     55.6028
   674.0000    682.8896   -529.4661     52.8293     60.9525
   674.2500    682.8896   -529.4673     52.5046     65.7048
   674.5000    682.8896   -529.4687     51.8712     73.0479
   674.7500    682.8896   -529.4703     50.9646     77.4000
   675.0000    682.8896   -529.4719     49.8459     82.8297
   675.2500    682.8896   -529.4732     48.6139     85.9158
   675.5000    682.8896   -529.4742     47.4033     89.9175
   675.7500    682.8896   -529.4747     46.3414     91.8211
   676.0000    682.8896   -529.4746     45.4838     92.4212
   676.2500    682.8896   -529.4738     44.7831     90.9514
   676.5000    682.8896   -529.4724     44.1244     86.6165
   676.7500    682.8896   -529.4704     43.4058     83.3053
   677.0000    682.8896   -529.4682     42.5966     79.4026
   677.2500    682.8896   -529.4661     41.7368     78.0371
   677.5000    682.8896   -529.4645     40.8979     77.8365
   677.7500    682.8896   -529.4637     40.1518     78.6124
   678.0000    682.8896   -529.4639     39.5529     80.5075
   678.2500    682.8896   -529.4650     39.1189     81.9769
   678.5000    682.8896   -529.4669     38.8097     84.0585
   678.7500    682.8896   -529.4691     38.5247     85.0138
   679.0000    682.8896   -529.4714     38.1367     85.2113
   679.2500    682.8896   -529.4734     37.5522     84.4811
   679.5000    682.8896   -529.4749     36.7552     82.7668
   679.7500    682.8896   -529.4758     35.8025     81.8282
   680.0000    682.8896   -529.4763     34.7784     81.6497
   680.2500    682.8896   -529.4763     33.7520     82.6605
   680.5000    682.8896   -529.4761     32.7618     85.9386
   680.7500    682.8896   -529.4758     31.8236     89.1205
   681.0000    682.8896   -529.4753     30.9456     94.8451
   681.2500    682.8896   -529.4748     30.1363     98.8462
   681.5000    682.8896   -529.4744     29.4075    104.1390
   681.7500    682.8896   -529.4744     28.7751    106.7170
   682.0000    682.8896   -529.4747     28.2592    109.1657
   682.2500    682.8896   -529.4756     27.8847    110.3541
   682.5000    682.8896   -529.4769     27.6781    112.1708
   682.7500    682.8896   -529.4785     27.6604    113.1186
   683.0000    682.8896   -529.4800     27.8387    112.5341
   683.2500    682.8896   -529.4813     28.2023    109.9362
   683.5000    682.8896   -529.4819     28.7295    102.7868
   683.7500    682.8896   -529.4819     29.3985     96.9077
   684.0000    682.8896   -529.4812     30.1958     88.7763
   684.2500    682.8896   -529.4800     31.1172     84.7142
   684.5000    682.8896   -529.4783     32.1660     80.8633
   684.7500    682.8896   -529.4766     33.3509     79.4330
   685.0000    682.8896   -529.4750     34.6777     78.3999
   685.2500    682.8896   -529.4738     36.1325     78.2673
   685.5000    682.8896   -529.4731     37.6615     78.4391
   685.7500    682.8896   -529.4729     39.1676     78.2830
   686.0000    682.8896   -529.4733     40.5359     76.8462
   686.2500    682.8896   -529.4739     41.6796     75.0564
   686.5000    682.8896   -529.4747     42.5759     71.8098
   686.7500    682.8896   -529.4753     43.2703     69.7532
   687.0000    682.8896   -529.4753     43.8562     67.2479
   687.2500    682.8896   -529.4746     44.4403     65.9434
   687.5000    682.8896   -529.4733     45.1013     64.3554
   687.7500    682.8896   -529.4713     45.8590     63.4725
   688.0000    682.8896   -529.4691     46.6773     62.3085
   688.2500    682.8896   -529.4669     47.5052     61.5886
   688.5000    682.8896   -529.4651     48.3201     60.6836
   688.7500    682.8896   -529.4639     49.1293     60.3048
   689.0000    682.8896   -529.4632     49.9302     60.0331
   689.2500    682.8896   -529.4630     50.6749     59.8432
   689.5000    682.8896   -529.4632     51.2843     59.1850
   689.7500    682.8896   -529.4635     51.7069     58.4625
   690.0000    682.8896   -529.4639     51.9724     57.2500
   690.2500    682.8896   -529.4644     52.1879     56.6064
   690.5000    682.8896   -529.4647     52.4734     56.0784
   690.7500    682.8896   -529.4651     52.8904     55.8791
   691.0000    682.8896   -529.4654     53.4032     55.3617
   691.2500    682.8896   -529.4657     53.9012     54.7718
   691.5000    682.8896   -529.4661     54.2574     53.8940
   691.7500    682.8896   -529.4665     54.3870     53.6402
   692.0000    682.8896   -529.4669     54.2608     53.8210
   692.2500    682.8896   -529.4675     53.8761     53.9713
   692.5000    682.8896   -529.4681     53.2264     53.5850
   692.7500    682.8896   -529.4688     52.3128     52.9293
   693.0000    682.8896   -529.4695     51.1803     52.3127
   693.2500    682.8896   -529.4703     49.9328     53.0406
   693.5000    682.8896   -529.4710     48.7010     57.0593
   693.7500    682.8896   -529.4717     47.5892     61.7548
   694.0000    682.8896   -529.4722     46.6312     70.6259
   694.2500    682.8896   -529.4725     45.7687     76.6813
   694.5000    682.8896   -529.4725     44.8601     84.5810
   694.7500    682.8896   -529.4721     43.7298     88.8489
   695.0000    682.8896   -529.4714     42.2502     94.1888
   695.2500    682.8896   -529.4705     40.4109     97.4075
