~Version Information
VERS.                      2.0: CWLS Log ASCII Standard - VERSION 2.0
WRAP.                       NO: One line per depth step
~Well Information Block
STRT.FT               -19.2500: 
STOP.FT              2421.5000: 
STEP.FT                 0.2500: 
NULL.                -999.2500: 
COMP.          Petrogulf Corporation: COMPANY
WELL.           Montoya 13-41V: WELL
FLD.           Purgatorie River: FIELD
LOC.           449' FNL & 891' FEL: LOCATION
CNTY.               Las Animas: COUNTY
SRVC.                         : SERVICE COMPANY
DATE.          Mon Sep 13 13:48:36 2004: LOG DATE
UWI.                       N/A: UNIQUE WELL ID
STAT.                 Colorado: STATE
~Curve Information Block
DEPT.FT            0 000 00 00: Depth
TT3.usec                      : CBL 3' Travel Time
AMP3.mV                       : CBL 3' Amplitude
GR.GAPI                       : Gamma Ray
CCL.                          : Casing Collar Locator
~Parameter Information Block
~A  Depth       TT3         AMP3         GR         CCL     
# ...
   449.7500    311.3466     82.9179     98.9883      0.0000
   450.0000    311.3311     82.9083    100.1592      0.0000
   450.2500    311.3245     82.8975    100.2232      0.0000
   450.5000    311.3096     82.8883     98.9708      0.0000
   450.7500    311.2567     82.8810     97.6383      0.0000
   451.0000    311.2207     82.8749     98.0307      0.0000
   451.2500    311.2567     82.8748    100.8392      0.0000
   451.5000    311.3096     82.8854    104.9279      0.0000
   451.7500    311.3245     82.9031    108.1233      0.0000
   452.0000    311.3311     82.9202    108.6345      0.0000
   452.2500    311.3466     82.9307    106.1763      0.0000
   452.5000    311.3735     82.9325    102.2280      0.0000
   452.7500    311.4688     82.9278     99.0951      0.0000
   453.0000    311.6254     82.9218     98.2380      0.0000
   453.2500    311.7071     82.9180     99.2518      0.0000
   453.5000    311.6254     82.9165    100.5473      0.0000
   453.7500    311.4688     82.9155    101.1057      0.0000
   454.0000    311.3735     82.9124    101.3433      0.0000
   454.2500    311.3467     82.9039    102.0776      0.0000
   454.5000    311.3322     82.8901    102.9481      0.0000
   454.7500    311.3321     82.8790    102.5035      0.0000
   455.0000    311.3457     82.8794    100.1336      0.0000
   455.2500    311.3670     82.8905     97.5011      0.0000
   455.5000    311.4413     82.9050     97.5242      0.0000
   455.7500    311.5587     82.9167    101.6596      0.0000
   456.0000    311.6329     82.9229    108.1345      0.0000
   456.2500    311.6533     82.9268    113.0822      0.0000
   456.5000    311.6615     82.9336    113.7415      0.0000
   456.7500    311.6405     82.9422    110.6260      0.0000
   457.0000    311.5876     82.9493    106.6313      0.0000
   457.2500    311.5589     82.9587    104.3235      0.0000
   457.5000    311.5876     82.9768    104.1015      0.0000
   457.7500    311.6405     82.9977    104.4563      0.0000
   458.0000    311.6615     83.0033    103.5941      0.0000
   458.2500    311.6534     82.9851    100.8370      0.0000
   458.5000    311.6339     82.9613     96.6342      0.0000
   458.7500    311.5663     82.9578     91.5232      0.0000
   459.0000    311.4774     82.9792     85.4391      0.0000
   459.2500    311.4774     83.0113     78.0245      0.0000
   459.5000    311.5662     83.0378     69.2799      0.0000
   459.7500    311.6329     83.0482     59.8452      0.0000
   460.0000    311.6458     83.0450     50.8706      0.0000
   460.2500    311.6255     83.0414     43.6837      0.0000
   460.5000    311.5312     83.0451     39.4541      0.0000
   460.7500    311.3746     83.0546     39.0502      0.0000
   461.0000    311.2929     83.0673     42.8495      0.0000
   461.2500    311.3747     83.0770     50.2924      0.0000
   461.5000    311.5322     83.0738     59.6767      0.0000
   461.7500    311.6331     83.0562     68.8130      0.0000
   462.0000    311.6818     83.0369     76.1058      0.0000
   462.2500    311.7422     83.0304     81.0134      0.0000
   462.5000    311.7792     83.0399     83.7318      0.0000
   462.7500    311.7433     83.0590     84.7073      0.0000
   463.0000    311.6904     83.0781     84.4045      0.0000
   463.2500    311.6755     83.0876     83.3343      0.0000
   463.5000    311.6690     83.0881     82.1233      0.0000
   463.7500    311.6544     83.0888     81.3360      0.0000
   464.0000    311.6341     83.0924     81.1530      0.0000
   464.2500    311.5672     83.0940     81.4055      0.0000
   464.5000    311.4839     83.0877     82.0393      0.0000
   464.7500    311.5049     83.0730     83.3806      0.0000
   465.0000    311.6330     83.0592     85.6322      0.0000
   465.2500    311.7081     83.0557     88.1050      0.0000
   465.5000    311.6255     83.0617     89.3939      0.0000
   465.7500    311.4688     83.0706     88.7075      0.0000
   466.0000    311.3745     83.0767     86.7673      0.0000
   466.2500    311.3542     83.0762     85.1109      0.0000
   466.5000    311.3671     83.0701     84.7381      0.0000
   466.7500    311.4339     83.0656     85.4863      0.0000
   467.0000    311.5237     83.0719     86.4135      0.0000
   467.2500    311.5302     83.0937     86.7925      0.0000
   467.5000    311.4698     83.1266     86.8444      0.0000
   467.7500    311.4764     83.1508     87.2802      0.0000
   468.0000    311.5672     83.1444     88.2343      0.0000
   468.2500    311.6415     83.1083     89.0920      0.0000
   468.5000    311.6894     83.0626     89.3160      0.0000
   468.7500    311.7708     83.0239     89.0270      0.0000
   469.0000    311.8535     82.9987     88.7101      0.0000
   469.2500    311.8535     82.9903     88.6245      0.0000
   469.5000    311.7708     82.9996     88.6079      0.0000
   469.7500    311.6894     83.0200     88.2922      0.0000
   470.0000    311.6415     83.0409     87.3215      0.0000
   470.2500    311.5672     83.0560     85.5485      0.0000
   470.5000    311.4764     83.0629     83.4487      0.0000
   470.7500    311.4699     83.0602     82.2162      0.0000
   471.0000    311.5313     83.0486     82.7798      0.0000
   471.2500    311.5312     83.0314     84.6645      0.0000
   471.5000    311.4688     83.0134     86.3136      0.0000
   471.7500    311.4688     83.0037     86.5574      0.0000
   472.0000    311.5313     83.0131     85.5939      0.0000
   472.2500    311.5322     83.0415     84.7281      0.0000
   472.5000    311.4764     83.0755     85.2444      0.0000
   472.7500    311.5049     83.0968     87.2493      0.0000
   473.0000    311.6405     83.0934     89.4796      0.0000
   473.2500    311.7441     83.0706     90.3348      0.0000
   473.5000    311.7348     83.0432     89.1215      0.0000
   473.7500    311.6818     83.0184     86.3529      0.0000
   474.0000    311.6405     82.9976     83.1265      0.0000
   474.2500    311.5671     82.9848     80.4118      0.0000
   474.5000    311.4764     82.9827     78.8271      0.0000
   474.7500    311.4699     82.9917     78.8564      0.0000
   475.0000    311.5313     83.0180     80.9741      0.0000
   475.2500    311.5313     83.0600     85.2071      0.0000
   475.5000    311.4699     83.0981     90.5120      0.0000
   475.7500    311.4764     83.1144     94.9869      0.0000
   476.0000    311.5671     83.1077     97.1950      0.0000
   476.2500    311.6406     83.0849     97.5164      0.0000
   476.5000    311.6829     83.0575     98.1766      0.0000
   476.7500    311.7423     83.0419    101.6688      0.0000
   477.0000    311.7791     83.0477    108.6835      0.0000
   477.2500    311.7422     83.0664    117.4773      0.0000
   477.5000    311.6818     83.0867    125.3994      0.0000
   477.7500    311.6331     83.1037    130.8362      0.0000
   478.0000    311.5322     83.1055    133.6533      0.0000
   478.2500    311.3746     83.0814    134.5796      0.0000
   478.5000    311.2919     83.0396    134.7368      0.0000
   478.7500    311.3671     82.9950    135.0910      0.0000
   479.0000    311.4962     82.9544    135.6828      0.0000
   479.2500    311.5237     82.9284    135.6956      0.0000
   479.5000    311.4678     82.9338    134.6040      0.0000
   479.7500    311.4688     82.9711    132.8360      0.0000
   480.0000    311.5312     83.0138    130.9309      0.0000
   480.2500    311.5312     83.0337    128.4521      0.0000
   480.5000    311.4688     83.0249    124.2338      0.0000
   480.7500    311.4688     82.9955    117.7506      0.0000
   481.0000    311.5312     82.9540    110.1129      0.0000
   481.2500    311.5312     82.9091    103.6972      0.0000
   481.5000    311.4688     82.8680    100.7376      0.0000
   481.7500    311.4677     82.8406    102.0240      0.0000
   482.0000    311.5226     82.8393    106.4236      0.0000
   482.2500    311.4886     82.8622    111.2084      0.0000
   482.5000    311.3310     82.8874    113.1801      0.0000
   482.7500    311.1814     82.8956    110.3717      0.0000
   483.0000    311.1530     82.8850    103.1105      0.0000
