~Version Information
 VERS.                                  2.0 : CWLS LAS VERSION
 WRAP.                                   NO : WRAPING MODE
 SWARE .                 MController 2.5.0J : SOFTWARE VERSION
~Well Information
 WELL.              Cock-A-Doodle-Doo 44-27 : WELL
 COMP.      Pioneer Natural Resources, Inc. : COMPANY
 FLD.                      Purgatoire River : FIELD
 LOC.                SE/SE Sec.27 T32S R67W : LOCATION
 DATE.                              6/30/05 : DATE(S) LOGGED
 SRVC.       BLANCO Geological Services LLC : SERVICE COMPANY
 STAT.                                   CO : STATE
 CNTY.                           Las Animas : COUNTY
 CTRY.                                  USA : COUNTRY
 API.                             071 08429 : API NUMBER
 STRT.FT                             394.00 : START DEPTH
 STOP.FT                            2540.00 : STOP DEPTH
 STEP.FT                               1.00 : DEPTH INCREMENT
 NULL.                                -9999 : NULL VALUE
~Curve information
 DEPTH.FT                                   :
 ROP.MIN/FT                                 :
 GAS.UNITS                                  :
~ASCII Log data
# ...
      1794.0         0.32        204.5 
      1795.0         0.40        203.8 
      1796.0         2.30        264.6 
      1797.0         0.30        352.1 
      1798.0         0.35        444.8 
      1799.0         0.23        466.8 
      1800.0         0.27        465.6 
      1801.0         0.23        435.8 
      1802.0         0.30        459.5 
      1803.0         0.40        461.8 
      1804.0         0.37        438.8 
      1805.0         0.43        381.8 
      1806.0         0.27        305.8 
      1807.0         0.27        271.8 
      1808.0         0.27        246.9 
      1809.0         0.28        227.1 
      1810.0         0.27        223.8 
      1811.0         0.27        226.1 
      1812.0         0.37        226.1 
      1813.0         0.33        222.6 
      1814.0         0.33        216.0 
      1815.0         0.30        215.0 
      1816.0         0.33        211.4 
      1817.0         0.33        205.1 
      1818.0         0.30        203.1 
      1819.0         0.32        202.5 
      1820.0         0.30        201.9 
      1821.0         0.53        201.8 
      1822.0         0.53        199.7 
      1823.0         0.50        197.0 
      1824.0         0.53        200.8 
      1825.0         0.47        200.9 
      1826.0         4.07        975.5 
      1827.0         0.37        998.8 
      1828.0         0.37       1001.1 
      1829.0         0.43        986.3 
      1830.0         0.33        844.1 
      1831.0         0.33        686.1 
      1832.0         0.23        570.9 
      1833.0         0.23        527.4 
      1834.0         0.27        494.8 
      1835.0         0.33        517.3 
      1836.0         0.32        521.4 
      1837.0         0.23        520.0 
      1838.0         0.27        511.6 
      1839.0         0.30        505.5 
      1840.0         0.27        480.3 
      1841.0         0.27        450.6 
      1842.0         0.27        440.0 
      1843.0         0.30        213.4 
      1844.0         0.37        206.7 
      1845.0         0.47        204.8 
      1846.0         0.40        205.7 
      1847.0         0.42        205.3 
      1848.0         0.30        198.4 
      1849.0         0.27        195.0 
      1850.0         0.30        196.0 
      1851.0         0.37        196.0 
      1852.0         0.27        193.7 
      1853.0         0.37        188.7 
      1854.0         0.33        203.1 
      1855.0         0.20        213.6 
      1856.0         4.30       1776.4 
      1857.0         0.33       1869.4 
      1858.0         0.17       1774.4 
      1859.0         0.40       1546.3 
      1860.0         0.33       1063.1 
      1861.0         0.40        846.5 
      1862.0         0.37        765.0 
      1863.0         0.37        744.7 
      1864.0         0.33        677.0 
      1865.0         0.48        597.5 
      1866.0         0.37        516.3 
      1867.0         0.27        494.4 
      1868.0         0.30        475.2 
      1869.0         0.23        449.3 
      1870.0         0.20        440.0 
      1871.0         0.23        211.8 
      1872.0         0.23        206.3 
      1873.0         0.30        202.9 
      1874.0         0.30        204.8 
      1875.0         0.30        206.7 
      1876.0         0.33        206.9 
      1877.0         0.35        206.6 
      1878.0         0.30        203.8 
      1879.0         0.40        203.3 
      1880.0         0.37        205.8 
      1881.0         0.40        205.7 
      1882.0         0.40        202.0 
      1883.0         0.50        197.4 
      1884.0         0.40        193.0 
      1885.0         0.38        191.1 
      1886.0         4.88        927.0 
      1887.0         0.37        887.9 
      1888.0         0.27        859.3 
      1889.0         0.27        786.2 
      1890.0         0.27        750.8 
      1891.0         0.43        736.7 
      1892.0         0.28        654.1 
      1893.0         0.20        569.9 
      1894.0         0.20        532.5 
      1895.0         0.20        507.6 
      1896.0         0.23        487.7 
      1897.0         0.20        470.2 
      1898.0         0.30        477.6 
      1899.0         0.20        487.0 
      1900.0         0.30        491.7 
      1901.0         0.20        484.6 
      1902.0         0.23        447.9 
      1903.0         0.33        440.0 
      1904.0         0.33        195.6 
      1905.0         0.32        203.1 
      1906.0         0.40        213.7 
      1907.0         0.30        213.9 
      1908.0         0.33        210.8 
      1909.0         0.33        209.2 
      1910.0         0.33        203.2 
      1911.0         0.33        194.4 
      1912.0         0.33        189.1 
      1913.0         0.53        187.4 
      1914.0         0.48        186.9 
      1915.0         0.60        189.0 
      1916.0         3.92        426.6 
      1917.0         0.37        444.0 
      1918.0         0.23        450.0 
      1919.0         0.23        456.7 
      1920.0         0.27        456.3 
      1921.0         0.33        433.9 
      1922.0         0.30        387.2 
      1923.0         0.30        333.4 
      1924.0         0.28        301.8 
      1925.0         0.23        280.6 
      1926.0         0.30        257.4 
      1927.0         0.23        230.2 
      1928.0         0.20        221.4 
      1929.0         0.17        221.3 
      1930.0         0.20        222.3 
      1931.0         0.13        222.3 
      1932.0         0.27        221.3 
      1933.0         0.23        216.9 
      1934.0         0.27        224.3 
      1935.0         0.27        228.8 
      1936.0         0.30        233.6 
      1937.0         0.27        233.2 
      1938.0         0.28        224.7 
      1939.0         0.27        215.6 
      1940.0         0.27        210.5 
      1941.0         0.30        204.3 
      1942.0         0.27        204.8 
      1943.0         0.33        205.1 
      1944.0         0.33        202.3 
      1945.0         0.20        201.9 
      1946.0         2.38        200.1 
      1947.0         0.57        293.3 
      1948.0         0.40        368.3 
      1949.0         0.30        395.6 
      1950.0         0.33        388.1 
      1951.0         0.30        198.4 
      1952.0         0.45         76.7 
      1953.0         0.40        130.4 
      1954.0         0.37        194.6 
      1955.0         0.27        199.1 
      1956.0         0.17        198.8 
      1957.0         0.20        196.9 
      1958.0         0.20        196.7 
      1959.0         0.20        205.7 
      1960.0         0.20        221.5 
      1961.0         0.20        240.1 
      1962.0         0.17        252.5 
      1963.0         0.17        259.2 
      1964.0         0.20        260.5 
      1965.0         0.23        259.4 
      1966.0         0.38        253.4 
      1967.0         0.27        242.5 
      1968.0         0.27        237.7 
      1969.0         0.27        233.7 
      1970.0         0.20        225.7 
      1971.0         0.17        220.1 
      1972.0         0.17        216.8 
      1973.0         0.20        214.3 
      1974.0         0.20        211.4 
      1975.0         0.23        206.2 
      1976.0         3.58        293.9 
      1977.0         0.60        478.5 
      1978.0         0.32       1074.6 
      1979.0         0.60       1224.2 
      1980.0         0.47       1221.5 
      1981.0         0.57       1051.0 
      1982.0         0.43        773.4 
      1983.0         0.33        606.3 
      1984.0         0.33        503.2 
      1985.0         0.30        440.0 
      1986.0         0.32        211.1 
      1987.0         0.33        213.8 
      1988.0         0.37        213.7 
      1989.0         0.43        208.2 
      1990.0         0.47        203.0 
      1991.0         0.53        199.1 
      1992.0         0.53        193.6 
      1993.0         0.65        191.5 
