~Version Information
VERS.                      2.0: CWLS Log ASCII Standard - VERSION 2.0
WRAP.                       NO: One line per depth step
~Well Information Block
STRT.FT               -10.0000: 
STOP.FT              2297.5000: 
STEP.FT                 0.2500: 
NULL.                -999.2500: 
COMP.          Pioneer Natural Resources: COMPANY
WELL.              Bobsy 34-11: WELL
FLD.           Purgatorie River: FIELD
LOC.           1937' FEL & 451' FSL----------: LOCATION
PROV.                       CO: PROVINCE
CNTY.               Las Animas: COUNTRY
SRVC.          Patterson Wireline: SERVICE COMPANY
DATE.          Mon Apr 18 09:37:11 2005: LOG DATE
UWI.           05 071 08330 00: UNIQUE WELL ID
~Curve Information Block
DEPT.FT            0 000 00 00: Depth
CCL.                          : Casing Collar Locator
TT3.usec                      : CBL 3' Travel Time
AMP3.mV                       : CBL 3' Amplitude
GR.GAPI                       : Gamma Ray
~Parameter Information Block
~A  Depth       CCL         TT3         AMP3         GR     
# ...
  2100.5000      0.0000    692.1068      3.9580    117.6538
  2100.7500      0.0000    688.6421      4.0967    114.6708
  2101.0000      0.0000    684.4441      4.1435    108.2792
  2101.2500      0.0000    679.9604      4.0269    100.2326
  2101.5000      0.0000    676.2182      3.7384     92.3046
  2101.7500      0.0000    673.6218      3.3540     86.0020
  2102.0000      0.0000    671.3361      3.0085     82.5090
  2102.2500      0.0000    668.3932      2.8300     81.9839
  2102.5000      0.0000    664.9436      2.8675     83.1074
  2102.7500      0.0000    662.0337      3.0563     84.1153
  2103.0000      0.0000    660.5867      3.2567     84.1742
  2103.2500      0.0000    660.9694      3.3538     83.3111
  2103.5000      0.0000    663.1572      3.3355     81.3806
  2103.7500      0.0000    666.7529      3.2828     77.9230
  2104.0000      0.0000    670.8312      3.2989     73.1924
  2104.2500      0.0000    674.2360      3.4445     68.6245
  2104.5000      0.0000    676.2897      3.7069     65.6318
  2104.7500      0.0000    677.0373      4.0030     64.1435
  2105.0000      0.0000    676.6942      4.2150     62.8847
  2105.2500      0.0000    675.0182      4.2529     60.8941
  2105.5000      0.0000    671.0496      4.1160     58.3076
  2105.7500      0.0000    663.6874      3.9069     55.9291
  2106.0000      0.0000    653.4393      3.7667     54.5134
  2106.2500      0.0000    643.3408      3.7687     54.2728
  2106.5000      0.0000    635.5743      3.8693     54.6700
  2106.7500      0.0000    626.0960      3.9672     54.7477
  2107.0000      0.0000    606.0750      4.0019     53.9095
  2107.2500      0.0000    572.9540      3.9902     52.3424
  2107.5000      0.0000    539.2768      3.9850     50.6213
  2107.7500      0.0000    525.7209      4.0250     49.1275
  2108.0000      0.0000    542.5854      4.1117     48.0023
  2108.2500      0.0000    578.7263      4.2061     47.3786
  2108.5000      0.0000    609.4692      4.2485     47.2822
  2108.7500      0.0000    615.2003      4.2126     47.4406
  2109.0000      0.0000    593.3596      4.1442     47.5575
  2109.2500      0.0000    555.3049      4.1202     47.8509
  2109.5000      0.0000    514.1099      4.1582     49.0422
  2109.7500      0.0000    476.3336      4.1903     51.5262
  2110.0000      0.0000    443.3977      4.1401     54.5915
  2110.2500      0.0000    416.1013      4.0169     56.8478
  2110.5000      0.0000    395.2587      3.9119     57.5170
  2110.7500      0.0000    380.3210      3.9011     56.9722
  2111.0000      0.0000    369.8169      3.9691     56.1059
  2111.2500      0.0000    362.7519      4.0352     55.6719
  2111.5000      0.0000    358.7988      4.0344     56.0943
  2111.7500      0.0000    357.7721      3.9543     57.2320
  2112.0000      0.0000    359.5235      3.8137     58.1919
  2112.2500      0.0000    363.8465      3.6436     57.8854
  2112.5000      0.0000    369.8328      3.4921     56.1690
  2112.7500      0.0000    375.3527      3.4093     54.2884
  2113.0000      0.0000    377.8304      3.4099     53.8681
  2113.2500      0.0000    376.0598      3.4614     55.4506
  2113.5000      0.0000    371.2357      3.5184     58.1705
  2113.7500      0.0000    366.0425      3.5613     60.7705
  2114.0000      0.0000    362.7847      3.6020     62.8149
  2114.2500      0.0000    362.2773      3.6594     64.8823
  2114.5000      0.0000    363.8878      3.7346     67.5186
  2114.7500      0.0000    366.1908      3.8011     70.0928
  2115.0000      0.0000    368.0178      3.8173     71.1470
  2115.2500      0.0000    369.6953      3.7528     70.2148
  2115.5000      0.0000    373.0721      3.6155     68.7706
  2115.7500      0.0000    379.2959      3.4588     68.6861
  2116.0000      0.0000    386.3246      3.3632     70.1042
  2116.2500      0.0000    389.8987      3.3925     71.5946
  2116.5000      0.0000    388.0055      3.5587     72.1854
  2116.7500      0.0000    383.6452      3.8241     72.4107
  2117.0000      0.0000    382.4583      4.1285     73.2789
  2117.2500      0.0000    388.6001      4.4076     74.9207
  2117.5000      0.0000    404.0263      4.6050     76.7094
  2117.7500      0.0000    430.7407      4.6879     78.3336
  2118.0000      0.0000    471.0665      4.6539     80.1172
  2118.2500      0.0000    523.7554      4.5202     82.2155
  2118.5000      0.0000    580.7376      4.3119     84.0768
  2118.7500      0.0000    630.3509      4.0697     85.0064
  2119.0000      0.0000    664.6708      3.8599     84.8540
  2119.2500      0.0000    683.0650      3.7491     83.8539
  2119.5000      0.0000    689.5084      3.7478     82.1979
  2119.7500      0.0000    688.4633      3.7850     80.0999
  2120.0000      0.0000    683.3774      3.7678     77.9742
  2120.2500      0.0000    677.2177      3.6711     76.2309
  2120.5000      0.0000    672.6812      3.5469     74.9598
  2120.7500      0.0000    671.3538      3.4538     73.9723
  2121.0000      0.0000    672.9603      3.4141     73.1077
  2121.2500      0.0000    675.7772      3.4380     72.3113
  2121.5000      0.0000    678.0101      3.5284     71.4476
  2121.7500      0.0000    678.7363      3.6416     70.3229
  2122.0000      0.0000    677.2364      3.6978     68.9115
  2122.2500      0.0000    670.7779      3.6623     67.2236
  2122.5000      0.0000    653.1877      3.5827     64.9357
  2122.7500      0.0000    617.6284      3.5251     61.5889
  2123.0000      0.0000    563.3120      3.5032     57.3542
  2123.2500      0.0000    499.6179      3.4905     53.2860
  2123.5000      0.0000    441.6895      3.4823     50.5785
  2123.7500      0.0000    400.8547      3.5145     49.6395
  2124.0000      0.0000    379.0640      3.6084     49.8603
  2124.2500      0.0000    371.0209      3.7160     50.1894
  2124.5000      0.0000    369.6683      3.7503     50.0973
  2124.7500      0.0000    370.0825      3.6788     50.0589
  2125.0000      0.0000    370.5364      3.5724     50.9566
  2125.2500      0.0000    371.7549      3.5432     53.0025
  2125.5000      0.0000    375.5221      3.6375     55.3829
  2125.7500      0.0000    383.8652      3.7990     56.9882
  2126.0000      0.0000    399.2816      3.9284     57.2837
  2126.2500      0.0000    424.6112      3.9564     56.3935
  2126.5000      0.0000    461.0456      3.8595     54.6618
  2126.7500      0.0000    505.4026      3.6487     52.4429
  2127.0000      0.0000    549.1982      3.3830     50.2202
  2127.2500      0.0000    580.3003      3.1737     48.6229
  2127.5000      0.0000    587.4845      3.1287     48.2388
  2127.7500      0.0000    567.5115      3.2754     49.5498
  2128.0000      0.0000    530.4282      3.5410     52.8487
  2128.2500      0.0000    496.2903      3.8012     57.8101
  2128.5000      0.0000    483.2936      3.9528     63.3351
  2128.7500     -2.0000    497.1351      3.9676     68.3283
  2129.0000     -2.0000    531.0903      3.8981     72.6617
  2129.2500      0.0000    574.3289      3.8251     77.0909
  2129.5000      0.0000    618.0712      3.7954     82.3099
  2129.7500      0.0000    655.7056      3.8006     88.1925
  2130.0000      0.0000    681.2004      3.7969     93.7518
  2130.2500      0.0000    688.7161      3.7411     97.8215
  2130.5000      0.0000    673.3851      3.6242     99.8827
  2130.7500      0.0000    634.3249      3.4810    100.1338
  2131.0000      0.0000    578.5625      3.3716     98.9545
  2131.2500      0.0000    520.1691      3.3506     96.7204
  2131.5000      0.0000    472.8354      3.4444     93.9013
  2131.7500      0.0000    442.4897      3.6372     90.7911
  2132.0000      0.0000    426.7693      3.8724     87.2099
  2132.2500      0.0000    419.8401      4.0690     82.9355
  2132.5000      0.0000    416.8504      4.1484     78.5317
  2132.7500      0.0000    415.1781      4.0680     75.3783
  2133.0000      0.0000    413.6280      3.8581     74.4599
  2133.2500      0.0000    411.3704      3.6257     75.1445
  2133.5000      0.0000    407.4424      3.4955     75.5711
  2133.7500      0.0000    401.0116      3.5238     74.4017
