~Version Information
 VERS.                                  2.0 : CWLS LAS VERSION
 WRAP.                                   NO : WRAPING MODE
 SWARE .                 MController 2.5.0J : SOFTWARE VERSION
~Well Information
 WELL.                           State 16-14: WELL
 COMP.                       Petrogulf Corp : COMPANY
 FLD.                       Purgatoire River: FIELD
 LOC.                  SW/SW Sec16 T33S R67W: LOCATION
 DATE.                             11/04/04 : DATE(S) LOGGED
 SRVC.        BLanco Geological Services LLC: SERVICE COMPANY
 STAT.                                    CO: STATE
 CNTY.                           Las Animas : COUNTY
 CTRY.                                   USA: COUNTRY
 API.                           05-071-08034: API NUMBER
 STRT.FT                             659.00 : START DEPTH
 STOP.FT                            1890.00 : STOP DEPTH
 STEP.FT                               1.00 : DEPTH INCREMENT
 NULL.                                -9999 : NULL VALUE
~Curve information
 DEPTH.FT                                   :
 ROP.MIN/FT                                 :
 GAS.UNITS                                  :
~ASCII Log data
# ...
      1659.0         0.27         12.5 
      1660.0         0.20         12.6 
      1661.0         0.20         12.1 
      1662.0         0.23         12.0 
      1663.0         0.27         11.6 
      1664.0         0.17         11.6 
      1665.0         0.27         11.5 
      1666.0         0.23         11.3 
      1667.0         0.17         11.2 
      1668.0         0.17         10.5 
      1669.0         0.20          8.6 
      1670.0         0.17          8.6 
      1671.0         0.20          9.3 
      1672.0         0.25          9.3 
      1673.0         0.27          9.6 
      1674.0         0.27         11.7 
      1675.0         0.23         55.6 
      1676.0         0.17         99.6 
      1677.0         0.30        112.7 
      1678.0         0.42        103.2 
      1679.0         0.53         58.7 
      1680.0         0.40         33.2 
      1681.0         0.33         22.9 
      1682.0         0.43         13.3 
      1683.0         0.43          9.9 
      1684.0         0.40         10.1 
      1685.0         0.17          9.5 
      1686.0         0.20         10.2 
      1687.0         0.28         10.4 
      1688.0         0.40         10.5 
      1689.0         0.27         10.3 
      1690.0         0.27         10.0 
      1691.0         0.17          9.2 
      1692.0         0.13          9.0 
      1693.0         0.20          9.0 
      1694.0         0.17          9.0 
      1695.0         0.13          8.7 
      1696.0         0.17          8.6 
      1697.0         0.13         10.1 
      1698.0         0.17         10.1 
      1699.0         0.17         11.7 
      1700.0         0.20         12.9 
      1701.0         0.23         16.2 
      1702.0         0.23         18.1 
      1703.0         0.25         20.1 
      1704.0         0.23         20.0 
      1705.0         0.20         20.0 
      1706.0         0.23         19.7 
      1707.0         0.20         18.3 
      1708.0         0.17         18.7 
      1709.0         0.20         16.4 
      1710.0         0.17         16.3 
      1711.0         0.20         14.0 
      1712.0         0.23         13.8 
      1713.0         0.23         13.7 
      1714.0         0.27         12.7 
      1715.0         0.17         12.6 
      1716.0         0.27         12.6 
      1717.0         0.43         12.3 
      1718.0         0.40         12.3 
      1719.0         0.42         11.8 
      1720.0         0.23         11.0 
      1721.0         0.17         10.7 
      1722.0         0.20         10.8 
      1723.0         0.17         10.8 
      1724.0         0.17         10.5 
      1725.0         0.17         11.5 
      1726.0         0.17          8.8 
      1727.0         0.17          9.3 
      1728.0         0.17          9.6 
      1729.0         0.17          9.6 
      1730.0         0.13         10.4 
      1731.0         0.10         12.1 
      1732.0         0.07         12.1 
      1733.0         0.20         13.5 
      1734.0         0.20         16.2 
      1735.0         0.23         16.6 
      1736.0         0.27         19.1 
      1737.0         0.27         20.1 
      1738.0         0.20         20.6 
      1739.0         0.40         20.6 
      1740.0         0.27         18.4 
      1741.0         0.45         15.6 
      1742.0         0.33         14.2 
      1743.0         0.30         12.3 
      1744.0         0.33         12.0 
      1745.0         0.23         12.0 
      1746.0         0.17         12.5 
      1747.0         0.37         12.7 
      1748.0         0.30         12.0 
      1749.0         0.17         11.7 
      1750.0         0.17         11.7 
      1751.0         0.13         11.8 
      1752.0         0.33         12.2 
      1753.0         0.30         12.4 
      1754.0         0.18         10.7 
      1755.0         0.17         10.6 
      1756.0         0.17         10.2 
      1757.0         0.20         10.1 
      1758.0         0.23         11.3 
      1759.0         0.27          9.2 
      1760.0         0.23          9.5 
      1761.0         0.27         11.0 
      1762.0         0.20         13.5 
      1763.0         0.20         15.5 
      1764.0         0.17         17.2 
      1765.0         0.13         17.5 
      1766.0         0.20         19.4 
      1767.0         0.30         20.6 
      1768.0         0.20         21.2 
      1769.0         0.23         20.1 
      1770.0         0.37         19.5 
      1771.0         0.17         17.3 
      1772.0         0.23         16.6 
      1773.0         0.20         15.3 
      1774.0         0.25         14.6 
      1775.0         0.30         13.1 
      1776.0         0.40         12.5 
      1777.0         0.37         12.3 
      1778.0         0.23         12.0 
      1779.0         0.27         12.1 
      1780.0         0.27         12.5 
      1781.0         0.30         12.3 
      1782.0         0.23         11.2 
      1783.0         0.23         11.0 
      1784.0         0.23         11.7 
      1785.0         0.23         11.7 
      1786.0         0.23         11.3 
      1787.0         0.32         10.7 
      1788.0         0.20         10.2 
      1789.0         0.20         14.2 
      1790.0         0.23         14.2 
      1791.0         0.27         16.6 
      1792.0         0.20         17.6 
      1793.0         0.27         18.4 
      1794.0         0.20         20.1 
      1795.0         0.20         19.6 
      1796.0         0.17         19.6 
      1797.0         0.27         19.5 
      1798.0         0.23         19.2 
      1799.0         0.23         15.8 
      1800.0         0.23         14.7 
      1801.0         0.27         14.6 
      1802.0         0.25         13.8 
      1803.0         0.30         12.5 
      1804.0         0.30         13.0 
      1805.0         0.30         12.9 
      1806.0         0.23         12.4 
      1807.0         0.20         12.0 
      1808.0         0.23         11.6 
      1809.0         0.20         11.8 
      1810.0         0.23         11.5 
      1811.0         0.23         11.5 
      1812.0         0.20         11.9 
      1813.0         0.20         11.7 
      1814.0         0.23         11.6 
      1815.0         0.27         11.7 
      1816.0         0.25         11.3 
      1817.0         0.27         10.9 
      1818.0         0.23         12.5 
      1819.0         0.27         10.7 
      1820.0         0.27         10.6 
      1821.0         0.27         11.2 
      1822.0         0.27         13.7 
      1823.0         0.23         14.9 
      1824.0         0.27         21.6 
      1825.0         0.20         21.6 
      1826.0         0.37         29.1 
      1827.0         0.37         28.8 
      1828.0         0.33         28.3 
      1829.0         0.37         26.1 
      1830.0         0.23         22.7 
      1831.0         0.23         21.5 
      1832.0         0.27         20.1 
      1833.0         0.30         17.4 
      1834.0         0.33         16.8 
      1835.0         0.35         15.4 
      1836.0         0.23         15.1 
      1837.0         0.23         14.9 
      1838.0         0.23         13.6 
      1839.0         0.27         13.5 
      1840.0         0.27         12.9 
      1841.0         0.27         12.3 
      1842.0         0.27         12.5 
      1843.0         0.27         12.9 
      1844.0         0.33         13.1 
      1845.0         0.33         11.8 
      1846.0         0.27         11.9 
      1847.0         0.28         12.4 
      1848.0         0.33         11.3 
      1849.0         0.27         12.6 
      1850.0         0.30         11.6 
      1851.0         0.27         11.8 
      1852.0         0.33          9.5 
      1853.0         0.30         10.6 
      1854.0         0.23         10.6 
      1855.0         0.23         13.3 
      1856.0         0.27         16.7 
      1857.0         0.27         17.8 
      1858.0         0.33         24.4 
