~Version Information
VERS.                      2.0: CWLS Log ASCII Standard - VERSION 2.0
WRAP.                       NO: One line per depth step
~Well Information Block
STRT.FT               -16.5000: 
STOP.FT              1695.5000: 
STEP.FT                 0.2500: 
NULL.                -999.2500: 
COMP.          Pioneer Natural Resources: COMPANY
WELL.          Rancher 12-35 Tr: WELL
FLD.           Purgatorie River: FIELD
LOC.           2242' FNL & 308' FWL SWNW 35 32S 67W: LOCATION
PROV.                       CO: PROVINCE
CNTY.               Las Animas: COUNTRY
SRVC.                         : SERVICE COMPANY
DATE.         Fri Jul 08 09:39:00 2005: LOG DATE
UWI.                071 08430 : UNIQUE WELL ID
~Curve Information Block
DEPT.FT            0 000 00 00: Depth
CCL.                          : Casing Collar Locator
TT3.usec                      : CBL 3' Travel Time
AMP3.mV                       : CBL 3' Amplitude
GR.GAPI                       : Gamma Ray
~Parameter Information Block
~A  Depth       CCL         TT3         AMP3         GR     
# ...
  1558.0000      0.0000    724.2382      5.5969     92.0492
  1558.2500      0.0000    724.6362      5.9315     90.7495
  1558.5000      0.0000    725.1135      6.1328     88.9034
  1558.7500      0.0000    725.4304      6.1121     87.0136
  1559.0000      0.0000    725.4263      5.9509     85.7660
  1559.2500      0.0000    725.1381      5.8652     85.5711
  1559.5000      0.0000    724.7866      6.0285     86.2352
  1559.7500      0.0000    724.6334      6.4211     87.2344
  1560.0000      0.0000    724.8104      6.8509     88.2049
  1560.2500      0.0000    725.2424      7.1075     89.0913
  1560.5000      0.0000    725.7026      7.1033     89.8852
  1560.7500      0.0000    725.9614      6.9172     90.3432
  1561.0000      0.0000    725.9351      6.7286     90.2398
  1561.2500      0.0000    725.7362      6.6732     90.0483
  1561.5000      0.0000    725.5725      6.7261     90.9712
  1561.7500      0.0000    725.5660      6.7374     93.6513
  1562.0000      0.0000    725.6260      6.5929     96.7672
  1562.2500      0.0000    725.4581      6.3274     97.6049
  1562.5000      0.0000    724.6591      6.0871     94.5571
  1562.7500      0.0000    722.9028      6.0143     88.8521
  1563.0000      0.0000    720.3009      6.1673     83.5531
  1563.2500      0.0000    717.6917      6.4991     81.0254
  1563.5000      0.0000    716.1713      6.8665     81.3455
  1563.7500      0.0000    715.8149      7.0925     82.7704
  1564.0000      0.0000    714.7369      7.0818     83.4954
  1564.2500      0.0000    709.4417      6.9075     83.0655
  1564.5000      0.0000    695.6642      6.7671     82.2509
  1564.7500      0.0000    668.9026      6.8243     81.8070
  1565.0000      0.0000    626.0018      7.0814     81.6446
  1565.2500      0.0000    568.9045      7.3955     81.1487
  1565.5000      0.0000    507.0929      7.5972     80.0759
  1565.7500      0.0000    453.6771      7.6000     79.0446
  1566.0000      0.0000    417.2545      7.4399     79.0492
  1566.2500      0.0000    397.8183      7.2393     80.4528
  1566.5000      0.0000    389.8902      7.1029     82.6752
  1566.7500      0.0000    388.1068      7.0255     84.9184
  1567.0000      0.0000    390.5046      6.9205     86.7785
  1567.2500      0.0000    399.3730      6.7412     88.0200
  1567.5000      0.0000    420.4325      6.5485     88.2634
  1567.7500      0.0000    459.1658      6.4531     87.3676
  1568.0000      0.0000    514.7169      6.5094     86.1063
  1568.2500      0.0000    576.9557      6.6579     86.2552
  1568.5000      0.0000    631.7885      6.7661     89.5459
  1568.7500      0.0000    670.4713      6.7453     95.9849
  1569.0000      0.0000    693.3807      6.6341    103.2117
  1569.2500      0.0000    706.0555      6.5441    108.1836
  1569.5000      0.0000    713.6406      6.5212    109.7803
  1569.7500      0.0000    718.6964      6.5043    109.3533
  1570.0000      0.0000    722.0149      6.4353    108.7272
  1570.2500      0.0000    723.9435      6.3604    108.5327
  1570.5000      0.0000    724.8525      6.3723    108.7033
  1570.7500      0.0000    724.9739      6.4758    109.5173
  1571.0000      0.0000    724.3980      6.5605    111.4242
  1571.2500      0.0000    723.6921      6.5127    114.4905
  1571.5000      0.0000    724.5872      6.3301    118.7829
  1571.7500      0.0000    729.6013      6.1215    124.9750
  1572.0000      0.0000    740.1439      6.0067    133.8179
  1572.2500      0.0000    754.6762      6.0279    144.8570
  1572.5000      0.0000    769.3793      6.1543    156.1663
  1572.7500      0.0000    781.2662      6.3453    165.7015
  1573.0000      0.0000    790.3112      6.5771    172.6063
  1573.2500      0.0000    798.1065      6.8172    176.8813
  1573.5000      0.0000    805.2627      7.0073    178.4568
  1573.7500      0.0000    811.0037      7.0937    177.5157
  1574.0000      0.0000    814.6147      7.0798    175.3032
  1574.2500      0.0000    816.1968      7.0366    173.4937
  1574.5000      0.0000    816.1450      7.0358    172.7630
  1574.7500      0.0000    814.4678      7.0613    172.7192
  1575.0000      0.0000    810.8448      7.0208    173.0981
  1575.2500      0.0000    805.4457      6.8624    174.1751
  1575.5000      0.0000    799.6996      6.6527    175.7179
  1575.7500      0.0000    795.6245      6.5256    176.0521
  1576.0000      0.0000    793.9322      6.5791    172.8376
  1576.2500      0.0000    793.5492      6.8312    164.9890
  1576.5000      0.0000    793.6577      7.2340    153.6152
  1576.7500      0.0000    795.1778      7.7134    140.9439
  1577.0000      0.0000    799.1110      8.2050    128.5890
  1577.2500      0.0000    803.9611      8.6530    117.0573
  1577.5000      0.0000    805.5538      8.9793    106.6792
  1577.7500      0.0000    799.4658      9.0905     98.3660
  1578.0000      0.0000    784.3456      8.9279     92.9864
  1578.2500      0.0000    764.0150      8.4965     90.3172
  1578.5000      0.0000    745.8373      7.8779     89.0834
  1578.7500      0.0000    735.2410      7.2539     87.8714
  1579.0000      0.0000    731.0276      6.8679     85.9503
  1579.2500      0.0000    726.4724      6.8705     83.7053
  1579.5000      0.0000    715.9279      7.1876     82.4141
  1579.7500      2.2119    700.8430      7.5834     83.2618
  1580.0000     -3.0000    688.7688      7.8638     86.5230
  1580.2500     -3.0000    685.2270      7.9927     91.7452
  1580.5000      0.0000    686.2061      8.0425     98.3344
  1580.7500      0.0000    680.7867      8.1123    105.7190
  1581.0000      0.0000    663.8482      8.3047    113.2743
  1581.2500      0.0000    644.9300      8.6762    120.3420
  1581.5000      0.0000    640.2609      9.1499    126.2370
  1581.7500      0.0000    654.7735      9.5427    130.2233
  1582.0000      0.0000    675.5450      9.7149    131.7156
  1582.2500      0.0000    685.7457      9.6492    130.9536
  1582.5000      0.0000    682.6580      9.4076    129.7144
  1582.7500      0.0000    678.4791      9.0823    130.8153
  1583.0000      0.0000    684.8316      8.7661    136.0019
  1583.2500      0.0000    700.9712      8.5089    144.3201
  1583.5000      0.0000    716.3873      8.3063    153.1025
  1583.7500      0.0000    719.1932      8.1376    160.4000
  1584.0000      0.0000    702.0082      7.9886    166.0200
  1584.2500      0.0000    666.2144      7.8464    170.6000
  1584.5000      0.0000    622.8666      7.7108    174.3026
  1584.7500      0.0000    586.3840      7.5978    176.4195
  1585.0000      0.0000    565.6841      7.5087    176.0644
  1585.2500      0.0000    561.4720      7.4218    173.1250
  1585.5000      0.0000    569.7077      7.3359    168.3821
  1585.7500      0.0000    584.5613      7.2856    162.8388
  1586.0000      0.0000    598.8790      7.2940    157.2771
  1586.2500      0.0000    606.1047      7.3416    152.3945
  1586.5000      0.0000    604.9173      7.3975    148.8668
  1586.7500      0.0000    600.8118      7.4456    146.9320
  1587.0000      0.0000    600.2621      7.4775    145.9348
  1587.2500      0.0000    603.2687      7.5000    144.4956
  1587.5000      0.0000    603.5547      7.5471    141.4666
  1587.7500      0.0000    596.0915      7.6366    137.0067
  1588.0000      0.0000    582.2756      7.7224    132.5669
  1588.2500      0.0000    567.1105      7.7350    129.6968
  1588.5000      0.0000    553.7005      7.6614    128.8939
  1588.7500      0.0000    542.1078      7.5431    129.3836
  1589.0000      0.0000    531.8176      7.4095    129.8016
  1589.2500      0.0000    522.8491      7.2609    129.3482
  1589.5000      0.0000    514.7165      7.1104    128.6325
  1589.7500      0.0000    507.0467      7.0021    129.4369
  1590.0000      0.0000    502.9174      6.9896    133.5308
  1590.2500      0.0000    510.0258      7.1116    141.4106
  1590.5000      0.0000    535.7792      7.3645    151.7198
  1590.7500      0.0000    579.6875      7.6922    161.7760
  1591.0000      0.0000    631.1219      8.0342    169.1217
  1591.2500      0.0000    676.0784      8.3802    172.9219
