~Version Information
VERS.                      2.0: CWLS Log ASCII Standard - VERSION 2.0
WRAP.                       NO: One line per depth step
~Well Information Block
STRT.FT               250.0000: 
STOP.FT              1573.7000: 
STEP.FT                 0.1000: 
NULL.                -999.2500: 
COMP.          Pioneer Natural Resources: COMPANY
WELL.          Big Cat Federal 44-1: WELL
FLD.           Purgatoire River: FIELD
LOC.           197' FSL & 973' FEL--: LOCATION
CNTY.               Las Animas: COUNTY
SRVC.                Patterson: SERVICE COMPANY
DATE.          Mon Apr 24 08:33:37 2006: LOG DATE
UWI.           05 071 08042 00: UNIQUE WELL ID
STAT.                 Colorado: STATE
~Curve Information Block
DEPT.FT            0 000 00 00: Depth
DCAL.in                       : CDL Caliper
RHOB.g/cc                     : CDL Bulk Density
RHOC.g/cc                     : CDL Density Correction
DPOR.pu                       : CDL Density Porosity
NPOR.pu                       : Neutron Porosity
GR.GAPI                       : Gamma Ray
~Parameter Information Block
~A  Depth       DCAL        RHOB        RHOC        DPOR        NPOR         GR     
# ...
  1114.0000      7.9253      2.5479      0.1293      6.1852     21.2728    128.4684
  1114.1000      7.9253      2.5743      0.0871      4.5866     21.6763    125.6323
  1114.2000      7.9253      2.5805      0.0942      4.2105     22.0603    119.4103
  1114.3000      7.9211      2.5702      0.1140      4.8344     22.4279    116.0223
  1114.4000      7.9211      2.5506      0.0767      6.0234     22.5804    117.3210
  1114.5000      7.9131      2.5338      0.0694      7.0451     22.4508    119.6514
  1114.6000      7.9131      2.5257      0.0505      7.5335     22.5489    119.2986
  1114.7000      7.9131      2.5295      0.0775      7.3013     22.9266    119.4291
  1114.8000      7.9041      2.5362      0.1261      6.8977     23.0369    122.9487
  1114.9000      7.9041      2.5242      0.0959      7.6254     22.6790    127.3172
  1115.0000      7.8978      2.4924      0.0501      9.5522     22.1730    127.6704
  1115.1000      7.8978      2.4667      0.0300     11.1095     21.8318    123.8776
  1115.2000      7.8978      2.4682      0.0286     11.0168     21.8481    122.0290
  1115.3000      7.8941      2.4864      0.0741      9.9156     22.1499    124.0077
  1115.4000      7.8941      2.4939      0.0852      9.4579     22.2969    123.8269
  1115.5000      7.8940      2.4840      0.0440     10.0634     22.1703    119.0023
  1115.6000      7.8940      2.4763      0.0144     10.5299     22.2354    114.6791
  1115.7000      7.8940      2.4856      0.0221      9.9616     22.5544    115.0307
  1115.8000      7.8966      2.4964      0.0516      9.3087     22.6937    116.5748
  1115.9000      7.8966      2.4766      0.0928     10.5112     22.3863    115.7271
  1116.0000      7.8984      2.4293     -0.0271     13.3773     21.8857    114.4669
  1116.1000      7.8984      2.4069     -0.0389     14.7350     21.7569    115.8775
  1116.2000      7.8984      2.4352      0.0412     13.0209     21.8623    119.6737
  1116.3000      7.8973      2.4840      0.0701     10.0630     21.6937    122.8192
  1116.4000      7.8973      2.5217      0.0815      7.7743     21.3419    123.2299
  1116.5000      7.8955      2.5375      0.0881      6.8157     21.3612    121.6864
  1116.6000      7.8955      2.5389      0.0477      6.7324     21.6579    120.3984
  1116.7000      7.8955      2.5403      0.0784      6.6508     21.5384    118.6831
  1116.8000      7.8963      2.5347      0.0848      6.9875     21.1056    114.8105
  1116.9000      7.8963      2.5181      0.0093      7.9969     20.9858    110.6802
  1117.0000      7.8998      2.5125      0.0071      8.3338     21.0277    107.7832
  1117.1000      7.8998      2.5250      0.0717      7.5732     20.7763    105.7853
  1117.2000      7.8998      2.5358      0.1009      6.9229     20.3577    105.0605
  1117.3000      7.9066      2.5389      0.0196      6.7310     20.0154    107.5711
  1117.4000      7.9066      2.5453      0.0595      6.3429     19.9208    111.9636
  1117.5000      7.9130      2.5477      0.0626      6.2002     20.0650    115.5574
  1117.6000      7.9130      2.5240      0.0771      7.6336     20.3486    116.8230
  1117.7000      7.9130      2.4780     -0.0136     10.4233     20.8175    114.5491
  1117.8000      7.9157      2.4449     -0.0167     12.4279     21.2875    109.8942
  1117.9000      7.9157      2.4457     -0.0085     12.3816     21.3415    105.6943
  1118.0000      7.9181      2.4695      0.0251     10.9405     21.0634    104.7198
  1118.1000      7.9181      2.4894      0.0752      9.7319     20.8798    107.6832
  1118.2000      7.9181      2.4816      0.0543     10.2058     20.8501    112.5938
  1118.3000      7.9208      2.4444      0.0414     12.4584     20.7768    112.4970
  1118.4000      7.9208      2.3874      0.0277     15.9147     20.5181    106.0686
  1118.5000      7.9231      2.3145      0.0322     20.3319     20.0696    101.0381
  1118.6000      7.9231      2.2356     -0.0383     25.1145     19.4092     98.7282
  1118.7000      7.9231      2.1671     -0.0722     29.2670     18.4129     98.1396
  1118.8000      7.9232      2.1132     -0.0523     32.5330     17.1533    101.8287
  1118.9000      7.9232      2.0727     -0.0748     34.9899     15.8676    107.2309
  1119.0000      7.9218      2.0499     -0.0594     36.3702     14.6151    110.7595
  1119.1000      7.9218      2.0396     -0.0057     36.9930     13.2838    112.6546
  1119.2000      7.9218      2.0341      0.0012     37.3275     11.9097    112.2481
  1119.3000      7.9217      2.0493      0.0129     36.4059     10.7725    107.7965
  1119.4000      7.9217      2.1030      0.0984     33.1540      9.9781    101.9004
  1119.5000      7.9227      2.1782      0.1943     28.5931      9.3999     98.4903
  1119.6000      7.9227      2.2410      0.1897     24.7878      9.2091     98.3196
  1119.7000      7.9227      2.2837      0.1196     22.2003      9.5657     99.0720
  1119.8000      7.9236      2.3260      0.1252     19.6334     10.0481     98.0525
  1119.9000      7.9236      2.3763      0.1628     16.5879     10.2658     96.2784
  1120.0000      7.9235      2.4199      0.1845     13.9481     10.4613     95.5761
  1120.1000      7.9235      2.4431      0.1647     12.5374     11.0055     94.7071
  1120.2000      7.9235      2.4543      0.1536     11.8589     11.7993     94.4533
  1120.3000      7.9214      2.4755      0.1160     10.5757     12.5374     98.3843
  1120.4000      7.9214      2.5081      0.1542      8.5996     13.3406    104.6726
  1120.5000      7.9188      2.5274      0.1372      7.4278     14.3568    106.9791
  1120.6000      7.9188      2.5241      0.0549      7.6273     15.3193    104.1723
  1120.7000      7.9188      2.5192      0.0554      7.9257     16.1768    102.4655
  1120.8000      7.9181      2.5253      0.0746      7.5588     17.1898    103.2406
  1120.9000      7.9181      2.5329      0.0784      7.0958     18.1219    100.4593
  1121.0000      7.9183      2.5300      0.0903      7.2724     18.5105     96.0223
  1121.1000      7.9183      2.5155      0.0563      8.1536     18.6861     95.7938
  1121.2000      7.9183      2.5031      0.0455      8.9044     19.0849     98.8147
  1121.3000      7.9199      2.5040      0.0234      8.8497     19.4680    101.5353
  1121.4000      7.9199      2.5160      0.0772      8.1206     19.7297    103.5120
  1121.5000      7.9230      2.5373      0.0495      6.8303     19.9977    106.0640
  1121.6000      7.9230      2.5653      0.1230      5.1353     20.1209    111.0784
  1121.7000      7.9230      2.5794      0.1264      4.2773     19.9669    118.1251
  1121.8000      7.9256      2.5715      0.0676      4.7605     19.8340    124.6382
  1121.9000      7.9256      2.5578      0.0750      5.5897     19.9793    126.4040
  1122.0000      7.9274      2.5428      0.0710      6.4972     20.3326    119.9876
  1122.1000      7.9274      2.5256      0.0312      7.5388     20.7579    110.5758
  1122.2000      7.9274      2.5206      0.0237      7.8415     21.0174    107.4787
  1122.3000      7.9276      2.5331      0.0168      7.0855     20.8863    110.8894
  1122.4000      7.9276      2.5408      0.0704      6.6160     20.5091    113.2978
  1122.5000      7.9272      2.5244      0.0258      7.6098     20.2061    112.8424
  1122.6000      7.9272      2.5067     -0.0560      8.6866     20.1871    111.3480
  1122.7000      7.9272      2.5161      0.0190      8.1148     20.5079    108.3116
  1122.8000      7.9267      2.5387      0.0255      6.7436     20.9658    103.6430
  1122.9000      7.9267      2.5507      0.0354      6.0203     21.1992     98.6020
  1123.0000      7.9269      2.5481      0.0315      6.1735     21.2322     96.2285
  1123.1000      7.9269      2.5452      0.0116      6.3488     21.2674     98.5058
  1123.2000      7.9269      2.5512      0.0613      5.9908     21.3092    102.3259
  1123.3000      7.9272      2.5524      0.0256      5.9133     21.6636    102.5371
  1123.4000      7.9272      2.5445      0.0127      6.3956     22.6772     99.7320
  1123.5000      7.9256      2.5364      0.0319      6.8879     24.3032     98.8474
