~Version Information
VERS.                      2.0: CWLS Log ASCII Standard - VERSION 2.0
WRAP.                       NO: One line per depth step
~Well Information Block
STRT.FT               360.0000: 
STOP.FT              1622.7500: 
STEP.FT                 0.2500: 
NULL.                -999.2500: 
COMP.          Pioneer Natural Resources: COMPANY
WELL.                Eric 42-9: WELL
FLD.           Purgatoire River: FIELD
LOC.           2050' FNL & 850' FEL: LOCATION
PROV.                 Colorado: PROVINCE
CNTY.               Las Animas: COUNTRY
SRVC.                Patterson: SERVICE COMPANY
DATE.          Sun Oct 31 17:26:46 2004: LOG DATE
UWI.           05 071 07999 00: UNIQUE WELL ID
~Curve Information Block
DEPT.FT            0 000 00 00: Depth
SN.Ohm-m                      : IEL Short Normal
SP.mV                         : IEL Spontaneous Potential
DIR.Ohm-m                     : IEL Induction Resistivity
GR.GAPI                       : Gamma Ray
~Parameter Information Block
~A  Depth        SN          SP         DIR          GR     
# ...
  1365.0000     11.7273    113.3510      8.1953    103.5374
  1365.2500     11.4775    112.9097      8.2928    104.1703
  1365.5000     11.2593    112.4500      8.4494    105.9675
  1365.7500     11.0461    112.0127      8.6650    107.4940
  1366.0000     10.8096    111.6367      8.9295    108.3901
  1366.2500     10.5481    111.3546      9.2240    107.0845
  1366.5000     10.3128    111.1928      9.5265    102.6907
  1366.7500     10.2173    111.1683      9.8189     99.5421
  1367.0000     10.4117    111.2832     10.0912     97.1035
  1367.2500     11.0270    111.5167     10.3445     97.8532
  1367.5000     12.1172    111.8199     10.5900    102.6574
  1367.7500     13.6376    112.1189     10.8470    107.7991
  1368.0000     15.4715    112.3236     11.1386    116.9259
  1368.2500     17.4775    112.3396     11.4849    122.9425
  1368.5000     19.5248    112.0763     11.8971    130.0662
  1368.7500     21.5150    111.4524     12.3758    132.4339
  1369.0000     23.4146    110.3999     12.9175    130.5543
  1369.2500     25.3111    108.8728     13.5275    124.9488
  1369.5000     27.4694    106.8587     14.2337    110.2595
  1369.7500     30.3367    104.3884     15.0914     97.5719
  1370.0000     34.4332    101.5361     16.1775     77.6911
  1370.2500     40.1290     98.4053     17.5772     65.7310
  1370.5000     47.4142     95.1067     19.3636     51.4199
  1370.7500     55.8258     91.7393     21.5696     44.5491
  1371.0000     64.5785     88.3861     24.1545     38.2789
  1371.2500     72.7863     85.1309     26.9778     36.6937
  1371.5000     79.6446     82.0893     29.8007     37.4377
  1371.7500     84.5408     79.4366     32.3306     39.1596
  1372.0000     87.1003     77.4123     34.2893     41.9346
  1372.2500     87.1627     76.2872     35.4606     43.1697
  1372.5000     84.7215     76.2979     35.7068     43.4765
  1372.7500     79.9137     77.5709     34.9851     42.6952
  1373.0000     73.1084     80.0693     33.3775     40.8476
  1373.2500     64.9957     83.5859     31.0913     40.0598
  1373.5000     56.4942     87.7859     28.4061     41.5445
  1373.7500     48.4492     92.2803     25.6009     45.3415
  1374.0000     41.3560     96.7025     22.8994     55.8252
  1374.2500     35.3296    100.7635     20.4434     65.4398
  1374.5000     30.2722    104.2772     18.2933     81.7833
  1374.7500     26.0396    107.1600     16.4519     92.6176
  1375.0000     22.5224    109.4123     14.8938    106.6111
  1375.2500     19.6602    111.0919     13.5873    113.3244
  1375.5000     17.4170    112.2877     12.5042    118.4693
  1375.7500     15.7412    113.0975     11.6206    119.0873
  1376.0000     14.5484    113.6120     10.9160    118.2416
  1376.2500     13.7342    113.9063     10.3726    117.8756
  1376.5000     13.1969    114.0387      9.9758    118.1909
  1376.7500     12.8523    114.0522      9.7134    118.3595
  1377.0000     12.6411    113.9796      9.5732    117.3316
  1377.2500     12.5269    113.8463      9.5385    115.5149
  1377.5000     12.4844    113.6727      9.5850    111.3550
  1377.7500     12.4900    113.4736      9.6816    108.1129
  1378.0000     12.5268    113.2572      9.7966    103.8486
  1378.2500     12.5947    113.0251      9.9074    102.0883
  1378.5000     12.7096    112.7748     10.0065    101.1545
  1378.7500     12.8887    112.5045     10.1022    101.1517
  1379.0000     13.1304    112.2202     10.2113    101.4625
  1379.2500     13.4057    111.9409     10.3510    101.9828
  1379.5000     13.6653    111.7006     10.5289    103.1991
  1379.7500     13.8543    111.5433     10.7373    103.5959
  1380.0000     13.9202    111.5115     10.9520    101.8069
  1380.2500     13.8198    111.6333     11.1407     98.6743
  1380.5000     13.5379    111.9116     11.2736     92.8104
  1380.7500     13.1071    112.3209     11.3320     90.0403
  1381.0000     12.6001    112.8123     11.3105     90.2160
  1381.2500     12.0900    113.3244     11.2158     93.5732
  1381.5000     11.6187    113.7960     11.0659    102.3038
  1381.7500     11.2110    114.1759     10.8901    109.4335
  1382.0000     10.9102    114.4292     10.7242    119.9343
  1382.2500     10.7862    114.5394     10.6028    125.5827
  1382.5000     10.9017    114.5066     10.5506    130.2985
  1382.7500     11.2681    114.3428     10.5767    130.3703
  1383.0000     11.8318    114.0665     10.6756    125.8517
  1383.2500     12.4997    113.6961     10.8334    120.1333
  1383.5000     13.1842    113.2475     11.0375    108.3695
  1383.7500     13.8416    112.7340     11.2841     99.1066
  1384.0000     14.4874    112.1696     11.5800     85.1229
  1384.2500     15.1826    111.5728     11.9371     77.2965
  1384.5000     15.9887    110.9683     12.3650     69.6186
  1384.7500     16.9075    110.3855     12.8648     66.9939
  1385.0000     17.8493    109.8551     13.4242     64.7260
  1385.2500     18.6673    109.4052     14.0119     63.2460
  1385.5000     19.2342    109.0607     14.5741     60.8208
  1385.7500     19.4968    108.8437     15.0403     59.6367
  1386.0000     19.4708    108.7730     15.3431     59.6485
  1386.2500     19.1996    108.8608     15.4418     61.2365
  1386.5000     18.7258    109.1058     15.3336     65.9631
  1386.7500     18.0903    109.4874     15.0473     70.3131
  1387.0000     17.3410    109.9635     14.6300     77.7898
  1387.2500     16.5362    110.4771     14.1349     82.9926
  1387.5000     15.7364    110.9687     13.6102     90.6126
  1387.7500     14.9901    111.3904     13.0909     95.2080
  1388.0000     14.3209    111.7140     12.5999    100.3146
  1388.2500     13.7240    111.9327     12.1555    101.8640
  1388.5000     13.1773    112.0541     11.7795    101.2094
  1388.7500     12.6648    112.0922     11.4958     99.5143
  1389.0000     12.1977    112.0602     11.3207     96.9618
  1389.2500     11.8188    111.9681     11.2528     95.8925
  1389.5000     11.5785    111.8250     11.2721     94.7006
  1389.7500     11.4969    111.6425     11.3473     93.1772
  1390.0000     11.5491    111.4393     11.4477     88.3513
  1390.2500     11.6953    111.2412     11.5495     83.5377
  1390.5000     11.9187    111.0782     11.6362     75.9295
  1390.7500     12.2226    110.9768     11.6970     72.1250
  1391.0000     12.5895    110.9514     11.7276     69.9217
  1391.2500     12.9573    110.9973     11.7311     70.8752
  1391.5000     13.2443    111.0906     11.7159     75.0640
  1391.7500     13.3949    111.1931     11.6904     78.7345
  1392.0000     13.4050    111.2639     11.6563     83.3507
  1392.2500     13.3126    111.2700     11.6066     84.7391
  1392.5000     13.1713    111.1924     11.5290     83.8872
  1392.7500     13.0288    111.0249     11.4165     82.0000
  1393.0000     12.9178    110.7673     11.2787     78.7697
  1393.2500     12.8609    110.4168     11.1427     77.0486
  1393.5000     12.8803    109.9646     11.0427     75.5732
  1393.7500     12.9993    109.4003     11.0056     75.1987
  1394.0000     13.2285    108.7212     11.0447     75.1351
  1394.2500     13.5434    107.9399     11.1574     75.3177
  1394.5000     13.8702    107.0834     11.3254     75.8730
  1394.7500     14.0929    106.1790     11.5111     76.2229
  1395.0000     14.0873    105.2364     11.6588     75.8811
  1395.2500     13.7788    104.2368     11.7082     74.5186
  1395.5000     13.1919    103.1415     11.6210     70.5138
  1395.7500     12.4540    101.9225     11.4027     67.1687
  1396.0000     11.7338    100.6046     11.1008     63.2824
  1396.2500     11.1527     99.2989     10.7784     62.5606
  1396.5000     10.7348     98.2046     10.4860     64.7144
  1396.7500     10.4281     97.5675     10.2471     67.7528
  1397.0000     10.1774     97.6049     10.0609     73.4484
  1397.2500      9.9929     98.4237      9.9142     77.4924
  1397.5000      9.9635     99.9712      9.7944     83.2776
  1397.7500     10.1998    102.0433      9.6983     86.4997
  1398.0000     10.7462    104.3469      9.6337     89.6721
  1398.2500     11.5295    106.5878      9.6162     90.6012
