~Version Information
VERS.                      2.0: CWLS Log ASCII Standard - VERSION 2.0
WRAP.                       NO: One line per depth step
~Well Information Block
STRT.FT                -6.0000: 
STOP.FT              2490.5000: 
STEP.FT                 0.2500: 
NULL.                -999.2500: 
COMP.          Pioneer Natural Resources: COMPANY
WELL.          Aztec Federal 41-15: WELL
FLD.           Purgatorie River: FIELD
LOC.           706' FNL & 1253' FEL--: LOCATION
CNTY.               Las Animas: COUNTY
SRVC.          Superior Well Services: SERVICE COMPANY
DATE.          Wed May 28 14-18-16 2008: LOG DATE
UWI.           05 071 08342 00: UNIQUE WELL ID
STAT.                       CO: STATE
~Curve Information Block
DEPT.FT            0 000 00 00: Depth
GR.GAPI                       : Gamma Ray
CCL.                          : Casing Collar Locator
AMP3FT.mV                     : AMP3FT Amplitude
TT3FT.usec                    : 3FT Travel Time
AMP5FT.mV                     : AMP5FT Amplitude
~Parameter Information Block
~A  Depth        GR         CCL        AMP3FT      TT3FT       AMP5FT   
# ...
  1646.0000    125.4878      0.0000      3.8579    518.8753      2.4560
  1646.2500    130.9502      0.0000      3.9469    506.3110      2.4025
  1646.5000    134.4272      0.0000      4.0134    498.5713      2.3481
  1646.7500    133.7366      0.0000      4.0755    493.1279      2.3119
  1647.0000    128.4020      0.0000      4.1521    486.9967      2.2970
  1647.2500    120.0202      0.0000      4.2387    479.0473      2.2889
  1647.5000    111.3843      0.0000      4.3043    469.5975      2.2743
  1647.7500    105.2203      0.0000      4.3206    459.7975      2.2581
  1648.0000    103.1540      0.0000      4.2909    451.7948      2.2599
  1648.2500    105.1622      0.0000      4.2458    448.1328      2.2935
  1648.5000    109.7871      0.0000      4.2148    449.8317      2.3529
  1648.7500    115.0455      0.0000      4.2050    455.1958      2.4165
  1649.0000    119.2750      0.0000      4.2046    460.9481      2.4594
  1649.2500    121.3790      0.0000      4.1982    464.5337      2.4672
  1649.5000    120.8858      0.0000      4.1749    465.4682      2.4444
  1649.7500    118.4539      0.0000      4.1310    465.0760      2.4118
  1650.0000    116.2346      0.0000      4.0698    465.1922      2.3917
  1650.2500    116.8257      0.0000      4.0020    466.7434      2.3928
  1650.5000    121.1228      0.0000      3.9409    469.2527      2.4084
  1650.7500    127.3117      0.0000      3.8971    471.6438      2.4223
  1651.0000    132.4040      0.0000      3.8773    473.3224      2.4166
  1651.2500    134.6796      0.0000      3.8852    474.4279      2.3857
  1651.5000    134.4983      0.0000      3.9196    475.3838      2.3437
  1651.7500    133.2993      0.0000      3.9688    476.4937      2.3153
  1652.0000    132.3194      0.0000      4.0122    477.8573      2.3137
  1652.2500    132.0019      0.0000      4.0309    479.4553      2.3310
  1652.5000    132.2071      0.0000      4.0177    481.2223      2.3476
  1652.7500    132.8667      0.0000      3.9767    483.0478      2.3474
  1653.0000    134.2781      0.0000      3.9150    484.7522      2.3259
  1653.2500    136.4865      0.0000      3.8398    486.1579      2.2891
  1653.5000    138.5808      0.0000      3.7588    487.2250      2.2510
  1653.7500    139.3044      0.0000      3.6800    488.2153      2.2279
  1654.0000    138.5007      0.0000      3.6104    489.9680      2.2262
  1654.2500    137.4321      0.0000      3.5562    494.3657      2.2332
  1654.5000    137.6007      0.0000      3.5224    504.4532      2.2255
  1654.7500    139.5165      0.0000      3.5076    523.0867      2.1930
  1655.0000    142.4816      0.0000      3.5000    550.1063      2.1510
  1655.2500    145.2217      0.0000      3.4826    580.6873      2.1266
  1655.5000    146.6780      0.0000      3.4452    607.6608      2.1362
  1655.7500    146.5974      0.0000      3.3954    626.1931      2.1735
  1656.0000    145.7231      0.0000      3.3563    636.1099      2.2130
  1656.2500    145.3183      0.0000      3.3516    640.2426      2.2269
  1656.5000    146.2056      0.0000      3.3935    641.5840      2.2043
  1656.7500    148.0028      0.0000      3.4813    641.9230      2.1547
  1657.0000    148.8628      0.0000      3.6100    641.9897      2.0958
  1657.2500    145.9408      0.0000      3.7821    642.0000      2.0458
  1657.5000    137.1541      0.0000      4.0169    642.0000      2.0233
  1657.7500    123.4066      0.0000      4.3420    642.0000      2.0446
  1658.0000    108.9433      0.0000      4.7661    642.0000      2.1141
  1658.2500     99.0469      0.0000      5.2624    642.0000      2.2168
  1658.5000     97.0630      0.0000      5.7826    641.9902      2.3227
  1658.7500    102.8836      0.0000      6.2849    641.9362      2.4008
  1659.0000    113.4195      0.0000      6.7500    641.6758      2.4379
  1659.2500    124.4857      0.0000      7.1796    640.7176      2.4470
  1659.5000    132.9704      0.0000      7.5833    638.0500      2.4581
  1659.7500    138.0766      0.0000      7.9580    632.5244      2.4971
  1660.0000    140.8806      0.0000      8.2772    624.2972      2.5674
  1660.2500    142.6378      0.0000      8.4984    616.2426      2.6496
  1660.5000    143.6101      0.0000      8.5803    612.8130      2.7181
  1660.7500    143.6011      0.0000      8.4930    616.2354      2.7595
  1661.0000    142.8481      0.0000      8.2240    624.2498      2.7770
  1661.2500    141.6318      0.0000      7.7880    632.2836      2.7817
  1661.5000    139.6043      0.0000      7.2342    637.0977      2.7811
  1661.7500    136.3254      0.0000      6.6420    637.7844      2.7755
  1662.0000    132.0571      0.0000      6.1007    634.6393      2.7603
  1662.2500    127.4845      0.0000      5.6776    628.7902      2.7294
  1662.5000    122.9698      0.0000      5.3927    622.8630      2.6801
  1662.7500    118.3983      0.0000      5.2227    620.3260      2.6164
  1663.0000    113.7468      0.0000      5.1348    622.8690      2.5485
  1663.2500    109.6964      0.0000      5.1131    628.8219      2.4875
  1663.5000    107.3656      0.0000      5.1418    634.7823      2.4390
  1663.7500    107.2010      0.0000      5.1724    638.2709      2.4019
  1664.0000    108.3956      0.0000      5.1350    638.2664      2.3721
  1664.2500    109.6077      0.0000      5.0015    633.9431      2.3468
  1664.5000    109.8716      0.0000      4.8214    624.1714      2.3240
  1664.7500    108.6716      0.0000      4.6799    609.0139      2.2998
  1665.0000    105.9135      0.0000      4.6282    591.7937      2.2725
  1665.2500    102.4256      0.0000      4.6565    578.8807      2.2476
  1665.5000    100.0652     -1.5503      4.7194    576.0195      2.2322
  1665.7500    100.6962      0.0000      4.7754    583.6458      2.2234
  1666.0000    104.8611      0.0000      4.8108    595.5065      2.2076
  1666.2500    111.4761      0.0000      4.8408    602.3107      2.1747
  1666.5000    118.7300      0.0000      4.8888    597.6863      2.1305
  1666.7500    125.2946      0.0000      4.9551    581.8691      2.0935
  1667.0000    130.7960      0.0000      5.0043    560.8151      2.0822
  1667.2500    135.2948      0.0000      4.9950    542.2985      2.1076
  1667.5000    138.4582      0.0000      4.9251    532.1716      2.1758
  1667.7500    139.4106      0.0000      4.8396    532.5392      2.2950
  1668.0000    137.5901      0.0000      4.8047    541.5009      2.4769
  1668.2500    133.8760      0.0000      4.8820    554.4859      2.7291
  1668.5000    130.6537      0.0000      5.1182    567.4840      3.0421
  1668.7500    130.2248      0.0000      5.5447    579.5101      3.3871
  1669.0000    132.9098      0.0000      6.1866    590.8301      3.7381
  1669.2500    136.9867      0.0000      7.0832    598.4083      4.1021
  1669.5000    140.6816      0.0000      8.3068    594.3006      4.5199
  1669.7500    144.0359      0.0000      9.9628    570.1090      5.0302
  1670.0000    148.5108      0.0000     12.1694    524.4149      5.6399
  1670.2500    154.8084      0.0000     15.0458    466.2791      6.3455
  1670.5000    161.4809      0.0000     18.7418    410.3603      7.1898
  1670.7500    165.9176      0.0000     23.4710    367.3904      8.2930
  1671.0000    166.4648      0.0000     29.4527    339.0145      9.8229
  1671.2500    163.4669      0.0000     36.7401    320.7706     11.9464
  1671.5000    158.5996      0.0000     45.0350    308.0412     14.8412
  1671.7500    153.6494      0.0000     53.6370    298.8295     18.7584
  1672.0000    149.6468      0.0000     61.6035    292.7606     24.0272
  1672.2500    146.5458      0.0000     68.0845    289.4166     30.9033
  1672.5000    143.5462      0.0000     72.6603    287.9197     39.2945
  1672.7500    139.7402      0.0000     75.4599    287.3625     48.5460
  1673.0000    134.4874      0.0000     76.9809    287.1630     57.5165
  1673.2500    127.6155      0.0000     77.7665    287.0580     65.0085
  1673.5000    119.7955      0.0000     78.1708    286.9631     70.3034
  1673.7500    112.5935      0.0000     78.2990    286.8748     73.4106
