~Version Information
VERS.                      2.0: CWLS Log ASCII Standard - VERSION 2.0
WRAP.                       NO: One line per depth step
~Well Information Block
STRT.FT               748.2500: 
STOP.FT              2498.5000: 
STEP.FT                 0.2500: 
NULL.                -999.2500: 
COMP.          Petrogulf Corporation: COMPANY
WELL.           Montoya 13-41V: WELL
FLD.           Purgatorie River: FIELD
LOC.           449' FNL & 891' FEL: LOCATION
CNTY.               Las Animas: COUNTY
SRVC.                         : SERVICE COMPANY
DATE.          Tue Aug 17 13:22:31 2004: LOG DATE
UWI.           05 071 08021 00: UNIQUE WELL ID
STAT.                 Colorado: STATE
~Curve Information Block
DEPT.FT            0 000 00 00: Depth
SP.mV                         : DIL Spontaneous Potential
RILD.Ohm-m                    : DIL Deep Resistivity
RILM.Ohm-m                    : DIL Medium Resistivity
RLL3.Ohm-m                    : DIL Shallow Resistivity
GR.GAPI                       : Gamma Ray
~Parameter Information Block
~A  Depth        SP         RILD        RILM        RLL3         GR     
# ...
  1784.2500     64.5191     19.9742     25.5372     40.9363    163.9673
  1784.5000     64.5703     19.5229     25.4269     43.3397    158.2750
  1784.7500     64.6712     19.1006     24.9989     44.7665    155.7207
  1785.0000     64.8115     18.7603     24.3164     44.8254    155.1354
  1785.2500     64.9777     18.5292     23.4827     43.3279    156.4426
  1785.5000     65.1530     18.4110     22.6155     40.3667    159.3848
  1785.7500     65.3188     18.3920     21.8230     36.4455    161.6075
  1786.0000     65.4573     18.4453     21.1899     32.6161    165.6595
  1786.2500     65.5556     18.5369     20.7739     30.9046    168.8073
  1786.5000     65.6107     18.6324     20.6091     34.7406    172.7992
  1786.7500     65.6327     18.7044     20.7106     49.3093    173.7598
  1787.0000     65.6459     18.7383     21.0779     80.8603    171.0736
  1787.2500     65.6861     18.7344     21.6947    133.8045    166.0158
  1787.5000     65.7941     18.7072     22.5278    205.7330    153.1375
  1787.7500     66.0075     18.6831     23.5257    283.4985    141.3567
  1788.0000     66.3512     18.6981     24.6218    345.2722    121.2289
  1788.2500     66.8309     18.7953     25.7437    370.1833    108.5372
  1788.5000     67.4300     19.0187     26.8293    349.9824     95.1605
  1788.7500     68.1121     19.4045     27.8420    293.6619     92.0544
  1789.0000     68.8280     19.9669     28.7789    221.3703     97.2293
  1789.2500     69.5258     20.6846     29.6643    153.0869    106.2690
  1789.5000     70.1601     21.4903     30.5335    100.6230    124.0585
  1789.7500     70.6992     22.2739     31.4122     66.6102    135.4574
  1790.0000     71.1285     22.9060     32.3003     48.0030    147.0275
  1790.2500     71.4491     23.2823     33.1640     39.9989    150.0037
  1790.5000     71.6740     23.3639     33.9386     38.3112    149.1143
  1790.7500     71.8225     23.1898     34.5424     39.8763    147.0282
  1791.0000     71.9151     22.8525     34.8991     42.7700    144.5336
  1791.2500     71.9691     22.4591     34.9609     45.9239    143.9441
  1791.5000     71.9960     22.1010     34.7245     48.7423    144.5070
  1791.7500     71.9998     21.8404     34.2326     50.9364    145.5746
  1792.0000     71.9776     21.7100     33.5630     52.2858    147.9859
  1792.2500     71.9198     21.7179     32.8114     52.5090    150.1939
  1792.5000     71.8124     21.8549     32.0746     51.2816    154.9384
  1792.7500     71.6387     22.1015     31.4400     48.4422    159.4983
  1793.0000     71.3830     22.4348     30.9793     44.2632    168.4178
  1793.2500     71.0336     22.8323     30.7474     39.5451    174.7336
  1793.5000     70.5863     23.2736     30.7828     35.3999    181.6579
  1793.7500     70.0472     23.7389     31.1090     32.8427    182.9729
  1794.0000     69.4339     24.2107     31.7365     32.4457    179.1272
  1794.2500     68.7737     24.6784     32.6638     34.2183    173.1297
  1794.5000     68.1011     25.1452     33.8792     37.6945    160.2374
  1794.7500     67.4518     25.6305     35.3624     42.1230    149.7755
  1795.0000     66.8582     26.1632     37.0882     46.6868    132.5135
  1795.2500     66.3433     26.7688     39.0290     50.7202    120.6548
  1795.5000     65.9183     27.4562     41.1583     53.8731    103.6709
  1795.7500     65.5817     28.2151     43.4501     56.1637     93.8339
  1796.0000     65.3210     29.0267     45.8751     57.8983     82.6920
  1796.2500     65.1168     29.8804     48.3905     59.5131     77.8930
  1796.5000     64.9486     30.7865     50.9252     61.4204     73.9223
  1796.7500     64.8004     31.7715     53.3620     63.9116     72.7056
  1797.0000     64.6654     32.8525     55.5224     67.1126     71.8615
  1797.2500     64.5483     33.9977     57.1679     70.9557     71.4315
  1797.5000     64.4654     35.0893     58.0292     75.1657     70.4004
  1797.7500     64.4409     35.9141     57.8742     79.2981     69.3764
  1798.0000     64.5010     36.2164     56.5953     82.8535     67.8183
  1798.2500     64.6673     35.8148     54.2726     85.3974     67.2788
  1798.5000     64.9495     34.7185     51.1680     86.5672     68.0340
  1798.7500     65.3415     33.1372     47.6451     85.9481     70.0710
  1799.0000     65.8199     31.3761     44.0654     82.9978     76.7209
  1799.2500     66.3473     29.7043     40.7108     77.2387     84.3892
  1799.5000     66.8786     28.2868     37.7565     68.6947    101.1007
  1799.7500     67.3689     27.1858     35.2817     58.2337    114.8587
  1800.0000     67.7816     26.3917     33.2979     47.4553    136.4671
  1800.2500     68.0939     25.8563     31.7753     38.1096    149.4423
  1800.5000     68.2985     25.5172     30.6655     31.4267    163.7057
  1800.7500     68.4023     25.3125     29.9150     27.7767    168.9754
  1801.0000     68.4226     25.1920     29.4760     26.7818    171.5289
  1801.2500     68.3825     25.1236     29.3116     27.6836    170.9545
  1801.5000     68.3064     25.0947     29.3998     29.6968    168.0984
  1801.7500     68.2173     25.1042     29.7330     32.2201    164.9677
  1802.0000     68.1352     25.1511     30.3163     34.9130    158.5506
  1802.2500     68.0759     25.2258     31.1605     37.6883    153.6542
  1802.5000     68.0510     25.3123     32.2739     40.6507    146.6269
  1802.7500     68.0681     25.3976     33.6499     44.0041    142.4989
  1803.0000     68.1310     25.4824     35.2518     47.9582    136.7083
  1803.2500     68.2404     25.5811     36.9933     52.6752    132.7062
  1803.5000     68.3952     25.7128     38.7213     58.2751    126.6085
  1803.7500     68.5927     25.8858     40.2093     64.8719    122.9730
  1804.0000     68.8298     26.0868     41.1788     72.5548    118.5220
  1804.2500     69.1027     26.2780     41.3643     81.2342    115.7892
  1804.5000     69.4062     26.4024     40.6087     90.3700    110.8635
  1804.7500     69.7336     26.3953     38.9389     98.7393    106.6712
  1805.0000     70.0755     26.2003     36.5679    104.4742     99.5225
  1805.2500     70.4194     25.7843     33.8130    105.5289     95.1892
  1805.5000     70.7504     25.1491     30.9866    100.5031     92.1126
  1805.7500     71.0520     24.3308     28.3217     89.4503     94.0407
  1806.0000     71.3084     23.3893     25.9514     74.1466    104.2341
  1806.2500     71.5071     22.3904     23.9244     57.5245    115.1002
  1806.5000     71.6407     21.3905     22.2345     42.5244    133.8450
  1806.7500     71.7086     20.4302     20.8458     31.0370    145.4930
  1807.0000     71.7166     19.5359     19.7116     23.5145    158.8905
  1807.2500     71.6757     18.7241     18.7851     19.3095    164.7972
  1807.5000     71.6009     18.0058     18.0263     17.3425    170.1370
  1807.7500     71.5087     17.3874     17.4047     16.6453    172.0593
  1808.0000     71.4153     16.8708     16.9000     16.5806    173.0801
  1808.2500     71.3350     16.4520     16.5012     16.8038    172.6317
  1808.5000     71.2787     16.1219     16.2049     17.1336    170.7995
  1808.7500     71.2526     15.8685     16.0124     17.4594    169.3959
  1809.0000     71.2579     15.6807     15.9283     17.7222    167.7611
  1809.2500     71.2900     15.5541     15.9580     17.9353    166.9173
  1809.5000     71.3401     15.4921     16.1064     18.1928    165.3621
  1809.7500     71.3971     15.5036     16.3763     18.6381    163.7434
  1810.0000     71.4506     15.5960     16.7669     19.4117    159.9012
  1810.2500     71.4943     15.7682     17.2719     20.6144    156.1796
  1810.5000     71.5283     16.0082     17.8778     22.3045    149.0564
  1810.7500     71.5598     16.2951     18.5620     24.5131    143.8818
  1811.0000     71.6022     16.6059     19.2916     27.2400    137.0233
  1811.2500     71.6709     16.9212     20.0241     30.4072    133.8255
  1811.5000     71.7794     17.2256     20.7109     33.7889    131.4611
  1811.7500     71.9347     17.5046     21.3033     36.9705    131.0853
  1812.0000     72.1342     17.7428     21.7597     39.3952    131.4342
