~Version Information
 VERS.                                  2.0 : CWLS LAS VERSION
 WRAP.                                   NO : WRAPING MODE
 SWARE .                 MController 2.5.0J : SOFTWARE VERSION
~Well Information
 WELL.                          Silva 6-22V : WELL
 COMP.                       Petrogulf Corp : COMPANY
 FLD.                      Purgatoire River : FIELD
 LOC.                 SE/NW Sec 6 T33S R67W : LOCATION
 DATE.                            11/7-9/04 : DATE(S) LOGGED
 SRVC.       Blanco Geological Services LLC : SERVICE COMPANY
 STAT.                                   CO : STATE
 CNTY.                           Las Animas : COUNTY
 CTRY.                                  USA : COUNTRY
 API.                       05-071-08143-00 : API NUMBER
 STRT.FT                              35.00 : START DEPTH
 STOP.FT                            2732.00 : STOP DEPTH
 STEP.FT                               1.00 : DEPTH INCREMENT
 NULL.                                -9999 : NULL VALUE
~Curve information
 DEPTH.FT                                   :
 ROP.MIN/FT                                 :
 GAS.UNITS                                  :
~ASCII Log data
# ...
      1035.0         0.13         12.9 
      1036.0         0.17         13.5 
      1037.0         0.27         13.7 
      1038.0         0.20         14.2 
      1039.0         0.17         14.2 
      1040.0         0.10         14.7 
      1041.0         0.20         15.3 
      1042.0         0.17         17.1 
      1043.0         0.18         16.8 
      1044.0         0.27         16.8 
      1045.0         0.27         16.4 
      1046.0         0.23         14.9 
      1047.0         0.30         14.9 
      1048.0         0.23         13.8 
      1049.0         0.47         14.4 
      1050.0         0.38         14.2 
      1051.0         0.27         12.6 
      1052.0         0.30         12.2 
      1053.0         0.30         12.6 
      1054.0         0.30         13.4 
      1055.0         0.23         13.4 
      1056.0         0.17         14.3 
      1057.0         0.20         13.9 
      1058.0         0.20         14.1 
      1059.0         0.13         13.9 
      1060.0         0.13         13.9 
      1061.0         0.23         13.9 
      1062.0         0.20         14.2 
      1063.0         0.23         13.5 
      1064.0         0.22         13.5 
      1065.0         0.13         13.9 
      1066.0         0.17         13.3 
      1067.0         0.20         13.0 
      1068.0         0.17         14.1 
      1069.0         0.13         14.1 
      1070.0         0.10         16.1 
      1071.0         0.13         16.1 
      1072.0         0.10         16.0 
      1073.0         0.10         16.0 
      1074.0         0.23         16.7 
      1075.0         0.17         15.4 
      1076.0         0.42         16.4 
      1077.0         0.40         14.9 
      1078.0         0.30         14.3 
      1079.0         0.27         15.1 
      1080.0         0.27         14.1 
      1081.0         0.23         13.8 
      1082.0         0.23         13.5 
      1083.0         0.30         12.7 
      1084.0         0.30         12.5 
      1085.0         0.30         12.7 
      1086.0         0.33         12.8 
      1087.0         0.32         12.8 
      1088.0         0.17         12.8 
      1089.0         0.17         13.9 
      1090.0         0.17         13.4 
      1091.0         0.17         13.4 
      1092.0         0.27         13.3 
      1093.0         0.17         14.0 
      1094.0         0.23         14.0 
      1095.0         0.27         14.6 
      1096.0         0.13         13.1 
      1097.0         0.17         13.7 
      1098.0         0.10         13.7 
      1099.0         0.13         14.3 
      1100.0         0.17         14.3 
      1101.0         0.17         16.5 
      1102.0         0.20         17.0 
      1103.0         0.20         18.2 
      1104.0         0.28         19.5 
      1105.0         0.27         20.3 
      1106.0         0.27         19.3 
      1107.0         0.10         19.3 
      1108.0         0.37         18.5 
      1109.0         0.33         16.1 
      1110.0         0.30         14.9 
      1111.0         0.28         14.3 
      1112.0         0.30         13.2 
      1113.0         0.27         12.1 
      1114.0         0.33         12.8 
      1115.0         0.27         13.0 
      1116.0         0.27         13.0 
      1117.0         0.30         13.7 
      1118.0         0.23         12.3 
      1119.0         0.23         12.3 
      1120.0         0.27         12.4 
      1121.0         0.23         12.6 
      1122.0         0.23         13.1 
      1123.0         0.27         13.2 
      1124.0         0.25         13.0 
      1125.0         0.23         16.5 
      1126.0         0.23         12.8 
      1127.0         0.23         13.0 
      1128.0         0.23         13.4 
      1129.0         0.23         13.4 
      1130.0         0.23         12.6 
      1131.0         0.23         12.8 
      1132.0         0.23         20.3 
      1133.0         0.27         69.3 
      1134.0         0.20        174.6 
      1135.0         0.23        167.6 
      1136.0         0.33        122.7 
      1137.0         0.25         76.8 
      1138.0         0.23         45.6 
      1139.0         0.23         28.3 
      1140.0         0.23         21.8 
      1141.0         0.20         16.1 
      1142.0         0.13         13.9 
      1143.0         0.10         12.8 
      1144.0         0.23         11.3 
      1145.0         0.33         10.6 
      1146.0         0.27         10.4 
      1147.0         0.20          9.4 
      1148.0         0.20          9.3 
      1149.0         0.20          9.5 
      1150.0         0.20          9.9 
      1151.0         0.23          9.7 
      1152.0         0.17          9.7 
      1153.0         0.18         11.7 
      1154.0         0.23         11.8 
      1155.0         0.23         11.8 
      1156.0         0.27         12.1 
      1157.0         0.23         19.7 
      1158.0         0.23         33.3 
      1159.0         0.23         36.9 
      1160.0         0.17         45.1 
      1161.0         0.23         47.5 
      1162.0         0.17         45.9 
      1163.0         0.20         45.5 
      1164.0         0.23         35.2 
      1165.0         0.13         25.0 
      1166.0         0.13         21.4 
      1167.0         0.17         18.6 
      1168.0         0.33         16.1 
      1169.0         0.37         14.3 
      1170.0         0.30         13.4 
      1171.0         0.30         12.1 
      1172.0         0.30         12.6 
      1173.0         0.33         12.6 
      1174.0         0.32         12.8 
      1175.0         0.27         12.4 
      1176.0         0.23         11.4 
      1177.0         0.27         11.6 
      1178.0         0.23         12.1 
      1179.0         0.20         12.0 
      1180.0         0.20         12.4 
      1181.0         0.27         13.4 
      1182.0         0.33         12.8 
      1183.0         0.27         12.3 
      1184.0         0.23         12.4 
      1185.0         0.30         13.3 
      1186.0         0.27         13.3 
      1187.0         0.23         12.2 
      1188.0         0.28         11.8 
      1189.0         0.20         12.7 
      1190.0         0.13         13.1 
      1191.0         0.20         14.5 
      1192.0         0.23         20.8 
      1193.0         0.20         33.5 
      1194.0         0.13         33.5 
      1195.0         0.23         41.7 
      1196.0         0.27         42.1 
      1197.0         0.38         37.6 
      1198.0         0.20         27.1 
      1199.0         0.17         20.4 
      1200.0         0.40         16.1 
      1201.0         0.47         15.3 
      1202.0         0.33         13.7 
      1203.0         0.27         12.9 
      1204.0         0.33         12.7 
      1205.0         0.30         13.4 
      1206.0         0.27         12.9 
      1207.0         0.27         12.8 
      1208.0         0.28         13.1 
      1209.0         0.23         13.3 
      1210.0         0.33         13.5 
      1211.0         0.43         13.3 
      1212.0         0.37         13.4 
      1213.0         0.27         13.5 
      1214.0         0.20         13.5 
      1215.0         0.20         14.0 
      1216.0         0.23         13.9 
      1217.0         0.30         51.9 
      1218.0         0.27         51.9 
      1219.0         0.30         51.4 
      1220.0         0.35         37.7 
      1221.0         0.33         22.7 
      1222.0         0.30         17.0 
      1223.0         0.17         15.2 
      1224.0         0.27         13.7 
      1225.0         0.27         13.9 
      1226.0         0.27         12.6 
      1227.0         0.27         13.7 
      1228.0         0.30         14.4 
      1229.0         0.33         13.8 
      1230.0         0.35         13.3 
      1231.0         0.27         13.5 
      1232.0         0.33         13.3 
      1233.0         0.27         13.7 
      1234.0         0.17         14.0 
