~Version Information
VERS.                      2.0: CWLS Log ASCII Standard - VERSION 2.0
WRAP.                       NO: One line per depth step
~Well Information Block
STRT.FT               563.6000: 
STOP.FT              2133.0000: 
STEP.FT                 0.1000: 
NULL.                -999.2500: 
COMP.          Petrogulf Corporation: COMPANY
WELL.             State 16-43V: WELL
FLD.           Purgatorie River: FIELD
LOC.           2437' FSL & 734' FEL: LOCATION
CNTY.               Las Animas: COUNTY
SRVC.                         : SERVICE COMPANY
DATE.          Mon Dec 06 06:01:26 2004: LOG DATE
UWI.           05 071 08015 00: UNIQUE WELL ID
STAT.                 Colorado: STATE
~Curve Information Block
DEPT.FT            0 000 00 00: Depth
DCAL.in                       : CDL Caliper
RHOB.g/cc                     : CDL Bulk Density
RHOC.g/cc                     : CDL Density Correction
DPOR.pu                       : CDL Density Porosity
GR.GAPI                       : Gamma Ray
NPOR.pu                       : Neutron Porosity
~Parameter Information Block
~A  Depth       DCAL        RHOB        RHOC        DPOR         GR         NPOR    
# ...
   688.4000      8.0552      2.5971      0.0461      3.2048    127.4541     28.4823
   688.5000      8.0437      2.5857      0.0040      3.8986    126.0144     28.6009
   688.6000      8.0437      2.5769     -0.0153      4.4275    127.6076     28.7754
   688.7000      8.0437      2.5817      0.0378      4.1391    130.1641     29.4172
   688.8000      8.0413      2.5977     -0.0112      3.1685    130.6791     30.0742
   688.9000      8.0413      2.6163      0.0622      2.0438    128.9204     30.4710
   689.0000      8.0681      2.6175      0.0516      1.9715    127.3963     30.6848
   689.1000      8.0681      2.6024      0.0376      2.8877    132.3970     30.5039
   689.2000      8.0681      2.6008      0.0344      2.9829    143.0490     30.1051
   689.3000      8.0382      2.6268      0.0159      1.4039    146.1649     30.0839
   689.4000      8.0382      2.6571      0.0657     -0.4294    138.7887     30.2201
   689.5000      8.0446      2.6674      0.0223     -1.0528    134.2186     29.8722
   689.6000      8.0446      2.6617      0.0301     -0.7072    135.8362     29.1892
   689.7000      8.0446      2.6396      0.0476      0.6302    137.3505     28.9625
   689.8000      8.0421      2.5971      0.0364      3.2068    136.2318     29.3347
   689.9000      8.0421      2.5526     -0.0144      5.9032    132.0403     29.6103
   690.0000      8.0057      2.5262     -0.0272      7.5053    127.2230     29.2890
   690.1000      8.0057      2.5250     -0.0330      7.5765    123.7318     28.7395
   690.2000      8.0057      2.5540     -0.0281      5.8200    119.8176     28.4224
   690.3000      8.0012      2.6001      0.0510      3.0259    116.2384     28.1294
   690.4000      8.0012      2.6329      0.0512      1.0351    115.2037     27.8483
   690.5000      7.9936      2.6479      0.0726      0.1297    115.3422     27.9794
   690.6000      7.9936      2.6647      0.1020     -0.8882    114.5843     28.4313
   690.7000      7.9936      2.6956      0.0978     -2.7641    114.1312     28.8404
   690.8000      7.9666      2.7423      0.1118     -5.5915    116.5716     29.1527
   690.9000      7.9666      2.7926      0.1484     -8.6433    117.9133     29.3632
   691.0000      7.9703      2.8304      0.1258    -10.9338    110.7937     29.5604
   691.1000      7.9703      2.8541      0.1743    -12.3689     97.7841     29.8581
   691.2000      7.9703      2.8636      0.1671    -12.9426     89.3847     30.1827
   691.3000      7.9482      2.8573      0.1061    -12.5647     89.8769     30.5949
   691.4000      7.9482      2.8400      0.1053    -11.5176     93.9280     30.8736
   691.5000      7.9642      2.8072      0.0648     -9.5267     95.3344     30.4939
   691.6000      7.9642      2.7657     -0.0450     -7.0099     93.0261     29.6394
   691.7000      7.9642      2.7362     -0.0612     -5.2222     88.8514     28.9574
   691.8000      7.9534      2.7077     -0.0231     -3.4988     84.8923     28.5102
   691.9000      7.9534      2.6695     -0.1103     -1.1833     82.4100     27.9013
   692.0000      7.9479      2.6411     -0.0488      0.5387     82.3767     27.1030
   692.1000      7.9479      2.6199      0.0056      1.8239     84.9870     26.6265
   692.2000      7.9479      2.5956     -0.0354      3.2987     86.5655     26.7513
   692.3000      8.0123      2.5834     -0.0249      4.0388     84.5644     26.9486
   692.4000      8.0123      2.5890      0.0266      3.6959     82.7737     26.5995
   692.5000      8.0540      2.6011      0.0199      2.9622     82.9431     25.8668
   692.6000      8.0540      2.6114      0.0233      2.3413     82.3509     25.2125
   692.7000      8.0540      2.6234      0.0363      1.6132     81.9145     24.7971
   692.8000      8.0251      2.6485      0.0859      0.0884     83.7767     24.4620
   692.9000      8.0251      2.6872      0.1206     -2.2574     85.4380     24.3042
   693.0000      8.0418      2.7252      0.1434     -4.5600     85.8926     24.6823
   693.1000      8.0418      2.7469      0.1865     -5.8711     87.3407     25.4895
   693.2000      8.0418      2.7533      0.1959     -6.2636     90.9346     26.2160
   693.3000      7.9851      2.7640      0.1933     -6.9117     96.3304     26.6499
   693.4000      7.9851      2.7883      0.2012     -8.3835     97.9805     26.9528
   693.5000      7.9735      2.8137      0.1678     -9.9197     93.8629     27.2579
   693.6000      7.9735      2.8233      0.1671    -10.5055     91.6258     27.6733
   693.7000      7.9735      2.8106      0.1068     -9.7352     93.0500     28.1480
   693.8000      7.9900      2.7839      0.1033     -8.1166     93.6827     28.3999
   693.9000      7.9900      2.7606      0.0539     -6.7033     92.2305     28.4748
   694.0000      7.9490      2.7567      0.0460     -6.4653     91.2385     28.6493
   694.1000      7.9490      2.7679      0.0557     -7.1445     92.4932     29.0307
   694.2000      7.9490      2.7719      0.0813     -7.3882     93.6647     29.4963
   694.3000      7.9790      2.7678      0.0311     -7.1370     92.8809     29.7973
   694.4000      7.9790      2.7743      0.0396     -7.5313     90.0543     29.5796
   694.5000      7.9874      2.7907      0.0381     -8.5281     85.1628     28.6784
   694.6000      7.9874      2.7945      0.1062     -8.7550     82.1717     27.3478
   694.7000      7.9874      2.7744      0.0465     -7.5407     84.6940     26.1829
   694.8000      7.9824      2.7525      0.0374     -6.2114     87.7353     25.7689
   694.9000      7.9824      2.7378      0.0477     -5.3191     87.9687     25.7552
   695.0000      7.9349      2.7178     -0.0164     -4.1076     88.0309     25.5289
   695.1000      7.9349      2.6969      0.0380     -2.8418     88.4091     25.2113
   695.2000      7.9349      2.6740      0.0039     -1.4520     88.2215     25.2376
   695.3000      7.9506      2.6449     -0.0409      0.3088     86.0325     25.5672
   695.4000      7.9506      2.6216     -0.0094      1.7216     82.8746     25.6505
   695.5000      7.9325      2.6033     -0.0108      2.8317     83.4023     25.2763
   695.6000      7.9325      2.5812     -0.0406      4.1706     87.1125     24.7790
   695.7000      7.9325      2.5622     -0.0482      5.3189     90.0792     24.5559
   695.8000      7.9369      2.5560     -0.0329      5.6989     91.8853     24.7882
   695.9000      7.9369      2.5626     -0.0108      5.2995     92.4576     25.3607
   696.0000      7.9524      2.5792     -0.0100      4.2908     92.1881     25.9181
   696.1000      7.9524      2.5997      0.0004      3.0497     94.4446     26.2769
   696.2000      7.9524      2.6185     -0.0036      1.9098    100.9715     26.6907
   696.3000      7.9509      2.6351      0.0524      0.9012    107.7861     27.1852
   696.4000      7.9509      2.6399      0.0765      0.6130    110.1636     27.3871
   696.5000      7.9612      2.6288     -0.0082      1.2821    109.0565     27.2068
   696.6000      7.9612      2.6183     -0.0089      1.9229    107.8333     26.9797
   696.7000      7.9612      2.6147     -0.0128      2.1366    106.9064     26.8418
   696.8000      7.9761      2.6070      0.0714      2.6049    105.0471     26.7143
   696.9000      7.9761      2.5940     -0.0134      3.3951    102.0706     26.7002
   697.0000      7.9570      2.5892     -0.0106      3.6859    100.8325     27.0655
   697.1000      7.9570      2.5957      0.0024      3.2899    103.5236     27.7403
   697.2000      7.9570      2.6016      0.0510      2.9344    106.1992     28.1416
   697.3000      7.9676      2.5970      0.0156      3.2120    105.8783     28.0409
   697.4000      7.9676      2.5956      0.0026      3.2965    107.1292     27.8895
   697.5000      7.9754      2.6073      0.0253      2.5871    110.8881     28.0141
   697.6000      7.9754      2.6099      0.0588      2.4322    111.5647     28.4291
   697.7000      7.9754      2.5941     -0.0507      3.3893    108.9072     28.9506
   697.8000      7.9871      2.5830      0.0047      4.0592    108.3347     29.3272
   697.9000      7.9871      2.5930      0.0130      3.4571    111.7476     29.5471
