~Version Information
VERS.                      2.0: CWLS Log ASCII Standard - VERSION 2.0
WRAP.                       NO: One line per depth step
~Well Information Block
STRT.FT               875.6000: 
STOP.FT              2510.0000: 
STEP.FT                 0.1000: 
NULL.                -999.2500: 
COMP.          Petrogulf Corporation: COMPANY
WELL.          Collister 17-31 V: WELL
FLD.           Purgatoire River: FIELD
LOC.           910' FNL & 1594' FEL: LOCATION
PROV.                 Colorado: PROVINCE
CNTY.               Las Animas: COUNTRY
SRVC.                Patterson: SERVICE COMPANY
DATE.          Fri Dec 12 13:49:30 2003: LOG DATE
UWI.                          : UNIQUE WELL ID
~Curve Information Block
DEPT.FT            0 000 00 00: Depth
DCAL.in                       : CDL Caliper
DPOR.pu                       : CDL Density Porosity
NPOR.pu                       : Neutron Porosity
RHOB.g/cc                     : CDL Bulk Density
RHOC.g/cc                     : CDL Density Correction
GR.GAPI                       : Gamma Ray
~Parameter Information Block
~A  Depth       DCAL        DPOR        NPOR        RHOB        RHOC         GR     
# ...
  2066.0000      8.3689      9.3234     23.2567      2.4962      0.3642    116.1270
  2066.1000      8.3689     12.6440     23.6987      2.4414      0.2020    114.1989
  2066.2000      8.3689     13.7726     23.5922      2.4228      0.1406    112.8557
  2066.3000      8.4430     12.7323     22.9782      2.4399      0.1587    113.8324
  2066.4000      8.4430     10.2067     22.3726      2.4816      0.1444    120.4145
  2066.5000      8.3326      7.2738     21.7705      2.5300      0.2197    126.2961
  2066.6000      8.3326      6.2356     21.2037      2.5471      0.2448    124.1765
  2066.7000      8.3326      8.1069     20.6489      2.5162      0.2141    119.7845
  2066.8000      8.3008     11.1321     20.0280      2.4663      0.1843    121.7045
  2066.9000      8.3008     13.0029     19.2253      2.4355      0.1254    127.0496
  2067.0000      8.2618     13.1101     17.9924      2.4337      0.1628    126.8123
  2067.1000      8.2618     13.0846     16.7115      2.4341      0.2169    121.1463
  2067.2000      8.2618     13.5082     16.0792      2.4271     -0.0011    117.8235
  2067.3000      8.2568     12.6626     16.0554      2.4411      0.1214    117.5343
  2067.4000      8.2568     10.8002     16.0099      2.4718      0.1851    114.1573
  2067.5000      8.2120      9.6640     15.7509      2.4905      0.1738    107.7711
  2067.6000      8.2120      9.3008     15.9194      2.4965      0.1682    107.1708
  2067.7000      8.2120      8.8975     17.3345      2.5032      0.2077    112.9124
  2067.8000      8.2398      8.8909     19.8716      2.5033      0.2541    116.0847
  2067.9000      8.2398     11.1232     22.5078      2.4665      0.2676    114.2475
  2068.0000      8.2283     15.9594     24.5278      2.3867      0.1411    112.5007
  2068.1000      8.2283     20.6024     25.5987      2.3101      0.1161    112.8200
  2068.2000      8.2283     22.4576     25.5145      2.2794      0.1210    115.5355
  2068.3000      8.2224     22.0232     24.4766      2.2866      0.1244    116.9536
  2068.4000      8.2224     20.9675     23.1815      2.3040      0.1098    110.0196
  2068.5000      8.2759     19.1202     22.4164      2.3345      0.1099     99.9591
  2068.6000      8.2759     15.2030     22.1997      2.3992      0.1526     96.2376
  2068.7000      8.2759      9.9834     21.8578      2.4853      0.2849     96.6926
  2068.8000      8.2364      6.2025     21.0900      2.5477      0.3158     93.7276
  2068.9000      8.2364      4.7940     20.0253      2.5709      0.2070     86.5812
  2069.0000      8.2238      4.6293     18.9912      2.5736      0.2269     80.9750
  2069.1000      8.2238      5.0948     18.4385      2.5659      0.1853     77.9233
  2069.2000      8.2238      5.6675     18.1195      2.5565      0.0734     72.9414
  2069.3000      8.0299      5.7428     17.5897      2.5552      0.0146     65.1701
  2069.4000      8.0299      5.4978     17.3088      2.5593      0.0551     60.0431
  2069.5000      8.0141      5.5987     17.4396      2.5576      0.0902     60.2112
  2069.6000      8.0141      6.1468     17.2826      2.5486      0.0540     61.1761
  2069.7000      8.0141      6.4145     16.6682      2.5442      0.0707     61.4465
  2069.8000      8.0601      6.0844     16.1042      2.5496      0.1751     62.2797
  2069.9000      8.0601      5.4197     15.7547      2.5606      0.1958     62.3230
  2070.0000      8.0769      4.6192     15.4656      2.5738      0.2345     61.3191
  2070.1000      8.0769      3.9301     15.4058      2.5852      0.2044     60.2308
  2070.2000      8.0769      3.4212     15.8641      2.5936      0.1784     58.3353
  2070.3000      7.9740      2.8808     16.7488      2.6025      0.1371     57.2856
  2070.4000      7.9740      2.0552     17.5180      2.6161      0.2083     57.9621
  2070.5000      7.9546      0.9547     17.7899      2.6342      0.1927     56.5169
  2070.6000      7.9546      0.0645     17.8238      2.6489      0.2378     53.6111
  2070.7000      7.9546      0.0605     17.8904      2.6490      0.2166     53.5478
  2070.8000      7.9998      0.8728     17.7719      2.6356      0.1665     56.1252
  2070.9000      7.9998      2.3120     17.4240      2.6119      0.1393     57.1221
  2071.0000      8.0187      4.1075     17.2140      2.5822      0.0358     56.0631
  2071.1000      8.0187      4.8654     17.4322      2.5697      0.0426     57.7336
  2071.2000      8.0187      3.7388     17.8516      2.5883      0.0452     64.7382
  2071.3000      8.0464      2.4826     17.7089      2.6090      0.1263     76.5352
  2071.4000      8.0464      3.4059     16.9403      2.5938      0.1205     91.4461
  2071.5000      8.0675      6.0148     16.6442      2.5508      0.0123    102.9930
  2071.6000      8.0675      8.1303     17.3209      2.5158      0.0155    105.5024
  2071.7000      8.0675      8.4107     17.8347      2.5112     -0.0117    101.9278
  2071.8000      8.0599      7.1159     17.5580      2.5326      0.0470     96.0374
  2071.9000      8.0599      6.1132     17.2580      2.5491      0.0958     90.1837
  2072.0000      8.1027      6.9556     17.1725      2.5352      0.0203     87.6991
  2072.1000      8.1027      9.2862     16.8052      2.4968      0.0148     90.0550
  2072.2000      8.1027     11.5369     16.2312      2.4596     -0.0261     95.5380
  2072.3000      8.1515     12.1183     15.9204      2.4500     -0.0678     98.1776
  2072.4000      8.1515     11.4761     15.8438      2.4606      0.0279     93.5232
  2072.5000      8.1668     11.4078     15.7435      2.4618     -0.0060     84.5795
  2072.6000      8.1668     11.8367     15.7307      2.4547     -0.0245     74.3948
  2072.7000      8.1668     11.9398     15.8377      2.4530      0.0675     67.1606
  2072.8000      8.1562     11.9180     15.8604      2.4534      0.0071     67.1442
  2072.9000      8.1562     11.4447     15.5635      2.4612      0.0197     68.1743
  2073.0000      8.1625     10.7011     14.8895      2.4734      0.0929     65.4139
  2073.1000      8.1625     10.6576     14.5000      2.4741      0.1230     65.5578
  2073.2000      8.1625     10.5715     14.6783      2.4756      0.0676     72.9741
  2073.3000      8.1661      9.2659     14.7642      2.4971      0.1235     81.6497
  2073.4000      8.1661      7.5489     14.4282      2.5254      0.1863     82.6804
  2073.5000      8.1223      6.5228     13.7098      2.5424      0.2202     76.4777
  2073.6000      8.1223      6.3107     12.6778      2.5459      0.1856     72.3591
  2073.7000      8.1223      7.0038     12.0199      2.5344      0.2523     74.1329
  2073.8000      8.0652      8.6568     12.5085      2.5072      0.1604     78.4059
  2073.9000      8.0652     10.7536     13.8731      2.4726      0.1857     82.1234
  2074.0000      8.0259     13.1250     14.9740      2.4334      0.1839     84.0984
  2074.1000      8.0259     15.8055     15.5017      2.3892      0.1431     83.7155
  2074.2000      8.0259     18.0751     16.1855      2.3518      0.1024     79.4024
  2074.3000      8.0475     19.2746     17.1079      2.3320      0.1086     75.6283
  2074.4000      8.0475     19.8317     17.6799      2.3228      0.1058     78.1184
  2074.5000      8.1373     20.5564     17.6661      2.3108      0.1241     83.6441
  2074.6000      8.1373     21.5219     16.9516      2.2949      0.1183     86.2672
  2074.7000      8.1373     22.1497     15.5966      2.2845      0.0924     84.2795
  2074.8000      8.1718     22.0486     14.0990      2.2862      0.1238     81.6158
  2074.9000      8.1718     21.1245     12.9623      2.3014      0.1167     80.3605
  2075.0000      8.1779     19.4174     12.4283      2.3296      0.1432     78.0494
  2075.1000      8.1779     17.6770     12.3168      2.3583      0.2443     74.7937
  2075.2000      8.1779     17.1267     11.9192      2.3674      0.2884     72.3268
  2075.3000      8.1859     18.1120     10.9358      2.3512      0.2171     72.0974
  2075.4000      8.1859     20.5072     10.1897      2.3116      0.2045     73.7792
  2075.5000      8.2222     24.8642     10.2724      2.2397      0.2446     76.8045
