~Version Information
VERS.                      2.0: CWLS Log ASCII Standard - VERSION 2.0
WRAP.                       NO: One line per depth step
~Well Information Block
STRT.FT                -7.0000: 
STOP.FT              2389.2500: 
STEP.FT                 0.2500: 
NULL.                -999.2500: 
COMP.          Pioneer Natural Resources: COMPANY
WELL.            Victory 12-14: WELL
FLD.           Purgatorie River: FIELD
LOC.           2434' FNL & 188' FWL------: LOCATION
PROV.                       CO: PROVINCE
CNTY.               Las Animas: COUNTRY
SRVC.          Patterson Wireline: SERVICE COMPANY
DATE.          Fri Apr 22 14:29:17 2005: LOG DATE
UWI.           05 071 08332 00: UNIQUE WELL ID
~Curve Information Block
DEPT.FT            0 000 00 00: Depth
CCL.                          : Casing Collar Locator
TT3.usec                      : CBL 3' Travel Time
AMP3.mV                       : CBL 3' Amplitude
GR.GAPI                       : Gamma Ray
~Parameter Information Block
~A  Depth       CCL         TT3         AMP3         GR     
# ...
  1433.5000      0.0000    744.4006      5.3149    111.1158
  1433.7500      0.0000    740.3111      5.4368    112.8872
  1434.0000      0.0000    740.8330      5.4472    115.7893
  1434.2500      0.0000    745.6674      5.4221    120.1168
  1434.5000      0.0000    749.3436      5.4389    126.0138
  1434.7500      0.0000    745.1261      5.5078    132.7063
  1435.0000      0.0000    731.5715      5.5871    138.6908
  1435.2500      0.0000    713.9651      5.6537    142.7315
  1435.5000      0.0000    699.0272      5.7246    144.8424
  1435.7500      0.0000    689.6320      5.8152    146.3318
  1436.0000      0.0000    684.4880      5.9037    148.7997
  1436.2500      0.0000    680.8608      5.9406    152.6795
  1436.5000      0.0000    676.6711      5.8792    156.3173
  1436.7500      0.0000    671.0112      5.6989    156.7439
  1437.0000      0.0000    664.0032      5.4077    152.0967
  1437.2500      0.0000    657.0856      5.0445    143.6248
  1437.5000      0.0000    653.6813      4.6857    135.0313
  1437.7500      0.0000    658.2252      4.4266    129.4752
  1438.0000      0.0000    672.3658      4.3181    127.1689
  1438.2500      0.0000    692.0466      4.3255    125.8442
  1438.5000      0.0000    710.2766      4.3656    123.2443
  1438.7500      0.0000    723.5812      4.3753    118.8410
  1439.0000      0.0000    734.7996      4.3356    113.4563
  1439.2500      0.0000    749.2676      4.2605    108.1309
  1439.5000      0.0000    768.9146      4.1907    103.7026
  1439.7500      0.0000    790.3405      4.1821    100.8306
  1440.0000      0.0000    808.3189      4.2685     99.7893
  1440.2500      0.0000    820.5199      4.4329    100.2310
  1440.5000      0.0000    828.2741      4.6218    101.2302
  1440.7500      0.0000    833.5862      4.7804    101.5060
  1441.0000      0.0000    836.8989      4.8759    100.0799
  1441.2500      0.0000    837.5115      4.9109     97.2548
  1441.5000      0.0000    834.0988      4.9192     94.5160
  1441.7500      0.0000    823.7364      4.9397     92.9398
  1442.0000      0.0000    801.9648      4.9928     92.1912
  1442.2500      0.0000    766.2761      5.0795     91.2728
  1442.5000      0.0000    720.3656      5.1807     89.4969
  1442.7500      0.0000    673.7278      5.2466     86.7456
  1443.0000      0.0000    636.1270      5.2095     83.7126
  1443.2500      0.0000    612.6969      5.0338     81.8814
  1443.5000      0.0000    603.7000      4.7527     82.4445
  1443.7500      0.0000    606.6331      4.4536     85.0212
  1444.0000      0.0000    617.7701      4.2381     87.7006
  1444.2500      0.0000    633.5585      4.1843     88.5540
  1444.5000      0.0000    652.0906      4.3033     87.1791
  1444.7500      0.0000    673.3986      4.5277     84.7054
  1445.0000      0.0000    698.6504      4.7652     82.4224
  1445.2500      0.0000    728.6056      4.9751     80.8526
  1445.5000      0.0000    761.4470      5.1847     80.0914
  1445.7500      0.0000    792.3250      5.4401     80.1676
  1446.0000      0.0000    816.1199      5.7466     80.7159
  1446.2500      0.0000    830.5303      6.0585     80.9612
  1446.5000      0.0000    836.5029      6.3230     80.4124
  1446.7500      0.0000    836.6974      6.5296     79.1852
  1447.0000      0.0000    833.9883      6.7119     77.5475
  1447.2500      0.0000    830.6044      6.9155     75.6779
  1447.5000      0.0000    827.5883      7.1763     73.9865
  1447.7500      0.0000    824.0955      7.5280     73.1496
  1448.0000      0.0000    816.9641      8.0086     73.6103
  1448.2500      0.0000    801.9933      8.6439     75.2374
  1448.5000      0.0000    777.5620      9.4128     77.4156
  1448.7500      0.0000    748.1216     10.2359     79.2791
  1449.0000      0.0000    723.5087     11.0137     79.9340
  1449.2500      0.0000    712.9951     11.6792     78.8726
  1449.5000      0.0000    718.6255     12.2082     76.6319
  1449.7500      0.0000    734.1595     12.5850     74.9110
  1450.0000      0.0000    750.1946     12.7719     75.3091
  1450.2500      0.0000    760.5494     12.7258     77.7623
  1450.5000      0.0000    765.4935     12.4442     80.6615
  1450.7500      0.0000    770.3012     11.9869     82.4829
  1451.0000      0.0000    779.8469     11.4400     82.9631
  1451.2500      0.0000    793.2042     10.8601     82.8874
  1451.5000      0.0000    803.4564     10.2532     83.1544
  1451.7500      0.0000    803.2120      9.5954     84.3517
  1452.0000      0.0000    790.3470      8.8631     87.2935
  1452.2500      0.0000    769.1015      8.0597     93.3795
  1452.5000      0.0000    747.3605      7.2441    103.4061
  1452.7500      0.0000    733.3189      6.5323    115.8252
  1453.0000      0.0000    732.4972      6.0270    126.9150
  1453.2500      0.0000    744.8825      5.7270    133.2535
  1453.5000      0.0000    764.3245      5.5397    133.9684
  1453.7500      0.0000    782.5783      5.3925    130.5365
  1454.0000      0.0000    794.9697      5.2934    124.7919
  1454.2500     -2.0000    801.9825      5.2766    117.5580
  1454.5000     -2.0000    805.5978      5.3324    109.0845
  1454.7500      2.0000    804.7624      5.4152    100.0843
  1455.0000      0.0000    794.3517      5.5132     91.9051
  1455.2500      0.0000    769.4195      5.6815     85.9416
  1455.5000      0.0000    732.5228      5.9770     83.0149
  1455.7500      0.0000    697.1018      6.3586     82.9114
  1456.0000      0.0000    680.3356      6.6916     84.4937
  1456.2500      0.0000    689.8432      6.8733     86.6792
  1456.5000      0.0000    718.2581      6.9269     89.2561
  1456.7500      0.0000    751.1934      6.9504     92.6360
  1457.0000      0.0000    778.0095      7.0025     97.3111
  1457.2500      0.0000    795.0731      7.0613    103.7834
  1457.5000      0.0000    803.3221      7.0666    112.2159
  1457.7500      0.0000    805.5966      6.9712    121.6352
  1458.0000      0.0000    804.8859      6.7655    129.9698
  1458.2500      0.0000    803.0967      6.4852    135.2772
  1458.5000      0.0000    800.7723      6.2007    136.7275
  1458.7500      0.0000    797.8217      5.9755    134.4914
  1459.0000      0.0000    794.3968      5.8235    129.3905
  1459.2500      0.0000    791.4009      5.7148    122.8814
  1459.5000      0.0000    790.1936      5.6290    116.8434
  1459.7500      0.0000    791.6423      5.5858    112.9696
  1460.0000      0.0000    795.4081      5.6173    112.1945
  1460.2500      0.0000    800.1317      5.7229    114.1452
  1460.5000      0.0000    804.0612      5.8570    116.8968
  1460.7500      0.0000    805.6563      5.9625    117.9169
  1461.0000      0.0000    803.9899      6.0195    115.9815
  1461.2500      0.0000    798.5052      6.0597    112.1851
  1461.5000      0.0000    788.4728      6.1201    108.9646
  1461.7500      0.0000    773.8037      6.1821    108.2873
  1462.0000      0.0000    757.0670      6.1729    110.5968
  1462.2500      0.0000    743.8478      6.0385    115.0336
  1462.5000      0.0000    740.0252      5.8042    120.2498
  1462.7500      0.0000    748.0750      5.5571    124.9132
  1463.0000      0.0000    764.7304      5.3822    127.8009
  1463.2500      0.0000    781.4694      5.3177    128.2063
  1463.5000      0.0000    789.0767      5.3449    126.7281
  1463.7500      0.0000    784.5097      5.4061    125.2810
  1464.0000      0.0000    773.9760      5.4471    125.8149
  1464.2500      0.0000    768.1144      5.4625    129.0580
  1464.5000      0.0000    773.1710      5.4916    134.4311
  1464.7500      0.0000    786.5441      5.5614    140.6523
  1465.0000      0.0000    800.2611      5.6434    146.3696
  1465.2500      0.0000    807.9164      5.6818    150.6740
  1465.5000      0.0000    808.4347      5.6559    153.1586
  1465.7500      0.0000    804.7935      5.5966    153.5331
  1466.0000      0.0000    800.6379      5.5426    151.6742
  1466.2500      0.0000    798.0082      5.4932    148.2126
  1466.5000      0.0000    797.0809      5.4162    144.2715
  1466.7500      0.0000    796.8572      5.3003    140.2289
