~Version Information
VERS.                      2.0: CWLS Log ASCII Standard - VERSION 2.0
WRAP.                       NO: One line per depth step
~Well Information Block
STRT.FT               360.0000: 
STOP.FT              2515.2000: 
STEP.FT                 0.1000: 
NULL.                -999.2500: 
COMP.          Pioneer Natural Resources: COMPANY
WELL.            Rancher 12-35: WELL
FLD.           Purgatoire River: FIELD
LOC.           2131' FNL & 297' FWL: LOCATION
PROV.                 Colorado: PROVINCE
CNTY.               Las Animas: COUNTRY
SRVC.                Patterson: SERVICE COMPANY
DATE.          Tue Oct 12 09:11:02 2004: LOG DATE
UWI.           05 071 08179 00: UNIQUE WELL ID
~Curve Information Block
DEPT.FT            0 000 00 00: Depth
DCAL.in                       : CDL Caliper
RHOB.g/cc                     : CDL Bulk Density
RHOC.g/cc                     : CDL Density Correction
DPOR.pu                       : CDL Density Porosity
NPOR.pu                       : Neutron Porosity
GR.GAPI                       : Gamma Ray
~Parameter Information Block
~A  Depth       DCAL        RHOB        RHOC        DPOR        NPOR         GR     
# ...
   926.4000      8.2985      2.4989      0.0219      9.1586     26.3330    130.6187
   926.5000      8.2999      2.4972      0.0261      9.2606     26.4203    131.8969
   926.6000      8.2999      2.5120     -0.0047      8.3649     26.0809    138.0482
   926.7000      8.2999      2.5453      0.0528      6.3434     26.0349    143.4697
   926.8000      8.3000      2.5689      0.1306      4.9130     26.6124    141.2264
   926.9000      8.3000      2.5614      0.0621      5.3708     27.4909    135.6485
   927.0000      8.2973      2.5412      0.0412      6.5967     28.0366    131.0275
   927.1000      8.2973      2.5363      0.0241      6.8929     28.0292    126.1662
   927.2000      8.2973      2.5564      0.0382      5.6754     27.7980    121.2131
   927.3000      8.2954      2.5845      0.1592      3.9718     27.4863    119.1879
   927.4000      8.2954      2.5953      0.0813      3.3165     27.2595    118.9919
   927.5000      8.2972      2.5936      0.0544      3.4208     27.4218    115.9425
   927.6000      8.2972      2.5969      0.0717      3.2159     27.8657    111.1458
   927.7000      8.2972      2.6036      0.0550      2.8107     28.2775    108.8475
   927.8000      8.2986      2.5965      0.0635      3.2405     28.3954    109.5767
   927.9000      8.2986      2.5664      0.0585      5.0696     28.3105    110.8158
   928.0000      8.2916      2.5285     -0.0104      7.3609     28.2664    109.7338
   928.1000      8.2916      2.5019     -0.0092      8.9764     28.0639    107.5627
   928.2000      8.2916      2.4890     -0.0417      9.7604     27.5225    109.0790
   928.3000      8.2842      2.4896      0.0023      9.7212     26.8345    114.2962
   928.4000      8.2842      2.5032      0.0360      8.8976     26.0939    119.9110
   928.5000      8.2854      2.5251     -0.0022      7.5710     25.2363    125.8526
   928.6000      8.2854      2.5554      0.0176      5.7344     24.4850    128.8356
   928.7000      8.2854      2.5894      0.0703      3.6747     24.0158    124.9579
   928.8000      8.2845      2.6085      0.0686      2.5133     23.6238    119.0210
   928.9000      8.2845      2.6102      0.0269      2.4111     23.2026    115.3546
   929.0000      8.2764      2.6111      0.0593      2.3575     22.9355    112.6076
   929.1000      8.2764      2.6176      0.0233      1.9661     23.1568    109.9661
   929.2000      8.2764      2.6300      0.0195      1.2099     23.7464    106.6205
   929.3000      8.2643      2.6541      0.0252     -0.2479     24.3724    102.6313
   929.4000      8.2643      2.6897      0.0375     -2.4090     25.0114     98.2674
   929.5000      8.2515      2.7201      0.0747     -4.2458     25.6997     92.5485
   929.6000      8.2515      2.7284      0.0250     -4.7522     26.6284     85.3770
   929.7000      8.2515      2.7149      0.0626     -3.9337     27.7654     77.7982
   929.8000      8.2392      2.6832      0.0230     -2.0134     28.7253     71.7323
   929.9000      8.2392      2.6435      0.0147      0.3964     29.0459     69.4968
   930.0000      8.2331      2.6179     -0.0940      1.9445     28.6453     68.9957
   930.1000      8.2331      2.6185     -0.0767      1.9086     28.2616     68.8182
   930.2000      8.2331      2.6252     -0.0348      1.5044     28.4063     72.8192
   930.3000      8.2325      2.6146     -0.0304      2.1473     28.4849     81.7610
   930.4000      8.2325      2.5967     -0.0584      3.2294     28.0075     90.4280
   930.5000      8.2338      2.5883     -0.0167      3.7404     27.2851     93.6502
   930.6000      8.2338      2.5803      0.0194      4.2218     26.7548     89.5190
   930.7000      8.2338      2.5596      0.0509      5.4784     26.7383     81.1168
   930.8000      8.2345      2.5397     -0.0146      6.6828     26.9070     76.8441
   930.9000      8.2345      2.5453      0.0048      6.3482     26.6393     80.7857
   931.0000      8.2345      2.5701      0.0403      4.8401     26.1203     87.2743
   931.1000      8.2345      2.5909      0.0225      3.5790     25.7463     89.5785
   931.2000      8.2345      2.6028      0.0379      2.8582     25.4721     88.8900
   931.3000      8.2422      2.6056      0.0722      2.6905     25.1093     87.9983
   931.4000      8.2422      2.5911      0.0407      3.5686     24.9194     87.1894
   931.5000      8.2646      2.5645     -0.0309      5.1844     25.4463     86.8820
   931.6000      8.2646      2.5375      0.0115      6.8189     26.2434     86.8060
   931.7000      8.2646      2.5120     -0.0441      8.3625     26.5891     87.9417
   931.8000      8.2921      2.4940     -0.0601      9.4559     26.6756     91.8303
   931.9000      8.2921      2.4941     -0.0203      9.4509     26.7586     98.3631
   932.0000      8.3106      2.5144     -0.0300      8.2190     26.7426    104.0592
   932.1000      8.3106      2.5542     -0.0134      5.8036     26.3763    104.6151
   932.2000      8.3106      2.6020      0.0385      2.9089     25.8936    101.8436
   932.3000      8.3204      2.6323      0.0839      1.0700     25.9148     98.8231
   932.4000      8.3204      2.6383      0.0515      0.7100     26.4460     98.2702
   932.5000      8.3300      2.6366      0.0175      0.8139     27.2164    101.3434
   932.6000      8.3300      2.6321      0.0337      1.0847     27.9110    103.2859
   932.7000      8.3300      2.6170      0.0149      1.9985     28.2441    102.4784
   932.8000      8.3360      2.5952     -0.0186      3.3222     28.4755    104.1933
   932.9000      8.3360      2.5741     -0.0109      4.6003     28.8173    106.8005
   933.0000      8.3382      2.5583     -0.0795      5.5599     29.1072    105.1432
   933.1000      8.3382      2.5511     -0.0658      5.9925     29.0898    102.2869
   933.2000      8.3382      2.5497     -0.0624      6.0763     28.6705    102.0157
   933.3000      8.3415      2.5497     -0.0513      6.0786     28.3125    102.6516
   933.4000      8.3415      2.5469     -0.0173      6.2476     28.5577    100.7766
   933.5000      8.3442      2.5419     -0.0271      6.5490     29.0983     98.5795
   933.6000      8.3442      2.5367      0.0028      6.8684     29.4422    100.4827
   933.7000      8.3442      2.5238     -0.0068      7.6480     29.7463    104.0271
   933.8000      8.3437      2.5043     -0.0099      8.8317     30.0886    105.6025
   933.9000      8.3437      2.4930     -0.0295      9.5126     30.3653    107.0946
   934.0000      8.3440      2.4977     -0.0338      9.2329     30.7320    108.6267
   934.1000      8.3440      2.5055      0.0030      8.7557     31.0118    109.3802
   934.2000      8.3440      2.4946      0.0176      9.4161     30.5028    109.6773
   934.3000      8.3504      2.4597     -0.0366     11.5363     28.9432    109.5297
   934.4000      8.3504      2.4136     -0.0831     14.3261     27.0138    112.2490
   934.5000      8.3594      2.3707     -0.0678     16.9265     25.4333    116.4959
   934.6000      8.3594      2.3334     -0.0355     19.1902     24.2811    116.0334
   934.7000      8.3594      2.2817     -0.0246     22.3197     23.3141    115.1524
   934.8000      8.3634      2.2009     -0.0769     27.2201     22.3557    119.4219
   934.9000      8.3634      2.0989     -0.0943     33.4009     21.5739    122.5142
   935.0000      8.3631      1.9797     -0.0808     40.6273     20.8327    120.2909
   935.1000      8.3631      1.8466     -0.1860     48.6893     19.7895    116.1615
   935.2000      8.3631      1.7217     -0.2028     56.2597     18.7049    113.8245
   935.3000      8.3587      1.6255     -0.2263     62.0924     17.6438    112.5438
   935.4000      8.3587      1.5641     -0.1737     65.8145     16.5603    108.4828
   935.5000      8.3459      1.5368     -0.0985     67.4661     15.5696    102.1396
   935.6000      8.3459      1.5387     -0.0542     67.3540     14.3065     98.0768
   935.7000      8.3459      1.5563      0.0292     66.2865     12.6211     97.0785
   935.8000      8.3219      1.5745      0.0455     65.1829     11.0331     97.9120
   935.9000      8.3219      1.5925      0.0370     64.0910      9.9509    101.4578
