~Version Information
VERS.                      2.0: CWLS Log ASCII Standard - VERSION 2.0
WRAP.                       NO: One line per depth step
~Well Information Block
STRT.FT               620.0000: 
STOP.FT              2660.0000: 
STEP.FT                 0.1000: 
NULL.                -999.2500: 
COMP.          Evergreen Operating Corporation: COMPANY
WELL.             Carbon 34-21: WELL
FLD.           Purgatoire River: FIELD
LOC.           56' FSL & 2304' FEL: LOCATION
PROV.                 Colorado: PROVINCE
CNTY.               Las Animas: COUNTRY
SRVC.                Patterson: SERVICE COMPANY
DATE.          Mon Sep 13 14:13:15 2004: LOG DATE
UWI.           05 071 08117 00: UNIQUE WELL ID
~Curve Information Block
DEPT.FT            0 000 00 00: Depth
DCAL.in                       : CDL Caliper
DPOR.pu                       : CDL Density Porosity
NPOR.pu                       : Neutron Porosity
RHOB.g/cc                     : CDL Bulk Density
RHOC.g/cc                     : CDL Density Correction
GR.GAPI                       : Gamma Ray
~Parameter Information Block
~A  Depth       DCAL        DPOR        NPOR        RHOB        RHOC         GR     
# ...
  1973.6000      2.2817     15.0742     28.6474      2.4013     -0.1578    155.8462
  1973.7000      2.2817     14.0773     29.7332      2.4177     -0.1779    143.4599
  1973.8000      2.2836     11.9975     30.8068      2.4520     -0.1602    142.0404
  1973.9000      2.2836      9.0160     31.6035      2.5012     -0.1209    145.9615
  1974.0000      2.2867      7.6405     32.1136      2.5239     -0.0865    140.5648
  1974.1000      2.2867     10.3953     32.7000      2.4785     -0.0789    128.9757
  1974.2000      2.2867     17.1551     33.5563      2.3669     -0.1854    123.0124
  1974.3000      2.2939     26.1779     34.3496      2.2181     -0.1936    125.7231
  1974.4000      2.2939     36.4714     35.2444      2.0482     -0.3355    128.5915
  1974.5000      2.3013     47.1845     36.8297      1.8715     -0.4050    121.0934
  1974.6000      2.3013     57.6568     38.9159      1.6987     -0.3913    105.1504
  1974.7000      2.3013     67.4738     40.5078      1.5367     -0.4962     94.2502
  1974.8000      2.2967     75.8658     40.9302      1.3982     -0.5202     97.1843
  1974.9000      2.2967     82.7463     40.7643      1.2847     -0.5494    106.3856
  1975.0000      2.2774     88.0249     41.0412      1.1976     -0.5846    108.3157
  1975.1000      2.2774     90.8259     41.5712      1.1514     -0.5049    102.0622
  1975.2000      2.2774     90.9435     41.3584      1.1494     -0.4096     98.0120
  1975.3000      2.2492     88.8538     40.3858      1.1839     -0.3345    100.6151
  1975.4000      2.2492     85.1132     39.3750      1.2456     -0.1498    108.2696
  1975.5000      2.2163     81.0017     38.4941      1.3135     -0.0002    117.3483
  1975.6000      2.2163     77.7585     37.2743      1.3670      0.0844    120.8781
  1975.7000      2.2163     75.2872     35.4770      1.4078      0.1186    120.4811
  1975.8000      2.0249     73.0249     34.0401      1.4451      0.1554    129.3973
  1975.9000      2.0249     70.8753     33.3067      1.4806      0.1701    147.8959
  1976.0000      0.0617     67.7637     32.4133      1.5319      0.1668    159.6715
  1976.1000      0.0617     60.2098     31.3545      1.6565      0.1792    159.2819
  1976.2000      0.0617     45.0206     30.7396      1.9072      0.2366    154.4723
  1976.3000     -7.1768     25.5544     30.6274      2.2284      0.4619    150.7832
  1976.4000     -7.1768     10.2926     30.6445      2.4802      0.5304    144.7751
  1976.5000    -12.2956      3.1510     30.3535      2.5980      0.5449    137.3758
  1976.6000    -12.2956      2.5880     29.8965      2.6073      0.5589    137.9871
  1976.7000    -12.2956      6.7706     29.5409      2.5383      0.5154    110.5410
  1976.8000     -4.1371     13.3016     29.0748      2.4305      0.2303    118.3325
  1976.9000     -4.1371     18.3323     28.2461      2.3475      0.1607    120.0466
  1977.0000      4.5922     19.2250     27.3509      2.3328      0.1392    115.0281
  1977.1000      4.5922     15.9108     27.0611      2.3875      0.1505    112.6734
  1977.2000      4.5922     10.6918     27.5407      2.4736      0.2283    115.8456
  1977.3000      6.9950      6.8733     28.2284      2.5366      0.2391    121.0820
  1977.4000      6.9950      5.6386     28.5980      2.5570      0.2257    127.6993
  1977.5000      7.4138      5.5920     28.5895      2.5577      0.2094    126.2006
  1977.6000      7.4138      5.3286     28.6247      2.5621      0.1844    113.0603
  1977.7000      7.4138      4.4099     28.8373      2.5772      0.1707    102.7527
  1977.8000      7.6476      2.8039     28.3459      2.6037      0.1310    102.0008
  1977.9000      7.6476      1.3453     26.8232      2.6278      0.1798    103.9014
  1978.0000      7.8417      1.2860     25.2328      2.6288      0.1152    106.3692
  1978.1000      7.8417      2.4226     24.4074      2.6100      0.0873    109.9544
  1978.2000      7.8417      3.5801     24.2175      2.5909      0.0707    109.4301
  1978.3000      7.9774      4.4105     24.1853      2.5772      0.0712    107.0495
  1978.4000      7.9774      5.5053     24.6732      2.5592      0.0771    106.9538
  1978.5000      8.0296      6.8202     25.7283      2.5375      0.0028    108.6927
  1978.6000      8.0296      7.4950     26.1261      2.5263      0.0228    112.0374
  1978.7000      8.0296      7.4104     25.3569      2.5277      0.0133    112.9557
  1978.8000      8.0311      7.1341     24.4595      2.5323      0.0566    113.4643
  1978.9000      8.0311      7.1050     24.1300      2.5328      0.0348    119.4101
  1979.0000      8.0243      6.9883     24.0056      2.5347      0.0359    125.5649
  1979.1000      8.0243      6.1820     23.6331      2.5480      0.0248    125.5334
  1979.2000      8.0243      4.7953     23.1259      2.5709      0.0655    124.2520
  1979.3000      8.0191      3.7791     23.0252      2.5876      0.0820    126.7685
  1979.4000      8.0191      3.9752     23.4126      2.5844      0.0670    128.1730
  1979.5000      8.0154      4.8073     23.8930      2.5707      0.0488    124.3858
  1979.6000      8.0154      4.8361     24.2348      2.5702      0.0540    117.0428
  1979.7000      8.0154      4.0651     24.1160      2.5829      0.0797    110.4821
  1979.8000      8.0110      4.2863     23.4851      2.5793      0.1059    110.3342
  1979.9000      8.0110      6.3294     22.9554      2.5456      0.0681    114.3311
  1980.0000      8.0061      8.6474     22.8787      2.5073     -0.0073    112.7338
  1980.1000      8.0061      9.6256     22.9773      2.4912      0.0191    103.7787
  1980.2000      8.0061      9.4998     22.9843      2.4933      0.0495     97.1971
  1980.3000      7.9988      8.8069     22.7958      2.5047      0.0356     97.4579
  1980.4000      7.9988      7.5576     22.2204      2.5253      0.0430     98.9553
  1980.5000      7.9738      6.5525     21.3263      2.5419      0.0737     99.0988
  1980.6000      7.9738      6.3789     20.4872      2.5447      0.0420     96.0153
  1980.7000      7.9738      6.1735     20.1257      2.5481      0.0346     89.2720
  1980.8000      7.9466      5.7771     20.4182      2.5547      0.1081     84.3226
  1980.9000      7.9466      6.3052     20.7297      2.5460      0.0667     84.7135
  1981.0000      7.9416      7.6667     20.4890      2.5235      0.0437     89.8027
  1981.1000      7.9416      8.5203     20.2472      2.5094      0.0268     94.1393
  1981.2000      7.9416      8.1362     20.2534      2.5158      0.0048     92.1577
  1981.3000      7.9427      7.2364     19.7426      2.5306      0.0874     83.8596
  1981.4000      7.9427      6.9682     18.6468      2.5350      0.0617     74.8611
  1981.5000      7.9429      7.2715     18.1789      2.5300      0.0677     71.6583
  1981.6000      7.9429      7.6235     18.9534      2.5242      0.0764     73.7488
  1981.7000      7.9429      7.3592     19.9478      2.5286      0.0319     76.6710
  1981.8000      7.9548      5.6770     20.2484      2.5563      0.0609     77.7721
  1981.9000      7.9548      3.2621     20.1672      2.5962      0.0934     76.0184
  1982.0000      7.9874      2.4426     20.0921      2.6097      0.1344     75.3747
  1982.1000      7.9874      4.1333     19.9123      2.5818      0.0454     80.0163
  1982.2000      7.9874      5.8827     19.5986      2.5529      0.0421     86.7564
  1982.3000      8.0272      5.3002     19.4430      2.5625      0.0509     92.1861
  1982.4000      8.0272      3.2105     19.3559      2.5970      0.1010     94.5490
  1982.5000      8.0480      1.9864     18.9873      2.6172      0.1091     94.5830
  1982.6000      8.0480      2.3020     18.5591      2.6120      0.0716     95.8195
  1982.7000      8.0480      3.2306     18.4633      2.5967      0.1273     97.1448
  1982.8000      8.0519      4.2015     18.5917      2.5807      0.0883     98.5298
  1982.9000      8.0519      4.8728     18.4621      2.5696      0.0636    101.2346
  1983.0000      8.0515      5.3282     17.8040      2.5621      0.0619    100.8305
  1983.1000      8.0515      6.0595     17.0375      2.5500      0.0257     95.7154
