~Version Information
VERS.                      2.0: CWLS Log ASCII Standard - VERSION 2.0
WRAP.                       NO: One line per depth step
~Well Information Block
STRT.FT                -7.0000: 
STOP.FT              1329.7500: 
STEP.FT                 0.2500: 
NULL.                -999.2500: 
COMP.          Pioneer Natural Resources: COMPANY
WELL.             Raptor 44-26: WELL
FLD.           Purgatorie River: FIELD
LOC.           180' FSL & 812' FEL--: LOCATION
PROV.                       CO: PROVINCE
CNTY.               Las Animas: COUNTRY
SRVC.          Patterson Wireline: SERVICE COMPANY
DATE.          Wed Mar 30 12:38:23 2005: LOG DATE
UWI.           05 071 08187 00: UNIQUE WELL ID
~Curve Information Block
DEPT.FT            0 000 00 00: Depth
CCL.                          : Casing Collar Locator
TT3.usec                      : CBL 3' Travel Time
AMP3.mV                       : CBL 3' Amplitude
GR.GAPI                       : Gamma Ray
~Parameter Information Block
MINATTN.db/ft           0.8000: Minimum Attenuation
~A  Depth       CCL         TT3         AMP3         GR     
# ...
  1132.0000      0.0000    672.8392      5.4854     59.2938
  1132.2500      0.0000    666.5533      5.3137     58.7656
  1132.5000      0.0000    658.2589      5.2130     58.1860
  1132.7500      0.0000    649.2414      5.1654     57.5812
  1133.0000      0.0000    641.3724      5.1922     56.9554
  1133.2500      0.0000    635.8969      5.3442     56.4418
  1133.5000      0.0000    632.8606      5.6364     56.3935
  1133.7500      0.0000    631.5415      6.0154     57.2397
  1134.0000      0.0000    631.1490      6.3953     59.2771
  1134.2500      0.0000    631.1470      6.7013     62.3475
  1134.5000      0.0000    631.2425      6.8789     65.5289
  1134.7500      0.0000    631.3464      6.8867     67.5286
  1135.0000      0.0000    631.6341      6.7057     67.8201
  1135.2500      0.0000    632.6514      6.3642     67.2642
  1135.5000      0.0000    635.2764      5.9535     67.2847
  1135.7500      0.0000    640.2816      5.6114     68.3695
  1136.0000      0.0000    647.5714      5.4646     69.6004
  1136.2500      0.0000    655.7971      5.5562     69.7962
  1136.5000      0.0000    663.0333      5.8031     68.8885
  1136.7500      0.0000    668.0175      6.0164     67.8018
  1137.0000      0.0000    670.6837      5.9971     67.0978
  1137.2500      0.0000    671.4520      5.6711     66.2964
  1137.5000      0.0000    669.9006      5.1693     64.6812
  1137.7500      0.0000    663.7407      4.7585     62.3240
  1138.0000      0.0000    649.2657      4.6566     60.0560
  1138.2500      0.0000    624.5323      4.8956     58.5744
  1138.5000      0.0000    593.7816      5.3423     57.8731
  1138.7500      0.0000    566.9252      5.8112     57.5638
  1139.0000      0.0000    550.9653      6.1475     57.3763
  1139.2500      0.0000    542.5308      6.2565     57.1559
  1139.5000      2.0000    533.6045      6.1140     56.9013
  1139.7500      2.0000    524.7600      5.7754     57.1741
  1140.0000      0.0000    526.9216      5.3721     58.9036
  1140.2500      0.0000    547.5033      5.0771     62.2676
  1140.5000      0.0000    578.3495      5.0309     66.3051
  1140.7500      0.0000    599.9689      5.2618     70.0293
  1141.0000      0.0000    596.4970      5.6687     73.2810
  1141.2500      0.0000    566.5139      6.0873     76.0682
  1141.5000      0.0000    522.2468      6.3784     77.7851
  1141.7500      0.0000    480.0497      6.4725     77.6627
  1142.0000      0.0000    450.3813      6.3673     75.6336
  1142.2500      0.0000    434.4650      6.1121     72.4708
  1142.5000      0.0000    427.9403      5.7917     69.3637
  1142.7500      0.0000    425.9760      5.5036     67.4527
  1143.0000      0.0000    425.6469      5.3300     67.4028
  1143.2500      0.0000    425.7189      5.3172     69.0440
  1143.5000      0.0000    425.7878      5.4672     71.4632
  1143.7500      0.0000    425.7531      5.7387     73.6999
  1144.0000      0.0000    425.6490      6.0619     75.5092
  1144.2500      0.0000    425.5910      6.3723     77.3203
  1144.5000      0.0000    425.6743      6.6365     79.4452
  1144.7500      0.0000    425.9098      6.8466     81.4947
  1145.0000      0.0000    426.2511      6.9978     82.6239
  1145.2500      0.0000    426.6581      7.0782     82.2054
  1145.5000      0.0000    427.1073      7.0732     80.3422
  1145.7500      0.0000    427.5558      6.9719     77.8152
  1146.0000      0.0000    427.9464      6.7680     75.4961
  1146.2500      0.0000    428.2691      6.4666     73.8746
  1146.5000      0.0000    428.5924      6.1055     73.0382
  1146.7500      0.0000    428.9980      5.7743     72.6262
  1147.0000      0.0000    429.4799      5.5947     71.7111
  1147.2500      0.0000    429.9229      5.6504     69.2979
  1147.5000      0.0000    430.1834      5.9230     65.3215
  1147.7500      0.0000    430.1932      6.3017     61.1392
  1148.0000      0.0000    430.0015      6.6608     59.0403
  1148.2500      0.0000    429.7370      6.9280     60.9247
  1148.5000      0.0000    429.5323      7.0947     66.7644
  1148.7500      0.0000    429.4604      7.1881     74.0627
  1149.0000      0.0000    429.5173      7.2406     79.2903
  1149.2500      0.0000    429.6504      7.2738     80.3578
  1149.5000      0.0000    429.7957      7.2977     77.8682
  1149.7500      0.0000    429.8889      7.3181     74.1554
  1150.0000      0.0000    429.8717      7.3402     71.3779
  1150.2500      0.0000    429.7311      7.3639     70.3669
  1150.5000      0.0000    429.5363      7.3790     70.6656
  1150.7500      0.0000    429.4036      7.3693     71.2880
  1151.0000      0.0000    429.4088      7.3225     71.5356
  1151.2500      0.0000    429.5517      7.2379     71.3195
  1151.5000      0.0000    429.8422      7.1302     70.9619
  1151.7500      0.0000    430.4353      7.0271     70.8881
  1152.0000      0.0000    431.6817      6.9534     71.3935
  1152.2500      0.0000    433.9345      6.9086     72.4712
  1152.5000      0.0000    437.0692      6.8619     73.7915
  1152.7500      0.0000    440.1007      6.7769     74.9081
  1153.0000      0.0000    441.5924      6.6402     75.5717
  1153.2500      0.0000    440.8000      6.4702     75.9156
  1153.5000      0.0000    438.3199      6.3059     76.4229
  1153.7500      0.0000    435.4354      6.1869     77.5868
  1154.0000      0.0000    433.0324      6.1347     79.1323
  1154.2500      0.0000    431.2728      6.1515     79.4878
  1154.5000      0.0000    429.9740      6.2337     76.6801
  1154.7500      0.0000    428.9756      6.3806     70.3241
  1155.0000      0.0000    428.2083      6.5827     62.5185
  1155.2500      0.0000    427.6349      6.8071     56.4665
  1155.5000      0.0000    427.2289      7.0079     54.2474
  1155.7500      0.0000    426.9843      7.1542     55.7817
  1156.0000      0.0000    426.9174      7.2451     59.5586
  1156.2500      0.0000    427.0371      7.3003     64.2218
  1156.5000      0.0000    427.3272      7.3409     69.4137
  1156.7500      0.0000    427.7635      7.3764     75.0129
  1157.0000      0.0000    428.3260      7.4009     79.9215
  1157.2500      0.0000    428.9681      7.3979     82.3576
  1157.5000      0.0000    429.5799      7.3493     81.4952
  1157.7500      0.0000    430.0127      7.2445     78.2936
  1158.0000      0.0000    430.1633      7.0837     74.5749
  1158.2500      0.0000    430.0577      6.8764     71.6369
  1158.5000      0.0000    429.8810      6.6331     69.7435
  1158.7500      0.0000    430.1094      6.3572     68.5629
  1159.0000      0.0000    431.9909      6.0508     67.8711
  1159.2500      0.0000    438.4271      5.7385     67.7937
  1159.5000      0.0000    454.2666      5.4802     68.4337
  1159.7500      0.0000    484.1299      5.3432     69.4410
  1160.0000      0.0000    527.7723      5.3523     70.0958
  1160.2500      0.0000    577.3525      5.4737     69.6479
  1160.5000      0.0000    621.1816      5.6453     67.5762
  1160.7500      0.0000    651.3395      5.8184     63.9361
  1161.0000      0.0000    667.4838      5.9765     59.6669
  1161.2500      0.0000    674.1876      6.1285     56.2497
  1161.5000      0.0000    676.3049      6.2890     54.7875
  1161.7500      0.0000    676.7023      6.4605     55.3718
  1162.0000      0.0000    676.2608      6.6329     57.2898
  1162.2500      0.0000    674.1861      6.7941     59.7519
  1162.5000      0.0000    667.6669      6.9349     62.2635
  1162.7500      0.0000    651.8471      7.0364     64.3568
  1163.0000      0.0000    622.0878      7.0544     65.3581
  1163.2500      0.0000    578.6458      6.9199     64.6568
  1163.5000      0.0000    529.4354      6.5742     62.2279
  1163.7500      0.0000    486.4820      6.0252     59.0029
  1164.0000      0.0000    458.8504      5.3744     56.7650
  1164.2500      0.0000    449.7068      4.7676     57.1465
  1164.5000      0.0000    459.2222      4.3084     60.2499
  1164.7500      0.0000    487.0228      4.0205     64.3030
  1165.0000      0.0000    529.8705      3.8859     66.9879
  1165.2500      0.0000    578.8431      3.9044     67.2431
