~Version Information
 VERS.                                  2.0 : CWLS LAS VERSION
 WRAP.                                   NO : WRAPING MODE
 SWARE .                 MController 2.5.0J : SOFTWARE VERSION
~Well Information
 WELL.                         State 16-12V : WELL
 COMP.                Petrogulf Corporation : COMPANY
 FLD.                      Purgatoire River : FIELD
 LOC.                       05-071-08016-00 : LOCATION
 DATE.                             08/03/05 : DATE(S) LOGGED
 SRVC.       BLANCO Geological Services LLC : SERVICE COMPANY
 STAT.                                   CO : STATE
 CNTY.                           Las Animas : COUNTY
 CTRY.                                  USA : COUNTRY
 API.                       05-071-08016-00 : API NUMBER
 STRT.FT                             611.00 : START DEPTH
 STOP.FT                            2155.00 : STOP DEPTH
 STEP.FT                               1.00 : DEPTH INCREMENT
 NULL.                                -9999 : NULL VALUE
~Curve information
 DEPTH.FT                                   :
 ROP.MIN/FT                                 :
 GAS.UNITS                                  :
~ASCII Log data
# ...
      1011.0         0.30         14.8 
      1012.0         0.13         16.6 
      1013.0         0.17         17.3 
      1014.0         0.18         16.4 
      1015.0         0.23         15.0 
      1016.0         0.63         12.2 
      1017.0         0.37          8.4 
      1018.0         0.23          7.7 
      1019.0         0.27          7.9 
      1020.0         0.30          7.7 
      1021.0         0.37          7.5 
      1022.0         0.27          8.5 
      1023.0         0.17         12.8 
      1024.0         0.20         13.2 
      1025.0         0.22         13.1 
      1026.0         0.20         11.6 
      1027.0         0.23         11.5 
      1028.0         0.23         10.4 
      1029.0         0.37          8.3 
      1030.0         0.33          7.5 
      1031.0         0.13          6.8 
      1032.0         0.07          6.3 
      1033.0         0.23          6.7 
      1034.0         0.13          6.4 
      1035.0         0.13          6.9 
      1036.0         0.10          7.1 
      1037.0         0.23          7.9 
      1038.0         0.20          8.9 
      1039.0         0.17          9.8 
      1040.0         0.22         11.0 
      1041.0         0.20         12.8 
      1042.0         0.17         12.9 
      1043.0         0.20         13.2 
      1044.0         0.20         11.7 
      1045.0         0.17         10.0 
      1046.0         1.23          9.2 
      1047.0         0.30          8.2 
      1048.0         0.27          7.9 
      1049.0         0.23          7.8 
      1050.0         0.25          7.5 
      1051.0         0.30          7.8 
      1052.0         0.23          7.6 
      1053.0         0.20          7.6 
      1054.0         0.23          7.2 
      1055.0         0.30          7.4 
      1056.0         0.40          7.5 
      1057.0         0.33          8.0 
      1058.0         0.27          9.2 
      1059.0         0.23          9.9 
      1060.0         0.22          9.0 
      1061.0         0.17          7.4 
      1062.0         0.20          7.1 
      1063.0         0.23          9.9 
      1064.0         0.30         17.2 
      1065.0         0.27         19.0 
      1066.0         0.23         16.4 
      1067.0         0.27         13.4 
      1068.0         0.23         12.5 
      1069.0         0.20         13.1 
      1070.0         0.17         17.9 
      1071.0         0.20         29.3 
      1072.0         0.13         33.8 
      1073.0         0.20         33.7 
      1074.0         0.15         29.4 
      1075.0         0.17         22.9 
      1076.0         0.90         18.5 
      1077.0         0.17          9.3 
      1078.0         0.17          8.2 
      1079.0         0.20          8.4 
      1080.0         0.20          7.7 
      1081.0         0.20          7.4 
      1082.0         0.23          7.7 
      1083.0         0.20          7.7 
      1084.0         0.20          7.1 
      1085.0         0.27          7.3 
      1086.0         0.17          7.2 
      1087.0         0.22          7.4 
      1088.0         0.20          6.7 
      1089.0         0.20          6.7 
      1090.0         0.17          6.4 
      1091.0         0.17          6.4 
      1092.0         0.20          6.1 
      1093.0         0.17          6.1 
      1094.0         0.30          6.0 
      1095.0         0.27          6.1 
      1096.0         0.17          6.7 
      1097.0         0.13          7.8 
      1098.0         0.20          9.2 
      1099.0         0.17         10.9 
      1100.0         0.13         12.9 
      1101.0         0.17         15.0 
      1102.0         0.17         15.4 
      1103.0         0.17         13.8 
      1104.0         0.17         12.5 
      1105.0         0.18         10.2 
      1106.0         1.43         31.3 
      1107.0         0.33         35.2 
      1108.0         0.23         33.0 
      1109.0         0.27         24.7 
      1110.0         0.20         16.7 
      1111.0         0.23         13.5 
      1112.0         0.13         11.7 
      1113.0         0.10         10.3 
      1114.0         0.10         10.0 
      1115.0         0.18         10.3 
      1116.0         0.13          9.7 
      1117.0         0.10         10.0 
      1118.0         0.13          8.9 
      1119.0         0.20          9.1 
      1120.0         0.17          8.3 
      1121.0         0.17          8.3 
      1122.0         0.13          8.2 
      1123.0         0.17          8.4 
      1124.0         0.13          8.5 
      1125.0         0.20          8.6 
      1126.0         0.20          8.5 
      1127.0         0.27         10.1 
      1128.0         0.23         12.4 
      1129.0         0.20         16.2 
      1130.0         0.17         19.4 
      1131.0         0.13         22.4 
      1132.0         0.17         27.2 
      1133.0         0.17         32.9 
      1134.0         0.18         35.0 
      1135.0         0.17         38.7 
      1136.0         0.80         41.1 
      1137.0         0.20         38.0 
      1138.0         0.20         30.8 
      1139.0         0.17         21.7 
      1140.0         0.23         17.4 
      1141.0         0.17         14.1 
      1142.0         0.27         12.0 
      1143.0         0.20         10.1 
      1144.0         0.13          9.4 
      1145.0         0.10          9.8 
      1146.0         0.20          9.6 
      1147.0         0.17          9.5 
      1148.0         0.17          9.4 
      1149.0         0.22          9.0 
      1150.0         0.20          8.9 
      1151.0         0.20          8.7 
      1152.0         0.13          8.3 
      1153.0         0.23          9.0 
      1154.0         0.20          9.9 
      1155.0         0.23         10.1 
      1156.0         0.20          9.1 
      1157.0         0.23          9.8 
      1158.0         0.20         13.5 
      1159.0         0.20         19.2 
      1160.0         0.20         25.3 
      1161.0         0.20         32.5 
      1162.0         0.13         34.4 
      1163.0         0.13         34.1 
      1164.0         0.17         31.1 
      1165.0         0.15         27.6 
      1166.0         1.63         24.5 
      1167.0         0.20         10.6 
      1168.0         0.23         10.5 
      1169.0         0.23         13.9 
      1170.0         0.17         16.7 
      1171.0         0.27         21.4 
      1172.0         0.17         19.5 
      1173.0         0.17         17.6 
      1174.0         0.22         13.9 
      1175.0         0.20         12.6 
      1176.0         0.20         10.8 
      1177.0         0.17         10.6 
      1178.0         0.10          9.8 
      1179.0         0.27          9.6 
      1180.0         0.27          9.5 
      1181.0         0.13          8.7 
      1182.0         0.17          9.1 
      1183.0         0.20          8.6 
      1184.0         0.17          8.2 
      1185.0         0.20          9.8 
      1186.0         0.20         14.1 
      1187.0         0.17         18.9 
      1188.0         0.20         26.8 
      1189.0         0.23         34.1 
      1190.0         0.20         39.2 
      1191.0         0.22         44.0 
      1192.0         0.17         45.9 
      1193.0         0.23         54.1 
      1194.0         0.27         73.0 
      1195.0         0.23         73.2 
      1196.0         1.57         61.4 
      1197.0         0.27          9.1 
      1198.0         0.27          9.0 
      1199.0         0.25          8.7 
      1200.0         0.23          8.3 
      1201.0         0.23          8.4 
      1202.0         0.23          8.0 
      1203.0         0.23          8.1 
      1204.0         0.23          8.3 
      1205.0         0.23          8.2 
      1206.0         0.20          8.4 
      1207.0         0.20          8.5 
      1208.0         0.20          8.3 
      1209.0         0.23          8.1 
      1210.0         0.20          8.5 
