~Version Information
VERS.                      2.0: CWLS Log ASCII Standard - VERSION 2.0
WRAP.                       NO: One line per depth step
~Well Information Block
STRT.FT               260.0000: 
STOP.FT              1199.2000: 
STEP.FT                 0.1000: 
NULL.                -999.2500: 
COMP.          Evergreen Operating Corporation: COMPANY
WELL.             Justin 32-10: WELL
FLD.           Purgatorie River: FIELD
LOC.           2994' FNL & 1449' FEL: LOCATION
PROV.                 Colorado: PROVINCE
CNTY.               Las Animas: COUNTRY
SRVC.                         : SERVICE COMPANY
DATE.          Mon Aug 30 07:14:35 2004: LOG DATE
UWI.           05 071 08053 00: UNIQUE WELL ID
~Curve Information Block
DEPT.FT            0 000 00 00: Depth
LTEN.lb                       : Surface Line Tension
DCAL.in                       : CDL Caliper
RHOB.g/cc                     : CDL Bulk Density
RHOC.g/cc                     : CDL Density Correction
DPOR.pu                       : CDL Density Porosity
GR.GAPI                       : Gamma Ray
NPOR.pu                       : Neutron Porosity
~Parameter Information Block
~A  Depth       LTEN        DCAL        RHOB        RHOC        DPOR         GR         NPOR    
   260.0000    630.8106      2.4408      2.1706      2.0000     -0.0096    133.3499     26.7809
   260.1000    630.8106      2.4408      2.1690      2.0000     -0.0096    123.4256     27.8198
   260.2000    630.8106      2.4408      2.2022      2.0000     -0.0090    119.8203     29.0684
   260.3000    631.8384      2.4500      2.2629      2.0000     -0.0077    126.1091     30.7075
   260.4000    631.8384      2.4500      2.3293      2.0000     -0.0064    134.2160     32.1979
   260.5000    669.5879      2.4398      2.3810      2.0000     -0.0054    130.7725     33.6240
   260.6000    669.5879      2.4398      2.4160      2.0000     -0.0047    119.1497     35.3307
   260.7000    669.5879      2.4398      2.4448      2.0000     -0.0041    113.5695     36.6639
   260.8000    645.4459      2.4309      2.4661      2.0000     -0.0037    117.5950     36.8750
   260.9000    645.4459      2.4309      2.4785      2.0000     -0.0034    122.6451     36.1700
   261.0000    663.2916      2.4179      2.4972      2.0000     -0.0031    121.5084     35.0156
   261.1000    663.2916      2.4179      2.5351      2.0000     -0.0023    112.5656     33.3623
   261.2000    663.2916      2.4179      2.5691      2.0000     -0.0016    102.6477     31.5749
   261.3000    648.9251      2.4266      2.5759      2.0000     -0.0015     98.8354     30.5379
   261.4000    648.9251      2.4266      2.5651      2.0000     -0.0017     98.4534     30.0496
   261.5000    617.8320      2.4307      2.5469      2.0000     -0.0021     98.1122     29.2439
   261.6000    617.8320      2.4307      2.5229      2.0000     -0.0025    102.1015     28.0944
   261.7000    617.8320      2.4307      2.5028      2.0000     -0.0029    111.3445     27.0418
   261.8000    664.8087      2.4395      2.4921      2.0000     -0.0032    115.2546     26.4133
   261.9000    664.8087      2.4395      2.4712      2.0000     -0.0036    111.8238     26.1786
   262.0000    634.8741      2.4377      2.4208      2.0000     -0.0046    109.4087     25.8804
   262.1000    634.8741      2.4377      2.3508      2.0000     -0.0060    111.1601     25.4104
   262.2000    634.8741      2.4377      2.2923      2.0000     -0.0072    112.4705     24.8868
   262.3000    665.1192      2.4284      2.2661      2.0000     -0.0077    109.4522     24.2357
   262.4000    665.1192      2.4284      2.2591      2.0000     -0.0078    106.7022     24.0410
   262.5000    656.4295      2.4224      2.2469      2.0000     -0.0081    109.6032     24.9365
   262.6000    656.4295      2.4224      2.2245      2.0000     -0.0085    114.9036     26.2538
   262.7000    656.4295      2.4224      2.2032      2.0000     -0.0089    117.5534     26.7469
   262.8000    668.9046      2.4160      2.1973      2.0000     -0.0091    119.8136     26.0636
   262.9000    668.9046      2.4160      2.2106      2.0000     -0.0088    127.6351     25.1898
   263.0000    603.9491      2.4154      2.2277      2.0000     -0.0084    137.3615     25.1045
   263.1000    603.9491      2.4154      2.2304      2.0000     -0.0084    136.4097     25.6205
   263.2000    603.9491      2.4154      2.2257      2.0000     -0.0085    123.2076     26.1675
   263.3000    626.5963      2.4336      2.2318      2.0000     -0.0084    110.3176     26.4147
   263.4000    626.5963      2.4336      2.2387      2.0000     -0.0082    105.2732     26.0434
   263.5000    631.7708      2.4306      2.2266      2.0000     -0.0085    104.9098     25.3410
   263.6000    631.7708      2.4306      2.2044      2.0000     -0.0089    106.1279     25.3509
   263.7000    631.7708      2.4306      2.1977      2.0000     -0.0091    110.7413     25.9656
   263.8000    642.4519      2.4577      2.2111      2.0000     -0.0088    116.3950     25.9628
   263.9000    642.4519      2.4577      2.2221      2.0000     -0.0086    120.5355     25.2476
   264.0000    619.0317      2.4372      2.2157      2.0000     -0.0087    132.9725     24.5160
   264.1000    619.0317      2.4372      2.2062      2.0000     -0.0089    155.5725     24.1737
   264.2000    619.0317      2.4372      2.2070      2.0000     -0.0089    165.7163     24.4730
   264.3000    624.2874      2.4327      2.2047      2.0000     -0.0089    151.0153     25.1909
   264.4000    624.2874      2.4327      2.1858      2.0000     -0.0093    132.1122     25.9608
   264.5000    663.0491      2.4510      2.1629      2.0000     -0.0097    123.9204     26.6147
   264.6000    663.0491      2.4510      2.1535      2.0000     -0.0099    119.6543     27.2216
   264.7000    663.0491      2.4510      2.1539      2.0000     -0.0099    115.7725     27.7224
   264.8000    628.2274      2.4541      2.1502      2.0000     -0.0100    117.7404     27.5022
   264.9000    628.2274      2.4541      2.1381      2.0000     -0.0102    124.0512     26.5893
   265.0000    606.4910      2.4353      2.1245      2.0000     -0.0105    124.0214     26.0489
   265.1000    606.4910      2.4353      2.1181      2.0000     -0.0106    116.3524     26.1175
   265.2000    606.4910      2.4353      2.1190      2.0000     -0.0106    111.3910     26.3627
   265.3000    641.5493      2.4265      2.1246      2.0000     -0.0105    112.7356     26.7677
   265.4000    641.5493      2.4265      2.1342      2.0000     -0.0103    114.6746     27.1253
   265.5000    649.6850      2.4597      2.1408      2.0000     -0.0102    113.6563     27.4513
   265.6000    649.6850      2.4597      2.1406      2.0000     -0.0102    111.5564     27.9481
   265.7000    649.6850      2.4597      2.1406      2.0000     -0.0102    112.1314     28.4450
   265.8000    658.0239      2.4601      2.1414      2.0000     -0.0102    117.2238     29.0436
   265.9000    658.0239      2.4601      2.1388      2.0000     -0.0102    125.4635     29.6140
   266.0000    643.1456      2.4303      2.1389      2.0000     -0.0102    129.9011     29.4843
   266.1000    643.1456      2.4303      2.1517      2.0000     -0.0100    125.9784     28.9798
   266.2000    643.1456      2.4303      2.1754      2.0000     -0.0095    117.7526     28.9081
   266.3000    613.8684      2.4363      2.1954      2.0000     -0.0091    113.0285     28.7518
   266.4000    613.8684      2.4363      2.2042      2.0000     -0.0089    116.1342     28.2016
   266.5000    634.8878      2.4288      2.2101      2.0000     -0.0088    122.4960     28.1137
   266.6000    634.8878      2.4288      2.2221      2.0000     -0.0086    121.8354     28.2587
   266.7000    634.8878      2.4288      2.2282      2.0000     -0.0084    113.7038     27.6144
   266.8000    648.1089      2.4305      2.2126      2.0000     -0.0088    109.6385     26.3070
   266.9000    648.1089      2.4305      2.1879      2.0000     -0.0092    111.6275     25.1943
   267.0000    658.4979      2.4384      2.1767      2.0000     -0.0095    115.2300     24.4593
   267.1000    658.4979      2.4384      2.1825      2.0000     -0.0094    119.8026     23.8271
   267.2000    658.4979      2.4384      2.1915      2.0000     -0.0092    122.5902     23.7616
   267.3000    651.8841      2.4211      2.1932      2.0000     -0.0091    122.8088     24.4906
   267.4000    651.8841      2.4211      2.1920      2.0000     -0.0092    127.8041     25.3421
   267.5000    651.8810      2.4606      2.1934      2.0000     -0.0091    139.3013     25.8975
   267.6000    651.8810      2.4606      2.1959      2.0000     -0.0091    144.0049     26.2603
   267.7000    651.8810      2.4606      2.1974      2.0000     -0.0091    132.9292     26.4792
   267.8000    657.2726      2.4618      2.1993      2.0000     -0.0090    116.7146     26.6213
   267.9000    657.2726      2.4618      2.1966      2.0000     -0.0091    109.4934     26.6344
   268.0000    644.6885      2.4419      2.1852      2.0000     -0.0093    112.2327     26.1775
   268.1000    644.6885      2.4419      2.1758      2.0000     -0.0095    118.4088     25.4704
   268.2000    644.6885      2.4419      2.1749      2.0000     -0.0095    125.8004     25.6467
   268.3000    678.2665      2.4250      2.1745      2.0000     -0.0095    131.5290     27.1009
