~Version Information
VERS.                      2.0: CWLS Log ASCII Standard - VERSION 2.0
WRAP.                       NO: One line per depth step
~Well Information Block
STRT.FT               500.0000: 
STOP.FT              2760.5000: 
STEP.FT                 0.1000: 
NULL.                -999.2500: 
COMP.          Petrogulf Corporation: COMPANY
WELL.              Silva 1-43V: WELL
FLD.           Purgatorie River: FIELD
LOC.           2010' FSL & 614' FEL: LOCATION
PROV.                 Colorado: PROVINCE
CNTY.               Las Animas: COUNTRY
SRVC.                Patterson: SERVICE COMPANY
DATE.          Mon Aug 29 08:02:37 2005: LOG DATE
UWI.                          : UNIQUE WELL ID
~Curve Information Block
DEPT.FT            0 000 00 00: Depth
DCAL.in                       : CDL Caliper
RHOB.g/cc                     : CDL Bulk Density
RHOC.g/cc                     : CDL Density Correction
DPOR.pu                       : CDL Density Porosity
GR.GAPI                       : Gamma Ray
NPOR.pu                       : Neutron Porosity
~Parameter Information Block
~A  Depth       DCAL        RHOB        RHOC        DPOR         GR         NPOR    
# ...
  2592.8000      8.0592      2.4417      0.0128     12.6233     76.6671     24.2717
  2592.9000      8.0592      2.4224      0.0109     13.7942     81.3109     24.1949
  2593.0000      8.0756      2.4254      0.0082     13.6092     83.5509     24.1636
  2593.1000      8.0756      2.4394      0.0526     12.7607     82.7985     24.2840
  2593.2000      8.0756      2.4472      0.0344     12.2919     80.0981     24.4461
  2593.3000      8.0691      2.4507      0.0306     12.0769     76.6388     24.4948
  2593.4000      8.0691      2.4605      0.0538     11.4863     76.3652     24.4331
  2593.5000      8.0711      2.4750      0.0681     10.6084     81.1962     24.3563
  2593.6000      8.0711      2.4907      0.0978      9.6573     86.7069     24.3692
  2593.7000      8.0711      2.5103      0.1177      8.4681     91.1105     24.5795
  2593.8000      8.1178      2.5326      0.1563      7.1131     96.8896     25.0114
  2593.9000      8.1178      2.5493      0.1032      6.1015    101.8934     25.4368
  2594.0000      8.0919      2.5532      0.1372      5.8673    102.8308     25.3899
  2594.1000      8.0919      2.5476      0.0829      6.2052     99.8645     24.8356
  2594.2000      8.0919      2.5448      0.0876      6.3759     94.5079     24.4027
  2594.3000      8.0622      2.5443      0.0818      6.4039     88.5218     24.5846
  2594.4000      8.0622      2.5381      0.0950      6.7824     85.3652     25.3196
  2594.5000      8.0804      2.5316      0.0548      7.1758     86.8127     26.1025
  2594.6000      8.0804      2.5318      0.0828      7.1625     87.8367     26.6432
  2594.7000      8.0804      2.5351      0.0546      6.9662     83.9179     26.9058
  2594.8000      8.0841      2.5361      0.0763      6.9045     77.6889     26.6399
  2594.9000      8.0841      2.5318      0.0877      7.1613     72.8307     26.0027
  2595.0000      8.1015      2.5290      0.0426      7.3304     69.4828     25.4411
  2595.1000      8.1015      2.5291      0.1020      7.3284     68.6114     25.1002
  2595.2000      8.1015      2.5168      0.0961      8.0733     70.5684     25.0300
  2595.3000      8.1253      2.4885      0.0936      9.7899     73.4420     25.1424
  2595.4000      8.1253      2.4569      0.0621     11.7031     77.1905     25.0984
  2595.5000      8.1164      2.4324      0.0499     13.1888     82.0696     24.7151
  2595.6000      8.1164      2.4140      0.0269     14.3002     85.3188     24.2903
  2595.7000      8.1164      2.4008      0.0305     15.1050     84.0383     24.2891
  2595.8000      8.1183      2.4023      0.0356     15.0103     79.5892     24.6884
  2595.9000      8.1183      2.4254      0.0775     13.6098     76.5286     25.1662
  2596.0000      8.0862      2.4589      0.1118     11.5827     74.8822     25.4945
  2596.1000      8.0862      2.4870      0.1413      9.8799     73.4250     25.7271
  2596.2000      8.0862      2.5031      0.1712      8.9053     74.4715     25.9853
  2596.3000      8.1033      2.5053      0.2143      8.7683     76.7993     26.1125
  2596.4000      8.1033      2.4919      0.2482      9.5803     78.7522     26.2351
  2596.5000      8.3938      2.4634      0.2470     11.3120     83.8531     26.6142
  2596.6000      8.3938      2.4278      0.1932     13.4638     91.5822     27.1278
  2596.7000      8.3938      2.4078      0.1336     14.6817     97.9195     27.6672
  2596.8000      8.7144      2.4308      0.1218     13.2865    104.6744     28.4246
  2596.9000      8.7144      2.4989      0.2172      9.1557    112.4308     29.2691
  2597.0000      8.8059      2.5788      0.2766      4.3176    114.3934     29.6743
  2597.1000      8.8059      2.6393      0.3055      0.6499    108.1110     29.6069
  2597.2000      8.8059      2.6748      0.3156     -1.5049     99.9963     29.4113
  2597.3000      8.8359      2.6871      0.3340     -2.2465     93.9360     29.2084
  2597.4000      8.8359      2.6711      0.3178     -1.2811     89.5330     28.9447
  2597.5000      8.8707      2.6293      0.2381      1.2568     86.6723     28.6764
  2597.6000      8.8707      2.5812      0.1986      4.1673     84.5632     28.5820
  2597.7000      8.8707      2.5452      0.1113      6.3519     83.6650     28.5947
  2597.8000      8.7869      2.5217      0.1104      7.7785     84.7065     28.3253
  2597.9000      8.7869      2.5066      0.0466      8.6880     83.4620     27.7767
  2598.0000      8.2136      2.5070      0.0617      8.6656     77.1717     27.3593
  2598.1000      8.2136      2.5221      0.0739      7.7544     70.6307     27.0125
  2598.2000      8.2136      2.5359      0.1231      6.9181     67.8157     26.3713
  2598.3000      8.0940      2.5366      0.1072      6.8698     68.9789     25.3525
  2598.4000      8.0940      2.5256      0.0667      7.5423     71.7908     24.3385
  2598.5000      8.0516      2.5119      0.0663      8.3715     72.1508     23.9442
  2598.6000      8.0516      2.5049      0.0518      8.7926     68.7320     24.1474
  2598.7000      8.0516      2.5109      0.0615      8.4286     64.9461     24.2661
  2598.8000      8.0438      2.5285      0.0794      7.3631     63.9251     24.0315
  2598.9000      8.0438      2.5497      0.0721      6.0815     64.6455     23.6794
  2599.0000      8.0441      2.5647      0.1108      5.1680     65.3511     23.3838
  2599.1000      8.0441      2.5635      0.1441      5.2436     64.4936     23.3010
  2599.2000      8.0441      2.5477      0.1110      6.2023     60.8975     23.2876
  2599.3000      8.0585      2.5327      0.0778      7.1106     57.1484     22.9708
  2599.4000      8.0585      2.5289      0.0595      7.3392     55.1654     22.3427
  2599.5000      8.0632      2.5337      0.0704      7.0515     51.8838     21.4807
  2599.6000      8.0632      2.5393      0.0853      6.7088     46.8126     20.2384
  2599.7000      8.0632      2.5426      0.0588      6.5098     44.6852     18.8816
  2599.8000      8.0744      2.5426      0.0901      6.5101     46.9578     18.0318
  2599.9000      8.0744      2.5389      0.0683      6.7355     50.6385     17.8859
  2600.0000      8.0799      2.5348      0.0855      6.9818     52.8021     18.2958
  2600.1000      8.0799      2.5319      0.0419      7.1561     53.0803     18.7557
  2600.2000      8.0799      2.5270      0.0583      7.4546     54.0430     18.7369
  2600.3000      8.0807      2.5189      0.0506      7.9476     57.2128     18.4366
  2600.4000      8.0807      2.5127      0.0774      8.3182     60.4673     18.5208
  2600.5000      8.0718      2.5115      0.0680      8.3953     61.0421     19.0583
  2600.6000      8.0718      2.5182      0.0472      7.9905     58.7479     19.4549
  2600.7000      8.0718      2.5375      0.0641      6.8165     56.7465     19.5627
  2600.8000      8.0626      2.5594      0.0883      5.4887     58.5227     19.7401
  2600.9000      8.0626      2.5639      0.1418      5.2184     62.8050     20.0116
  2601.0000      8.0704      2.5557      0.0203      5.7133     64.8749     20.0762
  2601.1000      8.0704      2.5601      0.0570      5.4470     62.8293     20.0042
  2601.2000      8.0704      2.5774      0.0957      4.4013     60.8183     20.0018
  2601.3000      8.0805      2.5878      0.0723      3.7683     62.0143     19.9628
  2601.4000      8.0805      2.5859      0.0693      3.8852     63.1775     19.9088
  2601.5000      8.0822      2.5804      0.0619      4.2171     61.2464     20.2089
  2601.6000      8.0822      2.5773      0.0661      4.4056     57.4324     20.9627
  2601.7000      8.0822      2.5739      0.0573      4.6094     54.5369     21.6553
  2601.8000      8.0978      2.5659      0.0522      5.0982     54.9017     21.8304
  2601.9000      8.0978      2.5565      0.0315      5.6660     58.7728     21.5541
  2602.0000      8.1207      2.5545      0.0240      5.7901     62.1543     21.0004
  2602.1000      8.1207      2.5617      0.0750      5.3502     61.6567     20.2791
  2602.2000      8.1207      2.5725      0.0445      4.6993     58.7527     19.8373
  2602.3000      8.1365      2.5779      0.1144      4.3707     55.9453     19.8011
