~Version Information
VERS.                      2.0: CWLS Log ASCII Standard - VERSION 2.0
WRAP.                       NO: One line per depth step
~Well Information Block
STRT.FT                -3.5000: 
STOP.FT              1841.0000: 
STEP.FT                 0.2500: 
NULL.                -999.2500: 
COMP.          Pioneer Natural Resources: COMPANY
WELL.          Corkscrew 33-12 Tr: WELL
FLD.           Purgatorie River: FIELD
LOC.           1870' FSL  & 1706' FEL--------: LOCATION
PROV.                       CO: PROVINCE
CNTY.               Las Animas: COUNTRY
SRVC.          Patterson Wireline: SERVICE COMPANY
DATE.          Mon Apr 04 10:07:45 2005: LOG DATE
UWI.           05 071 08295 00: UNIQUE WELL ID
~Curve Information Block
DEPT.FT            0 000 00 00: Depth
CCL.                          : Casing Collar Locator
TT3.usec                      : CBL 3' Travel Time
AMP3.mV                       : CBL 3' Amplitude
GR.GAPI                       : Gamma Ray
~Parameter Information Block
~A  Depth       CCL         TT3         AMP3         GR     
# ...
   231.0000      0.0000    798.9190      7.9033     93.0597
   231.2500      0.0000    813.5085      7.8870     96.3606
   231.5000      0.0000    824.4630      7.8746     99.5780
   231.7500      0.0000    831.3597      7.8669    102.0374
   232.0000      0.0000    836.9346      7.8675    103.5275
   232.2500      0.0000    842.6785      7.8763    104.0256
   232.5000      0.0000    847.9512      7.8904    103.8335
   232.7500      0.0000    851.6821      7.9095    103.7941
   233.0000      0.0000    853.7014      7.9357    104.7406
   233.2500      0.0000    854.5790      7.9707    106.5253
   233.5000      0.0000    854.9310      8.0118    107.8612
   233.7500      0.0000    855.1115      8.0519    107.3411
   234.0000      0.0000    855.3086      8.0832    104.6948
   234.2500      0.0000    855.6190      8.1021    101.2072
   234.5000      0.0000    855.9932      8.1077     98.8631
   234.7500      0.0000    856.2433      8.0966     98.7289
   235.0000      0.0000    856.1876      8.0640     99.9536
   235.2500      0.0000    855.7884      8.0119    100.6374
   235.5000      0.0000    855.1640      7.9508     99.7183
   235.7500      0.0000    854.5128      7.8951     97.6890
   236.0000      0.0000    854.0162      7.8555     95.7538
   236.2500      0.0000    853.7631      7.8360     94.9835
   236.5000      0.0000    853.7388      7.8349     96.0812
   236.7500      0.0000    853.8691      7.8458     99.0344
   237.0000      0.0000    854.0591      7.8607    102.6798
   237.2500      0.0000    854.2162      7.8748    105.1416
   237.5000      0.0000    854.2871      7.8878    105.0942
   237.7500      0.0000    854.2834      7.8979    102.5973
   238.0000      0.0000    854.2502      7.8982     98.8191
   238.2500      0.0000    854.1860      7.8784     95.1568
   238.5000      0.0000    853.9698      7.8295     92.4316
   238.7500      0.0000    853.2935      7.7507     90.4111
   239.0000      0.0000    851.6471      7.6558     87.9883
   239.2500      0.0000    848.4807      7.5721     84.1601
   239.5000      0.0000    843.4690      7.5247     79.0812
   239.7500      0.0000    836.6746      7.5165     74.1320
   240.0000      0.0000    828.6788      7.5260     70.8788
   240.2500      0.0000    820.7417      7.5242     69.8935
   240.5000      0.0000    814.3599      7.4926     70.3862
   240.7500      0.0000    810.0281      7.4283     70.8896
   241.0000      0.0000    806.7713      7.3377     70.3929
   241.2500      0.0000    803.5394      7.2296     68.9371
   241.5000      0.0000    800.6622      7.1130     67.3087
   241.7500      0.0000    799.2537      6.9976     66.3926
   242.0000      0.0000    799.8346      6.8948     66.6341
   242.2500      0.0000    802.6918      6.8153     67.8588
   242.5000      0.0000    809.2168      6.7660     69.7716
   242.7500      0.0000    821.2808      6.7433     72.6401
   243.0000      0.0000    838.8427      6.7307     77.1584
   243.2500      0.0000    859.1114      6.7062     83.5757
   243.5000      0.0000    878.4865      6.6537     91.0633
   243.7500      0.0000    894.6566      6.5688     97.7911
   244.0000      0.0000    906.0374      6.4579    101.7700
   244.2500      0.0000    909.5804      6.3412    102.0796
   244.5000      0.0000    900.6946      6.2517     99.4176
   244.7500      0.0000    876.7080      6.2205     95.4581
   245.0000      0.0000    840.3881      6.2488     91.8980
   245.2500      0.0000    800.1373      6.3020     89.8632
   245.5000      0.0000    767.3671      6.3350     89.4322
   245.7500      0.0000    752.3564      6.3277     89.4508
   246.0000      0.0000    759.4611      6.2908     88.2087
   246.2500      0.0000    784.3884      6.2459     84.6917
   246.5000      0.0000    816.0323      6.2053     79.3189
   246.7500      2.0000    842.1152      6.1715     73.5405
   247.0000      2.0000    855.3969      6.1414     68.9050
   247.2500      0.0000    856.2288      6.1033     66.6261
   247.5000      0.0000    849.2410      6.0375     67.5478
   247.7500      0.0000    837.7284      5.9339     71.6208
   248.0000      0.0000    822.0833      5.8169     77.1966
   248.2500      0.0000    802.9441      5.7390     81.6304
   248.5000      0.0000    783.4944      5.7379     83.2892
   248.7500      0.0000    768.1643      5.8025     82.8643
   249.0000      0.0000    760.3867      5.8879     82.4744
   249.2500      0.0000    762.0141      5.9583     83.6592
   249.5000      0.0000    773.7264      6.0142     86.4248
   249.7500      0.0000    794.7471      6.0828     89.8125
   250.0000      0.0000    821.6797      6.1837     92.8507
   250.2500      0.0000    848.2374      6.3067     95.0460
   250.5000      0.0000    867.6470      6.4217     96.3820
   250.7500      0.0000    876.6202      6.5022     97.0625
   251.0000      0.0000    877.1040      6.5378     97.2853
   251.2500      0.0000    873.7719      6.5290     97.2622
   251.5000      0.0000    869.7901      6.4797     97.3139
   251.7500      0.0000    865.2253      6.3980     97.6231
   252.0000      0.0000    859.2046      6.3007     97.7674
   252.2500      0.0000    852.6232      6.2096     96.9165
   252.5000      0.0000    848.0345      6.1377     94.8467
   252.7500      0.0000    846.8873      6.0826     92.4289
   253.0000      0.0000    847.1888      6.0341     90.7844
   253.2500      0.0000    844.5557      5.9896     90.2121
   253.5000      0.0000    836.5084      5.9594     90.1732
   253.7500      0.0000    825.5779      5.9581     90.0059
   254.0000      0.0000    816.8485      5.9944     89.4806
   254.2500      0.0000    812.2493      6.0681     88.8889
   254.5000      0.0000    808.7913      6.1710     88.6758
   254.7500      0.0000    802.8378      6.2859     88.7859
   255.0000      0.0000    794.3997      6.3877     88.3686
   255.2500      0.0000    786.3566      6.4532     86.4607
   255.5000      0.0000    780.9733      6.4710     83.1653
   255.7500      0.0000    778.3803      6.4477     79.8991
   256.0000      0.0000    777.6482      6.4063     78.1092
   256.2500      0.0000    778.2538      6.3704     77.9092
   256.5000      0.0000    780.6343      6.3454     78.3949
   256.7500      0.0000    785.6585      6.3205     79.1095
   257.0000      0.0000    793.2652      6.2938     80.5710
   257.2500      0.0000    801.4767      6.2910     83.2096
   257.5000      0.0000    807.8477      6.3524     86.3477
   257.7500      0.0000    812.6934      6.5009     88.6443
   258.0000      0.0000    819.4749      6.7157     89.3569
   258.2500      0.0000    830.2103      6.9333     88.8703
   258.5000      0.0000    841.3831      7.0844     88.1343
   258.7500      0.0000    846.5051      7.1422     87.7994
   259.0000      0.0000    842.7068      7.1379     87.6575
   259.2500      0.0000    833.6460      7.1293     86.6628
   259.5000      0.0000    826.3606      7.1622     83.9515
   259.7500      0.0000    826.2996      7.2547     80.1504
   260.0000      0.0000    834.5966      7.3931     76.9922
   260.2500      0.0000    848.3458      7.5327     75.1691
   260.5000      0.0000    863.1559      7.6169     73.3279
   260.7500      0.0000    876.3193      7.6181     69.6403
   261.0000      0.0000    888.0836      7.5550     63.7553
   261.2500      0.0000    899.9482      7.4692     56.9518
   261.5000      0.0000    912.2231      7.3956     50.8928
   261.7500      0.0000    923.6846      7.3575     46.4033
   262.0000      0.0000    932.8314      7.3664     43.2238
   262.2500      0.0000    938.1157      7.4145     40.7044
   262.5000      0.0000    937.3748      7.4718     38.4827
   262.7500      0.0000    929.2333      7.4997     36.5139
   263.0000      0.0000    915.6326      7.4697     34.8165
   263.2500      0.0000    901.4444      7.3798     33.3900
   263.5000      0.0000    891.0064      7.2646     32.3273
   263.7500      0.0000    885.8216      7.1847     31.9243
   264.0000      0.0000    885.4639      7.1836     32.5510
   264.2500      0.0000    889.4426      7.2478     34.2288
