~Version Information
VERS.                      2.0: CWLS Log ASCII Standard - VERSION 2.0
WRAP.                       NO: One line per depth step
~Well Information Block
STRT.FT               846.5000: 
STOP.FT              2610.0000: 
STEP.FT                 0.2500: 
NULL.                -999.2500: 
COMP.          Petrogulf Corporation: COMPANY
WELL.            Lavedure 7-44: WELL
FLD.           Purgatoire River: FIELD
LOC.           969' FSL & 501' FEL: LOCATION
PROV.                 Colorado: PROVINCE
CNTY.               Las Animas: COUNTRY
SRVC.                Patterson: SERVICE COMPANY
DATE.          Sun Dec 07 15:26:03 2003: LOG DATE
UWI.                          : UNIQUE WELL ID
~Curve Information Block
DEPT.FT            0 000 00 00: Depth
SP.mV                         : DIL Spontaneous Potential
RILD.Ohm-m                    : DIL Deep Resistivity
RILM.Ohm-m                    : DIL Medium Resistivity
RLL3.Ohm-m                    : DIL Shallow Resistivity
GR.GAPI                       : Gamma Ray
~Parameter Information Block
~A  Depth        SP         RILD        RILM        RLL3         GR     
# ...
  1210.5000   2000.0000     14.3538     15.8563     21.0576    130.1332
  1210.7500   2000.0000     14.4040     15.7151     20.4576    128.0526
  1211.0000   2000.0000     14.4341     15.5651     19.9809    125.6433
  1211.2500   -812.0006     14.4375     15.4270     19.8186    124.8242
  1211.5000   -812.0006     14.4065     15.2998     19.9590    124.4135
  1211.7500   -812.0006     14.3440     15.1794     20.2107    124.2476
  1212.0000   -812.0006     14.2761     15.0707     20.3336    123.6321
  1212.2500   -812.0006     14.2552     14.9862     20.2227    122.9878
  1212.5000   -812.0006     14.3436     14.9381     19.9713    122.2318
  1212.7500   -812.0006     14.5888     14.9377     19.7229    122.3028
  1213.0000   -812.0006     15.0058     15.0034     19.5036    123.6015
  1213.2500   -812.0006     15.5763     15.1694     19.3088    125.0078
  1213.5000   -812.0006     16.2636     15.4844     19.4196    126.7286
  1213.7500   -812.0006     17.0361     15.9998     20.6121    126.6376
  1214.0000   -812.0006     17.8866     16.7548     23.9350    122.9846
  1214.2500   -812.0006     18.8391     17.7661     30.0869    117.6283
  1214.5000   -812.0005     19.9411     19.0286     39.0244    105.5708
  1214.7500   -812.0001     21.2467     20.5271     50.8105     95.8469
  1215.0000   -811.9977     22.8039     22.2610     68.0325     80.9684
  1215.2500   -811.9879     24.6520     24.2651     98.2357     71.8223
  1215.5000   -811.9548     26.8297     26.6132    153.5627     59.6675
  1215.7500   -811.8660     29.3835     29.3908    246.0759     52.3166
  1216.0000   -811.6718     32.3610     32.6483    380.4972     42.0168
  1216.2500   -811.3159     35.7880     36.3559    548.3911     35.7755
  1216.5000   -810.7466     39.6481     40.3923    727.4367     27.9545
  1216.7500   -809.8774     43.8942     44.5709    887.0095     24.0119
  1217.0000   -808.4371     48.4932     48.6649    997.9515     19.9440
  1217.2500   -805.7726     53.4566     52.3818   1041.6606     18.1835
  1217.5000   -800.8698     58.8137     55.3152   1013.8954     16.4277
  1217.7500   -792.9944     64.5550     57.0047    922.7369     15.7377
  1218.0000   -782.7065     70.6031     57.1910    784.2628     15.7693
  1218.2500   -771.9715     76.8183     56.1006    619.5481     16.8239
  1218.5000   -762.7991     82.9830     54.4314    453.1826     20.0762
  1218.7500   -755.9678     88.7698     53.0259    311.1227     23.0003
  1219.0000   -751.4553     93.7817     52.5556    217.2710     27.4472
  1219.2500   -749.6843     97.7503     53.4129    190.9794     29.8273
  1219.5000   -751.8124    100.7206     55.7204    246.2799     31.6580
  1219.7500   -758.5464    103.0584     59.2986    389.0806     31.3279
  1220.0000   -768.0444    105.3021     63.5584    608.7291     28.2326
  1220.2500   -774.9423    108.0521     67.4823    868.8411     24.7449
  1220.5000   -772.8663    111.9402     69.9803   1109.9484     18.8615
  1220.7500   -759.4213    117.5592     70.5612   1270.6587     15.6307
  1221.0000   -739.2637    125.2707     69.6784   1316.5964     13.1934
  1221.2500   -721.9962    134.9426     68.3837   1256.0126     13.2332
  1221.5000   -716.0081    145.7734     67.7739   1131.0704     14.6316
  1221.7500   -723.0336    156.4030     68.7329    993.9850     15.4817
  1222.0000   -737.6279    165.3330     71.9597    885.5888     15.4943
  1222.2500   -751.2829    171.4166     78.0907    825.4968     14.5920
  1222.5000   -757.3149    173.9275     87.7666    811.7863     12.4752
  1222.7500   -753.4191    172.0287    101.5031    825.7305     10.9758
  1223.0000   -741.9678    164.3454    119.1008    840.8137      9.0520
  1223.2500   -729.1832    149.8011    138.3124    835.5225      8.0930
  1223.5000   -722.8834    129.5233    153.4004    803.8527      7.2019
  1223.7500   -728.2562    107.1977    156.6033    754.9350      7.0348
  1224.0000   -743.8017     86.7388    144.3949    701.1580      7.6592
  1224.2500   -761.5322     70.1848    121.3536    645.7201      8.8037
  1224.5000   -772.3453     57.7030     95.5897    581.1453     11.6863
  1224.7500   -772.2230     48.5780     72.8475    498.7227     14.3661
  1225.0000   -764.2599     41.9382     55.2326    398.6802     19.7609
  1225.2500   -755.8281     37.0551     42.5770    292.1868     24.6743
  1225.5000   -753.7592     33.3960     33.8681    195.0240     34.6844
  1225.7500   -760.5886     30.5881     28.0307    119.2596     43.1519
  1226.0000   -773.7394     28.3711     24.2000     68.8617     57.9340
  1226.2500   -787.9808     26.5618     21.7488     40.5892     68.5692
  1226.5000   -799.1260     25.0368     20.2347     27.6977     84.1375
  1226.7500   -805.9280     23.7198     19.3437     23.4504     93.0837
  1227.0000   -809.3365     22.5677     18.8534     22.9729    102.7913
  1227.2500   -810.8101     21.5588     18.6158     23.5545    106.6845
  1227.5000   -811.3367     20.6849     18.5454     24.1594    109.7061
  1227.7500   -811.3626     19.9481     18.6013     24.8153    110.6155
  1228.0000   -811.0469     19.3557     18.7647     26.1276    111.2188
  1228.2500   -810.4769     18.9114     19.0168     28.7920    111.3063
  1228.5000   -809.7570     18.6095     19.3218     33.0004    110.7880
  1228.7500   -809.0223     18.4346     19.6171     37.9867    109.8440
  1229.0000   -808.4134     18.3654     19.8174     42.1505    107.8601
  1229.2500   -808.0340     18.3778     19.8420     43.8458    106.7324
  1229.5000   -807.9081     18.4425     19.6591     42.3170    106.0699
  1229.7500   -807.9587     18.5189     19.3128     38.0873    106.2441
  1230.0000   -808.0303     18.5519     18.9042     32.5802    106.9300
  1230.2500   -807.9254     18.4779     18.5407     27.3720    107.5467
  1230.5000   -807.4233     18.2421     18.2898     23.6147    108.6674
  1230.7500   -806.2681     17.8187     18.1550     21.8374    109.3493
  1231.0000   -804.2339     17.2242     18.0731     21.9905    109.7010
  1231.2500   -801.3633     16.5137     17.9302     23.5419    109.2771
  1231.5000   -798.2213     15.7649     17.6048     25.5964    107.7213
  1231.7500   -795.7861     15.0556     17.0318     27.1437    106.3136
  1232.0000   -794.9114     14.4472     16.2459     27.4402    104.2951
  1232.2500   -795.8247     13.9746     15.3621     26.3071    103.4779
  1232.5000   -798.0441     13.6460     14.5140     24.1142    103.9230
  1232.7500   -800.6859     13.4455     13.8033     21.4926    105.7732
  1233.0000   -802.9634     13.3370     13.2879     19.0357    110.8588
  1233.2500   -804.5551     13.2687     12.9917     17.1748    115.0101
  1233.5000   -805.5715     13.1808     12.9165     16.2602    120.1008
  1233.7500   -806.2487     13.0216     13.0441     16.7781    121.5877
  1234.0000   -806.7150     12.7670     13.3285     19.4773    120.3424
  1234.2500   -806.9171     12.4305     13.6860     24.9869    117.5609
  1234.5000   -806.5713     12.0552     13.9956     32.8221    111.5754
  1234.7500   -805.0590     11.6906     14.1266     40.6497    107.0848
  1235.0000   -801.5237     11.3730     13.9914     45.1041    100.8964
  1235.2500   -795.6057     11.1184     13.5897     44.0381     97.8539
  1235.5000   -788.6132     10.9268     13.0040     38.1492     95.7550
  1235.7500   -783.6256     10.7900     12.3518     30.2891     96.1627
  1236.0000   -783.4207     10.6981     11.7372     23.3005     99.0877
  1236.2500   -787.9645     10.6435     11.2272     18.5339    101.9551
  1236.5000   -794.4426     10.6200     10.8506     15.9021    106.3155
  1236.7500   -799.6985     10.6176     10.6071     14.7030    108.7459
  1237.0000   -802.1027     10.6159     10.4786     14.2874    111.4884
  1237.2500   -801.3347     10.5856     10.4425     14.2983    112.6558
  1237.5000   -797.5222     10.5020     10.4823     14.6241    112.8156
  1237.7500   -791.3351     10.3585     10.5916     15.2584    111.4550
  1238.0000   -784.5220     10.1696     10.7687     16.2036    107.3020
  1238.2500   -779.2625      9.9601     11.0035     17.4547    103.6968
