~Version Information
VERS.                      2.0: CWLS Log ASCII Standard - VERSION 2.0
WRAP.                       NO: One line per depth step
~Well Information Block
STRT.FT                 0.0000: 
STOP.FT              1916.0000: 
STEP.FT                 0.1000: 
NULL.                -999.2500: 
COMP.          Pioneer Natural Resources: COMPANY
WELL.          Blackjack 32-11 Tr: WELL
FLD.           Purgatorie River: FIELD
LOC.           2066' FNL & 1453' FEL: LOCATION
PROV.                 Colorado: PROVINCE
CNTY.               Las Animas: COUNTRY
SRVC.                Patterson: SERVICE COMPANY
DATE.          Tue Aug 16 12:08:23 2005: LOG DATE
UWI.                          : UNIQUE WELL ID
~Curve Information Block
DEPT.FT            0 000 00 00: Depth
DCAL.in                       : CDL Caliper
RHOB.g/cc                     : CDL Bulk Density
RHOC.g/cc                     : CDL Density Correction
DPOR.pu                       : CDL Density Porosity
GR.GAPI                       : Gamma Ray
NPOR.pu                       : Neutron Porosity
~Parameter Information Block
~A  Depth       DCAL        RHOB        RHOC        DPOR         GR         NPOR    
# ...
  1382.4000      7.8847      2.5629      0.0713      5.2780     95.9900     15.3382
  1382.5000      7.8716      2.5547      0.0454      5.7769     95.8937     15.9796
  1382.6000      7.8716      2.5385      0.0417      6.7587     99.9236     16.6612
  1382.7000      7.8716      2.5005      0.0976      9.0593    103.9259     17.6206
  1382.8000      7.9398      2.4273      0.0510     13.4962    106.3027     18.6887
  1382.9000      7.9398      2.3355      0.0080     19.0581    109.8676     19.7452
  1383.0000      7.9729      2.2632     -0.0846     23.4398    114.6926     20.9818
  1383.1000      7.9729      2.2375     -0.0225     25.0016    119.4901     22.5705
  1383.2000      7.9729      2.2519      0.0170     24.1274    125.0199     24.1526
  1383.3000      8.0341      2.2862      0.0537     22.0475    127.6647     25.2510
  1383.4000      8.0341      2.3335      0.0931     19.1821    123.1162     26.1656
  1383.5000      8.0285      2.3817      0.2629     16.2587    117.0356     27.2077
  1383.6000      8.0285      2.4058      0.3187     14.7994    116.7308     27.9573
  1383.7000      8.0285      2.3984      0.2303     15.2503    120.3615     28.2401
  1383.8000      7.9963      2.3602      0.2279     17.5639    121.4220     28.4578
  1383.9000      7.9963      2.2805      0.1611     22.3965    119.0341     28.7152
  1384.0000      8.0361      2.1754      0.0042     28.7630    117.1909     28.7383
  1384.1000      8.0361      2.0907     -0.0752     33.8951    116.9281     28.5692
  1384.2000      8.0361      2.0414     -0.0426     36.8856    117.6602     28.6015
  1384.3000      8.1953      2.0048     -0.0312     39.1019    116.3927     28.8547
  1384.4000      8.1953      1.9689     -0.0545     41.2814    110.2196     29.1840
  1384.5000      8.1769      1.9424      0.0300     42.8876    104.1201     29.3832
  1384.6000      8.1769      1.9277      0.0785     43.7758    100.5237     29.3651
  1384.7000      8.1769      1.9024      0.1754     45.3077     95.4404     29.6975
  1384.8000      8.2813      1.8402      0.1554     49.0766     90.3144     30.4920
  1384.9000      8.2813      1.7565      0.0243     54.1511     86.9985     30.9671
  1385.0000      8.1904      1.6901     -0.0398     58.1745     82.6529     31.1065
  1385.1000      8.1904      1.6421      0.0146     61.0860     77.1451     31.5471
  1385.2000      8.1904      1.5790      0.0090     64.9084     72.6024     32.2572
  1385.3000      8.1902      1.4918      0.0010     70.1961     69.1964     32.8851
  1385.4000      8.1902      1.4143     -0.0730     74.8935     64.5563     33.3510
  1385.5000      8.1341      1.3825     -0.0359     76.8201     57.8147     33.7620
  1385.6000      8.1341      1.4029      0.0030     75.5796     53.4924     34.1921
  1385.7000      8.1341      1.4741      0.0538     71.2666     55.0589     34.5910
  1385.8000      8.2475      1.6034      0.1058     63.4299     59.2142     35.0189
  1385.9000      8.2475      1.7757      0.2156     52.9855     62.0843     35.3735
  1386.0000      8.3301      1.9414      0.2622     42.9445     63.6520     35.4267
  1386.1000      8.3301      2.0700      0.2786     35.1539     64.2947     35.1171
  1386.2000      8.3301      2.1774      0.3058     28.6413     64.8543     34.6280
  1386.3000      8.2392      2.2843      0.2987     22.1621     69.0692     34.1642
  1386.4000      8.2392      2.3853      0.2199     16.0446     78.8550     33.3610
  1386.5000      8.1540      2.4644      0.1167     11.2476     88.9309     31.7436
  1386.6000      8.1540      2.5162      0.1180      8.1120     93.7903     29.6436
  1386.7000      8.1540      2.5436      0.1342      6.4498     95.9199     27.9452
  1386.8000      8.0801      2.5505      0.1039      6.0284     98.8673     27.0028
  1386.9000      8.0801      2.5451      0.0742      6.3555    100.3649     26.2314
  1387.0000      8.0471      2.5428      0.0638      6.4998     98.7268     24.8700
  1387.1000      8.0471      2.5510      0.1021      6.0001     95.5406     23.1770
  1387.2000      8.0471      2.5573      0.1427      5.6204     92.3290     22.0631
  1387.3000      8.0534      2.5515      0.0874      5.9683     91.7494     21.8933
  1387.4000      8.0534      2.5434      0.0540      6.4630     95.3164     22.2665
  1387.5000      8.0388      2.5391      0.0842      6.7219    100.2885     22.6837
  1387.6000      8.0388      2.5375      0.0422      6.8187    103.0200     22.8019
  1387.7000      8.0388      2.5430      0.1004      6.4827    102.9840     22.3495
  1387.8000      8.0289      2.5510      0.1074      5.9995    102.8156     21.6467
  1387.9000      8.0289      2.5523      0.1033      5.9217    104.1577     21.4949
  1388.0000      8.0624      2.5509      0.0665      6.0031    106.1034     21.6156
  1388.1000      8.0624      2.5523      0.1014      5.9214    106.3033     21.2945
  1388.2000      8.0624      2.5513      0.0885      5.9830    104.3780     20.9462
  1388.3000      8.0444      2.5440      0.0754      6.4269    104.9160     20.8675
  1388.4000      8.0444      2.5361      0.1309      6.9024    110.3585     20.7059
  1388.5000      8.0172      2.5352      0.0823      6.9601    115.9541     20.3975
  1388.6000      8.0172      2.5419      0.1139      6.5515    118.9930     20.1082
  1388.7000      8.0172      2.5469      0.1087      6.2482    122.8003     20.0674
  1388.8000      8.0231      2.5420      0.1274      6.5439    128.2469     20.8229
  1388.9000      8.0231      2.5343      0.0766      7.0151    133.2047     22.3057
  1389.0000      8.0021      2.5357      0.1089      6.9268    135.5409     23.6896
  1389.1000      8.0021      2.5450      0.1130      6.3622    134.2132     24.5025
  1389.2000      8.0021      2.5537      0.1180      5.8357    130.9827     24.4402
  1389.3000      8.0411      2.5573      0.1157      5.6191    127.6488     23.7579
  1389.4000      8.0411      2.5584      0.0930      5.5502    126.0680     23.5426
  1389.5000      8.0961      2.5572      0.1488      5.6213    129.0552     24.0761
  1389.6000      8.0961      2.5490      0.1258      6.1195    133.9819     24.7370
  1389.7000      8.0961      2.5388      0.1080      6.7399    133.4588     25.0335
  1389.8000      8.0764      2.5335      0.1105      7.0626    125.5988     25.0265
  1389.9000      8.0764      2.5338      0.0487      7.0407    116.4227     24.9317
  1390.0000      8.0708      2.5451      0.0250      6.3603    110.2614     24.5373
  1390.1000      8.0708      2.5618      0.0756      5.3460    107.0694     23.6449
  1390.2000      8.0708      2.5620      0.0992      5.3353    106.1947     22.6478
  1390.3000      8.0918      2.5460      0.0197      6.3028    104.8065     22.0568
  1390.4000      8.0918      2.5364      0.0682      6.8848    100.7414     22.0275
  1390.5000      8.0832      2.5335      0.0589      7.0596     96.4167     22.1391
  1390.6000      8.0832      2.5229      0.0636      7.7037     94.5189     21.5631
  1390.7000      8.0832      2.5074      0.0202      8.6405     94.0819     20.2841
  1390.8000      8.0938      2.5022      0.0338      8.9559     92.4908     19.1464
  1390.9000      8.0938      2.5106      0.0199      8.4503     89.1671     18.5864
  1391.0000      8.0480      2.5257      0.0338      7.5322     86.3506     18.4867
  1391.1000      8.0480      2.5426      0.0371      6.5108     84.5874     18.9647
  1391.2000      8.0480      2.5590      0.0263      5.5138     82.7369     19.6001
  1391.3000      8.0725      2.5751      0.0601      4.5388     82.7411     19.5706
  1391.4000      8.0725      2.5927      0.0598      3.4730     85.8392     19.2324
  1391.5000      8.0862      2.6058      0.1046      2.6784     89.9574     19.3083
  1391.6000      8.0862      2.6076      0.0612      2.5721     94.9074     19.4249
  1391.7000      8.0862      2.6109      0.0549      2.3696    100.8587     19.1443
  1391.8000      8.0121      2.6220      0.1282      1.6994    104.6580     19.0077
  1391.9000      8.0121      2.6197      0.1495      1.8340    106.8360     19.0799
