~Version Information
VERS.                      2.0: CWLS Log ASCII Standard - VERSION 2.0
WRAP.                       NO: One line per depth step
~Well Information Block
STRT.FT                -7.5000: 
STOP.FT              2339.2500: 
STEP.FT                 0.2500: 
NULL.                -999.2500: 
COMP.          Pioneer Natural Resources: COMPANY
WELL.            Harrier 44-33: WELL
FLD.           Purgatorie River: FIELD
LOC.           456' FSL & 930' FEL--: LOCATION
PROV.                       CO: PROVINCE
CNTY.               Las Animas: COUNTRY
SRVC.          Patterson Wireline: SERVICE COMPANY
DATE.          Wed Jun 29 11:08:51 2005: LOG DATE
UWI.           05 071 08398 00: UNIQUE WELL ID
~Curve Information Block
DEPT.FT            0 000 00 00: Depth
CCL.                          : Casing Collar Locator
TT3.usec                      : CBL 3' Travel Time
AMP3.mV                       : CBL 3' Amplitude
GR.GAPI                       : Gamma Ray
~Parameter Information Block
~A  Depth       CCL         TT3         AMP3         GR     
# ...
  1232.0000      0.0000    517.2413      5.2104    108.4855
  1232.2500      0.0000    514.5134      5.2364    112.5247
  1232.5000      0.0000    511.5522      5.2306    117.2915
  1232.7500      0.0000    508.2388      5.2185    119.7143
  1233.0000      0.0000    504.2287      5.2215    117.8615
  1233.2500      0.0000    500.0141      5.2446    112.6826
  1233.5000      0.0000    497.3517      5.2900    106.7736
  1233.7500      0.0000    498.0739      5.3691    101.8260
  1234.0000      0.0000    502.4010      5.4864     97.7377
  1234.2500      0.0000    508.4731      5.6189     93.6779
  1234.5000      0.0000    513.7449      5.7294     89.0890
  1234.7500      0.0000    517.4410      5.7996     83.7578
  1235.0000      0.0000    522.3793      5.8405     77.8361
  1235.2500      0.0000    534.6005      5.8718     72.0259
  1235.5000      0.0000    560.1610      5.9036     67.2130
  1235.7500      0.0000    600.3278      5.9339     63.6932
  1236.0000      0.0000    648.6116      5.9490     61.0519
  1236.2500      0.0000    693.3599      5.9270     58.8188
  1236.5000      0.0000    725.3018      5.8556     57.0510
  1236.7500      0.0000    743.7022      5.7531     56.2492
  1237.0000      0.0000    755.1597      5.6594     56.7890
  1237.2500      0.0000    766.5563      5.5984     58.4293
  1237.5000      0.0000    779.4305      5.5573     60.3919
  1237.7500      0.0000    790.1811      5.5086     62.1007
  1238.0000      0.0000    793.8998      5.4487     63.7930
  1238.2500      0.0000    787.9143      5.4054     66.0445
  1238.5000      0.0000    773.7659      5.4064     68.6621
  1238.7500      0.0000    757.4163      5.4449     70.7220
  1239.0000      0.0000    746.9349      5.4832     72.2078
  1239.2500      0.0000    748.1707      5.4891     75.0349
  1239.5000      0.0000    761.0523      5.4683     81.5579
  1239.7500      0.0000    779.1024      5.4575     92.0453
  1240.0000      0.0000    792.7993      5.4790    104.0745
  1240.2500      0.0000    795.5161      5.5103    114.3309
  1240.5000      0.0000    788.6072      5.5086    120.8286
  1240.7500      0.0000    780.8422      5.4599    123.7081
  1241.0000      0.0000    780.6947      5.3875    124.4399
  1241.2500      0.0000    787.9888      5.3161    124.4290
  1241.5000      0.0000    793.9780      5.2458    124.1871
  1241.7500      0.0000    789.6788      5.1648    123.6336
  1242.0000      0.0000    773.3077      5.0773    122.9738
  1242.2500      0.0000    750.5730      5.0095    122.8459
  1242.5000      0.0000    729.7936      4.9832    123.3279
  1242.7500      0.0000    716.8607      4.9874    123.2232
  1243.0000      0.0000    713.2502      4.9836    121.1907
  1243.2500      0.0000    717.2437      4.9363    117.7746
  1243.5000      0.0000    726.3322      4.8408    115.5461
  1243.7500      0.0000    738.8206      4.7262    116.7030
  1244.0000      0.0000    754.2021      4.6327    120.9382
  1244.2500      0.0000    772.2285      4.5724    125.9104
  1244.5000      0.0000    790.5616      4.5133    129.3388
  1244.7500      0.0000    803.4559      4.4118    130.5392
  1245.0000      0.0000    804.8468      4.2621    130.5123
  1245.2500      0.0000    794.3547      4.1080    130.8656
  1245.5000      0.0000    779.8684      4.0029    132.3707
  1245.7500      0.0000    772.7203      3.9637    134.2619
  1246.0000      0.0000    779.1248      3.9622    134.8410
  1246.2500      0.0000    795.8655      3.9553    132.7113
  1246.5000      0.0000    813.8021      3.9180    127.5630
  1246.7500      0.0000    824.4449      3.8570    120.2736
  1247.0000      0.0000    823.2185      3.8038    112.6426
  1247.2500      0.0000    809.1846      3.7992    106.7078
  1247.5000      0.0000    785.1149      3.8751    103.8003
  1247.7500      0.0000    758.0609      4.0398    104.1692
  1248.0000      0.0000    736.8965      4.2738    107.2786
  1248.2500      0.0000    726.6907      4.5368    111.8431
  1248.5000      0.0000    725.4052      4.7788    115.7380
  1248.7500      0.0000    726.9971      4.9584    116.9690
  1249.0000      0.0000    727.8063      5.0631    115.1956
  1249.2500      0.0000    728.8871      5.1108    111.8715
  1249.5000      0.0000    732.1006      5.1239    108.8148
  1249.7500      0.0000    735.9557      5.1007    107.0368
  1250.0000      0.0000    736.8821      5.0238    106.7027
  1250.2500      0.0000    732.8702      4.8968    107.4548
  1250.5000      0.0000    724.0042      4.7604    108.6048
  1250.7500      0.0000    710.4832      4.6691    109.5972
  1251.0000      0.0000    691.8899      4.6585    110.5699
  1251.2500      0.0000    668.2364      4.7307    112.0891
  1251.5000      0.0000    641.0307      4.8596    114.1656
  1251.7500      0.0000    613.5020      5.0026    115.9002
  1252.0000      0.0000    589.4881      5.1223    116.2739
  1252.2500      0.0000    571.1772      5.2099    115.0488
  1252.5000      0.0000    557.9233      5.2869    112.8362
  1252.7500      0.0000    547.3342      5.3748    110.5834
  1253.0000      0.0000    537.1659      5.4656    109.1666
  1253.2500      0.0000    526.6740      5.5211    109.1401
  1253.5000      0.0000    517.5377      5.4979    110.3970
  1253.7500      0.0000    513.9771      5.3776    112.0264
  1254.0000      0.0000    521.4176      5.1823    112.7442
  1254.2500      0.0000    543.6813      4.9696    111.5980
  1254.5000      0.0000    579.8942      4.8103    108.2947
  1254.7500      0.0000    623.3301      4.7535    103.0879
  1255.0000      0.0000    664.0750      4.7958     96.6969
  1255.2500      0.0000    694.0848      4.8887     90.4264
  1255.5000      0.0000    710.7942      4.9880     86.0694
  1255.7500      0.0000    716.8089      5.0938     85.1200
  1256.0000      0.0000    716.2954      5.2304     87.5461
  1256.2500      0.0000    710.6346      5.3957     91.4106
  1256.5000      0.0000    697.0873      5.5446     94.2391
  1256.7500      0.0000    672.8004      5.6212     94.9970
  1257.0000      0.0000    640.8085      5.6027     94.6535
  1257.2500      0.0000    611.1046      5.5137     94.8214
  1257.5000      0.0000    594.3275      5.4115     95.9401
  1257.7500      0.0000    593.9102      5.3586     96.9646
  1258.0000      0.0000    604.7824      5.3936     96.9180
  1258.2500      0.0000    619.8437      5.5125     96.3481
  1258.5000      0.0000    635.9858      5.6714     96.6452
  1258.7500      0.0000    652.4725      5.8073     98.1586
  1259.0000      0.0000    665.4351      5.8629     99.8045
  1259.2500      0.0000    667.4225      5.8039    100.6227
  1259.5000      0.0000    653.2582      5.6321    100.9318
  1259.7500      0.0000    625.1961      5.3880    101.6278
  1260.0000      0.0000    591.9786      5.1389    102.6768
  1260.2500      0.0000    563.0706      4.9565    102.6809
  1260.5000      0.0000    543.3625      4.8963    100.1064
  1260.7500      0.0000    532.1118      4.9850     94.8273
  1261.0000      0.0000    525.5652      5.2085     88.3880
  1261.2500      0.0000    520.2648      5.5055     82.9734
  1261.5000      0.0000    514.8912      5.7878     80.0943
  1261.7500      0.0000    510.2219      5.9898     79.8122
  1262.0000      0.0000    507.5962      6.1018     80.9203
  1262.2500      0.0000    507.5197      6.1482     81.9805
  1262.5000      0.0000    510.0589      6.1398     82.4210
  1262.7500      0.0000    516.6470      6.0585     82.8032
  1263.0000      0.0000    530.7166      5.8855     84.1412
  1263.2500      0.0000    555.3122      5.6332     87.1077
  1263.5000      0.0000    588.8897      5.3521     91.6381
  1263.7500      0.0000    623.5419      5.1169     96.7091
  1264.0000      0.0000    648.1688      5.0075    100.3585
  1264.2500      0.0000    653.8680      5.0874    100.5634
  1264.5000      0.0000    638.3134      5.3715     96.6841
  1264.7500      0.0000    609.3902      5.7889     90.2346
  1265.0000      0.0000    585.5294      6.1807     84.1166
  1265.2500      0.0000    586.1233      6.3665     80.6673
