~Version Information
VERS.                      2.0: CWLS Log ASCII Standard - VERSION 2.0
WRAP.                       NO: One line per depth step
~Well Information Block
STRT.FT               350.0000: 
STOP.FT              2264.0000: 
STEP.FT                 0.1000: 
NULL.                -999.2500: 
COMP.          Pioneer Natural Resources: COMPANY
WELL.             Warrior 32-1: WELL
FLD.           Purgatoire River: FIELD
LOC.           2624' FNL & 2392' FEL: LOCATION
PROV.                 Colorado: PROVINCE
CNTY.               Las Animas: COUNTRY
SRVC.                Patterson: SERVICE COMPANY
DATE.          Tue Oct 05 06:54:20 2004: LOG DATE
UWI.           05 071 08176 00: UNIQUE WELL ID
~Curve Information Block
DEPT.FT            0 000 00 00: Depth
DCAL.in                       : CDL Caliper
RHOB.g/cc                     : CDL Bulk Density
RHOC.g/cc                     : CDL Density Correction
DPOR.pu                       : CDL Density Porosity
NPOR.pu                       : Neutron Porosity
GR.GAPI                       : Gamma Ray
~Parameter Information Block
~A  Depth       DCAL        RHOB        RHOC        DPOR        NPOR         GR     
# ...
  1482.8000      8.1215      2.5252      0.0593      7.5640     15.8901     77.2041
  1482.9000      8.1215      2.5231      0.0806      7.6896     15.7390     70.6540
  1483.0000      8.1210      2.5227      0.0613      7.7159     15.0399     64.7020
  1483.1000      8.1210      2.5268      0.0444      7.4686     15.0551     62.5930
  1483.2000      8.1210      2.5376      0.0756      6.8106     15.9390     66.4886
  1483.3000      8.1160      2.5458      0.0879      6.3141     16.7373     75.3629
  1483.4000      8.1160      2.5440      0.0708      6.4215     16.9361     84.1887
  1483.5000      8.1006      2.5351      0.0749      6.9662     16.8526     89.0335
  1483.6000      8.1006      2.5231      0.0773      7.6880     16.9103     90.2073
  1483.7000      8.1006      2.5152      0.0322      8.1698     16.9964     88.4907
  1483.8000      8.0883      2.5153      0.0665      8.1640     16.6974     86.1102
  1483.9000      8.0883      2.5138      0.0338      8.2535     16.2818     87.5871
  1484.0000      8.0991      2.5028      0.0511      8.9241     16.2841     90.6175
  1484.1000      8.0991      2.4864      0.0444      9.9136     16.8838     87.4974
  1484.2000      8.0991      2.4704      0.0455     10.8872     17.8952     79.0348
  1484.3000      8.1122      2.4553      0.0149     11.8009     18.8446     71.9257
  1484.4000      8.1122      2.4457      0.0423     12.3793     19.2264     67.6793
  1484.5000      8.1161      2.4444      0.0124     12.4584     18.8369     65.5216
  1484.6000      8.1161      2.4389      0.0756     12.7909     18.0886     66.6147
  1484.7000      8.1161      2.4181      0.0348     14.0561     17.4121     69.1937
  1484.8000      8.1133      2.4011     -0.0155     15.0836     16.9718     70.4905
  1484.9000      8.1133      2.4114      0.0017     14.4615     16.9595     73.0345
  1485.0000      8.1094      2.4330      0.0702     13.1509     17.0800     76.8510
  1485.1000      8.1094      2.4388      0.0318     12.7976     17.0196     78.5020
  1485.2000      8.1094      2.4410      0.0033     12.6668     16.9185     78.1886
  1485.3000      8.1126      2.4564      0.0680     11.7360     16.9589     77.7927
  1485.4000      8.1126      2.4657      0.0905     11.1694     16.7389     78.2291
  1485.5000      8.1174      2.4576      0.0331     11.6610     15.7886     78.3547
  1485.6000      8.1174      2.4507      0.0443     12.0778     14.7780     79.1591
  1485.7000      8.1174      2.4548      0.0318     11.8287     14.4658     81.3463
  1485.8000      8.1190      2.4585      0.0527     11.6035     14.5840     81.9088
  1485.9000      8.1190      2.4513      0.0301     12.0437     14.8432     81.4505
  1486.0000      8.1186      2.4397      0.0147     12.7481     15.3937     79.8742
  1486.1000      8.1186      2.4409     -0.0063     12.6717     15.9714     76.3548
  1486.2000      8.1186      2.4608      0.0537     11.4691     16.1201     75.1519
  1486.3000      8.1176      2.4873      0.0790      9.8588     15.8315     77.2673
  1486.4000      8.1176      2.5072      0.0933      8.6570     15.3360     77.8149
  1486.5000      8.1179      2.5087      0.0827      8.5657     14.8420     76.3124
  1486.6000      8.1179      2.4912      0.0889      9.6249     14.3442     76.8928
  1486.7000      8.1179      2.4717      0.0358     10.8085     13.6308     79.8167
  1486.8000      8.1198      2.4582      0.0765     11.6255     12.9608     83.9680
  1486.9000      8.1198      2.4460      0.0315     12.3651     12.8874     85.3277
  1487.0000      8.1204      2.4390      0.0509     12.7902     13.3356     81.8076
  1487.1000      8.1204      2.4363      0.0585     12.9487     14.1297     79.9101
  1487.2000      8.1204      2.4312      0.0564     13.2617     14.8574     79.8909
  1487.3000      8.1197      2.4279      0.0195     13.4615     14.8208     75.7544
  1487.4000      8.1197      2.4312      0.0504     13.2601     14.3318     68.4362
  1487.5000      8.1198      2.4345      0.0606     13.0580     14.2469     62.0994
  1487.6000      8.1198      2.4293      0.0489     13.3741     14.4982     57.0365
  1487.7000      8.1198      2.4189      0.0505     14.0054     14.4184     54.8887
  1487.8000      8.1200      2.4189      0.0056     14.0083     13.9481     58.6827
  1487.9000      8.1200      2.4359      0.0278     12.9773     13.8029     65.3629
  1488.0000      8.1195      2.4554      0.0610     11.7913     14.2179     68.0029
  1488.1000      8.1195      2.4590      0.0910     11.5746     14.5964     65.2623
  1488.2000      8.1195      2.4489      0.0430     12.1873     14.6479     62.9073
  1488.3000      8.1186      2.4470      0.0411     12.3053     14.6202     63.7634
  1488.4000      8.1186      2.4636      0.0356     11.2997     14.7487     63.2780
  1488.5000      8.1172      2.4889      0.0574      9.7665     14.6731     59.9471
  1488.6000      8.1172      2.5101      0.0658      8.4808     13.9871     57.9729
  1488.7000      8.1172      2.5205      0.0693      7.8506     13.3364     57.7274
  1488.8000      8.1151      2.5186      0.0558      7.9658     13.2756     57.5109
  1488.9000      8.1151      2.5065      0.0600      8.6946     13.4116     58.8575
  1489.0000      8.1158      2.4897      0.0297      9.7141     13.5737     62.3155
  1489.1000      8.1158      2.4758      0.0342     10.5547     14.0970     65.0612
  1489.2000      8.1158      2.4692      0.0328     10.9547     14.7539     65.3672
  1489.3000      8.1178      2.4680      0.0343     11.0322     15.0703     64.3016
  1489.4000      8.1178      2.4739      0.0506     10.6737     15.2319     63.4211
  1489.5000      8.1180      2.4960      0.0485      9.3319     15.3946     66.0167
  1489.6000      8.1180      2.5314      0.0872      7.1879     15.5006     72.4888
  1489.7000      8.1180      2.5579      0.1298      5.5808     15.6407     77.6374
  1489.8000      8.1177      2.5653      0.0782      5.1331     15.7864     78.5349
  1489.9000      8.1177      2.5679      0.0841      4.9766     15.7665     79.3348
  1490.0000      8.1178      2.5740      0.0917      4.6050     15.3692     85.8149
  1490.1000      8.1178      2.5813      0.0868      4.1633     14.6799     92.8094
  1490.2000      8.1178      2.5848      0.1038      3.9544     14.1788     93.4803
  1490.3000      8.1150      2.5777      0.0817      4.3798     14.1344     94.0199
  1490.4000      8.1150      2.5635      0.0731      5.2442     14.4015     96.8880
  1490.5000      8.1088      2.5538      0.0410      5.8306     14.6296     97.4903
  1490.6000      8.1088      2.5504      0.0685      6.0351     14.4212     99.1973
  1490.7000      8.1088      2.5393      0.0594      6.7105     13.8742    104.4652
  1490.8000      8.1068      2.5210      0.0213      7.8168     13.6337    108.9886
  1490.9000      8.1068      2.5197      0.0014      7.8986     13.8996    111.2043
  1491.0000      8.1135      2.5454      0.0594      6.3394     14.1716    110.0113
  1491.1000      8.1135      2.5801      0.0454      4.2349     14.1395    102.1847
  1491.2000      8.1135      2.6035      0.0702      2.8185     13.9256     87.8566
  1491.3000      8.1176      2.6073      0.0766      2.5903     13.7959     74.2178
  1491.4000      8.1176      2.5978      0.0580      3.1621     14.2092     68.7368
  1491.5000      8.1176      2.5867      0.0297      3.8361     15.0902     67.9895
  1491.6000      8.1176      2.5759      0.0719      4.4893     15.5906     65.5305
  1491.7000      8.1176      2.5604      0.0563      5.4274     15.3861     62.5636
  1491.8000      8.1185      2.5412      0.0403      6.5910     14.9667     62.5222
  1491.9000      8.1185      2.5238      0.0474      7.6487     14.7527     64.5746
  1492.0000      8.1196      2.5151     -0.0342      8.1770     14.7984     66.5297
  1492.1000      8.1196      2.5184      0.0261      7.9746     14.9425     67.7675
  1492.2000      8.1196      2.5181      0.0589      7.9926     15.1849     67.0472
  1492.3000      8.1195      2.5073      0.0163      8.6488     15.4519     64.2446
