~Version Information
 VERS.                                  2.0 : CWLS LAS VERSION
 WRAP.                                   NO : WRAPING MODE
 SWARE .                 MController 2.5.0J : SOFTWARE VERSION
~Well Information
 WELL.                      Robinson 15-11R : WELL
 COMP.                       Petrogulf Corp : COMPANY
 FLD.                      Purgatoire River : FIELD
 LOC.                NW/NW Sec 15 T33S R67W : LOCATION
 DATE.                             11/06/04 : DATE(S) LOGGED
 SRVC.       Blanco Geological Services LLC : SERVICE COMPANY
 STAT.                                   CO : STATE
 CNTY.                           Las Animas : COUNTY
 CTRY.                                  USA : COUNTRY
 API.                       05-071-08029-00 : API NUMBER
 STRT.FT                             571.00 : START DEPTH
 STOP.FT                            1521.00 : STOP DEPTH
 STEP.FT                               1.00 : DEPTH INCREMENT
 NULL.                                -9999 : NULL VALUE
~Curve information
 DEPTH.FT                                   :
 ROP.MIN/FT                                 :
 GAS.UNITS                                  :
~ASCII Log data
# ...
       771.0         0.10          6.5 
       772.0         0.20          7.0 
       773.0         0.23          8.1 
       774.0         0.20          9.3 
       775.0         0.20         10.0 
       776.0         0.23         10.4 
       777.0         0.18          9.7 
       778.0         0.20          9.9 
       779.0         0.20         10.5 
       780.0         0.20         10.6 
       781.0         0.27         11.8 
       782.0         0.17         12.1 
       783.0         0.23         12.9 
       784.0         0.27         13.0 
       785.0         0.27         12.4 
       786.0         0.23         13.1 
       787.0         0.30         13.7 
       788.0         0.20         13.5 
       789.0         0.17         13.2 
       790.0         0.17         12.7 
       791.0         0.13         12.1 
       792.0         0.13         11.8 
       793.0         0.10         11.3 
       794.0         0.15         11.7 
       795.0         0.10         11.5 
       796.0         0.10         11.2 
       797.0         0.17         10.8 
       798.0         0.10         10.9 
       799.0         0.27          8.2 
       800.0         0.23          8.7 
       801.0         0.27         10.9 
       802.0         0.25         10.8 
       803.0         0.37          9.5 
       804.0         0.27          8.8 
       805.0         0.30         10.3 
       806.0         0.33         12.2 
       807.0         0.20         13.8 
       808.0         0.23         15.4 
       809.0         0.20         15.8 
       810.0         0.20         15.8 
       811.0         0.20         15.9 
       812.0         0.30         15.9 
       813.0         0.27         15.1 
       814.0         0.22         15.2 
       815.0         0.37         14.0 
       816.0         0.30         12.3 
       817.0         0.20         11.0 
       818.0         0.23         10.8 
       819.0         0.23         11.5 
       820.0         0.23         10.8 
       821.0         0.23         10.1 
       822.0         0.23          9.7 
       823.0         0.33          9.9 
       824.0         0.23         10.1 
       825.0         0.27          9.1 
       826.0         0.20          8.6 
       827.0         0.22         16.4 
       828.0         0.13         18.0 
       829.0         0.13         18.8 
       830.0         0.22         20.0 
       831.0         0.23         20.7 
       832.0         0.20         21.4 
       833.0         0.20         24.0 
       834.0         0.17         24.9 
       835.0         0.17         27.7 
       836.0         0.17         27.7 
       837.0         0.20         29.6 
       838.0         0.20         30.7 
       839.0         0.17         31.2 
       840.0         0.20         31.6 
       841.0         0.27         33.2 
       842.0         0.17         34.6 
       843.0         0.17         34.9 
       844.0         0.20         35.1 
       845.0         0.17         35.1 
       846.0         0.17         34.9 
       847.0         0.27         36.5 
       848.0         0.28         35.4 
       849.0         0.27         34.0 
       850.0         0.30         31.0 
       851.0         0.30         21.8 
       852.0         0.27         20.9 
       853.0         0.23         20.4 
       854.0         0.23         22.3 
       855.0         0.27         27.0 
       856.0         0.35         32.9 
       857.0         0.30         38.0 
       858.0         0.27         40.6 
       859.0         0.27         41.9 
       860.0         0.30         41.1 
       861.0         0.27         38.2 
       862.0         0.20         36.8 
       863.0         0.20         35.1 
       864.0         0.13         33.5 
       865.0         0.17         33.0 
       866.0         0.13         31.3 
       867.0         0.17         30.7 
       868.0         0.17         28.2 
       869.0         0.13         26.2 
       870.0         0.13         23.8 
       871.0         0.10         22.6 
       872.0         0.13         21.4 
       873.0         0.15         21.4 
       874.0         0.13         20.8 
       875.0         0.10         20.8 
       876.0         0.13         20.6 
       877.0         0.10         20.4 
       878.0         0.13         19.9 
       879.0         0.17         19.3 
       880.0         0.27         15.1 
       881.0         0.27         15.1 
       882.0         0.20         14.9 
       883.0         0.30         16.7 
       884.0         0.30         21.0 
       885.0         0.30         26.5 
       886.0         0.37         33.6 
       887.0         0.42         39.2 
       888.0         0.37         42.3 
       889.0         0.33         42.2 
       890.0         0.20         41.2 
       891.0         0.33         38.9 
       892.0         0.23         35.3 
       893.0         0.20         33.7 
       894.0         0.17         31.8 
       895.0         0.17         29.9 
       896.0         0.27         27.2 
       897.0         0.23         25.8 
       898.0         0.23         22.9 
       899.0         0.20         21.5 
       900.0         0.18         21.9 
       901.0         0.20         20.1 
       902.0         0.17         19.9 
       903.0         0.13         19.0 
       904.0         0.17         18.3 
       905.0         0.17         17.3 
       906.0         0.17         16.8 
       907.0         0.17         16.9 
       908.0         0.13         16.4 
       909.0         0.13         16.2 
       910.0         0.13         16.3 
       911.0         0.20         13.7 
       912.0         0.20         13.9 
       913.0         0.17         13.7 
       914.0         0.13         14.1 
       915.0         0.17         15.5 
       916.0         0.13         17.0 
       917.0         0.13         19.6 
       918.0         0.10         20.3 
       919.0         0.10         22.3 
       920.0         0.13         24.6 
       921.0         0.13         27.3 
       922.0         0.20         29.9 
       923.0         0.20         32.1 
       924.0         0.17         33.3 
       925.0         0.13         32.6 
       926.0         0.13         33.4 
       927.0         0.23         32.1 
       928.0         0.22         31.1 
       929.0         0.33         30.6 
       930.0         0.13         29.8 
       931.0         0.13         28.8 
       932.0         0.17         28.5 
       933.0         0.17         27.2 
       934.0         0.10         26.3 
       935.0         0.10         25.3 
       936.0         0.17         24.8 
       937.0         0.17         23.7 
       938.0         0.17         22.7 
       939.0         0.23         22.3 
       940.0         0.23         20.1 
       941.0         0.20         19.4 
       942.0         0.23         17.8 
       943.0         0.23         16.9 
       944.0         0.27         29.4 
       945.0         0.33         26.1 
       946.0         0.33         24.2 
       947.0         0.27         22.2 
       948.0         0.23         20.8 
       949.0         0.28         18.8 
       950.0         0.30         16.4 
       951.0         0.20         16.7 
       952.0         0.30         16.2 
       953.0         0.27         16.3 
       954.0         0.30         16.9 
       955.0         0.30         17.2 
       956.0         0.27         17.4 
       957.0         0.30         16.3 
       958.0         0.17         16.6 
       959.0         0.10         15.9 
       960.0         0.13         16.4 
       961.0         0.13         16.5 
       962.0         0.10         17.3 
       963.0         0.17         16.4 
       964.0         0.15         16.5 
       965.0         0.17         16.2 
       966.0         0.20         15.9 
       967.0         0.17         15.9 
       968.0         0.27         14.0 
       969.0         0.20         13.4 
       970.0         0.33         13.3 
