~Version Information
VERS.                      2.0: CWLS Log ASCII Standard - VERSION 2.0
WRAP.                       NO: One line per depth step
~Well Information Block
STRT.FT               770.0000: 
STOP.FT              1718.7000: 
STEP.FT                 0.1000: 
NULL.                -999.2500: 
COMP.          Pioneer Natural Resources: COMPANY
WELL.            Salty 42-6 Tr: WELL
FLD.           Purgatoire River: FIELD
LOC.           2409' FNL & 599' FEL: LOCATION
PROV.                 Colorado: PROVINCE
CNTY.               Las Animas: COUNTRY
SRVC.                Patterson: SERVICE COMPANY
DATE.          Thu Dec 16 09:30:36 2004: LOG DATE
UWI.           05 071 08238 00: UNIQUE WELL ID
~Curve Information Block
DEPT.FT            0 000 00 00: Depth
DCAL.in                       : CDL Caliper
RHOB.g/cc                     : CDL Bulk Density
RHOC.g/cc                     : CDL Density Correction
DPOR.pu                       : CDL Density Porosity
NPOR.pu                       : Neutron Porosity
GR.GAPI                       : Gamma Ray
~Parameter Information Block
~A  Depth       DCAL        RHOB        RHOC        DPOR        NPOR         GR     
# ...
  1509.2000      7.9124      2.5796      0.0741      4.2644     25.1471    127.8918
  1509.3000      7.9082      2.5797      0.0836      4.2587     25.1489    128.9793
  1509.4000      7.9082      2.5744      0.0965      4.5844     25.0355    131.5577
  1509.5000      7.9091      2.5633      0.0505      5.2523     24.7644    133.1547
  1509.6000      7.9091      2.5496      0.0596      6.0854     24.3910    132.2702
  1509.7000      7.9091      2.5389      0.0355      6.7313     24.1648    130.5619
  1509.8000      7.9098      2.5408      0.0353      6.6152     24.2235    128.3639
  1509.9000      7.9098      2.5573      0.0595      5.6175     24.6888    126.1395
  1510.0000      7.9076      2.5756      0.0822      4.5069     25.3396    125.1665
  1510.1000      7.9076      2.5795      0.0721      4.2698     25.5077    124.7350
  1510.2000      7.9076      2.5670      0.0320      5.0302     25.1372    124.6975
  1510.3000      7.9069      2.5505      0.0691      6.0315     24.7654    127.2628
  1510.4000      7.9069      2.5401      0.0283      6.6589     24.6861    131.7272
  1510.5000      7.9024      2.5362      0.0338      6.8970     24.9051    132.0663
  1510.6000      7.9024      2.5279      0.0607      7.3998     24.9808    126.1418
  1510.7000      7.9024      2.5029      0.0693      8.9178     24.6208    119.3509
  1510.8000      7.8927      2.4661     -0.0003     11.1483     24.2507    118.3807
  1510.9000      7.8927      2.4325      0.0228     13.1800     24.3347    124.6209
  1511.0000      7.8884      2.4079      0.0024     14.6702     24.5672    131.9871
  1511.1000      7.8884      2.4046     -0.0184     14.8727     24.5240    135.5882
  1511.2000      7.8884      2.4402      0.0288     12.7125     24.4318    135.7706
  1511.3000      7.8884      2.5020      0.0920      8.9720     24.4518    131.6540
  1511.4000      7.8884      2.5501      0.1467      6.0561     24.4065    123.0328
  1511.5000      7.8915      2.5648      0.1189      5.1630     24.2490    115.0999
  1511.6000      7.8915      2.5593      0.1392      5.4991     24.1261    112.2887
  1511.7000      7.8915      2.5487      0.1199      6.1384     24.2699    111.5799
  1511.8000      7.9005      2.5385      0.1116      6.7577     24.7607    108.0530
  1511.9000      7.9005      2.5354      0.0675      6.9476     25.3774    101.7794
  1512.0000      7.9092      2.5428      0.1070      6.4988     25.6412     96.9264
  1512.1000      7.9092      2.5516      0.0718      5.9620     25.3748     98.1298
  1512.2000      7.9092      2.5530      0.1044      5.8764     24.9905    103.9512
  1512.3000      7.9132      2.5496      0.0635      6.0833     24.8828    107.6301
  1512.4000      7.9132      2.5535      0.0511      5.8498     24.8996    108.0115
  1512.5000      7.9143      2.5626      0.0921      5.2958     24.6928    110.9430
  1512.6000      7.9143      2.5592      0.0927      5.5014     24.3477    118.3667
  1512.7000      7.9143      2.5463      0.0251      6.2824     24.0833    125.5160
  1512.8000      7.9164      2.5438      0.0601      6.4369     24.0513    128.0970
  1512.9000      7.9164      2.5478      0.0967      6.1959     24.1926    127.2464
  1513.0000      7.9186      2.5402      0.0761      6.6555     24.1864    126.7430
  1513.1000      7.9186      2.5207      0.1002      7.8334     23.9491    126.6039
  1513.2000      7.9186      2.5069      0.0437      8.6742     23.8088    124.0338
  1513.3000      7.9187      2.5154      0.0862      8.1586     23.9930    121.7910
  1513.4000      7.9187      2.5390      0.0760      6.7259     24.2814    123.3691
  1513.5000      7.9175      2.5558      0.1258      5.7089     24.2351    125.4741
  1513.6000      7.9175      2.5603      0.0817      5.4372     24.0217    127.3291
  1513.7000      7.9175      2.5652      0.0983      5.1368     23.9908    130.1000
  1513.8000      7.9162      2.5747      0.1427      4.5666     23.9045    130.8269
  1513.9000      7.9162      2.5836      0.0900      4.0230     23.7512    129.6472
  1514.0000      7.9163      2.5933      0.0980      3.4338     23.9899    129.6398
  1514.1000      7.9163      2.5982      0.1345      3.1393     24.6234    129.3781
  1514.2000      7.9163      2.5880      0.0933      3.7560     25.1057    126.8768
  1514.3000      7.9207      2.5704      0.0850      4.8219     25.0397    123.3025
  1514.4000      7.9207      2.5577      0.0543      5.5952     24.6263    121.0155
  1514.5000      7.9305      2.5483      0.0205      6.1609     24.3739    122.4106
  1514.6000      7.9305      2.5383      0.0073      6.7691     24.3688    126.5162
  1514.7000      7.9305      2.5318      0.0236      7.1652     24.3396    128.9512
  1514.8000      7.9401      2.5294      0.0637      7.3113     24.3868    126.3310
  1514.9000      7.9401      2.5250      0.0051      7.5760     24.8441    120.5065
  1515.0000      7.9442      2.5184      0.0239      7.9757     25.4922    115.2853
  1515.1000      7.9442      2.5139     -0.0092      8.2464     25.7576    110.4217
  1515.2000      7.9442      2.5184     -0.0064      7.9762     25.6713    104.8058
  1515.3000      7.9440      2.5307      0.0338      7.2325     25.7532    100.6314
  1515.4000      7.9440      2.5406      0.0253      6.6289     26.0417    101.6632
  1515.5000      7.9426      2.5462      0.0387      6.2894     26.1670    108.0301
  1515.6000      7.9426      2.5541      0.0399      5.8110     25.9621    115.9885
  1515.7000      7.9426      2.5622      0.0664      5.3221     25.4696    122.3283
  1515.8000      7.9435      2.5595      0.0601      5.4835     25.1041    127.0020
  1515.9000      7.9435      2.5417      0.0556      6.5658     25.3028    130.9318
  1516.0000      7.9451      2.5102      0.0386      8.4721     25.7307    130.8387
  1516.1000      7.9451      2.4753      0.0386     10.5882     25.8336    127.2932
  1516.2000      7.9451      2.4545      0.0126     11.8489     25.5833    127.9833
  1516.3000      7.9442      2.4569      0.0252     11.7042     25.2234    132.6395
  1516.4000      7.9442      2.4733      0.0645     10.7073     24.8875    132.5538
  1516.5000      7.9439      2.4960      0.0348      9.3318     24.5650    127.7019
  1516.6000      7.9439      2.5288      0.0821      7.3434     24.2449    125.8478
  1516.7000      7.9439      2.5605      0.0955      5.4240     23.9438    126.5693
  1516.8000      7.9441      2.5695      0.1257      4.8804     23.7242    123.9745
  1516.9000      7.9441      2.5548      0.0808      5.7722     23.7931    118.5172
  1517.0000      7.9398      2.5362      0.0827      6.8951     24.1960    115.2812
  1517.1000      7.9398      2.5294      0.0565      7.3085     24.7116    116.3103
  1517.2000      7.9398      2.5274      0.0978      7.4298     25.2242    116.8864
  1517.3000      7.9314      2.5136      0.0811      8.2659     25.8736    114.4781
  1517.4000      7.9314      2.4895      0.0578      9.7285     26.4853    113.1297
  1517.5000      7.9234      2.4687      0.0320     10.9901     26.7027    114.1684
  1517.6000      7.9234      2.4615      0.0150     11.4221     26.7550    116.8032
  1517.7000      7.9234      2.4652      0.0476     11.1993     27.0917    122.7723
  1517.8000      7.9197      2.4656      0.0356     11.1781     27.5467    131.6414
  1517.9000      7.9197      2.4556      0.0242     11.7817     27.6417    139.3095
  1518.0000      7.9193      2.4382      0.0388     12.8368     27.3080    144.2327
  1518.1000      7.9193      2.4204      0.0184     13.9161     26.9254    147.1135
  1518.2000      7.9193      2.4129      0.0211     14.3702     26.6315    145.5148
  1518.3000      7.9182      2.4212      0.0387     13.8646     26.1189    138.9411
  1518.4000      7.9182      2.4428      0.0646     12.5595     25.5041    133.1989
  1518.5000      7.9144      2.4756      0.0848     10.5693     25.0172    133.7105
  1518.6000      7.9144      2.5106      0.1063      8.4471     24.3717    138.1675
  1518.7000      7.9144      2.5319      0.1148      7.1577     23.2864    140.3334
