~Version Information
VERS.                      2.0: CWLS Log ASCII Standard - VERSION 2.0
WRAP.                       NO: One line per depth step
~Well Information Block
STRT.FT               580.0000: 
STOP.FT              1756.0000: 
STEP.FT                 0.1000: 
NULL.                -999.2500: 
COMP.          Pioneer Natural Resources: COMPANY
WELL.          Lookout Point 31-23 Tr: WELL
FLD.           Purgatoire River: FIELD
LOC.           541' FNL & 1768' FEL: LOCATION
PROV.                 Colorado: PROVINCE
CNTY.               Las Animas: COUNTRY
SRVC.                Patterson: SERVICE COMPANY
DATE.          Mon Jan 24 07:20:20 2005: LOG DATE
UWI.           05 071 08260 00: UNIQUE WELL ID
~Curve Information Block
DEPT.FT            0 000 00 00: Depth
DCAL.in                       : CDL Caliper
DPOR.pu                       : CDL Density Porosity
GR.GAPI                       : Gamma Ray
NPOR.pu                       : Neutron Porosity
RHOB.g/cc                     : CDL Bulk Density
RHOC.g/cc                     : CDL Density Correction
~Parameter Information Block
~A  Depth       DCAL        DPOR         GR         NPOR        RHOB        RHOC    
# ...
  1645.6000      7.7516     10.8316    147.1780     28.5726      2.4713      0.0344
  1645.7000      7.7516     11.8350    144.6406     28.6846      2.4547      0.0347
  1645.8000      7.7508     11.4015    138.4423     28.7835      2.4619      0.0261
  1645.9000      7.7508     10.0925    135.7310     28.5354      2.4835      0.0418
  1646.0000      7.7569      9.2461    140.1944     28.0081      2.4974      0.0669
  1646.1000      7.7569      9.9924    147.0432     27.5746      2.4851      0.0738
  1646.2000      7.7569     11.7754    149.9906     27.4301      2.4557      0.0043
  1646.3000      7.7626     12.8873    147.6776     27.7110      2.4374      0.0292
  1646.4000      7.7626     13.2628    141.6872     28.2560      2.4312      0.0402
  1646.5000      7.7633     13.8123    134.5132     28.4506      2.4221      0.0052
  1646.6000      7.7633     14.0693    128.5623     27.6814      2.4179     -0.0406
  1646.7000      7.7633     13.0879    125.5335     26.3388      2.4340      0.0189
  1646.8000      7.7602     11.0061    125.1129     25.2096      2.4684      0.0291
  1646.9000      7.7602      8.5162    123.2744     24.2471      2.5095      0.0739
  1647.0000      7.7575      6.2040    118.8156     23.4513      2.5476      0.0984
  1647.1000      7.7575      4.4245    116.0278     23.1723      2.5770      0.1103
  1647.2000      7.7575      3.3479    117.2015     23.3273      2.5948      0.1229
  1647.3000      7.7586      2.8256    117.1907     23.4047      2.6034      0.0997
  1647.4000      7.7586      2.4869    112.8155     23.2017      2.6090      0.0825
  1647.5000      7.7607      2.0242    106.8628     23.0435      2.6166      0.0709
  1647.6000      7.7607      1.4881    100.7332     23.0451      2.6254      0.0745
  1647.7000      7.7607      1.7414     96.1650     23.1061      2.6213      0.1127
  1647.8000      7.7616      3.3016     95.3828     23.3174      2.5955      0.0549
  1647.9000      7.7616      4.8607     98.1592     23.4447      2.5698      0.0401
  1648.0000      7.7617      4.8244     99.4433     22.9322      2.5704      0.0255
  1648.1000      7.7617      3.2586     96.2146     21.9875      2.5962      0.0424
  1648.2000      7.7617      1.4747     94.3878     21.6081      2.6257      0.0743
  1648.3000      7.7617      0.5072     96.9567     22.1444      2.6416      0.0827
  1648.4000      7.7617      0.5822    100.9681     22.9759      2.6404      0.0354
  1648.5000      7.7629      1.3892    107.9729     23.7572      2.6271      0.0421
  1648.6000      7.7629      2.5127    116.8468     24.3350      2.6085      0.0480
  1648.7000      7.7629      3.5062    122.0090     24.3406      2.5921      0.0070
  1648.8000      7.7633      4.1968    124.0411     23.9681      2.5808      0.0274
  1648.9000      7.7633      4.9172    129.0629     24.0111      2.5689      0.0296
  1649.0000      7.7639      5.4591    138.9746     24.8270      2.5599     -0.0214
  1649.1000      7.7639      5.0729    148.6920     25.9402      2.5663      0.0095
  1649.2000      7.7639      4.1077    153.3341     27.1568      2.5822      0.0445
  1649.3000      7.7625      3.9666    155.6733     28.6449      2.5846      0.0477
  1649.4000      7.7625      5.2906    159.9098     29.6403      2.5627      0.0253
  1649.5000      7.7582      7.0754    164.5886     29.4648      2.5333      0.0179
  1649.6000      7.7582      7.9994    169.5109     28.7652      2.5180      0.0069
  1649.7000      7.7582      8.1422    176.6814     28.3372      2.5157      0.0190
  1649.8000      7.7577      8.8793    181.6960     28.2745      2.5035      0.0467
  1649.9000      7.7577     10.8710    178.6817     28.4847      2.4706     -0.0066
  1650.0000      7.7605     13.0864    173.9808     28.9106      2.4341     -0.0157
  1650.1000      7.7605     14.6906    176.0260     29.2540      2.4076     -0.0046
  1650.2000      7.7605     15.6571    182.1383     29.2828      2.3917     -0.0645
  1650.3000      7.7641     15.6236    185.7809     29.1522      2.3922     -0.0404
  1650.4000      7.7641     14.5026    182.3346     28.9447      2.4107     -0.0442
  1650.5000      7.7637     13.0617    173.7085     29.0044      2.4345      0.0181
  1650.6000      7.7637     11.9217    166.5438     29.4466      2.4533      0.0037
  1650.7000      7.7637     10.8543    164.5921     29.5813      2.4709      0.0525
  1650.8000      7.7608      9.6412    166.4003     29.0857      2.4909      0.0618
  1650.9000      7.7608      8.4845    169.0051     28.2757      2.5100      0.0649
  1651.0000      7.7610      7.7487    172.8315     27.4889      2.5221      0.0822
  1651.1000      7.7610      7.6161    179.7794     27.3009      2.5243      0.0714
  1651.2000      7.7610      7.8391    187.0135     28.0498      2.5207      0.0466
  1651.3000      7.7622      8.1357    186.9961     29.1422      2.5158      0.0647
  1651.4000      7.7622      8.4097    176.4671     29.9185      2.5112      0.0627
  1651.5000      7.7608      8.8367    165.7467     30.1670      2.5042      0.0583
  1651.6000      7.7608      9.8453    163.7835     30.0401      2.4876      0.0314
  1651.7000      7.7608     11.2740    167.6486     29.8873      2.4640      0.0269
  1651.8000      7.7597     12.2220    170.7391     29.4529      2.4483      0.0201
  1651.9000      7.7597     12.1556    170.2874     28.5970      2.4494      0.0326
  1652.0000      7.7596     11.6188    171.3282     28.2156      2.4583      0.0522
  1652.1000      7.7596     11.4769    177.5896     28.7820      2.4606      0.0691
  1652.2000      7.7596     11.6056    181.4442     29.5928      2.4585      0.0132
  1652.3000      7.7596     11.3971    178.3000     30.0325      2.4619      0.0461
  1652.4000      7.7596     11.2567    175.8643     30.2472      2.4643      0.0840
  1652.5000      7.7560     11.8211    174.4225     30.5674      2.4550      0.0549
  1652.6000      7.7560     12.9197    166.4583     30.9882      2.4368      0.0675
  1652.7000      7.7560     14.0104    152.9373     31.1383      2.4188      0.0127
  1652.8000      7.7422     14.3042    142.3949     30.7923      2.4140      0.0048
  1652.9000      7.7422     13.6227    140.3900     30.1703      2.4252      0.0499
  1653.0000      7.7176     12.4142    143.5793     29.4217      2.4452      0.0081
  1653.1000      7.7176     10.7820    145.7256     28.5261      2.4721      0.0780
  1653.2000      7.7176      9.4371    144.3578     27.9692      2.4943      0.0862
  1653.3000      7.6960      9.3614    141.2580     28.0419      2.4955      0.0935
  1653.4000      7.6960     10.0133    141.4143     28.2371      2.4848      0.0762
  1653.5000      7.6852      9.8765    145.7860     27.9533      2.4870      0.0816
  1653.6000      7.6852      8.7585    147.3273     27.2841      2.5055      0.1000
  1653.7000      7.6852      7.9058    144.0098     27.0521      2.5196      0.0657
  1653.8000      7.6804      7.7470    139.7525     27.3003      2.5222      0.0485
  1653.9000      7.6804      7.5082    136.4586     27.1964      2.5261      0.0589
  1654.0000      7.6785      7.0391    134.8068     26.8498      2.5339      0.0801
  1654.1000      7.6785      6.9505    133.3369     26.6398      2.5353      0.0428
  1654.2000      7.6785      7.1275    130.7897     26.2071      2.5324      0.0604
  1654.3000      7.6781      7.1101    130.6752     25.5281      2.5327      0.1147
  1654.4000      7.6781      6.8741    134.8342     24.9982      2.5366      0.0917
  1654.5000      7.6792      6.4936    139.4201     25.0349      2.5429      0.0818
  1654.6000      7.6792      6.3675    144.1218     25.8340      2.5449      0.0854
  1654.7000      7.6792      6.4002    148.3056     26.9125      2.5444      0.0432
  1654.8000      7.6807      5.7666    148.9364     27.5980      2.5549      0.0615
  1654.9000      7.6807      4.7108    145.8664     27.8705      2.5723      0.0673
  1655.0000      7.6814      4.1438    139.8140     27.7993      2.5816      0.0771
  1655.1000      7.6814      4.2861    132.7935     27.0740      2.5793      0.0583
