~Version Information
VERS.                      2.0: CWLS Log ASCII Standard - VERSION 2.0
WRAP.                       NO: One line per depth step
~Well Information Block
STRT.FT               545.0000: 
STOP.FT              1922.0000: 
STEP.FT                 0.2500: 
NULL.                -999.2500: 
COMP.          Pioneer Natural Resources: COMPANY
WELL.            Summers 21-19: WELL
FLD.           Purgatoire River: FIELD
LOC.           900' FNL & 1950' FWL: LOCATION
PROV.                 Colorado: PROVINCE
CNTY.               Las Animas: COUNTRY
SRVC.                Patterson: SERVICE COMPANY
DATE.          Sat Oct 15 03:34:13 2005: LOG DATE
UWI.           05 071 08315 00: UNIQUE WELL ID
~Curve Information Block
DEPT.FT            0 000 00 00: Depth
SN.Ohm-m                      : IEL Short Normal
SP.mV                         : IEL Spontaneous Potential
DIR.Ohm-m                     : IEL Induction Resistivity
GR.GAPI                       : Gamma Ray
~Parameter Information Block
~A  Depth        SN          SP         DIR          GR     
# ...
  1617.0000     15.9955    -91.4458     12.4536     86.4280
  1617.2500     16.3848    -90.2629     12.6534     86.6697
  1617.5000     16.6546    -89.2500     12.8531     90.5934
  1617.7500     16.8287    -88.5336     13.0696     94.9538
  1618.0000     16.8980    -88.1703     13.3089    102.7420
  1618.2500     16.8648    -88.1418     13.5661    107.8040
  1618.5000     16.7759    -88.3769     13.8240    113.5107
  1618.7500     16.6901    -88.7706     14.0536    115.4504
  1619.0000     16.5995    -89.2028     14.2191    115.8590
  1619.2500     16.4013    -89.5739     14.2905    115.3044
  1619.5000     16.0060    -89.8426     14.2587    114.7953
  1619.7500     15.4471    -90.0329     14.1445    115.1103
  1620.0000     14.8535    -90.2031     13.9945    116.2779
  1620.2500     14.3828    -90.4071     13.8679    117.0258
  1620.5000     14.2008    -90.6756     13.8217    117.3360
  1620.7500     14.4576    -91.0162     13.9013    116.7845
  1621.0000     15.1690    -91.4173     14.1359    114.8317
  1621.2500     16.1564    -91.8479     14.5348    112.8729
  1621.5000     17.1913    -92.2571     15.0830    108.9687
  1621.7500     18.1322    -92.5784     15.7397    105.6651
  1622.0000     18.9350    -92.7469     16.4431     99.6241
  1622.2500     19.6576    -92.7258     17.1257     94.8081
  1622.5000     20.4737    -92.5188     17.7331     85.9270
  1622.7500     21.6412    -92.1485     18.2327     78.5916
  1623.0000     23.4942    -91.6184     18.6080     65.7425
  1623.2500     26.4685    -90.8990     18.8482     56.7748
  1623.5000     30.8925    -89.9467     18.9453     44.7020
  1623.7500     36.4881    -88.7373     18.9027     38.5375
  1624.0000     42.0952    -87.2982     18.7454     33.0072
  1624.2500     46.0584    -85.7316     18.5144     32.0329
  1624.5000     47.0220    -84.2039     18.2474     35.0370
  1624.7500     44.6460    -82.8880     17.9614     40.1824
  1625.0000     39.8826    -81.8915     17.6504     52.0463
  1625.2500     34.4891    -81.2242     17.2978     61.6604
  1625.5000     29.9892    -80.8214     16.8910     76.2605
  1625.7500     26.9615    -80.5947     16.4295     85.0488
  1626.0000     25.1867    -80.4696     15.9273     96.0787
  1626.2500     24.2090    -80.3940     15.4118    101.9547
  1626.5000     23.6697    -80.3290     14.9201    108.5383
  1626.7500     23.3343    -80.2437     14.4907    111.4330
  1627.0000     23.0934    -80.1213     14.1573    113.7088
  1627.2500     22.9928    -79.9670     13.9468    114.0463
  1627.5000     23.0998    -79.8085     13.8813    113.1630
  1627.7500     23.3225    -79.6809     13.9785    111.8479
  1628.0000     23.4650    -79.5992     14.2470    108.8526
  1628.2500     23.4721    -79.5353     14.6772    105.9061
  1628.5000     23.5137    -79.4225     15.2342     99.2518
  1628.7500     23.7902    -79.1870     15.8602     92.9659
  1629.0000     24.4011    -78.7807     16.4869     80.8445
  1629.2500     25.4219    -78.1948     17.0555     71.6061
  1629.5000     26.9723    -77.4561     17.5332     58.1976
  1629.7500     29.1623    -76.6208     17.9192     51.1753
  1630.0000     31.9071    -75.7639     18.2404     45.6973
  1630.2500     34.7104    -74.9610     18.5387     45.8889
  1630.5000     36.7193    -74.2682     18.8561     51.4755
  1630.7500     37.2596    -73.7132     19.2229     58.0028
  1631.0000     36.4164    -73.3002     19.6491     70.3299
  1631.2500     34.9312    -73.0187     20.1194     79.1674
  1631.5000     33.5184    -72.8493     20.5876     91.6748
  1631.7500     32.4243    -72.7655     20.9782     98.7462
  1632.0000     31.5539    -72.7339     21.2026    106.3223
  1632.2500     30.7819    -72.7122     21.1916    108.5690
  1632.5000     30.0730    -72.6496     20.9269    106.3292
  1632.7500     29.4472    -72.4940     20.4498    100.8855
  1633.0000     28.9645    -72.2084     19.8441     88.6029
  1633.2500     28.6996    -71.7906     19.2088     79.7662
  1633.5000     28.6796    -71.2863     18.6335     69.2127
  1633.7500     28.8370    -70.7835     18.1811     65.3895
  1634.0000     28.9876    -70.3797     17.8816     65.3091
  1634.2500     28.8605    -70.1361     17.7357     68.7257
  1634.5000     28.2728    -70.0502     17.7254     77.4855
  1634.7500     27.3477    -70.0701     17.8221     84.3500
  1635.0000     26.4205    -70.1322     17.9868     93.4038
  1635.2500     25.6981    -70.1933     18.1638     97.1726
  1635.5000     25.1566    -70.2404     18.2813     98.3228
  1635.7500     24.7320    -70.2840     18.2681     96.6162
  1636.0000     24.4608    -70.3389     18.0861     92.6420
  1636.2500     24.4025    -70.4041     17.7521     90.2544
  1636.5000     24.4809    -70.4566     17.3297     87.6360
  1636.7500     24.5150    -70.4685     16.8966     86.1746
  1637.0000     24.3771    -70.4341     16.5109     83.7987
  1637.2500     24.0182    -70.3808     16.1965     82.1241
  1637.5000     23.4532    -70.3518     15.9470     80.1772
  1637.7500     22.8032    -70.3755     15.7409     79.8872
  1638.0000     22.2711    -70.4520     15.5571     81.9340
  1638.2500     22.0354    -70.5641     15.3841     85.0275
  1638.5000     22.0841    -70.6986     15.2211     90.9897
  1638.7500     22.1592    -70.8597     15.0717     94.5599
  1639.0000     21.9386    -71.0660     14.9367     97.5696
  1639.2500     21.2684    -71.3333     14.8128     97.8971
  1639.5000     20.2541    -71.6558     14.6976     97.2000
  1639.7500     19.1949    -72.0056     14.5985     97.0022
  1640.0000     18.4123    -72.3496     14.5359     98.0622
  1640.2500     18.0888    -72.6638     14.5378     99.4007
  1640.5000     18.2321    -72.9373     14.6252    101.1409
  1640.7500     18.7539    -73.1704     14.8004    101.6631
  1641.0000     19.5347    -73.3671     15.0448    101.4463
  1641.2500     20.3993    -73.5206     15.3302    100.5189
  1641.5000     21.1398    -73.5968     15.6371     96.9151
  1641.7500     21.6638    -73.5403     15.9653     92.3872
  1642.0000     22.0783    -73.3097     16.3264     82.6477
  1642.2500     22.5928    -72.9213     16.7267     75.3728
  1642.5000     23.3802    -72.4612     17.1549     66.2804
  1642.7500     24.4852    -72.0436     17.5869     63.0433
  1643.0000     25.7206    -71.7465     18.0019     63.8399
  1643.2500     26.7014    -71.5800     18.3949     67.8207
  1643.5000     27.1589    -71.5080     18.7741     76.5857
  1643.7500     27.1514    -71.4878     19.1474     82.4265
  1644.0000     26.9308    -71.4926     19.5142     88.7248
  1644.2500     26.7281    -71.5131     19.8682     90.8647
  1644.5000     26.6102    -71.5536     20.2005     91.9555
  1644.7500     26.4875    -71.6267     20.4976     92.2333
  1645.0000     26.2921    -71.7480     20.7394     93.0651
  1645.2500     26.0734    -71.9313     20.9085     93.9100
  1645.5000     25.8842    -72.1880     21.0034     94.8510
  1645.7500     25.7083    -72.5240     21.0408     94.7182
  1646.0000     25.5712    -72.9265     21.0444     92.9490
  1646.2500     25.5644    -73.3554     21.0329     90.9761
  1646.5000     25.7135    -73.7533     21.0153     87.8091
  1646.7500     25.9499    -74.0720     20.9955     85.9644
  1647.0000     26.2113    -74.2958     20.9838     83.5900
  1647.2500     26.5015    -74.4452     21.0117     82.1453
  1647.5000     26.8701    -74.5625     21.1353     80.2122
  1647.7500     27.3520    -74.6943     21.4130     79.0377
  1648.0000     27.9172    -74.8809     21.8636     76.9137
  1648.2500     28.4998    -75.1529     22.4364     74.8913
  1648.5000     29.0728    -75.5248     23.0246     70.8853
  1648.7500     29.6451    -75.9903     23.5232     67.9586
  1649.0000     30.1975    -76.5224     23.8867     64.1688
  1649.2500     30.6655    -77.0807     24.1341     62.4366
  1649.5000     30.9984    -77.6228     24.3024     61.0306
  1649.7500     31.2226    -78.1155     24.4052     60.6249
  1650.0000     31.3966    -78.5449     24.4368     60.5175
  1650.2500     31.5077    -78.9170     24.4122     60.8723
