~Version Information
VERS.                      2.0: CWLS Log ASCII Standard - VERSION 2.0
WRAP.                       NO: One line per depth step
~Well Information Block
STRT.FT               768.0000: 
STOP.FT              2635.5000: 
STEP.FT                 0.1000: 
NULL.                -999.2500: 
COMP.          Pioneer Natural Resources: COMPANY
WELL.               Zink 44-10: WELL
FLD.           Purgatoire River: FIELD
LOC.           548' FSL & 473' FEL: LOCATION
PROV.                 Colorado: PROVINCE
CNTY.               Las Animas: COUNTRY
SRVC.                Patterson: SERVICE COMPANY
DATE.          Tue May 31 07:05:25 2005: LOG DATE
UWI.           05 071 08380 00: UNIQUE WELL ID
~Curve Information Block
DEPT.FT            0 000 00 00: Depth
DCAL.in                       : CDL Caliper
RHOB.g/cc                     : CDL Bulk Density
RHOC.g/cc                     : CDL Density Correction
DPOR.pu                       : CDL Density Porosity
GR.GAPI                       : Gamma Ray
NPOR.pu                       : Neutron Porosity
~Parameter Information Block
~A  Depth       DCAL        RHOB        RHOC        DPOR         GR         NPOR    
# ...
  1756.8000      7.9649      2.5135     -0.0100      8.2711    136.4360     26.1870
  1756.9000      7.9649      2.5122      0.0159      8.3522    140.6036     26.9810
  1757.0000      7.9870      2.5479      0.0065      6.1872    140.1633     27.0373
  1757.1000      7.9870      2.5912      0.1043      3.5641    140.9440     26.6760
  1757.2000      7.9870      2.6143      0.1196      2.1652    144.2710     26.5997
  1757.3000      8.0448      2.6195      0.0974      1.8492    141.7229     26.8329
  1757.4000      8.0448      2.6135      0.1566      2.2105    135.8288     26.9783
  1757.5000      8.0534      2.5953      0.0846      3.3175    136.4865     26.9990
  1757.6000      8.0534      2.5782      0.0788      4.3496    143.2579     27.0308
  1757.7000      8.0534      2.5696      0.0672      4.8739    149.3062     27.1149
  1757.8000      8.0341      2.5661      0.0651      5.0819    152.4176     27.5973
  1757.9000      8.0341      2.5735      0.0782      4.6354    155.0539     28.6662
  1758.0000      8.1091      2.5894      0.1380      3.6750    155.8838     29.7189
  1758.1000      8.1091      2.5964      0.1185      3.2498    150.9955     29.8582
  1758.2000      8.1091      2.5852      0.1194      3.9301    142.9404     29.2374
  1758.3000      8.1272      2.5727      0.0735      4.6829    137.4918     28.8415
  1758.4000      8.1272      2.5854      0.1037      3.9180    135.4621     29.0967
  1758.5000      8.1239      2.6185      0.1507      1.9075    134.1665     29.2961
  1758.6000      8.1239      2.6430      0.1681      0.4232    133.2891     28.7175
  1758.7000      8.1239      2.6424      0.1538      0.4624    133.7662     27.8480
  1758.8000      8.1677      2.6228      0.1203      1.6500    136.0846     27.7649
  1758.9000      8.1677      2.6010      0.0599      2.9706    138.8404     28.1814
  1759.0000      8.1946      2.5947      0.0375      3.3515    137.4936     27.5936
  1759.1000      8.1946      2.6073      0.0529      2.5893    130.6517     25.9638
  1759.2000      8.1946      2.6266      0.0807      1.4208    122.5829     24.8881
  1759.3000      8.1972      2.6446      0.1480      0.3258    118.4439     25.1747
  1759.4000      8.1972      2.6630      0.0859     -0.7858    122.3085     25.9835
  1759.5000      8.0655      2.6757      0.0880     -1.5600    133.8731     26.1964
  1759.6000      8.0655      2.6677      0.1142     -1.0701    144.5887     26.0053
  1759.7000      8.0655      2.6374      0.0436      0.7623    144.4941     26.3275
  1759.8000      8.0293      2.6010      0.0778      2.9681    136.4854     26.9400
  1759.9000      8.0293      2.5784      0.0371      4.3389    131.0571     27.2768
  1760.0000      8.0142      2.5829      0.0682      4.0639    131.5376     27.6704
  1760.1000      8.0142      2.6075      0.0813      2.5731    134.8228     28.1357
  1760.2000      8.0142      2.6299      0.1240      1.2154    139.4221     28.1488
  1760.3000      8.0184      2.6353      0.0915      0.8882    144.3154     27.7252
  1760.4000      8.0184      2.6365      0.0984      0.8202    145.9073     27.3996
  1760.5000      8.0044      2.6514      0.1378     -0.0826    143.9561     27.1249
  1760.6000      8.0044      2.6714      0.1866     -1.2977    142.1884     26.5761
  1760.7000      8.0044      2.6789      0.1982     -1.7494    140.9497     25.9127
  1760.8000      8.0374      2.6808      0.1036     -1.8690    136.6814     25.3028
  1760.9000      8.0374      2.6915      0.1663     -2.5122    128.0426     25.0437
  1761.0000      8.0121      2.6954      0.1312     -2.7525    119.1414     25.4024
  1761.1000      8.0121      2.6742      0.1262     -1.4642    115.0091     25.7716
  1761.2000      8.0121      2.6316      0.0631      1.1172    115.0909     25.0919
  1761.3000      8.0224      2.5859      0.0386      3.8825    115.0517     23.5626
  1761.4000      8.0224      2.5532      0.0025      5.8659    114.5739     22.6192
  1761.5000      7.9724      2.5431     -0.0051      6.4779    116.6071     23.0121
  1761.6000      7.9724      2.5566      0.0807      5.6601    120.8222     24.2905
  1761.7000      7.9724      2.5802      0.0739      4.2312    122.1717     25.4980
  1761.8000      7.9671      2.5998      0.0919      3.0437    119.4639     26.3509
  1761.9000      7.9671      2.6101      0.0714      2.4162    118.4301     26.8004
  1762.0000      8.0063      2.6147      0.0696      2.1423    119.2090     26.1975
  1762.1000      8.0063      2.6217      0.0501      1.7165    116.9182     24.6145
  1762.2000      8.0063      2.6328      0.0635      1.0426    114.2396     23.2331
  1762.3000      8.0224      2.6438      0.0685      0.3776    114.6766     23.0225
  1762.4000      8.0224      2.6523      0.0971     -0.1391    115.3802     23.7971
  1762.5000      7.9866      2.6513      0.1059     -0.0798    114.7633     24.5352
  1762.6000      7.9866      2.6392      0.0403      0.6550    113.3582     24.3366
  1762.7000      7.9866      2.6321      0.0345      1.0841    111.9422     23.4377
  1762.8000      7.9734      2.6355      0.0546      0.8818    109.6595     22.5836
  1762.9000      7.9734      2.6420      0.0131      0.4846    104.7671     21.6540
  1763.0000      7.9631      2.6510      0.0536     -0.0587     98.0915     20.5610
  1763.1000      7.9631      2.6510      0.1034     -0.0623     93.9356     19.8821
  1763.2000      7.9631      2.6353      0.0124      0.8923     94.5684     20.1962
  1763.3000      7.9794      2.6212     -0.0218      1.7433     95.7903     21.4983
  1763.4000      7.9794      2.6116      0.0201      2.3291     95.5957     22.6444
  1763.5000      7.9915      2.5878      0.0491      3.7710     95.0804     22.5605
  1763.6000      7.9915      2.5464      0.0473      6.2793     94.1197     21.5878
  1763.7000      7.9915      2.5139     -0.0406      8.2497     94.9118     20.6539
  1763.8000      8.0058      2.5246     -0.0295      7.6029     99.2942     20.5489
  1763.9000      8.0058      2.5704      0.0618      4.8262    104.3244     21.0285
  1764.0000      7.9759      2.6059      0.0864      2.6712    105.0892     21.1785
  1764.1000      7.9759      2.6130      0.0884      2.2405    101.5862     21.0441
  1764.2000      7.9759      2.6157      0.0620      2.0778     99.5456     21.3481
  1764.3000      7.9535      2.6300      0.1208      1.2151    100.0169     22.1542
  1764.4000      7.9535      2.6378      0.1584      0.7367     99.7541     22.8290
  1764.5000      7.9353      2.6256      0.1418      1.4805    100.7210     22.7241
  1764.6000      7.9353      2.6023      0.1304      2.8926    103.4611     22.0685
  1764.7000      7.9353      2.5823      0.0962      4.1061    103.7462     21.7650
  1764.8000      7.8939      2.5772      0.0467      4.4110    101.4657     22.0770
  1764.9000      7.8939      2.5846      0.0819      3.9611    100.1804     22.7159
  1765.0000      7.8988      2.5992      0.0735      3.0760    103.1208     23.4609
  1765.1000      7.8988      2.6227      0.1197      1.6564    109.6458     24.1612
  1765.2000      7.8988      2.6444      0.1483      0.3412    113.8085     24.6022
  1765.3000      7.9111      2.6503      0.1969     -0.0199    114.1735     25.0933
  1765.4000      7.9111      2.6419      0.1506      0.4879    112.1658     26.2135
  1765.5000      7.9356      2.6273      0.1669      1.3759    106.5570     27.7218
  1765.6000      7.9356      2.6118      0.1216      2.3147    101.1480     28.4928
  1765.7000      7.9356      2.6044      0.0845      2.7644    100.5794     27.8176
  1765.8000      7.9441      2.6007      0.1004      2.9872    102.3858     26.5419
  1765.9000      7.9441      2.5856      0.0957      3.9051    103.3269     25.6840
  1766.0000      7.9602      2.5711      0.0590      4.7793    103.4208     25.1406
  1766.1000      7.9602      2.5749      0.0580      4.5500    101.2023     24.5127
  1766.2000      7.9602      2.5785      0.0968      4.3363     96.4525     24.0015
  1766.3000      7.9604      2.5631      0.0664      5.2649     91.6531     23.7178
