~Version Information
VERS.                      2.0: CWLS Log ASCII Standard - VERSION 2.0
WRAP.                       NO: One line per depth step
~Well Information Block
STRT.FT               580.0000: 
STOP.FT              1756.7500: 
STEP.FT                 0.2500: 
NULL.                -999.2500: 
COMP.          Pioneer Natural Resources: COMPANY
WELL.          Lookout Point 31-23 Tr: WELL
FLD.           Purgatoire River: FIELD
LOC.           541' FNL & 1786' FEL: LOCATION
PROV.                 Colorado: PROVINCE
CNTY.               Las Animas: COUNTRY
SRVC.                Patterson: SERVICE COMPANY
DATE.          Sun Jan 23 04:14:25 2005: LOG DATE
UWI.           05 071 08260 00: UNIQUE WELL ID
~Curve Information Block
DEPT.FT            0 000 00 00: Depth
DIR.Ohm-m                     : IEL Induction Resistivity
GR.GAPI                       : Gamma Ray
SN.Ohm-m                      : IEL Short Normal
SP.mV                         : IEL Spontaneous Potential
~Parameter Information Block
~A  Depth       DIR          GR          SN          SP     
# ...
   948.5000     10.4579    113.5782     10.6689     31.3540
   948.7500     10.1393    113.4501     10.3144     31.8686
   949.0000      9.8271    114.6672      9.9885     32.5163
   949.2500      9.5325    115.7233      9.7017     33.2902
   949.5000      9.2648    116.5472      9.4549     34.1318
   949.7500      9.0291    116.2431      9.2306     34.9403
   950.0000      8.8248    114.9235      9.0040     35.5941
   950.2500      8.6463    114.3003      8.7626     35.9794
   950.5000      8.4853    115.1413      8.5144     36.0212
   950.7500      8.3347    116.8975      8.2785     35.7087
   951.0000      8.1916    119.6320      8.0778     35.1014
   951.2500      8.0588    120.2128      7.9417     34.3114
   951.5000      7.9431    118.3314      7.9090     33.4660
   951.7500      7.8560    115.9808      8.0166     32.6691
   952.0000      7.8130    113.1287      8.2726     31.9778
   952.2500      7.8336    112.4852      8.6371     31.3988
   952.5000      7.9375    112.7912      9.0341     30.9009
   952.7500      8.1393    112.7890      9.3931     30.4341
   953.0000      8.4442    110.9579      9.6952     29.9507
   953.2500      8.8476    108.1064      9.9868     29.4237
   953.5000      9.3405    101.3244     10.3507     28.8576
   953.7500      9.9174     95.4427     10.8655     28.2887
   954.0000     10.5800     85.7896     11.5985     27.7741
   954.2500     11.3325     79.7706     12.6264     27.3730
   954.5000     12.1724     73.0114     14.0274     27.1263
   954.7500     13.0826     70.7716     15.8109     27.0408
   955.0000     14.0324     71.4693     17.8389     27.0826
   955.2500     14.9824     74.4909     19.8335     27.1842
   955.5000     15.8874     81.6610     21.4994     27.2648
   955.7500     16.6990     87.2417     22.6793     27.2548
   956.0000     17.3760     95.3285     23.4155     27.1154
   956.2500     17.9031     99.8281     23.8874     26.8423
   956.5000     18.3069    104.3515     24.2982     26.4553
   956.7500     18.6527    105.7004     24.7927     25.9847
   957.0000     19.0245    105.4542     25.4270     25.4636
   957.2500     19.5000    103.8925     26.1757     24.9287
   957.5000     20.1325     99.4384     26.9696     24.4251
   957.7500     20.9428     95.3648     27.7438     24.0050
   958.0000     21.9165     89.1642     28.4588     23.7180
   958.2500     23.0018     86.0212     29.0823     23.5974
   958.5000     24.0988     83.6258     29.5672     23.6510
   958.7500     25.0448     83.5083     29.8616     23.8599
   959.0000     25.6357     85.3467     29.9385     24.1857
   959.2500     25.7200     87.8889     29.8064     24.5803
   959.5000     25.3167     93.3938     29.4914     24.9951
   959.7500     24.6241     97.7400     29.0121     25.3896
   960.0000     23.8882    104.0121     28.3704     25.7389
   960.2500     23.2613    107.0908     27.5634     26.0401
   960.5000     22.7595    108.7998     26.6106     26.3116
   960.7500     22.3097    108.0175     25.5702     26.5848
   961.0000     21.8330    105.3331     24.5292     26.8897
   961.2500     21.3049    103.4307     23.5791     27.2422
   961.5000     20.7627    100.8811     22.7898     27.6377
   961.7500     20.2690     99.1312     22.1861     28.0534
   962.0000     19.8720     96.2132     21.7358     28.4563
   962.2500     19.5873     94.4183     21.3685     28.8145
   962.5000     19.3996     92.9653     21.0157     29.1066
   962.7500     19.2741     93.2523     20.6465     29.3278
   963.0000     19.1684     95.5956     20.2698     29.4881
   963.2500     19.0451     98.0218     19.9060     29.6023
   963.5000     18.8823    101.7661     19.5596     29.6775
   963.7500     18.6798    103.6349     19.2242     29.7033
   964.0000     18.4576    104.8624     18.9123     29.6525
   964.2500     18.2455    104.6644     18.6624     29.4931
   964.5000     18.0692    103.2965     18.5035     29.2064
   964.7500     17.9377    102.0168     18.4174     28.8010
   965.0000     17.8399    100.2318     18.3440     28.3161
   965.2500     17.7541     99.4974     18.2270     27.8092
   965.5000     17.6642     99.2165     18.0523     27.3375
   965.7500     17.5696     99.2403     17.8438     26.9391
   966.0000     17.4780     98.7027     17.6273     26.6255
   966.2500     17.3915     97.7738     17.4110     26.3871
   966.5000     17.2981     96.3585     17.2003     26.2100
   966.7500     17.1775     96.2096     17.0150     26.0928
   967.0000     17.0158     97.7197     16.8811     26.0576
   967.2500     16.8184     99.4049     16.8088     26.1449
   967.5000     16.6119    101.6683     16.7799     26.3943
   967.7500     16.4338    102.6110     16.7548     26.8150
   968.0000     16.3137    103.2032     16.6932     27.3624
   968.2500     16.2560    103.1112     16.5773     27.9332
   968.5000     16.2311    102.2042     16.4230     28.3894
   968.7500     16.1783    101.1961     16.2672     28.6036
   969.0000     16.0183     99.6462     16.1397     28.5072
   969.2500     15.6752     98.9863     16.0513     28.1176
   969.5000     15.1042     99.0516     16.0072     27.5289
   969.7500     14.3202     99.8735     16.0184     26.8700
   970.0000     13.4107    101.8496     16.0884     26.2515
   970.2500     12.5179    103.1141     16.1963     25.7257
   970.5000     11.8030    104.0534     16.3104     25.2773
   970.7500     11.4220    103.9097     16.4256     24.8449
   971.0000     11.5363    102.9817     16.5872     24.3591
   971.2500     12.3687    102.2383     16.8731     23.7752
   971.5000     14.3074    101.2953     17.3497     23.0858
   971.7500     18.0687    100.8048     18.0376     22.3104
   972.0000     24.7745     99.8852     18.9102     21.4734
   972.2500     34.8421     98.7014     19.9227     20.5840
   972.5000     43.7067     95.5247     21.0467     19.6289
   972.7500     44.1606     92.6091     22.2830     18.5752
   973.0000     40.3964     87.7604     23.6483     17.3772
   973.2500     40.4936     84.4801     25.1473     15.9807
   973.5000     50.8703     79.4668     26.7549     14.3256
   973.7500     94.0213     75.9791     28.4157     12.3545
   974.0000    560.6220     70.5191     30.0569     10.0266
   974.2500 100000.0000     66.7669     31.6039      7.3330
   974.5000   3195.6272     61.2347     32.9972      4.3010
   974.7500    107.2954     58.1255     34.2027      0.9825
   975.0000     46.8517     55.8971     35.2017     -2.5729
   975.2500     31.9541     56.8441     35.9585     -6.3487
   975.5000     30.1530     61.8459     36.3928    -10.3848
   975.7500     48.2334     66.5950     36.3917    -14.7861
   976.0000 100000.0000     73.7242     35.8615    -19.7130
   976.2500 100000.0000     77.6601     34.7765    -25.3531
   976.5000 100000.0000     81.9216     33.1832    -31.8720
   976.7500 100000.0000     83.6969     31.1632    -39.3551
   977.0000 100000.0000     84.8188     28.7911    -47.7613
   977.2500 100000.0000     84.6880     26.1147    -56.9259
   977.5000 100000.0000     84.0078     23.1537    -66.6443
   977.7500 100000.0000     83.9277     19.9172    -76.8359
   978.0000 100000.0000     85.3118     16.4506    -87.7367
   978.2500      4.7363     87.5506     12.8956   -100.0262
   978.5000      1.8536     93.0120      9.5012   -114.7860
   978.7500      1.2264     97.6006      6.5445   -133.2340
   979.0000      1.0873    103.7455      4.2089   -156.2661
   979.2500      1.2151    105.6420      2.5167   -183.9398
   979.5000      1.6176    102.9871      1.3629   -215.1034
   979.7500      2.3100     97.2415      0.6047   -247.3664
   980.0000      2.9901     83.9040      0.1269   -277.5139
   980.2500      3.2417     73.3913     -0.1444   -302.2825
   980.5000      3.4619     58.2559     -0.2417   -319.2428
   980.7500      4.6904     49.9365     -0.1271   -327.4507
   981.0000     12.6391     40.8190      0.3752   -327.6146
   981.2500 100000.0000     36.6255      1.6428   -321.7381
   981.5000 100000.0000     32.2523      4.2451   -312.4274
   981.7500 100000.0000     30.3509      8.7833   -302.1583
