~Version Information
 VERS.                                  2.0 : CWLS LAS VERSION
 WRAP.                                   NO : WRAPING MODE
 SWARE .                 MController 2.5.0E : SOFTWARE VERSION
~Well Information
 WELL.                         Burson 8-31r : WELL
 COMP.                      Petrogulf CORP. : COMPANY
 FLD.                       Purgatory River : FIELD
 LOC.                        NWNE 8 33S 67W : LOCATION
 DATE.                         4/28-4/29/04 : DATE(S) LOGGED
 SRVC.                                  BGS : SERVICE COMPANY
 STAT.                             Colorado : STATE
 CNTY.                           Las Animas : COUNTY
 CTRY.                        United States : COUNTRY
 API.                       05-071-08039-00 : API NUMBER
 STRT.FT                              41.00 : START DEPTH
 STOP.FT                            2225.00 : STOP DEPTH
 STEP.FT                               1.00 : DEPTH INCREMENT
 NULL.                                -9999 : NULL VALUE
~Curve information
 DEPTH.FT                                   :
 ROP.MIN/FT                                 :
 GAS.UNITS                                  :
~ASCII Log data
# ...
      841.00        0.567        141.3 
      842.00        0.333        116.3 
      843.00        0.233         94.4 
      844.00        0.133         71.0 
      845.00        0.167         62.5 
      846.00        0.200         52.3 
      847.00        0.233         39.8 
      848.00        0.350         27.7 
      849.00        0.233         14.3 
      850.00        0.333         11.7 
      851.00        0.500          7.1 
      852.00        0.567          5.4 
      853.00        0.433          5.1 
      854.00        0.400          5.2 
      855.00        0.333          5.0 
      856.00        0.233          5.3 
      857.00        0.283          4.9 
      858.00        0.300          4.8 
      859.00        0.300          5.0 
      860.00        0.367          5.6 
      861.00        0.233          4.9 
      862.00        0.233          5.1 
      863.00        0.267          5.4 
      864.00        0.200          5.2 
      865.00        0.267          5.6 
      866.00        3.450        119.0 
      867.00        0.433        176.2 
      868.00        0.333        164.5 
      869.00        0.483        105.9 
      870.00        0.500         83.9 
      871.00        0.500         66.9 
      872.00        0.433         39.4 
      873.00        0.367         24.9 
      874.00        0.467         18.2 
      875.00        0.333         12.7 
      876.00        0.333          8.9 
      877.00        0.383         10.1 
      878.00        0.333         11.3 
      879.00        0.367          9.8 
      880.00        0.300          6.0 
      881.00        0.333          5.5 
      882.00        0.400          5.4 
      883.00        0.333          5.2 
      884.00        0.333          5.2 
      885.00        0.300          5.4 
      886.00        0.333          5.1 
      887.00        0.350          5.5 
      888.00        0.333          5.5 
      889.00        0.333          5.6 
      890.00        0.433          5.7 
      891.00        0.433          5.2 
      892.00        0.333          5.2 
      893.00        0.433          5.7 
      894.00        0.300          7.4 
      895.00        0.333          8.3 
      896.00        3.900        156.4 
      897.00        0.467        155.1 
      898.00        0.367        100.6 
      899.00        0.400         76.1 
      900.00        0.233         76.2 
      901.00        0.333         69.8 
      902.00        0.367         54.2 
      903.00        0.367         40.9 
      904.00        0.367         33.0 
      905.00        0.350         25.9 
      906.00        0.333         20.9 
      907.00        0.367         15.1 
      908.00        0.367         10.7 
      909.00        0.333          8.1 
      910.00        0.300          8.8 
      911.00        0.333          9.5 
      912.00        0.367          9.1 
      913.00        0.300          7.9 
      914.00        0.200          7.2 
      915.00        0.167          6.8 
      916.00        0.250          6.5 
      917.00        0.300          6.6 
      918.00        0.367          6.0 
      919.00        0.333          6.2 
      920.00        0.367          6.6 
      921.00        0.333          6.7 
      922.00        0.333          5.8 
      923.00        0.333          5.0 
      924.00        0.467          5.1 
      925.00        0.417          5.3 
      926.00        4.483        181.6 
      927.00        0.600        115.5 
      928.00        0.400         79.4 
      929.00        0.367         69.2 
      930.00        0.267         50.0 
      931.00        0.333         44.5 
      932.00        0.317         36.0 
      933.00        0.300         29.4 
      934.00        0.267         19.5 
      935.00        0.300         13.6 
      936.00        0.267          8.4 
      937.00        0.267          6.4 
      938.00        0.333          6.4 
      939.00        0.300          5.1 
      940.00        0.367          5.0 
      941.00        0.333          4.7 
      942.00        0.433          5.5 
      943.00        0.483          8.4 
      944.00        0.300          9.8 
      945.00        0.267         12.3 
      946.00        0.367         13.2 
      947.00        0.567         10.4 
      948.00        0.367          5.4 
      949.00        0.267          4.7 
      950.00        0.333          4.9 
      951.00        0.367          5.6 
      952.00        0.383          5.8 
      953.00        0.300          7.6 
      954.00        0.333         11.3 
      955.00        0.600         13.3 
      956.00        2.850        131.2 
      957.00        0.300        141.2 
      958.00        0.267        113.8 
      959.00        0.300         84.1 
      960.00        0.167         69.4 
      961.00        0.433         69.5 
      962.00        0.400         64.4 
      963.00        0.400         47.2 
      964.00        0.350         30.2 
      965.00        0.300         24.6 
      966.00        0.333         21.4 
      967.00        0.333         17.3 
      968.00        0.267         13.9 
      969.00        0.333         11.9 
      970.00        0.233         10.5 
      971.00        0.267         11.3 
      972.00        0.267         13.9 
      973.00        0.300         13.5 
      974.00        0.417          9.9 
      975.00        0.433          9.5 
      976.00        0.433         10.9 
      977.00        0.533         10.8 
      978.00        0.533         11.5 
      979.00        0.400         11.6 
      980.00        0.500         10.8 
      981.00        0.550         13.6 
      982.00        0.333         17.5 
      983.00        0.233         18.8 
      984.00        0.200         20.6 
      985.00        0.200         24.5 
      986.00        4.017        230.8 
      987.00        0.567        111.8 
      988.00        0.333         62.0 
      989.00        0.433         64.4 
      990.00        0.483         55.4 
      991.00        0.367         43.8 
      992.00        0.367         34.2 
      993.00        0.400         25.8 
      994.00        0.433         18.5 
      995.00        0.367         15.3 
      996.00        0.333         13.1 
      997.00        0.300         11.9 
      998.00        0.233         10.9 
      999.00        0.200          9.6 
     1000.00        0.317         11.3 
     1001.00        0.333         21.1 
     1002.00        0.333         31.3 
     1003.00        0.300         28.3 
     1004.00        0.333         17.8 
     1005.00        0.333          9.9 
     1006.00        0.333          6.5 
     1007.00        0.367          7.9 
     1008.00        0.333          9.1 
     1009.00        0.333         13.5 
     1010.00        0.483         18.0 
     1011.00        0.433         16.6 
     1012.00        0.367         14.8 
     1013.00        0.333         12.0 
     1014.00        0.333          9.2 
     1015.00        0.333          9.3 
     1016.00        3.517        160.8 
     1017.00        0.500        159.6 
     1018.00        0.400         90.0 
     1019.00        0.417         70.8 
     1020.00        0.333         64.2 
     1021.00        0.700         47.9 
     1022.00        8.133         35.2 
     1023.00      703.750          3.5 
     1024.00       58.683          6.5 
     1025.00        0.200          4.3 
     1026.00        0.100          4.4 
     1027.00        0.100          4.7 
     1028.00        0.200          4.8 
     1029.00        0.100          4.8 
     1030.00        0.217          4.6 
     1031.00        0.200          4.6 
     1032.00        0.233          5.3 
     1033.00        0.200          4.6 
     1034.00        0.233          4.9 
     1035.00        0.200          4.9 
     1036.00        0.200          5.2 
     1037.00        0.200          5.1 
     1038.00        0.167          4.9 
     1039.00        0.167          4.5 
     1040.00        0.167          5.1 
