~Version Information
 VERS.                                  2.0 : CWLS LAS VERSION
 WRAP.                                   NO : WRAPING MODE
 SWARE .                  MController 2.6.3 : SOFTWARE VERSION
~Well Information
 WELL.                        Chevron 13-13 : WELL
 COMP.    Pioneer Natural Resources USA Inc : COMPANY
 FLD.                      Purgatoire River : FIELD
 LOC.                NW/SW Sec 13 T32S R66W : LOCATION
 DATE.                         2/10-11/2007 : DATE(S) LOGGED
 SRVC.        Ismay Geological Services Ltd : SERVICE COMPANY
 STAT.                                   CO : STATE
 CNTY.                           Las Animas : COUNTY
 CTRY.                                  USA : COUNTRY
 API.                          05-071-08319 : API NUMBER
 STRT.FT                             985.00 : START DEPTH
 STOP.FT                            2410.00 : STOP DEPTH
 STEP.FT                               1.00 : DEPTH INCREMENT
 NULL.                                -9999 : NULL VALUE
~Curve information
 DEPTH.FT                                   :
 ROP.MIN/FT                                 :
 GAS.UNITS                                  :
~ASCII Log data
# ...
     1285.00         0.27         20.3 
     1286.00         0.13         20.4 
     1287.00         0.30         19.8 
     1288.00         0.53         18.0 
     1289.00         0.60         16.1 
     1290.00         0.72         15.9 
     1291.00         0.53         14.1 
     1292.00         0.47         12.9 
     1293.00         0.43         12.2 
     1294.00         0.17         11.9 
     1295.00         0.20         11.3 
     1296.00         0.13         11.8 
     1297.00         0.17         10.7 
     1298.00         0.20         11.3 
     1299.00         0.20         10.7 
     1300.00         0.18         10.5 
     1301.00         0.20         11.0 
     1302.00         0.13         10.1 
     1303.00         0.17         10.1 
     1304.00         0.17         10.4 
     1305.00         0.17          9.4 
     1306.00         0.20          9.4 
     1307.00         0.13          8.5 
     1308.00         0.17          8.5 
     1309.00         0.13          8.3 
     1310.00         0.13          9.1 
     1311.00         1.60         30.1 
     1312.00         0.32         34.4 
     1313.00         0.33         34.5 
     1314.00         0.43         34.1 
     1315.00         0.47         29.8 
     1316.00         0.30         27.2 
     1317.00         0.17         25.7 
     1318.00         0.10         24.8 
     1319.00         0.17         23.3 
     1320.00         0.17         23.3 
     1321.00         0.20         22.6 
     1322.00         0.17         21.1 
     1323.00         0.20         19.0 
     1324.00         0.20         16.7 
     1325.00         0.22         17.1 
     1326.00         0.17         15.5 
     1327.00         0.20         15.2 
     1328.00         0.20         13.8 
     1329.00         0.20         12.5 
     1330.00         0.27         10.5 
     1331.00         0.20         10.5 
     1332.00         0.13          9.8 
     1333.00         0.13          9.8 
     1334.00         0.20         10.7 
     1335.00         0.20         10.2 
     1336.00         0.17          9.3 
     1337.00         0.13          8.9 
     1338.00         0.17          7.1 
     1339.00         0.23          5.8 
     1340.00         0.17          6.1 
     1341.00         2.58         25.2 
     1342.00         0.37         24.9 
     1343.00         0.27         22.4 
     1344.00         0.30         17.4 
     1345.00         0.62         17.8 
     1346.00         0.23         17.8 
     1347.00         0.17         17.8 
     1348.00         0.17         17.8 
     1349.00         0.13         17.8 
     1350.00         0.13         18.2 
     1351.00         0.27         17.8 
     1352.00         0.23         17.1 
     1353.00         0.23         17.1 
     1354.00         0.10         16.8 
     1355.00         0.13         15.7 
     1356.00         0.10         15.7 
     1357.00         0.13         15.0 
     1358.00         0.10         15.0 
     1359.00         0.20         15.5 
     1360.00         0.20         15.5 
     1361.00         0.20         15.7 
     1362.00         0.17         15.7 
     1363.00         0.28         17.8 
     1364.00         0.10         14.8 
     1365.00         0.13         14.8 
     1366.00         0.17         11.8 
     1367.00         0.20          9.3 
     1368.00         0.23          8.3 
     1369.00         0.20         11.6 
     1370.00         0.23         11.6 
     1371.00         2.15         50.9 
     1372.00         3.58         63.0 
     1373.00         0.33         26.5 
     1374.00         0.30         23.0 
     1375.00         0.43         20.0 
     1376.00         0.23         14.6 
     1377.00         0.17         10.8 
     1378.00         0.13          9.8 
     1379.00         0.23          8.1 
     1380.00         0.23          6.6 
     1381.00         0.20          5.2 
     1382.00         0.23          3.9 
     1383.00         0.23          3.0 
     1384.00         0.25          2.5 
     1385.00         0.23          1.3 
     1386.00         0.20          2.0 
     1387.00         0.20          1.1 
     1388.00         0.20          2.3 
     1389.00         0.23          2.3 
     1390.00         0.30          2.0 
     1391.00         0.17          1.2 
     1392.00         0.17          1.6 
     1393.00         0.20          1.3 
     1394.00         0.17          0.8 
     1395.00         0.23          0.8 
     1396.00         0.17          0.2 
     1397.00         0.20         -1.0 
     1398.00         0.20          0.1 
     1399.00         0.23          3.0 
     1400.00         0.32          7.8 
     1401.00         3.10         54.4 
     1402.00         0.65         26.0 
     1403.00         0.50         16.2 
     1404.00         0.60          9.7 
     1405.00         0.33          4.8 
     1406.00         0.33          3.1 
     1407.00         0.27          2.4 
     1408.00         0.27          1.0 
     1409.00         0.27          0.5 
     1410.00         0.23          0.2 
     1411.00         0.28          0.4 
     1412.00         0.27          0.3 
     1413.00         0.20         -0.8 
     1414.00         0.23          0.6 
     1415.00         0.20          0.2 
     1416.00         0.20         -0.7 
     1417.00         0.23          0.7 
     1418.00         0.20          0.1 
     1419.00         0.20         -0.2 
     1420.00         0.20          0.5 
     1421.00         0.20          1.7 
     1422.00         0.20          3.2 
     1423.00         0.13          3.5 
     1424.00         0.10          3.5 
     1425.00         0.13          3.9 
     1426.00         0.20          3.7 
     1427.00         0.25          3.4 
     1428.00         0.23          2.0 
     1429.00         0.43          1.3 
     1430.00         0.27          3.0 
     1431.00         5.18         77.3 
     1432.00         0.55         35.0 
     1433.00         0.27         27.7 
     1434.00         0.20         23.1 
     1435.00         0.17         20.2 
     1436.00         0.20         17.1 
     1437.00         0.20         12.5 
     1438.00         0.17         11.8 
     1439.00         0.27          8.9 
     1440.00         0.30          6.4 
     1441.00         0.27          3.6 
     1442.00         0.30          3.7 
     1443.00         0.30          2.3 
     1444.00         0.27          2.0 
     1445.00         0.30          1.1 
     1446.00         0.28          0.2 
     1447.00         0.27          0.4 
     1448.00         0.17         -0.7 
     1449.00         0.20         -0.6 
     1450.00         0.13         -0.9 
     1451.00         0.33          0.2 
     1452.00         0.20         -0.5 
     1453.00         0.20         -0.1 
     1454.00         0.13         -0.1 
     1455.00         0.17         -1.3 
     1456.00         0.20         -0.6 
     1457.00         0.23         -0.6 
     1458.00         0.27         -0.6 
     1459.00         0.20         -2.0 
     1460.00         0.23         -2.0 
     1461.00         3.08         35.5 
     1462.00         0.85         30.0 
     1463.00         0.37         12.1 
     1464.00         0.33          9.0 
     1465.00         0.27          7.4 
     1466.00         0.27          5.7 
     1467.00         0.27          4.3 
     1468.00         0.27          3.9 
     1469.00         0.23          2.6 
     1470.00         0.23          2.0 
     1471.00         0.23          1.2 
     1472.00         0.25          2.4 
     1473.00         0.23          2.0 
     1474.00         0.17          1.9 
     1475.00         0.20          3.6 
     1476.00         0.20          3.7 
     1477.00         0.23          5.8 
     1478.00         0.20          7.6 
     1479.00         0.23         10.1 
     1480.00         0.20         10.3 
     1481.00         0.20         13.4 
     1482.00         0.23         14.1 
     1483.00         0.20         15.7 
     1484.00         0.23         16.4 
