~Version Information
 VERS.                                  2.0 : CWLS LAS VERSION
 WRAP.                                   NO : WRAPING MODE
 SWARE .                 MController 2.5.0E : SOFTWARE VERSION
~Well Information
 WELL.                        Rangely 22-28 : WELL
 COMP.             Evergreen Operating Corp : COMPANY
 FLD.                      Purgatorie River : FIELD
 LOC.                SE/NW Sec 28 T32S R67W : LOCATION
 DATE.                09/14/2004-09/15/2004 : DATE(S) LOGGED
 SRVC.       Blanco Geological Services LLC : SERVICE COMPANY
 STAT.                                   CO : STATE
 CNTY.                           Las Animas : COUNTY
 CTRY.                                  USA : COUNTRY
 API.                       05-071-08044-00 : API NUMBER
 STRT.FT                             858.00 : START DEPTH
 STOP.FT                            2847.00 : STOP DEPTH
 STEP.FT                               1.00 : DEPTH INCREMENT
 NULL.                                -9999 : NULL VALUE
~Curve information
 DEPTH.FT                                   :
 ROP.MIN/FT                                 :
 GAS.UNITS                                  :
~ASCII Log data
# ...
     2058.00        0.333       1324.2 
     2059.00        0.333       1337.4 
     2060.00        0.367       1345.1 
     2061.00        0.333       1348.2 
     2062.00        0.533       1345.1 
     2063.00        0.283       1331.3 
     2064.00        0.533       1320.5 
     2065.00        0.800       1213.1 
     2066.00        2.250       2787.5 
     2067.00        0.333       2797.9 
     2068.00        0.533       2654.7 
     2069.00        0.533       2332.3 
     2070.00        0.567       2012.2 
     2071.00        0.600       1806.7 
     2072.00        0.517       1489.7 
     2073.00        0.400       1452.3 
     2074.00        0.267       1375.1 
     2075.00        0.433       1373.4 
     2076.00        0.467       1400.4 
     2077.00        0.267       1441.8 
     2078.00        0.500       1539.5 
     2079.00        0.267       1581.6 
     2080.00        0.267       1613.3 
     2081.00        0.283       1607.9 
     2082.00        0.267       1587.4 
     2083.00        0.533       1546.9 
     2084.00        0.267       1461.4 
     2085.00        0.267       1435.8 
     2086.00        0.267       1408.5 
     2087.00        0.133       1386.6 
     2088.00        0.267       1364.0 
     2089.00        0.533       1338.0 
     2090.00        0.817       1297.6 
     2091.00        0.733       1282.8 
     2092.00        0.800       1154.8 
     2093.00        0.900       1307.1 
     2094.00        0.733       1841.7 
     2095.00        0.850       2598.4 
     2096.00        0.267       2537.8 
     2097.00        0.200       2537.8 
     2098.00        1.067       2400.7 
     2099.00        0.533       1774.4 
     2100.00        0.267       1536.2 
     2101.00        0.283       1473.2 
     2102.00        0.733       1439.8 
     2103.00        0.400       1382.2 
     2104.00        0.400       1353.5 
     2105.00        0.733       1341.1 
     2106.00        0.533       1341.4 
     2107.00        0.267       1309.7 
     2108.00        0.450       1290.5 
     2109.00        0.267       1280.4 
     2110.00        0.533       1274.0 
     2111.00        0.267       1269.3 
     2112.00        0.267       1271.0 
     2113.00        0.267       1273.7 
     2114.00        0.533       1284.5 
     2115.00        0.267       1289.9 
     2116.00        0.533       1293.2 
     2117.00        0.283       1300.7 
     2118.00        0.533       1320.5 
     2119.00        0.267       1300.0 
     2120.00        0.533       1243.4 
     2121.00        0.533       1114.0 
     2122.00        0.267       1167.9 
     2123.00        0.267       1235.3 
     2124.00        0.267       1427.0 
     2125.00        0.517       1924.6 
     2126.00        4.617       2830.9 
     2127.00        0.633       1374.1 
     2128.00        0.067       1343.8 
     2129.00        0.433       1333.7 
     2130.00        0.033       1331.3 
     2131.00        0.267       1324.6 
     2132.00        0.233       1320.5 
     2133.00        0.267       1303.3 
     2134.00        0.150       1293.6 
     2135.00        0.400       1289.9 
     2136.00        0.267       1281.4 
     2137.00        0.133       1277.4 
     2138.00        0.267       1276.4 
     2139.00        0.133       1270.3 
     2140.00        0.367       1266.6 
     2141.00        0.367       1259.5 
     2142.00        0.367       1255.2 
     2143.00        0.333       1250.4 
     2144.00        0.300       1246.1 
     2145.00        0.267       1246.7 
     2146.00        0.117       1246.7 
     2147.00        0.333       1277.1 
     2148.00        0.333       1292.2 
     2149.00        0.300       1290.5 
     2150.00        0.267       1254.2 
     2151.00        0.067       1254.2 
     2152.00        0.267       1174.6 
     2153.00        0.267       1152.4 
     2154.00        0.267       1030.4 
     2155.00        0.533       1015.6 
     2156.00        0.533       1145.3 
     2157.00        1.950       2663.5 
     2158.00        0.300       2736.9 
     2159.00        0.367       2706.9 
     2160.00        0.367       2684.4 
     2161.00        0.333       2433.7 
     2162.00        0.250       2209.0 
     2163.00        0.300       1957.3 
     2164.00        0.300       1750.1 
     2165.00        0.300       1573.9 
     2166.00        0.333       1432.4 
     2167.00        0.367       1422.3 
     2168.00        0.400       1418.9 
     2169.00        0.467       1420.9 
     2170.00        0.367       1405.4 
     2171.00        0.417       1380.2 
     2172.00        0.400       1358.3 
     2173.00        2.633       1520.3 
     2174.00        0.233       1546.6 
     2175.00        0.583       1689.4 
     2176.00        0.633       1774.4 
     2177.00        0.833       1719.1 
     2178.00        0.733       1439.1 
     2179.00        1.283       1300.7 
     2180.00        1.600       1300.0 
     2181.00        1.117       1255.8 
     2182.00        0.767       1195.5 
     2183.00        0.700       1218.4 
     2184.00        0.667       1264.6 
     2185.00        0.733       1308.1 
     2186.00        5.333       1961.7 
     2187.00        0.633       1921.2 
     2188.00        0.700       1749.4 
     2189.00        0.683       1543.6 
     2190.00        0.700       1341.4 
     2191.00        0.800       1267.3 
     2192.00        0.800       1253.1 
     2193.00        0.667       1256.9 
     2194.00        0.750       1260.6 
     2195.00        0.500       1251.1 
     2196.00        0.533       1253.1 
     2197.00        0.500       1256.9 
     2198.00        0.533       1254.8 
     2199.00        0.533       1251.8 
     2200.00        0.650       1243.4 
     2201.00        0.667       1234.3 
     2202.00        0.700       1240.3 
     2203.00        0.600       1242.7 
     2204.00        0.533       1240.7 
     2205.00        0.583       1239.3 
     2206.00        0.600       1226.9 
     2207.00        0.533       1223.8 
     2208.00        0.600       1246.7 
     2209.00        0.833       1294.2 
     2210.00        0.617       1293.6 
     2211.00        0.600       1273.4 
     2212.00        0.533       1279.1 
     2213.00        0.633       1396.7 
     2214.00        0.600       1664.2 
     2215.00        0.400       1666.5 
     2216.00        4.900       2709.3 
     2217.00        0.533       2344.4 
     2218.00        0.467       2295.2 
     2219.00        0.500       2141.6 
     2220.00        0.367       1948.2 
     2221.00        0.367       1860.6 
     2222.00        0.383       1823.9 
     2223.00        0.467       1761.9 
     2224.00        0.333       1712.4 
     2225.00        0.433       1734.6 
     2226.00        0.400       1743.7 
     2227.00        0.833       1630.8 
     2228.00        0.617       1806.7 
     2229.00        0.500       2059.7 
     2230.00        0.500       2086.3 
     2231.00        0.467       2003.5 
     2232.00        0.433       1897.3 
     2233.00        0.367       1911.1 
     2234.00        0.367       1945.5 
     2235.00        0.367       2044.2 
     2236.00        0.383       2167.2 
     2237.00        0.400       2191.8 
     2238.00        0.400       2126.1 
     2239.00        0.400       2106.5 
     2240.00        0.400       1949.5 
     2241.00        0.400       1906.8 
     2242.00        0.400       1904.7 
     2243.00        0.600       2213.0 
     2244.00        0.450       2160.1 
     2245.00        5.917       3631.1 
     2246.00        0.133       3113.2 
     2247.00        0.367       2951.9 
     2248.00        0.383       2902.0 
     2249.00        0.400       2621.0 
     2250.00        0.333       2588.3 
     2251.00        0.333       2507.5 
     2252.00        0.400       2317.8 
     2253.00        0.333       2113.3 
     2254.00        0.333       2069.5 
     2255.00        0.400       2093.1 
     2256.00        0.433       2275.0 
     2257.00        0.617       2282.1 
