~Version Information
 VERS.                      2.0: CWLS Log ASCII Standard - VERSION 2.0
 WRAP.                       NO: One line per depth step
 ~Well Information Block
 STRT.FT               762.3000: 
 STOP.FT              2573.7000: 
 STEP.FT                 0.1000: 
 NULL.                -999.2500: 
 COMP.          Petrogulf Corporation: COMPANY
 WELL.               J&P 12-33V: WELL
 FLD.           Purgatorie River: FIELD
 LOC.           2005' FSL & 1928' FEL: LOCATION
 CNTY.               Las Animas: COUNTY
 SRVC.                         : SERVICE COMPANY
 DATE.          Sat Aug 28 11:34:36 2004: LOG DATE
 UWI.           05 071 08092 00: UNIQUE WELL ID
 STAT.                 Colorado: STATE
 PROV.                         :Province
 ~Curve Information Block
 DEPT.FT            0 000 00 00: Depth
 GR.GAPI                       : Gamma Ray
 DCAL.in                       : CDL Caliper
 DPOR.pu                       : CDL Density Porosity
 NPOR.pu                       : Neutron Porosity
 RHOB.g/cc                     : CDL Bulk Density
 RHOC.g/cc                     : CDL Density Correction
 ~Parameter Information Block
 ~A  Depth        GR         DCAL        DPOR        NPOR        RHOB        RHOC    
# ...
  2327.1000     85.8839      7.7426      9.5999     25.8819      2.4916      0.0498
  2327.2000     81.8559      7.7426     12.5338     25.8822      2.4432      0.0001
  2327.3000     77.7051      7.6603     14.8059     26.2972      2.4057     -0.0375
  2327.4000     75.9914      7.6603     16.0785     26.6155      2.3847     -0.0461
  2327.5000     79.2395      7.6528     16.5189     26.3005      2.3774     -0.0125
  2327.6000     85.8552      7.6528     16.4499     25.6804      2.3786     -0.0058
  2327.7000     90.9827      7.6528     16.0941     25.5856      2.3844     -0.0114
  2327.8000     90.9735      7.6384     15.6115     25.8530      2.3924      0.0711
  2327.9000     85.7182      7.6384     15.3765     26.0357      2.3963      0.0931
  2328.0000     79.6164      7.6551     15.3618     26.4486      2.3965      0.0784
  2328.1000     77.6794      7.6551     15.1641     27.2533      2.3998      0.1054
  2328.2000     81.0685      7.6551     14.7422     27.9917      2.4068      0.1238
  2328.3000     88.4838      7.6532     14.3554     28.2128      2.4131      0.1047
  2328.4000     96.0712      7.6532     14.3168     27.8562      2.4138      0.1160
  2328.5000     97.6279      7.6371     14.5741     27.0088      2.4095      0.0816
  2328.6000     92.6022      7.6371     14.4615     25.9069      2.4114      0.0646
  2328.7000     87.8464      7.6371     13.5941     25.3195      2.4257      0.0981
  2328.8000     88.1279      7.6791     12.5022     25.6182      2.4437      0.0953
  2328.9000     91.2173      7.6791     11.8958     26.3466      2.4537      0.0532
  2329.0000     92.9935      7.7009     11.9621     26.7529      2.4526      0.0902
  2329.1000     91.9827      7.7009     12.1682     26.7854      2.4492      0.0459
  2329.2000     88.4660      7.7009     12.1977     27.0242      2.4487      0.1020
  2329.3000     85.6742      7.6980     12.9929     27.3438      2.4356      0.1086
  2329.4000     86.9255      7.6980     15.3418     27.2413      2.3969      0.0963
  2329.5000     90.0139      7.6753     18.3735     26.8764      2.3468      0.0239
  2329.6000     90.5059      7.6753     20.5923     26.6606      2.3102      0.0161
  2329.7000     88.8772      7.6753     21.6777     26.8305      2.2923     -0.0527
  2329.8000     89.4413      7.6642     22.7063     27.4124      2.2753     -0.0135
  2329.9000     92.4177      7.6642     25.2596     27.9567      2.2332      0.0484
  2330.0000     96.1470      7.6789     29.2405     28.0585      2.1675      0.0194
  2330.1000     97.1945      7.6789     32.6208     28.0224      2.1118      0.0372
  2330.2000     92.5250      7.6789     34.5087     28.3137      2.0806      0.0888
  2330.3000     85.5507      7.6872     35.7506     29.0249      2.0601      0.0646
  2330.4000     80.3645      7.6872     37.3820     29.7942      2.0332      0.0848
  2330.5000     76.3698      7.6813     40.4721     30.2705      1.9822      0.1086
  2330.6000     71.1643      7.6813     45.0708     30.5466      1.9063      0.0742
  2330.7000     65.6225      7.6813     49.7334     30.4015      1.8294      0.0405
  2330.8000     63.0074      7.6917     53.5435     29.7054      1.7665      0.0475
  2330.9000     63.0933      7.6917     57.1373     29.4848      1.7072      0.0460
  2331.0000     62.1488      7.7096     61.5643     30.4422      1.6342      0.0414
  2331.1000     58.9521      7.7096     66.9434     31.5273      1.5454     -0.0017
  2331.2000     56.7559      7.7096     72.0703     31.8595      1.4608     -0.0477
  2331.3000     56.4498      7.7157     75.6034     31.9234      1.4025     -0.0322
  2331.4000     56.0817      7.7157     77.1868     31.9640      1.3764     -0.0148
  2331.5000     53.0529      7.7508     77.0218     31.7508      1.3791      0.0365
  2331.6000     46.6775      7.7508     75.4914     31.3322      1.4044      0.0531
  2331.7000     41.9281      7.7508     73.4594     31.4712      1.4379      0.1134
  2331.8000     41.2028      8.0230     71.9113     32.4977      1.4635      0.1168
  2331.9000     41.4215      8.0230     71.0309     32.9966      1.4780      0.0903
  2332.0000     42.0928      8.3824     70.5594     32.2647      1.4858      0.1196
  2332.1000     44.8434      8.3824     70.3460     31.6654      1.4893      0.0688
  2332.2000     49.4845      8.3824     70.0689     31.8045      1.4939      0.0470
  2332.3000     54.0478      8.3958     69.4829     31.9588      1.5035      0.0144
  2332.4000     56.7962      8.3958     68.9916     31.8758      1.5116      0.0556
  2332.5000     57.9378      7.9493     69.3681     31.6639      1.5054      0.0538
  2332.6000     56.6318      7.9493     70.4230     31.4467      1.4880      0.0165
  2332.7000     51.4851      7.9493     70.8828     31.4373      1.4804      0.0262
  2332.8000     45.7518      7.7857     70.1369     31.3058      1.4927      0.1239
  2332.9000     43.2176      7.7857     68.8332     30.7078      1.5143      0.1592
  2333.0000     42.8008      7.7964     67.6395     30.2083      1.5339      0.1699
  2333.1000     43.0482      7.7964     66.5346     30.0342      1.5522      0.1560
  2333.2000     45.4289      7.7964     65.0593     30.1148      1.5765      0.1346
  2333.3000     50.3809      7.8460     62.7550     30.6015      1.6145      0.1216
  2333.4000     54.3819      7.8460     59.6723     31.0137      1.6654      0.1352
  2333.5000     54.5290      7.9353     56.1796     30.8987      1.7230      0.1173
  2333.6000     54.3492      7.9353     52.0806     30.8101      1.7907      0.1025
  2333.7000     58.2854      7.9353     46.7662     31.1164      1.8784      0.1575
  2333.8000     63.3775      7.7499     40.0557     31.0827      1.9891      0.1455
  2333.9000     65.6609      7.7499     32.7844     30.2256      2.1091      0.2173
  2334.0000     65.8405      7.6652     26.3509     29.2472      2.2152      0.2323
  2334.1000     67.3762      7.6652     21.0133     29.0036      2.3033      0.2641
  2334.2000     73.0689      7.6652     16.2613     29.2307      2.3817      0.3263
  2334.3000     79.3943      7.6438     12.4421     29.2380      2.4447      0.3234
  2334.4000     82.6208      7.6438     10.4491     29.2019      2.4776      0.3301
  2334.5000     86.5313      7.6487      9.9526     29.4433      2.4858      0.2000
  2334.6000     92.2705      7.6487      9.3696     29.9243      2.4954      0.1923
  2334.7000     96.8833      7.6487      8.5073     30.4188      2.5096      0.2196
  2334.8000    100.5054      7.7207      8.4661     30.4127      2.5103      0.2005
  2334.9000     99.2248      7.7207      9.2516     29.7160      2.4973      0.1618
  2335.0000     92.4435      7.9372     10.2616     28.8777      2.4807      0.1464
  2335.1000     90.0526      7.9372     11.3341     28.4246      2.4630      0.1528
  2335.2000     94.9985      7.9372     12.1745     28.1026      2.4491      0.0722
  2335.3000     96.9513      8.4583     12.6375     27.8026      2.4415      0.0971
  2335.4000     90.2038      8.4583     13.4958     27.8902      2.4273      0.0881
  2335.5000     82.7776      8.5625     15.1300     28.1054      2.4004      0.0539
  2335.6000     81.1590      8.5625     16.7231     28.0114      2.3741      0.0272
  2335.7000     81.4756      8.5625     18.2884     27.7972      2.3482      0.0563
  2335.8000     80.7675      7.8505     21.6538     27.7899      2.2927      0.0854
  2335.9000     80.4450      7.8505     27.5427     27.9033      2.1955     -0.0071
  2336.0000     78.6037      7.7809     34.0082     28.0849      2.0889      0.0081
  2336.1000     74.3160      7.7809     39.0319     28.4813      2.0060     -0.0385
  2336.2000     72.4567      7.7809     42.3293     29.0076      1.9516     -0.0360
  2336.3000     73.4638      7.6832     45.2998     29.2701      1.9026      0.0065
  2336.4000     71.5857      7.6832     49.3149     29.2395      1.8363      0.0035
  2336.5000     67.5078      7.6621     53.4706     29.4560      1.7677     -0.0063
  2336.6000     64.5679      7.6621     55.7495     29.7452      1.7301      0.0149
