~Version Information
 VERS.                                  2.0 : CWLS LAS VERSION
 WRAP.                                   NO : WRAPING MODE
 SWARE .                 MController 2.5.0J : SOFTWARE VERSION
~Well Information
 WELL.                         Leier 17-24R : WELL
 COMP.                Petrogulf Corporation : COMPANY
 FLD.                      Purgatoire River : FIELD
 LOC.                SE/NE Sec 17 T33S R67W : LOCATION
 DATE.                          10/17-18/05 : DATE(S) LOGGED
 SRVC.       BLANCO Geological Services LLC : SERVICE COMPANY
 STAT.                                   CO : STATE
 CNTY.                           Las Animas : COUNTY
 CTRY.                                  USA : COUNTRY
 API.                       05-071-08410-00 : API NUMBER
 STRT.FT                              31.00 : START DEPTH
 STOP.FT                            1390.00 : STOP DEPTH
 STEP.FT                               1.00 : DEPTH INCREMENT
 NULL.                                -9999 : NULL VALUE
~Curve information
 DEPTH.FT                                   :
 ROP.MIN/FT                                 :
 GAS.UNITS                                  :
~ASCII Log data
# ...
       431.0         0.23        606.7 
       432.0         0.23        606.4 
       433.0         0.23        605.4 
       434.0         0.27        604.8 
       435.0         0.30        602.2 
       436.0         0.23        601.0 
       437.0         0.27        601.0 
       438.0         0.27        600.3 
       439.0         0.23        600.3 
       440.0         0.28        599.1 
       441.0         0.23        600.3 
       442.0         0.27        601.3 
       443.0         0.27        596.8 
       444.0         0.23        587.3 
       445.0         0.27        594.0 
       446.0       619.98        610.8 
       447.0        17.60        107.4 
       448.0         0.27         14.2 
       449.0         0.17         11.4 
       450.0         0.17          9.5 
       451.0         0.20          8.9 
       452.0         0.20          8.7 
       453.0         0.33          8.5 
       454.0         0.33          7.9 
       455.0         0.27          7.3 
       456.0         0.30          6.8 
       457.0         0.23          6.2 
       458.0         0.20          5.6 
       459.0         0.28          5.0 
       460.0         0.23          4.6 
       461.0         0.30          4.3 
       462.0         0.30          3.8 
       463.0         0.27          3.4 
       464.0         0.23          3.0 
       465.0         0.30          2.9 
       466.0         0.27          2.6 
       467.0         0.23          2.4 
       468.0         0.27          2.4 
       469.0         0.25          2.6 
       470.0         0.30          2.3 
       471.0         0.23          2.0 
       472.0         0.23          2.1 
       473.0         0.30          1.9 
       474.0         0.27          1.8 
       475.0         0.27          1.7 
       476.0         2.62          3.0 
       477.0         0.57          2.7 
       478.0         0.33          1.8 
       479.0         0.27          1.9 
       480.0         0.37          1.9 
       481.0         0.27          1.9 
       482.0         0.27          1.7 
       483.0         0.32          1.7 
       484.0         0.20          1.4 
       485.0         0.27          1.8 
       486.0         0.23          1.8 
       487.0         0.23          1.9 
       488.0         0.27          1.8 
       489.0         0.47          2.1 
       490.0         0.47          2.1 
       491.0         0.27          2.1 
       492.0         0.17          2.1 
       493.0         0.20          2.1 
       494.0         0.20          2.0 
       495.0         0.17          2.1 
       496.0         0.22          2.1 
       497.0         0.23          2.4 
       498.0         0.17          2.6 
       499.0         0.17          2.5 
       500.0         0.17          2.8 
       501.0         0.20          2.6 
       502.0         0.17          2.4 
       503.0         0.27          2.6 
       504.0         0.23          2.8 
       505.0         0.30          2.7 
       506.0         2.08          6.7 
       507.0         0.23          7.5 
       508.0         0.27          7.2 
       509.0         0.30          7.3 
       510.0         0.27          7.1 
       511.0         0.23          7.0 
       512.0         0.20          7.2 
       513.0         0.23          7.0 
       514.0         0.20          6.9 
       515.0         0.23          6.6 
       516.0         0.20          7.7 
       517.0         0.22          7.9 
       518.0         0.20          7.9 
       519.0         0.13          7.5 
       520.0         0.17          7.5 
       521.0         0.33          7.6 
       522.0         0.27          7.1 
       523.0         0.23          6.9 
       524.0         0.20          6.9 
       525.0         0.23          6.6 
       526.0         0.27          6.8 
       527.0         0.23          7.1 
       528.0         0.23          6.8 
       529.0         0.30          7.2 
       530.0         0.23          6.6 
       531.0         0.28          7.1 
       532.0         0.27          7.2 
       533.0         0.33          6.3 
       534.0         0.30          8.1 
       535.0         0.20          9.3 
       536.0         1.87         35.7 
       537.0         0.38          8.7 
       538.0         0.33          7.7 
       539.0         0.33          6.8 
       540.0         0.40          6.7 
       541.0         0.23          7.3 
       542.0         0.23          6.8 
       543.0         0.20          7.1 
       544.0         0.23          7.3 
       545.0         0.27          7.0 
       546.0         0.33          7.2 
       547.0         0.28          6.7 
       548.0         0.30          7.7 
       549.0         0.23          8.4 
       550.0         0.17          8.2 
       551.0         0.17          8.0 
       552.0         0.13          7.6 
       553.0         0.23          7.9 
       554.0         0.23          7.2 
       555.0         0.23          7.4 
       556.0         0.27          7.3 
       557.0         0.30          6.8 
       558.0         0.23          7.2 
       559.0         0.17         10.9 
       560.0         0.23         14.4 
       561.0         0.25         15.0 
       562.0         0.17         17.6 
       563.0         0.13         20.5 
       564.0         0.10         23.6 
       565.0         0.10         25.8 
       566.0         1.03        104.6 
       567.0         0.20         72.1 
       568.0         0.17         49.1 
       569.0         0.23         36.2 
       570.0         0.20         25.6 
       571.0         0.20         20.7 
       572.0         0.28         17.2 
       573.0         0.27         14.3 
       574.0         0.23         12.8 
       575.0         0.23         12.8 
       576.0         0.23         13.0 
       577.0         0.20         13.3 
       578.0         0.17         13.0 
       579.0         0.13         12.4 
       580.0         0.13         12.1 
       581.0         0.23         12.5 
       582.0         0.23         12.0 
       583.0         0.27         12.9 
       584.0         0.20         13.2 
       585.0         0.17         13.8 
       586.0         0.17         13.6 
       587.0         0.18         13.1 
       588.0         0.17         12.9 
       589.0         0.17         12.6 
       590.0         0.13         12.4 
       591.0         0.13         12.0 
       592.0         0.13         11.8 
       593.0         0.20         11.6 
       594.0         0.20         10.8 
       595.0         0.20          9.8 
       596.0         1.93         45.3 
       597.0         0.45         21.1 
       598.0         0.33         13.6 
       599.0         0.33         10.6 
       600.0         0.33          9.5 
       601.0         0.40          9.5 
       602.0         0.43          9.4 
       603.0         0.40          9.1 
       604.0         0.28          8.7 
       605.0         0.20          8.7 
       606.0         0.27          8.4 
       607.0         0.23          8.7 
       608.0         0.20          8.5 
       609.0         0.20          8.7 
       610.0         0.27          8.6 
       611.0         0.20          8.2 
       612.0         0.23          8.1 
       613.0         0.23          8.7 
       614.0         0.30          8.4 
       615.0         0.27          8.4 
       616.0         0.20          8.8 
       617.0         0.17          8.6 
       618.0         0.20          8.4 
       619.0         0.18          8.2 
       620.0         0.20          8.0 
       621.0         0.17          7.7 
       622.0         0.20          6.8 
       623.0         0.23          7.1 
       624.0         0.13          8.3 
       625.0         0.17          9.3 
       626.0         1.30         39.6 
       627.0         0.30         23.4 
       628.0         0.42         15.4 
       629.0         0.37         10.6 
       630.0         0.30          8.4 
