~Version Information
VERS.                      2.0: CWLS Log ASCII Standard - VERSION 2.0
WRAP.                       NO: One line per depth step
~Well Information Block
STRT.FT               259.0000: 
STOP.FT              2379.0000: 
STEP.FT                 0.2500: 
NULL.                -999.2500: 
COMP.          Pioneer Natural Resources: COMPANY
WELL.          Foothills 12-36: WELL
FLD.           Purgatoire River: FIELD
LOC.           2450' FNL & 201' FWL: LOCATION
PROV.                 Colorado: PROVINCE
CNTY.               Las Animas: COUNTRY
SRVC.                Patterson: SERVICE COMPANY
DATE.          Thu Apr 21 09:19:57 2005: LOG DATE
UWI.           05 071 08339 00: UNIQUE WELL ID
~Curve Information Block
DEPT.FT            0 000 00 00: Depth
DCAL.in                       : CDL Caliper
RHOB.g/cc                     : CDL Bulk Density
RHOC.g/cc                     : CDL Density Correction
DPOR.pu                       : CDL Density Porosity
GR.GAPI                       : Gamma Ray
NPOR.pu                       : Neutron Porosity
~Parameter Information Block
~A  Depth       DCAL        RHOB        RHOC        DPOR         GR         NPOR    
# ...
   955.0000      8.0045      2.5240      0.0936      7.6367    113.0930     30.5982
   955.2500      8.0057      2.4852      0.0724      9.9892    116.3328     32.1177
   955.5000      8.0065      2.4778      0.0929     10.4353    118.6936     31.6803
   955.7500      8.0061      2.4953      0.1267      9.3729    108.1903     31.0007
   956.0000      8.0058      2.5138      0.0780      8.2569    108.4130     26.5537
   956.2500      8.0059      2.5191      0.1212      7.9304    117.7131     25.6681
   956.5000      8.0059      2.4992      0.0324      9.1413    111.7883     27.0440
   956.7500      8.0059      2.5519      0.1456      5.9425    104.1650     26.9877
   957.0000      8.0058      2.5773      0.1241      4.4065    107.8423     27.6975
   957.2500      8.0057      2.5348      0.0666      6.9826    103.6318     28.9304
   957.5000      8.0071      2.5635      0.1411      5.2424     98.6172     29.2813
   957.7500      8.0087      2.5304      0.1041      7.2498    110.3255     30.3485
   958.0000      8.0073      2.5560      0.1154      5.6952    104.0978     27.5403
   958.2500      8.0053      2.5819      0.1282      4.1273     98.2565     25.2595
   958.5000      8.0049      2.5645      0.1408      5.1832     99.0293     27.0420
   958.7500      8.0051      2.5763      0.0948      4.4645    101.8417     25.4382
   959.0000      8.0048      2.6033      0.1192      2.8293     95.9760     27.1776
   959.2500      8.0043      2.6354      0.1405      0.8848     96.4122     27.3319
   959.5000      8.0045      2.5850      0.0574      3.9396    103.9064     24.2947
   959.7500      8.0054      2.5844      0.0716      3.9750    111.6852     24.1272
   960.0000      8.0061      2.5742      0.0245      4.5920    114.1671     27.0909
   960.2500      8.0070      2.6015      0.1330      2.9414    101.6124     26.1677
   960.5000      8.0100      2.5700      0.0784      4.8509     95.4454     26.2356
   960.7500      8.0170      2.5457      0.0616      6.3196    100.1691     26.9673
   961.0000      8.0200      2.5046      0.0788      8.8121     95.0544     27.7041
   961.2500      8.0070      2.5175      0.0679      8.0282     92.9872     26.9501
   961.5000      7.9878      2.5628      0.1369      5.2878    104.1144     28.8972
   961.7500      7.9764      2.5304      0.0673      7.2490    101.6004     28.0744
   962.0000      7.9730      2.5504      0.1237      6.0389    105.3443     24.4235
   962.2500      7.9728      2.5796      0.1049      4.2638    103.5640     22.3213
   962.5000      7.9733      2.5819      0.1272      4.1287    107.4085     24.4153
   962.7500      7.9736      2.5602      0.1208      5.4396    114.1750     24.2149
   963.0000      7.9733      2.5616      0.1020      5.3550    106.4557     27.5598
   963.2500      7.9725      2.5464      0.0763      6.2770    100.4148     26.9743
   963.5000      7.9726      2.5343      0.1021      7.0096    101.1246     25.3524
   963.7500      7.9734      2.5631      0.0781      5.2641     95.9208     27.0667
   964.0000      7.9740      2.5668      0.1318      5.0452     88.1591     26.9307
   964.2500      7.9736      2.5292      0.0892      7.3188     93.2677     29.9756
   964.5000      7.9728      2.5688      0.0931      4.9204     91.8496     27.4607
   964.7500      7.9721      2.6007      0.1268      2.9863     90.5247     26.7390
   965.0000      7.9713      2.6349      0.1051      0.9156     97.3191     29.3134
   965.2500      7.9709      2.6573      0.1309     -0.4441     86.2524     29.0498
   965.5000      7.9696      2.6776      0.1056     -1.6740     90.0880     28.4468
   965.7500      7.9654      2.6716      0.1034     -1.3108     98.8200     27.6673
   966.0000      7.9623      2.5802     -0.0082      4.2294    103.6056     28.6516
   966.2500      7.9664      2.5366      0.0098      6.8709    122.7617     28.3193
   966.5000      7.9711      2.5809      0.0770      4.1906    111.3868     29.7720
   966.7500      7.9726      2.6277      0.1022      1.3516    110.9957     29.6279
   967.0000      7.9726      2.6064      0.1040      2.6441    100.5668     28.4828
   967.2500      7.9724      2.6009      0.0733      2.9738    106.7402     29.0432
   967.5000      7.9724      2.5782      0.0205      4.3541    120.1123     29.4730
   967.7500      7.9726      2.5509      0.0831      6.0034    117.3439     29.8192
   968.0000      7.9731      2.5770      0.1028      4.4264    109.3241     29.8494
   968.2500      7.9743      2.5470      0.0811      6.2422    106.2837     29.3369
   968.5000      7.9752      2.6279      0.1285      1.3390     95.8564     29.6252
   968.7500      7.9739      2.7504      0.1890     -6.0838     87.6387     29.2191
   969.0000      7.9721      2.8215      0.1660    -10.3909    105.9776     28.0347
   969.2500      7.9712      2.7684      0.1450     -7.1768    119.5946     28.8358
   969.5000      7.9710      2.5482     -0.0138      6.1715    111.7056     25.9499
   969.7500      7.9713      2.5292      0.0756      7.3240    108.0616     26.0404
   970.0000      7.9720      2.5111      0.0718      8.4175    106.4102     26.6084
   970.2500      7.9728      2.5387      0.0771      6.7431    121.7350     28.0789
   970.5000      7.9733      2.5744      0.1256      4.5798    119.8356     29.9715
   970.7500      7.9734      2.5436      0.0675      6.4459    115.9033     29.3466
   971.0000      7.9731      2.5320      0.0824      7.1544    106.2633     27.3925
   971.2500      7.9724      2.5286      0.0959      7.3595    107.3553     27.4225
   971.5000      7.9723      2.5593      0.1225      5.4998    101.7022     29.4065
   971.7500      7.9727      2.5284      0.1020      7.3678     88.1878     28.8114
   972.0000      7.9713      2.5215      0.0705      7.7886     84.1498     27.7868
   972.2500      7.9665      2.5291      0.0397      7.3251     80.3309     27.1047
   972.5000      7.9631      2.5834      0.0926      4.0348    101.4479     28.6038
   972.7500      7.9678      2.5835      0.0847      4.0274    112.4612     28.6245
   973.0000      7.9741      2.5773      0.1057      4.4066    102.6747     27.4265
   973.2500      7.9768      2.5477      0.0526      6.1998     96.8295     27.1871
   973.5000      7.9786      2.5464      0.1169      6.2814    106.9787     28.3637
   973.7500      7.9804      2.5421      0.0904      6.5365    111.4728     29.8663
   974.0000      7.9820      2.5342      0.0871      7.0152    103.1710     27.4280
   974.2500      7.9840      2.5366      0.0863      6.8749     98.2931     29.0618
   974.5000      7.9863      2.5285      0.0613      7.3658    103.5861     31.0042
   974.7500      7.9880      2.5375      0.1039      6.8156    100.4184     31.4592
   975.0000      7.9885      2.5227      0.1174      7.7148    105.2264     30.7967
   975.2500      7.9876      2.4947      0.1023      9.4127    107.2227     29.2048
   975.5000      7.9867      2.4632      0.0527     11.3194    100.6156     31.0132
   975.7500      7.9866      2.4968      0.0463      9.2826     97.0734     30.3604
   976.0000      7.9870      2.5521      0.1038      5.9317     89.8058     29.2911
   976.2500      7.9871      2.6044      0.1353      2.7636     93.2896     27.2478
   976.5000      7.9871      2.6029      0.1238      2.8556     99.1424     27.2169
   976.7500      7.9870      2.5693      0.0972      4.8919    108.1631     27.2073
   977.0000      7.9868      2.5375      0.0793      6.8189    109.1272     28.7695
   977.2500      7.9869      2.5168      0.0857      8.0748    112.7996     28.9950
   977.5000      7.9892      2.5499      0.1003      6.0657    111.6013     28.4225
   977.7500      7.9937      2.5770      0.0990      4.4236    121.7356     28.0033
   978.0000      7.9987      2.5508      0.1161      6.0139    114.6610     29.1283
   978.2500      8.0024      2.5373      0.0981      6.8327    114.5355     30.2362
   978.5000      8.0062      2.4938      0.1142      9.4697    121.2535     28.4238
   978.7500      8.0093      2.4346      0.0511     13.0515    122.9268     28.5707
