~Version Information
VERS.                      2.0: CWLS Log ASCII Standard - VERSION 2.0
WRAP.                       NO: One line per depth step
~Well Information Block
STRT.FT               620.0000: 
STOP.FT              2660.0000: 
STEP.FT                 0.1000: 
NULL.                -999.2500: 
COMP.          Evergreen Operating Corporation: COMPANY
WELL.             Carbon 34-21: WELL
FLD.           Purgatoire River: FIELD
LOC.           56' FSL & 2304' FEL: LOCATION
PROV.                 Colorado: PROVINCE
CNTY.               Las Animas: COUNTRY
SRVC.                Patterson: SERVICE COMPANY
DATE.          Mon Sep 13 14:13:15 2004: LOG DATE
UWI.           05 071 08117 00: UNIQUE WELL ID
~Curve Information Block
DEPT.FT            0 000 00 00: Depth
DCAL.in                       : CDL Caliper
DPOR.pu                       : CDL Density Porosity
NPOR.pu                       : Neutron Porosity
RHOB.g/cc                     : CDL Bulk Density
RHOC.g/cc                     : CDL Density Correction
GR.GAPI                       : Gamma Ray
~Parameter Information Block
~A  Depth       DCAL        DPOR        NPOR        RHOB        RHOC         GR     
# ...
  2520.8000      8.1128     39.9202     28.3139      1.9913      0.1700     89.7411
  2520.9000      8.1128     35.3494     27.5965      2.0667      0.2725     86.0581
  2521.0000      8.1424     32.4412     26.8673      2.1147      0.2805     82.8494
  2521.1000      8.1424     30.5746     26.1157      2.1455      0.2641     88.8959
  2521.2000      8.1424     28.1865     25.4518      2.1849      0.1984     98.7369
  2521.3000      8.1591     24.2131     25.0158      2.2505      0.0999    102.3671
  2521.4000      8.1591     18.8388     24.6404      2.3392      0.0176    103.1220
  2521.5000      8.1325     13.4288     24.2150      2.4284      0.0466    108.9150
  2521.6000      8.1325      9.6763     24.0383      2.4903      0.0492    115.9833
  2521.7000      8.1325      8.1582     24.1607      2.5154      0.0709    117.3261
  2521.8000      8.1124      7.7202     24.3862      2.5226      0.0437    112.6614
  2521.9000      8.1124      7.0875     24.5913      2.5331      0.0232    106.3392
  2522.0000      8.1173      7.0923     24.7970      2.5330      0.0788    105.4086
  2522.1000      8.1173      9.0496     25.0821      2.5007      0.0117    113.1539
  2522.2000      8.1173     11.6368     25.3104      2.4580     -0.0263    124.8234
  2522.3000      8.1255     12.6336     25.3142      2.4415     -0.0404    132.3908
  2522.4000      8.1255     11.7974     25.0722      2.4553     -0.0254    130.5911
  2522.5000      8.1300     10.5906     24.7864      2.4753      0.0476    122.1332
  2522.6000      8.1300     10.3763     24.7258      2.4788      0.0218    114.4247
  2522.7000      8.1300     10.9173     24.6465      2.4699      0.0154    112.4243
  2522.8000      8.1318     10.9832     24.6195      2.4688      0.0099    117.5250
  2522.9000      8.1318     10.1875     24.7844      2.4819      0.0515    129.5227
  2523.0000      8.1306      9.4772     24.4876      2.4936      0.0588    145.0775
  2523.1000      8.1306      9.3546     23.6873      2.4956      0.0451    154.9585
  2523.2000      8.1306      9.5168     23.4537      2.4930      0.0826    147.4329
  2523.3000      8.1283     10.2167     24.2713      2.4814      0.0721    125.0912
  2523.4000      8.1283     11.5517     25.3953      2.4594      0.0304    104.8730
  2523.5000      8.1277     12.6174     25.8685      2.4418     -0.0203     96.8540
  2523.6000      8.1277     12.8259     25.6120      2.4384     -0.0047    104.6975
  2523.7000      8.1277     12.8389     25.2646      2.4382      0.0453    124.5977
  2523.8000      8.1238     13.3425     25.4413      2.4298      0.0325    141.4628
  2523.9000      8.1238     14.1934     26.0304      2.4158      0.0174    144.6009
  2524.0000      8.1183     14.7185     26.6658      2.4071     -0.0005    137.4442
  2524.1000      8.1183     14.5751     27.1768      2.4095      0.0295    130.9110
  2524.2000      8.1183     14.2022     27.2986      2.4157      0.0161    128.6357
  2524.3000      8.1264     14.2055     27.1526      2.4156      0.0254    124.2783
  2524.4000      8.1264     14.8008     27.0236      2.4058      0.0315    118.6957
  2524.5000      8.1529     15.7204     27.1101      2.3906      0.0048    116.7795
  2524.6000      8.1529     16.7147     27.4611      2.3742      0.0201    116.7175
  2524.7000      8.1529     18.1182     27.7287      2.3510      0.0221    114.7003
  2524.8000      8.1911     20.6192     27.6888      2.3098      0.0172    108.9371
  2524.9000      8.1911     24.3181     27.3831      2.2488      0.0104    102.2658
  2525.0000      8.2197     27.8067     27.2155      2.1912     -0.0516     97.9320
  2525.1000      8.2197     29.6552     27.6884      2.1607     -0.0006     96.0075
  2525.2000      8.2197     30.1962     28.6196      2.1518     -0.0260     92.1357
  2525.3000      8.2320     30.2305     29.3690      2.1512      0.0035     87.5582
  2525.4000      8.2320     29.8153     29.2336      2.1580      0.0003     88.3119
  2525.5000      8.2340     28.9291     28.1153      2.1727      0.0914     89.6576
  2525.6000      8.2340     28.0475     26.6841      2.1872      0.0934     85.6071
  2525.7000      8.2340     27.0510     25.6448      2.2037      0.0845     79.3202
  2525.8000      8.2261     25.6447     25.1704      2.2269      0.2277     74.1501
  2525.9000      8.2261     24.4193     24.7323      2.2471      0.2446     69.9956
  2526.0000      8.1907     23.3663     23.7388      2.2645      0.2015     69.2648
  2526.1000      8.1907     21.5213     22.3679      2.2949      0.1704     75.7972
  2526.2000      8.1907     18.3450     21.4081      2.3473      0.1651     85.8350
  2526.3000      8.1282     14.3658     20.9622      2.4130      0.1732     92.8812
  2526.4000      8.1282     10.7421     20.2688      2.4728      0.1026     95.4949
  2526.5000      8.0845      8.3919     19.1494      2.5115      0.1070     95.0170
  2526.6000      8.0845      7.4847     18.3428      2.5265      0.0913     93.4471
  2526.7000      8.0845      7.0344     18.1463      2.5339      0.0336     92.2718
  2526.8000      8.0714      5.7680     18.3969      2.5548      0.0472     93.0247
  2526.9000      8.0714      3.8343     19.1295      2.5867      0.0673     95.9783
  2527.0000      8.0719      2.6022     20.2304      2.6071      0.1142     96.6616
  2527.1000      8.0719      2.4538     21.0201      2.6095      0.0639     89.8735
  2527.2000      8.0719      2.4208     20.9065      2.6101      0.0517     80.5349
  2527.3000      8.0761      2.4887     20.4478      2.6089      0.0908     77.6728
  2527.4000      8.0761      3.4516     20.6208      2.5930      0.0792     80.2411
  2527.5000      8.0784      5.0897     21.3413      2.5660      0.0338     81.6394
  2527.6000      8.0784      6.5590     22.0414      2.5418      0.0176     74.8785
  2527.7000      8.0784      7.1741     22.3706      2.5316      0.0046     63.9927
  2527.8000      8.0794      6.9131     22.1972      2.5359      0.0065     64.6242
  2527.9000      8.0794      7.1623     21.7823      2.5318      0.0453     79.4199
  2528.0000      8.0796      8.8683     21.8905      2.5037     -0.0262     95.6737
  2528.1000      8.0796     11.0878     23.0540      2.4671      0.0073    106.6789
  2528.2000      8.0796     13.0752     24.5582      2.4343      0.0042    116.0418
  2528.3000      8.0764     14.8933     25.3099      2.4043      0.0034    125.6583
  2528.4000      8.0764     16.2222     25.4973      2.3823     -0.0173    131.0662
  2528.5000      8.0731     16.9107     25.7572      2.3710      0.0327    131.1095
  2528.6000      8.0731     17.4108     25.9393      2.3627      0.0046    126.5246
  2528.7000      8.0731     17.3647     25.8085      2.3635      0.0053    119.5494
  2528.8000      8.0725     16.0333     25.5428      2.3855      0.0140    118.5306
  2528.9000      8.0725     13.7594     25.3123      2.4230      0.0847    125.5074
  2529.0000      8.0735     11.4754     24.9499      2.4607      0.1213    136.3929
  2529.1000      8.0735      9.9922     24.7004      2.4851      0.1569    143.4144
  2529.2000      8.0735      9.9667     25.0871      2.4856      0.1464    134.5335
  2529.3000      8.0733     11.1486     25.7861      2.4660      0.1149    113.9696
  2529.4000      8.0733     12.3481     26.0669      2.4463      0.1057     98.0415
  2529.5000      8.0741     12.8535     25.7232      2.4379      0.0865     97.3771
  2529.6000      8.0741     12.8332     25.3068      2.4383      0.0596    115.0611
  2529.7000      8.0741     12.8037     25.1018      2.4387      0.0913    137.0889
  2529.8000      8.0788     13.2037     24.9141      2.4321      0.0399    140.8962
  2529.9000      8.0788     13.5324     24.6805      2.4267     -0.0006    126.7309
  2530.0000      8.0830     13.1605     24.4829      2.4329      0.0125    113.7894
  2530.1000      8.0830     12.8094     24.4322      2.4386      0.0623    112.0054
  2530.2000      8.0830     13.1023     24.3934      2.4338      0.0149    115.7279
  2530.3000      8.0851     12.6361     24.3205      2.4415     -0.0259    120.4533
