~Version Information
VERS.                      2.0: CWLS Log ASCII Standard - VERSION 2.0
WRAP.                       NO: One line per depth step
~Well Information Block
STRT.FT                -3.0000: 
STOP.FT              1828.0000: 
STEP.FT                 0.2500: 
NULL.                -999.2500: 
COMP.          Pioneer Natural Resources: COMPANY
WELL.           Guajardo 24-16: WELL
FLD.           Purgatorie River: FIELD
LOC.           883' FSL & 2147' FWL--: LOCATION
PROV.                       CO: PROVINCE
CNTY.               Las Animas: COUNTRY
SRVC.          Patterson Wireline: SERVICE COMPANY
DATE.          Wed Aug 10 11:02:25 2005: LOG DATE
UWI.           05 071 08377 00: UNIQUE WELL ID
~Curve Information Block
DEPT.FT            0 000 00 00: Depth
CCL.                          : Casing Collar Locator
TT3.usec                      : CBL 3' Travel Time
AMP3.mV                       : CBL 3' Amplitude
GR.GAPI                       : Gamma Ray
~Parameter Information Block
~A  Depth       CCL         TT3         AMP3         GR     
# ...
   600.0000      0.0000    800.6337     12.3393    128.3776
   600.2500      0.0000    811.6391     12.3682    123.6947
   600.5000      0.0000    819.8101     12.3715    118.0351
   600.7500      0.0000    824.5820     12.3723    113.5317
   601.0000      0.0000    826.3295     12.3893    111.4817
   601.2500      0.0000    825.4467     12.4278    112.0506
   601.5000      0.0000    821.9321     12.4848    114.3657
   601.7500      0.0000    815.8669     12.5559    116.8442
   602.0000      0.0000    808.6912     12.6325    117.9536
   602.2500      0.0000    803.8052     12.6979    117.2439
   602.5000      0.0000    804.9833     12.7316    115.8854
   602.7500      0.0000    813.2814     12.7224    115.9739
   603.0000      0.0000    825.5839     12.6770    118.9861
   603.2500      0.0000    836.7896     12.6147    124.6922
   603.5000      0.0000    843.4464     12.5500    131.3787
   603.7500      0.0000    845.3940     12.4835    137.0183
   604.0000      0.0000    844.8463     12.4086    140.2355
   604.2500      0.0000    844.4024     12.3225    140.4946
   604.5000      0.0000    845.3079     12.2295    137.9964
   604.7500      0.0000    846.9048     12.1370    133.5625
   605.0000      0.0000    847.6535     12.0498    128.3402
   605.2500      0.0000    846.7916     11.9666    123.5326
   605.5000      0.0000    845.1197     11.8806    120.4256
   605.7500      0.0000    844.2775     11.7830    120.1950
   606.0000      0.0000    845.2141     11.6679    122.9569
   606.2500      0.0000    847.4089     11.5380    126.8484
   606.5000      0.0000    849.5933     11.4088    128.7036
   606.7500      0.0000    850.9393     11.3066    126.2918
   607.0000      0.0000    851.4261     11.2542    120.0354
   607.2500      0.0000    851.3344     11.2498    112.3702
   607.5000      0.0000    850.6918     11.2531    105.4882
   607.7500      0.0000    848.7990     11.1986    100.1080
   608.0000      0.0000    843.8732     11.0326     96.3404
   608.2500      0.0000    832.9549     10.7558     94.8823
   608.5000      0.0000    813.3264     10.4280     96.8006
   608.7500      0.0000    786.6484     10.1164    102.3459
   609.0000      0.0000    763.6854      9.8294    110.1664
   609.2500      0.0000    762.0555      9.5261    117.5411
   609.5000      0.0000    792.7017      9.2149    121.5239
   609.7500      0.0000    845.8353      8.9937    120.3465
   610.0000      0.0000    893.5529      8.9458    114.3015
   610.2500      0.0000    909.6972      9.0301    105.6324
   610.5000      2.0000    886.8223      9.1267     97.5045
   610.7500     -2.0000    834.0483      9.1727     92.5579
   611.0000      0.0000    763.7045      9.2321     91.7152
   611.2500      0.0000    686.6284      9.4447     93.9256
   611.5000      0.0000    618.5586      9.8805     97.2349
   611.7500      0.0000    579.2058     10.4191    100.4004
   612.0000      0.0000    577.0087     10.8246    103.5698
   612.2500      0.0000    599.9457     11.0101    107.5023
   612.5000      0.0000    629.4824     11.1566    112.2707
   612.7500      0.0000    660.2433     11.4808    116.7025
   613.0000      0.0000    698.5303     11.9655    119.1374
   613.2500      0.0000    745.3095     12.4119    118.8291
   613.5000      0.0000    790.3940     12.6760    116.4230
   613.7500      0.0000    822.9556     12.7598    113.0142
   614.0000      0.0000    840.6633     12.7302    109.2313
   614.2500      0.0000    848.0203     12.6375    105.3387
   614.5000      0.0000    850.3854     12.5094    101.4225
   614.7500      0.0000    850.9851     12.3665     97.2450
   615.0000      0.0000    851.1090     12.2219     92.6733
   615.2500      0.0000    851.0820     12.0747     88.4381
   615.5000      0.0000    850.8453     11.9183     85.9413
   615.7500      0.0000    850.1131     11.7619     86.4022
   616.0000      0.0000    848.5571     11.6438     90.3835
   616.2500      0.0000    846.2358     11.6157     97.3257
   616.5000      0.0000    843.9817     11.7011    104.9171
   616.7500      0.0000    843.0589     11.8681    109.7190
   617.0000      0.0000    844.0778     12.0499    109.5505
   617.2500      0.0000    846.3708     12.1945    105.3984
   617.5000      0.0000    848.6578     12.2906    100.6576
   617.7500      0.0000    850.1328     12.3515     98.4858
   618.0000      0.0000    850.7725     12.3903     99.9208
   618.2500      0.0000    850.8876     12.4149    104.1366
   618.5000      0.0000    850.6447     12.4391    109.7815
   618.7500      0.0000    849.8947     12.4873    115.6344
   619.0000      0.0000    848.3348     12.5801    120.4337
   619.2500      0.0000    845.9870     12.7130    122.9803
   619.5000      0.0000    843.6464     12.8527    122.5574
   619.7500      0.0000    842.5752     12.9621    118.9651
   620.0000      0.0000    843.4283     13.0274    112.5735
   620.2500      0.0000    845.5985     13.0578    104.9153
   620.5000      0.0000    847.8286     13.0633     98.7397
   620.7500      0.0000    849.2526     13.0444     96.5155
   621.0000      0.0000    849.6812     13.0008     98.5437
   621.2500      0.0000    849.1646     12.9398    102.7590
   621.5000      0.0000    847.6818     12.8681    106.4876
   621.7500      0.0000    845.4119     12.7794    108.2959
   622.0000      0.0000    843.1755     12.6549    108.2862
   622.2500      0.0000    842.1905     12.4832    107.1692
   622.5000      0.0000    843.0692     12.2807    105.5381
   622.7500      0.0000    845.2101     12.0923    103.8339
   623.0000      0.0000    847.4066     11.9707    102.2852
   623.2500      0.0000    848.8610     11.9523    100.4196
   623.5000      0.0000    849.4347     12.0437     97.0520
   623.7500      0.0000    849.1436     12.2203     91.6042
   624.0000      0.0000    847.6239     12.4364     85.6381
   624.2500      0.0000    844.1303     12.6453     82.4456
   624.5000      0.0000    838.3293     12.8183     84.5377
   624.7500      0.0000    831.3853     12.9463     91.4818
   625.0000      0.0000    825.9425     13.0248    100.2997
   625.2500      0.0000    824.3781     13.0468    107.8050
   625.5000      0.0000    827.0426     13.0138    112.2646
   625.7500      0.0000    832.3942     12.9467    113.2308
   626.0000      0.0000    838.4040     12.8746    111.0705
   626.2500      0.0000    843.5492     12.8127    107.5165
   626.5000      0.0000    847.0858     12.7493    105.7310
   626.7500      0.0000    849.0218     12.6569    108.0946
   627.0000      0.0000    849.8442     12.5219    113.5793
   627.2500      0.0000    850.0941     12.3713    118.4116
   627.5000      0.0000    850.1026     12.2712    119.8618
   627.7500      0.0000    850.0015     12.2876    118.6320
   628.0000      0.0000    849.8366     12.4432    117.2191
   628.2500      0.0000    849.6380     12.7095    116.9993
   628.5000      0.0000    849.4326     13.0348    117.6600
   628.7500      0.0000    849.2352     13.3745    118.5591
   629.0000      0.0000    849.0545     13.7062    119.5820
   629.2500      0.0000    848.8947     14.0318    120.8987
   629.5000      0.0000    848.7485     14.3761    122.4792
   629.7500      0.0000    848.5995     14.7800    124.0092
   630.0000      0.0000    848.4352     15.2810    125.2565
   630.2500      0.0000    848.2565     15.8904    126.3721
   630.5000      0.0000    848.0715     16.5844    127.6271
   630.7500      0.0000    847.8500     17.3207    129.1656
   631.0000      0.0000    847.4301     18.0663    131.0714
   631.2500      0.0000    846.0463     18.8101    132.9915
   631.5000      0.0000    841.1118     19.5596    133.6433
   631.7500      0.0000    826.3054     20.3287    131.6267
   632.0000      0.0000    791.0782     21.1209    126.9672
   632.2500      0.0000    725.4669     21.9125    121.2774
   632.5000      0.0000    630.1122     22.6542    116.3353
   632.7500      0.0000    522.0912     23.2908    112.8895
   633.0000      0.0000    426.7461     23.7815    110.8364
   633.2500      0.0000    361.1909     24.1093    109.8898
