~Version Information
VERS.                      2.0: CWLS Log ASCII Standard - VERSION 2.0
WRAP.                       NO: One line per depth step
~Well Information Block
STRT.FT                -8.0000: 
STOP.FT              1540.2500: 
STEP.FT                 0.2500: 
NULL.                -999.2500: 
COMP.          Pioneer Natural Resources: COMPANY
WELL.           Telna 24-22 Tr: WELL
FLD.           Purgatorie River: FIELD
LOC.           748' FSL & 1931' FWL--: LOCATION
PROV.                       CO: PROVINCE
CNTY.               Las Animas: COUNTRY
SRVC.          Patterson Wireline: SERVICE COMPANY
DATE.          Fri May 06 12:29:21 2005: LOG DATE
UWI.           05 071 08304 00: UNIQUE WELL ID
~Curve Information Block
DEPT.FT            0 000 00 00: Depth
CCL.                          : Casing Collar Locator
TT3.usec                      : CBL 3' Travel Time
AMP3.mV                       : CBL 3' Amplitude
GR.GAPI                       : Gamma Ray
~Parameter Information Block
~A  Depth       CCL         TT3         AMP3         GR     
    -8.0000   -999.2500   -999.2500   -999.2500     69.8211
    -7.7500   -999.2500   -999.2500   -999.2500     68.1433
    -7.5000   -999.2500   -999.2500   -999.2500     68.1383
    -7.2500   -999.2500   -999.2500   -999.2500     69.8521
    -7.0000   -999.2500   -999.2500   -999.2500     72.6107
    -6.7500   -999.2500   -999.2500   -999.2500     75.2806
    -6.5000   -999.2500   -999.2500   -999.2500     76.7726
    -6.2500   -999.2500   -999.2500   -999.2500     76.4895
    -6.0000   -999.2500   -999.2500   -999.2500     74.7119
    -5.7500   -999.2500   -999.2500   -999.2500     72.6716
    -5.5000   -999.2500   -999.2500   -999.2500     71.9142
    -5.2500   -999.2500   -999.2500   -999.2500     73.1623
    -5.0000   -999.2500   -999.2500   -999.2500     75.7788
    -4.7500   -999.2500   -999.2500   -999.2500     78.4148
    -4.5000   -999.2500   -999.2500   -999.2500     79.9340
    -4.2500   -999.2500   -999.2500   -999.2500     79.7112
    -4.0000   -999.2500   -999.2500   -999.2500     77.7358
    -3.7500   -999.2500   -999.2500   -999.2500     74.8769
    -3.5000   -999.2500   -999.2500   -999.2500     72.6555
    -3.2500   -999.2500   -999.2500   -999.2500     72.2230
    -3.0000   -999.2500   1161.0000      1.1161     73.6091
    -2.7500   -999.2500   1161.0000      1.1413     75.9984
    -2.5000   -999.2500   1161.0000      1.1709     78.3423
    -2.2500   -999.2500   1161.0000      1.1917     79.4594
    -2.0000   -999.2500   1161.0000      1.1909     78.0690
    -1.7500   -999.2500   1161.0000      1.1684     73.4609
    -1.5000   -999.2500   1161.0000      1.1417     66.4147
    -1.2500   -999.2500   1161.0000      1.1333     59.0812
    -1.0000   -999.2500   1161.0000      1.1514     53.4912
    -0.7500   -999.2500   1161.0000      1.1836     50.0717
    -0.5000   -999.2500   1161.0000      1.2083     47.7102
    -0.2500   -999.2500   1161.0000      1.2118     45.0885
     0.0000   -999.2500   1161.0000      1.1966     41.7571
     0.2500   -999.2500   1161.0000      1.1668     35.0007
     0.5000   -999.2500   1161.0000      1.1760     32.7702
     0.7500   -999.2500   1161.0000      1.1983     31.5454
     1.0000   -999.2500   1161.0000      1.2173     31.2037
     1.2500   -999.2500   1161.0000      1.2190     31.6810
     1.5000   -999.2500   1161.0000      1.2042     33.1029
     1.7500   -999.2500   1161.0000      1.1884     35.5903
     2.0000   -999.2500   1161.0000      1.1868     38.7995
     2.2500      0.0000   1161.0000      1.2018     41.7505
     2.5000      0.0000   1161.0000      1.2240     43.4345
     2.7500      0.0000   1161.0000      1.2426     43.7067
     3.0000      0.0000   1161.0000      1.2519     43.3597
     3.2500      0.0000   1161.0000      1.2490     43.2541
     3.5000      0.0000   1161.0000      1.2312     43.5924
     3.7500      0.0000   1161.0000      1.1997     44.0297
     4.0000      0.0000   1161.0000      1.1638     44.2904
     4.2500      0.0000   1161.0000      1.1389     44.6322
     4.5000      0.0000   1161.0000      1.1379     45.7451
     4.7500      0.0000   1161.0000      1.1627     48.2135
     5.0000      0.0000   1161.0000      1.2035     52.1048
     5.2500      0.0000   1160.9398      1.2467     56.9637
     5.5000      0.0000   1160.5475      1.2904     61.8432
     5.7500      0.0000   1158.5552      1.3875     65.2417
     6.0000      0.0000   1150.6758      1.7476     65.5768
     6.2500      0.0000   1126.4061      2.8901     62.2865
     6.5000      0.0000   1068.1876      5.6751     56.4479
     6.7500      0.0000    959.4214     10.9101     50.1902
     7.0000      0.0000    801.1586     18.5550     45.5201
     7.2500      0.0000    621.7886     27.2821     43.4829
     7.5000      0.0000    463.4160     35.1350     44.0796
     7.7500      0.0000    354.4387     40.7989     46.7050
     8.0000      0.0000    295.9457     44.1916     50.4923
     8.2500      0.0000    271.4040     46.0000     54.3935
     8.5000      0.0000    263.3140     46.9471     57.4503
     8.7500      0.0000    261.1975     47.4628     59.2407
     9.0000      0.0000    260.7600     47.7290     59.8930
     9.2500      0.0000    260.7105     47.8216     59.5673
     9.5000      0.0000    260.7513     47.8101     58.1132
     9.7500      0.0000    260.7998     47.7896     55.4710
    10.0000      0.0000    260.8412     47.8520     52.3354
    10.2500      0.0000    260.8698     48.0390     50.0180
    10.5000      0.0000    260.8871     48.3180     49.2926
    10.7500      0.0000    260.8971     48.6105     49.5555
    11.0000      0.0000    260.9014     48.8511     49.4961
    11.2500      0.0000    260.8959     49.0305     48.4374
    11.5000      0.0000    260.8705     49.1931     46.7469
    11.7500      0.0000    260.8146     49.3947     45.1845
    12.0000      0.0000    260.7274     49.6529     44.1833
    12.2500      0.0000    260.6263     49.9327     43.6616
    12.5000      0.0000    260.5407     50.1814     43.3220
    12.7500      0.0000    260.4941     50.3722     43.0586
    13.0000      0.0000    260.4891     50.5146     43.0405
    13.2500      0.0000    260.5098     50.6298     43.3659
    13.5000      0.0000    260.5373     50.7253     43.6733
    13.7500      0.0000    260.5622     50.7914     43.3077
    14.0000      0.0000    260.5841     50.8160     42.0755
    14.2500      0.0000    260.6032     50.8039     40.6745
    14.5000      0.0000    260.6142     50.7856     40.0305
    14.7500      0.0000    260.6081     50.8033     40.3127
    15.0000      0.0000    260.5787     50.8856     40.9798
    15.2500      0.0000    260.5278     51.0320     41.7595
    15.5000      0.0000    260.4681     51.2166     43.2515
    15.7500      0.0000    260.4189     51.4045     46.4636
    16.0000      0.0000    260.3979     51.5671     51.7050
    16.2500      0.0000    260.4163     51.6785     57.8049
    16.5000      0.0000    260.4852     51.6985     62.5881
    16.7500      0.0000    260.6552     51.5475     64.4404
    17.0000      0.0000    261.1164     51.0667     63.4767
    17.2500      0.0000    262.3883     49.9836     61.1825
    17.5000      0.0000    265.4523     47.9545     59.1234
    17.7500      0.0000    271.9440     44.7253     58.0336
    18.0000      0.0000    284.8969     40.3369     57.7509
    18.2500      0.0000    310.6001     35.2020     57.6117
    18.5000      0.0000    359.6310     29.9440     56.9460
    18.7500      0.0000    441.9216     25.0977     55.6032
    19.0000      0.0000    555.2203     20.9152     54.2060
    19.2500      0.0000    678.3400     17.3984     53.6965
    19.5000      0.0000    781.2838     14.4555     54.3922
    19.7500      0.0000    844.8033     12.0074     55.5919
    20.0000      0.0000    869.3391      9.9996     56.3461
    20.2500      0.0000    867.8143      8.3805     56.5880
    20.5000      0.0000    854.4465      7.0974     57.2922
    20.7500      0.0000    839.2181      6.1048     59.4127
    21.0000      0.0000    827.2786      5.3714     62.6949
    21.2500      0.0000    820.0241      4.8757     65.6451
    21.5000      0.0000    816.6848      4.5887     66.7354
    21.7500      0.0000    816.0251      4.4589     65.6086
    22.0000      0.0000    817.3237      4.4167     63.1053
    22.2500      0.0000    820.3445      4.3996     60.2401
    22.5000      0.0000    824.7018      4.3765     57.3021
    22.7500      0.0000    829.4048      4.3507     54.0421
    23.0000      0.0000    832.9592      4.3419     50.5781
    23.2500      0.0000    833.8796      4.3625     47.7364
    23.5000      0.0000    831.5551      4.4038     46.2924
    23.7500      0.0000    827.0808      4.4408     46.0522
    24.0000      0.0000    822.9512      4.4486     45.8493
    24.2500      0.0000    821.3270      4.4163     44.4710
    24.5000      0.0000    822.3967      4.3512     41.6909
    24.7500      0.0000    824.4010      4.2722     38.5212
    25.0000      0.0000    825.1127      4.1952     36.4195
    25.2500      0.0000    823.3583      4.1195     36.1757
