~Version Information
 VERS.                2.0:  CWLS LOG ASCII STANDARD -VERSION 2.0
 WRAP.                 NO:  ONE LINE PER DEPTH STEP
~WELL INFORMATION BLOCK
#MNEM.UNIT       DATA		            DESCRIPTION OF MNEMONIC
#---------    -------------            ------------------------
 STRT.FT  0.500                          :START DEPTH
 STOP.FT  1808.700                       :STOP DEPTH
 STEP.FT  0.100                          :STEP    UP_HOLE  
 NULL.    -999.25                        :NULL VALUE
 COMP.              EL PASO PRODUCTIONS  :COMPANY
 WELL.                     COREHOLE #38  :WELL
 FLD .                 PURGATOIRE RIVER  :FIELD
 LOC .      15   35S   65W               :LOCATION
 CNTY.                           COLFAX  :COUNTY
 STAT.                     NM            :STATE
 CTRY.                                   :
 SRVC.     O'DRISCOLL                    :SERVICE COMPANY
 DATE.   04/28/05                        :LOG DATE
 API .                                   :API NUMBER
 LIC .                                   :LICENSE NUMBER
~Curve Information Block
#MNEM.UNIT      API CODE     Curve Description
#---------    -------------  ------------------------
 DEPT     .FT        00 001 00 00          :  1  DEPTH   
 GAMMA    .API-GR    00 310 00 00          :  2                GAMMA
 VOLTAGE  .MV        00 000 00 00          :  3              VOLTAGE
 CALIPER  .INCH      00 280 00 00          :  4              CALIPER
 DEN(LS)  .G/CC      00 350 00 00          :  5              DEN(LS)
 DEN(SS)  .G/CC      00 350 00 00          :  6              DEN(SS)
 CURRENT  .UA        00 000 00 00          :  7              CURRENT
 RES(SG)  .OHM-M     00 220 00 00          :  8              RES(SG)
 POR(DEN) .PERCENT   00 890 00 00          :  9             POR(DEN)
 DEN(LS)  .CPS       00 350 00 00          : 10              DEN(LS)
 DEN(SS)  .CPS       00 350 00 00          : 11              DEN(SS)
 COMP     .G/CC      00 356 00 00          : 12                 COMP
 DEN(CDL) .G/CC      00 350 00 00          : 13             DEN(CDL)
 TEMP     .DEG F     00 660 00 00          : 14                 TEMP
 DEL_TEMP .DEG F     00 000 00 00          : 15             DEL_TEMP
 TIME     .MINUTES   00 000 00 00          : 16                 TIME
~Parameter Information Block
#MNEM.UNIT   Information     Description
#---------- ---------------  ------------------------
 FILE.      ORIGINAL           :File Type
 FIID.      9139A              :File Type Identifier
 VERS.      3.58G              :System Version
 SER .      1                  :System Serial Number
 TRUK.      .498775            :Truck Calibration Number
 TOOL.        1245             :Tool Serial Number
 TIME.      1507               :Time    HrHrMinMin
 LAT .       36 59'            :Latitude
 LON .       104 39'           :Longitude
 LMF .            GL           :Log Measured From
 DMF .            GL           :Driller Measured From
 PD  .            GL           :Permanent Data
 PDEV.                         :Elevation Permanent Data
 EKB .M                        :Elevation Kelly Bushing
 ELEV.DF                       :Elevation DF
 EGL .M        7777            :Elevation Ground Level
 DRDP.          1825           :Driller's Depth
 CASD.       10.               :Casing Diameter
 CASB.           300           :Casing Bottom
 CASX.         STEEL           :Casing Type
 CAST.                         :Casing Thickness
 TNOC.                         :Time Circulation Stopped
 LOGU.        108              :Logging Unit
 RECB.           R.SIPES       :Recorded By
 OSR1.          9057           :Other Services
 OSR2.                         :Other Services
 OSR3.                         :Other Services
 BS  .MM         3.5           :Bit Size
 MST .                         :Mean Surface Temperature
 TGRD.                         :Temperature Gradiant
 MAGN.            12           :Magnetic Declination
 MDEN.       2.7               :Density Matrix
 MATR.      SANDSTONE          :Neutron Matrix
 DTMT.            54           :Delta T Matrix
 DTFL.                         :Delta T Fluid
 MUDS.                         :Mud Sample Source
 MRS .                         :Mud Resistivity
 MTP .                         :Mud Temperature
 MFRS.                         :Resistivity Mud Filtrate
 MFTP.                         :Temperature Mud Filtrate
 MCRS.                         :Resistivity Mud Cake
 MCTP.                         :Temperature Mud Cake
 FTYP.                         :Fluid Type
 FD  .K/M3                     :Fluid Density
 DFV .S                        :Fluid Viscosity
 FPH .                         :Fuild PH
 ELCO.       50000             :Electron Cutoff
~Other Information
#MNEM.UNIT  Information      Description
#---------- ---------------  ------------------------
# -------------------------- 
~A DEPTH  GAMMA    VOLTAGE  CALIPER DEN(LS) DEN(SS) CURRENT  RES(SG)  POR(DEN) DEN(LS) DEN(SS) COMP  DEN(CDL) TEMP  DEL_TEMP TIME    
# ...
1566.000     94.5      1.2   3.0  2.76 2.91   138.2      0.6  13.0  415.52 3818.24 -0.277 2.30 33.3  0.00 0.20000 
1566.100     92.6      1.5   3.0  2.76 2.92   137.0      0.8  14.5  415.52 3777.46 -0.302 2.32 33.3  0.00 0.20000 
1566.200     86.0      1.3   3.0  2.76 3.00   137.1      0.7  26.2  415.52 3501.41 -0.501 2.33 33.3  0.00 0.20000 
1566.300     83.2      1.2   3.0  2.71 2.92   141.1      0.6  23.1  455.63 3762.00 -0.406 2.36 33.3  0.00 0.20000 
1566.400     80.3      0.5   3.0  2.69 2.95   141.9      0.3  31.9  480.69 3675.19 -0.531 2.30 33.3  0.00 0.20000 
1566.500     69.9      1.1   3.0  2.85 2.99   138.6      0.6   5.6  340.35 3557.57 -0.245 2.34 33.3  0.00 0.20000 
1566.600     62.4      1.4   3.0  2.71 2.98   141.0      0.7  31.8  460.64 3588.34 -0.549 2.28 33.3  0.00 0.20000 
1566.700     61.4      1.1   3.0  2.77 2.93   137.1      0.5  14.5  407.17 3726.21 -0.313 2.33 33.3  0.00 0.30000 
1566.800     61.4      1.2   3.0  2.66 2.96   136.7      0.6  40.6  510.79 3629.12 -0.649 2.25 33.3  0.00 0.20000 
1566.900     55.8      1.2   3.0  2.77 2.95   137.7      0.6  15.9  405.50 3680.23 -0.338 2.24 33.3  0.00 0.20000 
1567.000     54.8      1.2   3.0  2.74 3.00   137.2      0.6  29.6  430.56 3501.42 -0.542 2.28 33.3  0.00 0.20000 
1567.100     52.0      0.8   3.0  2.72 3.02   113.7      0.5  36.0  450.61 3460.56 -0.632 2.29 33.3  0.00 0.20000 
1567.200     52.0      0.8   3.0  2.85 2.95   127.5      0.4   1.0  340.35 3685.33 -0.166 2.28 33.3  0.00 0.20000 
1567.300     49.2      0.9   3.0  2.69 2.99   119.4      0.5  37.5  475.68 3537.14 -0.632 2.35 33.3  0.00 0.20000 
1567.400     52.0      0.9   3.0  2.79 3.00   113.4      0.6  19.6  390.46 3506.51 -0.420 2.42 33.3  0.00 0.20000 
1567.500     53.9      1.0   3.0  2.80 2.95   112.0      0.6  10.0  380.47 3680.31 -0.270 2.41 33.3  0.00 0.20000 
1567.600     52.9      0.1   3.0  2.83 3.01    58.2      0.1  12.9  355.38 3465.69 -0.350 2.49 33.3  0.00 0.20000 
1567.700     54.8      0.6   3.0  2.87 3.00   100.1      0.4   4.3  330.34 3511.65 -0.240 2.53 33.3  0.00 0.20000 
1567.800     55.8      0.2   3.0  2.78 2.95    26.0      0.5  13.5  395.47 3680.23 -0.310 2.50 33.3  0.00 0.20000 
1567.900     55.8      0.6   3.0  2.80 2.93    23.1      1.8   8.2  380.46 3731.32 -0.238 2.45 33.3  0.00 0.20000 
1568.000     52.9      0.3   3.0  2.73 2.92    97.1      0.2  19.1  435.57 3761.99 -0.360 2.36 33.3  0.00 0.20000 
1568.100     52.9      0.5   3.0  2.73 2.97    96.5      0.4  27.6  443.93 3603.57 -0.494 2.42 33.3  0.00 0.30000 
1568.200     49.2      0.8   3.1  2.73 3.02    93.0      0.6  33.0  435.57 3455.50 -0.596 2.44 33.3  0.00 0.20000 
1568.300     53.9      0.6   3.0  2.92 3.00    86.0      0.5  -4.6  300.27 3516.75 -0.139 2.42 33.3  0.00 0.20000 
1568.400     61.4      0.1   3.0  2.90 3.02    92.6      0.1   1.0  310.30 3445.33 -0.217 2.44 33.3  0.00 0.20000 
1568.500     68.1      0.1   3.0  2.87 3.15    57.2      0.1  23.9  325.32 3062.90 -0.581 2.48 33.3  0.00 0.20000 
1568.600     67.1      0.4   3.0  2.93 3.23    42.1      0.7  24.3  290.25 2839.01 -0.645 2.40 33.3  0.00 0.20000 
1568.700     67.1      0.4   3.0  2.92 3.18    83.1      0.4  19.2  300.28 2986.52 -0.543 2.41 33.3  0.00 0.20000 
1568.800     58.6      0.6   3.0  2.97 3.26   109.5      0.4  19.7  265.22 2767.83 -0.609 2.42 33.3  0.00 0.20000 
1568.900     50.1      0.2   3.0  3.04 3.19    91.6      0.2  -3.0  235.17 2950.90 -0.286 2.56 33.3  0.00 0.20000 
1569.000     36.9      0.4   3.0  2.94 3.23   115.0      0.3  20.9  285.24 2864.42 -0.596 2.59 33.3  0.00 0.20000 
1569.100     30.3      0.2   3.0  3.07 3.15   122.4      0.1  -14.7 215.15 3073.11 -0.125 2.69 33.3  0.00 0.20000 
1569.200     31.2      0.3   3.0  2.90 3.09   148.7      0.2   9.4  310.29 3246.31 -0.359 2.61 33.3  0.00 0.20000 
1569.300     32.2      0.6   3.0  3.01 3.09   144.1      0.3  -10.6 245.18 3241.27 -0.131 2.52 33.3  0.00 0.20000 
1569.400     29.3      0.2   3.0  2.87 3.14   184.9      0.1  21.9  325.32 3098.67 -0.547 2.43 33.3  0.00 0.20000 
1569.500     32.2      0.5   3.0  2.74 3.12   162.1      0.2  47.2  425.56 3164.77 -0.846 2.38 33.3  0.00 0.20000 
1569.600     41.6      0.2   3.0  2.82 3.00   198.0      0.1  12.8  365.40 3521.87 -0.336 2.22 33.3  0.00 0.20000 
1569.700     40.7      0.4   3.0  2.77 3.01   236.0      0.1  23.8  400.48 3470.83 -0.479 2.22 33.3  0.00 0.20000 
1569.800     37.8      0.3   3.0  2.78 3.10   180.6      0.1  35.7  395.47 3215.74 -0.688 2.30 33.3  0.00 0.20000 
1569.900     36.9      0.1   3.0  2.77 2.99   174.8      0.1  20.7  400.50 3537.16 -0.427 2.16 33.3  0.00 0.30000 
1570.000     33.1      0.7   3.0  2.79 3.03   188.3      0.3  24.3  390.46 3409.53 -0.499 2.17 33.3  0.00 0.20000 
1570.100     26.8      0.4   3.0  2.68 3.07   179.4      0.1  54.9  490.75 3292.28 -0.913 2.23 33.3  0.00 0.20000 
1570.200     21.1      0.3   3.0  2.79 3.01   176.3      0.1  21.0  390.46 3475.90 -0.444 2.17 33.3  0.00 0.20000 
1570.300     17.4      1.1   3.0  2.81 3.01   174.6      0.4  16.8  375.43 3486.08 -0.392 2.20 33.3  0.00 0.20000 
1570.400     17.4      0.4   3.0  2.71 3.03   177.1      0.2  39.3  455.62 3419.73 -0.683 2.29 33.3  0.00 0.20000 
1570.500     19.3      0.6   3.0  2.79 2.97   153.8      0.3  15.4  390.46 3603.55 -0.349 2.31 33.3  0.00 0.20000 
1570.600     17.1      0.3   3.0  2.72 2.97   138.3      0.1  28.9  450.61 3603.65 -0.511 2.32 33.3  0.00 0.20000 
1570.700     25.6      0.6   3.0  2.80 2.97   136.9      0.3  13.5  380.44 3593.32 -0.328 2.39 33.3  0.00 0.19900 
1570.800     29.3      0.7   3.0  2.81 2.99   129.9      0.4  13.9  375.43 3552.51 -0.343 2.38 33.3  0.00 0.20100 
1570.900     26.5      0.8   3.0  2.80 3.01   122.0      0.5  18.0  380.43 3486.22 -0.406 2.40 33.3  0.00 0.20000 
1571.000     26.5      0.6   3.0  2.77 2.97   115.1      0.4  19.1  405.49 3603.57 -0.392 2.39 33.3  0.00 0.20000 
1571.100     30.3      0.6   3.0  2.74 2.97   113.1      0.4  23.1  425.54 3619.00 -0.437 2.41 33.3  0.00 0.19900 
1571.200     25.6      1.2   3.0  2.71 2.89   126.5      0.7  18.4  455.66 3879.66 -0.327 2.37 33.3  0.00 0.20000 
1571.300     30.3      0.6   3.0  2.82 2.94   136.6      0.3   6.1  365.41 3695.52 -0.221 2.40 33.3  0.00 0.20100 
1571.400     35.9      0.7   3.0  2.74 3.01   135.2      0.4  29.3  425.55 3486.08 -0.543 2.43 33.3  0.00 0.20000 
1571.500     38.8      0.6   3.0  2.81 2.97   125.2      0.3  10.7  370.42 3603.56 -0.294 2.44 33.3  0.00 0.20000 
1571.600     41.6      0.2   3.0  2.81 3.01   130.7      0.1  15.6  370.43 3486.26 -0.377 2.37 33.3  0.00 0.19900 
1571.700     42.6     -0.9   3.0  2.78 2.95   127.1     -0.5  13.5  395.48 3680.19 -0.310 2.39 33.3  0.00 0.20000 
1571.800     39.7      0.5   3.0  2.73 2.98   136.1      0.3  28.8  440.58 3562.68 -0.518 2.26 33.3  0.00 0.20100 
1571.900     39.7      0.5   3.0  2.74 2.95   137.4      0.3  22.3  430.56 3659.75 -0.419 2.20 33.3  0.00 0.20000 
1572.000     38.8      0.3   3.0  2.65 2.99   137.5      0.2  47.9  520.83 3532.11 -0.764 2.21 33.3  0.00 0.30000 
1572.100     32.2      0.2   3.0  2.64 2.90   137.0      0.1  35.4  530.85 3833.77 -0.540 2.23 33.3  0.00 0.20000 
1572.200     31.2      0.0   3.0  2.78 2.93   137.1      0.0  11.2  395.47 3741.59 -0.271 2.22 33.3  0.00 0.19900 
1572.300     27.4      0.3   3.0  2.73 2.93   137.1      0.1  20.9  440.58 3741.66 -0.385 2.25 33.3  0.00 0.20000 
1572.400     22.7      0.2   3.0  2.71 2.94   137.7      0.1  26.4  460.64 3705.86 -0.458 2.29 33.3  0.00 0.20000 
1572.500     23.7     -0.4   3.0  2.67 2.98   137.2     -0.2  39.6  495.74 3583.12 -0.648 2.27 33.3  0.00 0.20100 
1572.600     26.5     -0.5   3.0  2.71 2.91   136.9     -0.2  21.2  455.63 3808.05 -0.375 2.23 33.3  0.00 0.19900 
1572.700     29.3     -0.3   3.0  2.70 2.88   137.4     -0.1  19.1  465.67 3910.34 -0.329 2.24 33.3  0.00 0.20000 
1572.800     34.4     -0.3   3.0  2.76 3.04   139.6     -0.1  30.6  410.51 3389.23 -0.581 2.35 33.3  0.00 0.20000 
1572.900     35.3     -0.8   3.0  2.73 2.96   139.0     -0.4  25.9  440.59 3624.05 -0.470 2.36 33.3  0.00 0.20000 
