~Version Information
VERS.                      2.0: CWLS Log ASCII Standard - VERSION 2.0
WRAP.                       NO: One line per depth step
~Well Information Block
STRT.FT               650.0000: 
STOP.FT              2000.5000: 
STEP.FT                 0.1000: 
NULL.                -999.2500: 
COMP.          Pioneer Natural Resources: COMPANY
WELL.           Firehawk 34-26: WELL
FLD.           Purgatoire River: FIELD
LOC.           1196' FSL & 1595' FEL--: LOCATION
STAT.                 Colorado: State
CNTY.               Las Animas: COUNTY
CTRY. USA : Country
SECT. 26 : Section
TOWN. 32S : Township
RANG. 66W : Range
SRVC.                Patterson: SERVICE COMPANY
DATE.          Mon Oct 17 07:23:34 2005: LOG DATE
API.           05 071 08389 00: UNIQUE WELL ID
~Curve Information Block
DEPT.FT            0 000 00 00: Depth
DCAL.in                       : CDL Caliper
RHOB.g/cc                     : CDL Bulk Density
RHOC.g/cc                     : CDL Density Correction
DPOR.pu                       : CDL Density Porosity
NPOR.pu                       : Neutron Porosity
GR.GAPI                       : Gamma Ray
~Parameter Information Block
~A  Depth       DCAL        RHOB        RHOC        DPOR        NPOR         GR     
# ...
  1523.6000      7.8969      2.5717      0.0351      4.7429     17.5563     63.4733
  1523.7000      7.8969      2.5814      0.0155      4.1604     17.3599     67.3342
  1523.8000      7.8988      2.6016      0.0267      2.9339     17.3790     64.7715
  1523.9000      7.8988      2.6242      0.0563      1.5643     17.6201     59.7148
  1524.0000      7.9045      2.6352      0.0520      0.8998     17.8335     56.2289
  1524.1000      7.9045      2.6308      0.0513      1.1659     17.9861     54.6491
  1524.2000      7.9045      2.6165      0.0232      2.0304     18.2230     55.2306
  1524.3000      7.9065      2.5954      0.0775      3.3094     18.4169     55.3814
  1524.4000      7.9065      2.5728     -0.0012      4.6807     18.4012     54.2737
  1524.5000      7.9027      2.5650      0.0233      5.1488     18.3316     56.7758
  1524.6000      7.9027      2.5742      0.0419      4.5949     18.3887     62.3590
  1524.7000      7.9027      2.5840      0.0631      3.9979     18.6285     67.1015
  1524.8000      7.8993      2.5870      0.0566      3.8180     18.9255     70.8146
  1524.9000      7.8993      2.5899      0.0402      3.6427     18.8809     72.7716
  1525.0000      7.8995      2.5969      0.0599      3.2192     18.4555     73.9777
  1525.1000      7.8995      2.5981      0.0375      3.1433     18.1872     77.8192
  1525.2000      7.8995      2.5864      0.0313      3.8565     18.3374     82.2360
  1525.3000      7.8996      2.5730      0.0185      4.6643     18.7505     83.3863
  1525.4000      7.8996      2.5705      0.0253      4.8197     19.1714     85.3255
  1525.5000      7.8982      2.5751      0.0564      4.5381     19.5391     91.7869
  1525.6000      7.8982      2.5793      0.0575      4.2867     19.9716     97.1540
  1525.7000      7.8982      2.5803      0.0375      4.2263     20.4292     99.7856
  1525.8000      7.8968      2.5781      0.0455      4.3571     20.7871    105.1163
  1525.9000      7.8968      2.5754      0.0555      4.5194     20.8849    109.2141
  1526.0000      7.8962      2.5770      0.0381      4.4220     20.6956    105.2570
  1526.1000      7.8962      2.5821      0.0751      4.1174     20.4472     96.8739
  1526.2000      7.8962      2.5819      0.0710      4.1295     20.1444     91.5942
  1526.3000      7.8957      2.5753      0.0362      4.5290     19.6805     91.9184
  1526.4000      7.8957      2.5694      0.0457      4.8855     19.2948     93.2462
  1526.5000      7.8949      2.5637      0.0357      5.2298     19.2308     91.9108
  1526.6000      7.8949      2.5565      0.0337      5.6641     19.4535     90.1737
  1526.7000      7.8949      2.5576     -0.0104      5.5986     19.7242     89.0863
  1526.8000      7.8949      2.5788      0.0351      4.3121     19.7599     89.4212
  1526.9000      7.8949      2.6178      0.0925      1.9496     19.5569     91.9029
  1527.0000      7.8965      2.6491      0.1400      0.0540     19.5569     91.6860
  1527.1000      7.8965      2.6454      0.1121      0.2797     19.8882     87.2070
  1527.2000      7.8965      2.6122      0.0689      2.2932     20.2817     86.3327
  1527.3000      7.8963      2.5783      0.0373      4.3475     20.5086     92.7858
  1527.4000      7.8963      2.5661      0.0029      5.0840     20.3894    100.0575
  1527.5000      7.8947      2.5786      0.0752      4.3258     20.2064    101.8510
  1527.6000      7.8947      2.5973      0.0674      3.1957     20.2431    101.3299
  1527.7000      7.8947      2.5977      0.0706      3.1725     20.2298    105.4551
  1527.8000      7.8960      2.5807     -0.0099      4.1990     20.0405    112.8618
  1527.9000      7.8960      2.5741     -0.0072      4.5976     20.0344    117.1360
  1528.0000      7.8984      2.5834      0.0792      4.0349     20.3497    117.0855
  1528.1000      7.8984      2.5851      0.0814      3.9336     20.6589    118.6630
  1528.2000      7.8984      2.5735      0.0450      4.6338     20.7797    122.5505
  1528.3000      7.8996      2.5649      0.0093      5.1579     20.8450    118.2429
  1528.4000      7.8996      2.5706      0.0042      4.8137     20.7892    106.5902
  1528.5000      7.9011      2.5842      0.0372      3.9869     20.5497    101.9159
  1528.6000      7.9011      2.5915      0.0494      3.5454     20.3561    105.8432
  1528.7000      7.9011      2.5892      0.0529      3.6820     20.3005    106.8262
  1528.8000      7.9060      2.5787      0.0549      4.3190     20.1736    101.1781
  1528.9000      7.9060      2.5630     -0.0064      5.2708     19.9365     94.3635
  1529.0000      7.9127      2.5527      0.0143      5.8946     19.9367     89.2004
  1529.1000      7.9127      2.5557     -0.0115      5.7141     20.3359     88.3777
  1529.2000      7.9127      2.5721      0.0427      4.7209     20.8214     93.9986
  1529.3000      7.9181      2.5885      0.0516      3.7245     20.9190     99.6135
  1529.4000      7.9181      2.5917      0.0248      3.5358     20.4859    100.2126
  1529.5000      7.9241      2.5894      0.0070      3.6717     19.8907     99.2040
  1529.6000      7.9241      2.5956      0.0497      3.2993     19.5316     99.9647
  1529.7000      7.9241      2.6082      0.0551      2.5356     19.5821    103.0760
  1529.8000      7.9284      2.6156      0.0722      2.0821     19.9626    104.8872
  1529.9000      7.9284      2.6126      0.0396      2.2638     20.1281    102.8381
  1530.0000      7.9298      2.6043      0.0309      2.7707     19.7111    100.4390
  1530.1000      7.9298      2.5940      0.0585      3.3951     19.2819    100.6170
  1530.2000      7.9298      2.5841      0.0578      3.9933     19.2889    100.4689
  1530.3000      7.9305      2.5833      0.0374      4.0395     19.4455     98.3208
  1530.4000      7.9305      2.5903      0.0407      3.6202     19.5414     95.8858
  1530.5000      7.9301      2.5899      0.0551      3.6416     19.6308     92.4044
  1530.6000      7.9301      2.5853      0.0046      3.9226     19.6736     86.3678
  1530.7000      7.9301      2.5924      0.0256      3.4937     19.5210     80.1388
  1530.8000      7.9281      2.6069      0.0239      2.6143     19.3017     78.3658
  1530.9000      7.9281      2.6151      0.0525      2.1177     19.4520     81.6356
  1531.0000      7.9266      2.6133      0.0418      2.2225     19.9602     85.3474
  1531.1000      7.9266      2.6050      0.0333      2.7291     20.2459     86.3195
  1531.2000      7.9266      2.5930      0.0274      3.4525     20.1051     86.1781
  1531.3000      7.9262      2.5822      0.0206      4.1069     19.9033     86.2242
  1531.4000      7.9262      2.5872     -0.0281      3.8061     19.8314     87.7757
  1531.5000      7.9264      2.6164      0.0215      2.0382     19.6705     93.3561
  1531.6000      7.9264      2.6481      0.0587      0.1146     19.4450    102.1336
  1531.7000      7.9264      2.6499      0.0448      0.0043     19.6196    107.6696
  1531.8000      7.9276      2.6209      0.0171      1.7607     20.1716    105.3911
  1531.9000      7.9276      2.5941     -0.0173      3.3884     20.3659    100.5276
  1532.0000      7.9309      2.5896      0.0109      3.6632     20.0068     97.7552
  1532.1000      7.9309      2.5927      0.0428      3.4744     19.7969     95.5047
  1532.2000      7.9309      2.5897     -0.0182      3.6540     19.9662     92.5668
  1532.3000      7.9365      2.5806      0.0251      4.2056     20.2267     91.9148
  1532.4000      7.9365      2.5637      0.0238      5.2302     20.5121     94.2526
  1532.5000      7.9401      2.5488     -0.0024      6.1353     20.9225     98.0460
  1532.6000      7.9401      2.5560     -0.0094      5.6940     21.5370    104.3419
  1532.7000      7.9401      2.5830      0.0507      4.0626     22.1392    113.2848
  1532.8000      7.9441      2.5996      0.1062      3.0549     22.3841    121.8576
  1532.9000      7.9441      2.5924      0.0446      3.4918     22.4126    124.3422
  1533.0000      7.9519      2.5783      0.0611      4.3481     22.6476    116.6902
  1533.1000      7.9519      2.5635      0.0478      5.2429     23.1467    105.2285
