~Version Information
VERS.                      2.0: CWLS Log ASCII Standard - VERSION 2.0
WRAP.                       NO: One line per depth step
~Well Information Block
STRT.FT               750.0000: 
STOP.FT              2431.5000: 
STEP.FT                 0.1000: 
NULL.                -999.2500: 
COMP.          Petrogulf Corporation: COMPANY
WELL.           McDaniel 9-34V: WELL
FLD.           Purgatorie River: FIELD
LOC.           620' FSL & 1800' FEL: LOCATION
PROV.                 Colorado: PROVINCE
CNTY.               Las Animas: COUNTRY
SRVC.                Patterson: SERVICE COMPANY
DATE.          Wed Sep 28 07:18:04 2005: LOG DATE
UWI.                          : UNIQUE WELL ID
~Curve Information Block
DEPT.FT            0 000 00 00: Depth
DCAL.in                       : CDL Caliper
RHOB.g/cc                     : CDL Bulk Density
RHOC.g/cc                     : CDL Density Correction
DPOR.pu                       : CDL Density Porosity
GR.GAPI                       : Gamma Ray
NPOR.pu                       : Neutron Porosity
~Parameter Information Block
~A  Depth       DCAL        RHOB        RHOC        DPOR         GR         NPOR    
# ...
  1306.8000      8.1418      2.5686     -0.0103      4.9339    130.8958     25.3500
  1306.9000      8.1418      2.5568     -0.0196      5.6509    127.0409     25.3284
  1307.0000      8.1316      2.5578     -0.0319      5.5901    126.7692     25.0028
  1307.1000      8.1316      2.5672      0.0091      5.0164    130.2249     24.6031
  1307.2000      8.1316      2.5694     -0.0011      4.8834    133.8287     24.3279
  1307.3000      8.1081      2.5571     -0.0239      5.6297    135.7603     24.0849
  1307.4000      8.1081      2.5442     -0.0300      6.4108    137.7819     23.9332
  1307.5000      8.0783      2.5468     -0.0339      6.2530    140.9325     23.8558
  1307.6000      8.0783      2.5632     -0.0147      5.2595    143.4762     23.7002
  1307.7000      8.0783      2.5774     -0.0033      4.4012    143.8985     23.5880
  1307.8000      8.0500      2.5728      0.0577      4.6792    142.3871     23.6087
  1307.9000      8.0500      2.5496      0.0096      6.0842    141.8372     23.5443
  1308.0000      8.0512      2.5281      0.0161      7.3894    145.8967     23.4904
  1308.1000      8.0512      2.5217      0.0114      7.7747    151.2537     23.8711
  1308.2000      8.0512      2.5281     -0.0016      7.3909    153.6781     24.4415
  1308.3000      8.0384      2.5406      0.0202      6.6312    154.5996     24.6026
  1308.4000      8.0384      2.5474      0.0508      6.2155    153.1410     24.5254
  1308.5000      8.0210      2.5471      0.0118      6.2376    147.9430     24.6013
  1308.6000      8.0210      2.5553      0.0102      5.7370    143.8324     24.6723
  1308.7000      8.0210      2.5714      0.0610      4.7639    144.6718     24.3771
  1308.8000      8.0225      2.5780      0.0188      4.3658    148.2200     23.8444
  1308.9000      8.0225      2.5790     -0.0027      4.3031    151.0251     23.7249
  1309.0000      8.0141      2.5886     -0.0253      3.7191    152.1026     24.1797
  1309.1000      8.0141      2.5986      0.0456      3.1147    150.3242     24.6140
  1309.2000      8.0141      2.5936      0.0222      3.4166    145.9505     24.6937
  1309.3000      8.0229      2.5825     -0.0131      4.0924    141.4053     24.6624
  1309.4000      8.0229      2.5812      0.0342      4.1726    137.1507     24.5372
  1309.5000      8.0304      2.5868      0.0522      3.8330    134.0517     24.1369
  1309.6000      8.0304      2.5910      0.1043      3.5770    134.9904     23.8375
  1309.7000      8.0304      2.5872      0.0906      3.8073    140.0285     24.2894
  1309.8000      8.0312      2.5744      0.0569      4.5827    147.6512     25.4294
  1309.9000      8.0312      2.5704      0.0033      4.8256    154.5131     26.3303
  1310.0000      8.0320      2.5919      0.0257      3.5186    155.6952     26.3347
  1310.1000      8.0320      2.6274      0.0814      1.3698    152.7515     25.8129
  1310.2000      8.0320      2.6662      0.0324     -0.9812    149.0302     25.6667
  1310.3000      8.0384      2.7052      0.0814     -3.3477    143.5464     26.1171
  1310.4000      8.0384      2.7169      0.1186     -4.0557    137.5444     26.2971
  1310.5000      8.0404      2.6872      0.0734     -2.2526    134.1498     25.7274
  1310.6000      8.0404      2.6456      0.0281      0.2669    133.7695     25.0192
  1310.7000      8.0404      2.6154      0.0023      2.0963    134.5334     24.6895
  1310.8000      8.0409      2.5889     -0.0583      3.7032    134.8736     24.6852
  1310.9000      8.0409      2.5650     -0.1101      5.1519    133.8070     24.6941
  1311.0000      8.0363      2.5604     -0.0594      5.4298    131.6163     24.2596
  1311.1000      8.0363      2.5747      0.0068      4.5639    127.1835     23.4231
  1311.2000      8.0363      2.5901     -0.0106      3.6281    121.7311     22.8423
  1311.3000      8.0388      2.5963      0.0512      3.2565    121.4803     22.7856
  1311.4000      8.0388      2.5885      0.0214      3.7265    125.1064     23.0236
  1311.5000      8.0411      2.5716      0.0146      4.7489    125.5048     23.2381
  1311.6000      8.0411      2.5595     -0.0222      5.4840    121.4256     23.2488
  1311.7000      8.0411      2.5657      0.0123      5.1092    116.6420     23.1357
  1311.8000      8.0470      2.5900      0.0386      3.6346    115.6778     22.8880
  1311.9000      8.0470      2.6149      0.0742      2.1302    117.6535     22.4785
  1312.0000      8.0452      2.6233      0.0565      1.6168    117.7140     22.0948
  1312.1000      8.0452      2.6130      0.0411      2.2451    116.5692     21.9450
  1312.2000      8.0452      2.5936      0.0323      3.4190    116.2403     22.0181
  1312.3000      8.0479      2.5750      0.0047      4.5481    115.9806     22.2356
  1312.4000      8.0479      2.5587      0.0204      5.5334    117.7432     22.5521
  1312.5000      8.0487      2.5471     -0.0280      6.2368    122.0275     22.8973
  1312.6000      8.0487      2.5490      0.0021      6.1201    123.5848     23.2333
  1312.7000      8.0487      2.5658      0.0354      5.1034    120.0600     23.4709
  1312.8000      8.0517      2.5825      0.0427      4.0913    116.7221     23.5603
  1312.9000      8.0517      2.5866      0.0502      3.8447    117.0123     23.4436
  1313.0000      8.0506      2.5790      0.0567      4.3034    120.1622     23.1684
  1313.1000      8.0506      2.5681      0.0369      4.9657    123.6486     23.1425
  1313.2000      8.0506      2.5658      0.0096      5.1008    126.3781     23.5587
  1313.3000      8.0475      2.5754      0.0539      4.5183    129.1187     23.8527
  1313.4000      8.0475      2.5831      0.0379      4.0557    129.8523     23.6166
  1313.5000      8.0486      2.5807      0.0549      4.2009    125.9049     23.0277
  1313.6000      8.0486      2.5760     -0.0046      4.4858    120.4672     22.4311
  1313.7000      8.0486      2.5751      0.0126      4.5402    118.7462     22.0659
  1313.8000      8.0520      2.5737      0.0160      4.6237    120.1466     22.0004
  1313.9000      8.0520      2.5719     -0.0217      4.7332    121.9619     22.1213
  1314.0000      8.0537      2.5699      0.0354      4.8525    123.6503     22.4926
  1314.1000      8.0537      2.5621      0.0234      5.3294    125.1037     23.2510
  1314.2000      8.0537      2.5604     -0.0411      5.4283    124.9257     23.9234
  1314.3000      8.0562      2.5758      0.0470      4.4941    124.1128     24.0191
  1314.4000      8.0562      2.5830      0.0886      4.0598    126.6694     23.7431
  1314.5000      8.0601      2.5617      0.0338      5.3496    133.6327     23.5083
  1314.6000      8.0601      2.5303      0.0077      7.2537    141.2254     23.5702
  1314.7000      8.0601      2.5149     -0.0141      8.1864    146.4410     23.8449
  1314.8000      8.0736      2.5192      0.0507      7.9278    149.8184     24.1006
  1314.9000      8.0736      2.5270     -0.0038      7.4561    149.8793     24.3880
  1315.0000      8.0904      2.5235      0.0309      7.6682    147.8179     24.7824
  1315.1000      8.0904      2.5003     -0.0133      9.0722    149.5302     25.1903
  1315.2000      8.0904      2.4537      0.0125     11.8961    153.1192     25.6773
  1315.3000      8.1139      2.4004     -0.0304     15.1303    152.1787     26.2179
  1315.4000      8.1139      2.3776     -0.0662     16.5066    147.7911     26.6686
  1315.5000      8.1769      2.3902      0.0225     15.7461    145.2047     26.9422
  1315.6000      8.1769      2.3989      0.0066     15.2153    146.0988     27.0121
  1315.7000      8.1769      2.3847      0.0181     16.0762    149.2015     27.1799
  1315.8000      8.1887      2.3639     -0.0025     17.3417    151.8320     27.9076
  1315.9000      8.1887      2.3501      0.0230     18.1786    150.7113     29.0628
  1316.0000      8.2046      2.3353      0.0631     19.0719    145.0022     29.8403
  1316.1000      8.2046      2.3081      0.0421     20.7193    136.9957     29.9269
  1316.2000      8.2046      2.2758      0.0458     22.6791    130.7832     29.8002
  1316.3000      8.1948      2.2495      0.0316     24.2699    130.3753     29.8042
