~Version Information
VERS.                      2.0: CWLS Log ASCII Standard - VERSION 2.0
WRAP.                       NO: One line per depth step
~Well Information Block
STRT.FT               480.1000: 
STOP.FT              2029.0000: 
STEP.FT                 0.1000: 
NULL.                -999.2500: 
COMP.          Petrogulf Corporation: COMPANY
WELL.            Montoya 7-12R: WELL
FLD.           Purgatorie River: FIELD
LOC.           1769' FNL & 658' FWL: LOCATION
CNTY.               Las Animas: COUNTY
SRVC.                         : SERVICE COMPANY
DATE.          Mon Nov 22 07:21:54 2004: LOG DATE
UWI.           05 071 08240 00: UNIQUE WELL ID
STAT.                 Colorado: STATE
~Curve Information Block
DEPT.FT            0 000 00 00: Depth
DCAL.in                       : CDL Caliper
RHOB.g/cc                     : CDL Bulk Density
RHOC.g/cc                     : CDL Density Correction
DPOR.pu                       : CDL Density Porosity
GR.GAPI                       : Gamma Ray
NPOR.pu                       : Neutron Porosity
~Parameter Information Block
~A  Depth       DCAL        RHOB        RHOC        DPOR         GR         NPOR    
# ...
  2016.1000      7.8461      2.5024      0.0867      8.9432   -999.2500   -999.2500
  2016.2000      7.8461      2.5178      0.0893      8.0126   -999.2500   -999.2500
  2016.3000      7.8255      2.5126      0.0811      8.3250   -999.2500   -999.2500
  2016.4000      7.8255      2.5014      0.0534      9.0031   -999.2500   -999.2500
  2016.5000      7.8078      2.4944      0.0548      9.4282   -999.2500   -999.2500
  2016.6000      7.8078      2.4868      0.0382      9.8930   -999.2500   -999.2500
  2016.7000      7.8078      2.4720      0.0697     10.7904   -999.2500   -999.2500
  2016.8000      7.8270      2.4540      0.0145     11.8786   -999.2500   -999.2500
  2016.9000      7.8270      2.4483     -0.0122     12.2223   -999.2500   -999.2500
  2017.0000      7.8316      2.4603      0.0571     11.4947   -999.2500   -999.2500
  2017.1000      7.8316      2.4805      0.0446     10.2745   -999.2500   -999.2500
  2017.2000      7.8316      2.5027      0.0847      8.9254   -999.2500   -999.2500
  2017.3000      7.8341      2.5202      0.0896      7.8637   -999.2500   -999.2500
  2017.4000      7.8341      2.5312      0.1189      7.2021   -999.2500   -999.2500
  2017.5000      7.7385      2.5446      0.1141      6.3882   -999.2500   -999.2500
  2017.6000      7.7385      2.5649      0.1211      5.1572   -999.2500   -999.2500
  2017.7000      7.7385      2.5883      0.1525      3.7423   -999.2500   -999.2500
  2017.8000      7.7369      2.6131      0.1357      2.2379   -999.2500   -999.2500
  2017.9000      7.7369      2.6361      0.1582      0.8408   -999.2500   -999.2500
  2018.0000      7.7580      2.6463      0.1707      0.2233   -999.2500   -999.2500
  2018.1000      7.7580      2.6430      0.1552      0.4219   -999.2500   -999.2500
  2018.2000      7.7580      2.6339      0.1555      0.9771   -999.2500   -999.2500
  2018.3000      7.7478      2.6092      0.1539      2.4700   -999.2500   -999.2500
  2018.4000      7.7478      2.5578      0.1030      5.5888   -999.2500   -999.2500
  2018.5000      7.7999      2.4961      0.0162      9.3265   -999.2500   -999.2500
  2018.6000      7.7999      2.4488      0.0279     12.1913   -999.2500   -999.2500
  2018.7000      7.7999      2.4284     -0.0407     13.4302   -999.2500   -999.2500
  2018.8000      7.8458      2.4339      0.0312     13.0945   -999.2500   -999.2500
  2018.9000      7.8458      2.4478      0.0018     12.2520   -999.2500   -999.2500
  2019.0000      7.7874      2.4585      0.0113     11.6088   -999.2500   -999.2500
  2019.1000      7.7874      2.4659      0.0584     11.1580   -999.2500   -999.2500
  2019.2000      7.7874      2.4706      0.0591     10.8703   -999.2500   -999.2500
  2019.3000      7.7629      2.4747      0.0626     10.6255   -999.2500   -999.2500
  2019.4000      7.7629      2.4759      0.0960     10.5515   -999.2500   -999.2500
  2019.5000      7.7777      2.4750      0.0474     10.6065   -999.2500   -999.2500
  2019.6000      7.7777      2.4767      0.0925     10.5054   -999.2500   -999.2500
  2019.7000      7.7777      2.4788      0.0723     10.3763   -999.2500   -999.2500
  2019.8000      7.7572      2.4802      0.0771     10.2939   -999.2500   -999.2500
  2019.9000      7.7572      2.4777      0.1032     10.4444   -999.2500   -999.2500
  2020.0000      7.7459      2.4678      0.0899     11.0434   -999.2500   -999.2500
  2020.1000      7.7459      2.4563      0.0662     11.7420   -999.2500   -999.2500
  2020.2000      7.7459      2.4523      0.0052     11.9826   -999.2500   -999.2500
  2020.3000      7.7620      2.4563      0.0486     11.7373   -999.2500   -999.2500
  2020.4000      7.7620      2.4644      0.0236     11.2466   -999.2500   -999.2500
  2020.5000      7.7506      2.4731      0.0496     10.7231   -999.2500   -999.2500
  2020.6000      7.7506      2.4730      0.1078     10.7297   -999.2500   -999.2500
  2020.7000      7.7506      2.4643      0.0734     11.2532   -999.2500   -999.2500
  2020.8000      7.7895      2.4565      0.0818     11.7297   -999.2500   -999.2500
  2020.9000      7.7895      2.4483      0.0408     12.2255   -999.2500   -999.2500
  2021.0000      7.7649      2.4390      0.0608     12.7877   -999.2500   -999.2500
  2021.1000      7.7649      2.4322      0.0604     13.2006   -999.2500   -999.2500
  2021.2000      7.7649      2.4370      0.0441     12.9092   -999.2500   -999.2500
  2021.3000      7.7361      2.4679      0.0538     11.0386   -999.2500   -999.2500
  2021.4000      7.7361      2.5116      0.1306      8.3901   -999.2500   -999.2500
  2021.5000      7.7181      2.5197      0.1495      7.8978   -999.2500   -999.2500
  2021.6000      7.7181      2.4788      0.0591     10.3747   -999.2500   -999.2500
  2021.7000      7.7181      2.4299      0.0412     13.3410   -999.2500   -999.2500
  2021.8000      7.7138      2.3985      0.0844     15.2402   -999.2500   -999.2500
  2021.9000      7.7138      2.3807      0.0392     16.3195   -999.2500   -999.2500
  2022.0000      7.6830      2.3824     -0.0456     16.2192   -999.2500   -999.2500
  2022.1000      7.6830      2.4094      0.0723     14.5798   -999.2500   -999.2500
  2022.2000      7.6830      2.4457      0.0614     12.3846   -999.2500   -999.2500
  2022.3000      7.6578      2.4696      0.1089     10.9348   -999.2500   -999.2500
  2022.4000      7.6578      2.4731      0.0690     10.7228   -999.2500   -999.2500
  2022.5000      7.6790      2.4649      0.1006     11.2211   -999.2500   -999.2500
  2022.6000      7.6790      2.4587      0.1184     11.5947   -999.2500   -999.2500
  2022.7000      7.6790      2.4619      0.0696     11.4003   -999.2500   -999.2500
  2022.8000      7.6444      2.4685      0.1104     10.9976   -999.2500   -999.2500
  2022.9000      7.6444      2.4667      0.0613     11.1089   -999.2500   -999.2500
  2023.0000      7.6746      2.4548      0.0812     11.8312   -999.2500   -999.2500
  2023.1000      7.6746      2.4380      0.0484     12.8477   -999.2500   -999.2500
  2023.2000      7.6746      2.4246      0.0303     13.6622   -999.2500   -999.2500
  2023.3000      7.7418      2.4239      0.0084     13.7003   -999.2500   -999.2500
  2023.4000      7.7418      2.4421      0.0171     12.6014   -999.2500   -999.2500
  2023.5000      7.7613      2.4658      0.1115     11.1612   -999.2500   -999.2500
  2023.6000      7.7613      2.4705      0.0797     10.8795   -999.2500   -999.2500
  2023.7000      7.7613      2.4591      0.0408     11.5668   -999.2500   -999.2500
  2023.8000      7.7705      2.4484      0.0680     12.2152   -999.2500   -999.2500
  2023.9000      7.7705      2.4399      0.0257     12.7312   -999.2500   -999.2500
  2024.0000      7.7289      2.4321      0.0303     13.2078   -999.2500   -999.2500
  2024.1000      7.7289      2.4267      0.0413     13.5344   -999.2500   -999.2500
  2024.2000      7.7289      2.4225      0.0299     13.7907   -999.2500   -999.2500
  2024.3000      7.7097      2.4179      0.0362     14.0678   -999.2500   -999.2500
  2024.4000      7.7097      2.4203     -0.0241     13.9185   -999.2500   -999.2500
  2024.5000      7.7320      2.4356      0.0484     12.9924   -999.2500   -999.2500
  2024.6000      7.7320      2.4512      0.0615     12.0481   -999.2500   -999.2500
  2024.7000      7.7320      2.4552      0.0678     11.8036   -999.2500   -999.2500
  2024.8000      7.7092      2.4527      0.0707     11.9547   -999.2500   -999.2500
  2024.9000      7.7092      2.4438      0.1099     12.4974   -999.2500   -999.2500
  2025.0000      7.6296      2.4171      0.1059     14.1148   -999.2500   -999.2500
  2025.1000      7.6296      2.3763      0.0540     16.5849   -999.2500   -999.2500
  2025.2000      7.6296      2.3417      0.0756     18.6820   -999.2500   -999.2500
  2025.3000      7.5515      2.3457      0.0090     18.4404   -999.2500   -999.2500
  2025.4000      7.5515      2.4271      0.0645     13.5071   -999.2500   -999.2500
  2025.5000      7.3210      2.4709      0.0563     10.8549   -999.2500   -999.2500
  2025.6000      7.3210      2.0798      0.4673     34.5550   -999.2500   -999.2500
