~Version Information
VERS.                      2.0: CWLS Log ASCII Standard - VERSION 2.0
WRAP.                       NO: One line per depth step
~Well Information Block
STRT.FT               910.3000: 
STOP.FT              1932.5000: 
STEP.FT                 0.1000: 
NULL.                -999.2500: 
COMP.          Petrogulf Corporation: COMPANY
WELL.             State 16-34R: WELL
FLD.           Purgatorie River: FIELD
LOC.           1095' FSL & 1498' FEL: LOCATION
CNTY.               Las Animas: COUNTY
SRVC.                         : SERVICE COMPANY
DATE.          Thu May 06 14:28:18 2004: LOG DATE
UWI.           05 071 08032 00: UNIQUE WELL ID
STAT.                 Colorado: STATE
~Curve Information Block
DEPT.FT            0 000 00 00: Depth
DCAL.in                       : CDL Caliper
RHOB.g/cc                     : CDL Bulk Density
RHOC.g/cc                     : CDL Density Correction
DPOR.pu                       : CDL Density Porosity
NPOR.pu                       : Neutron Porosity
GR.GAPI                       : Gamma Ray
~Parameter Information Block
~A  Depth       DCAL        RHOB        RHOC        DPOR        NPOR         GR     
# ...
  1111.9000      7.9260      2.5892      0.0649      3.6825     23.9805     84.7456
  1112.0000      7.9139      2.5777      0.0481      4.3823     23.1182     82.1094
  1112.1000      7.9139      2.5537      0.0128      5.8361     22.4841     79.5078
  1112.2000      7.9139      2.5351      0.0012      6.9626     22.0868     80.3246
  1112.3000      7.9108      2.5291     -0.0021      7.3296     21.7841     81.4324
  1112.4000      7.9108      2.5287      0.0287      7.3507     21.5361     80.6136
  1112.5000      7.9177      2.5280      0.0480      7.3961     21.2174     79.4279
  1112.6000      7.9177      2.5264      0.0112      7.4932     20.5357     78.3089
  1112.7000      7.9177      2.5187      0.0603      7.9576     19.4979     76.7691
  1112.8000      7.9637      2.4961      0.0386      9.3250     18.6973     74.5519
  1112.9000      7.9637      2.4662     -0.0022     11.1364     18.4040     72.6965
  1113.0000      7.9895      2.4449     -0.0084     12.4322     18.2956     72.5776
  1113.1000      7.9895      2.4389     -0.0004     12.7919     18.1854     73.4910
  1113.2000      7.9895      2.4489      0.0187     12.1886     18.1264     72.3736
  1113.3000      8.0147      2.4644      0.0224     11.2515     18.0547     68.3725
  1113.4000      8.0147      2.4728      0.0296     10.7377     17.8010     64.6187
  1113.5000      8.0118      2.4752      0.0175     10.5944     17.4682     63.1834
  1113.6000      8.0118      2.4783     -0.0133     10.4035     17.3408     63.8457
  1113.7000      8.0118      2.4803      0.0467     10.2855     17.3810     65.3476
  1113.8000      8.0084      2.4750      0.0690     10.6048     17.3207     67.3942
  1113.9000      8.0084      2.4704     -0.0057     10.8848     17.2291     70.3004
  1114.0000      8.0083      2.4796      0.0384     10.3296     17.3589     71.0473
  1114.1000      8.0083      2.4953      0.0415      9.3738     17.6024     68.5744
  1114.2000      8.0083      2.5018      0.0450      8.9811     17.8345     66.6032
  1114.3000      8.0117      2.4925      0.0446      9.5478     18.0558     66.5765
  1114.4000      8.0117      2.4725     -0.0023     10.7565     18.1686     66.7940
  1114.5000      8.0212      2.4605     -0.0465     11.4869     18.0645     66.9551
  1114.6000      8.0212      2.4674     -0.0105     11.0645     17.8579     67.5816
  1114.7000      8.0212      2.4786      0.0241     10.3860     17.8851     66.5684
  1114.8000      8.0104      2.4751      0.0399     10.6029     18.1728     63.6151
  1114.9000      8.0104      2.4599     -0.0136     11.5209     18.5372     62.2394
  1115.0000      8.0079      2.4462      0.0071     12.3525     18.8317     63.6727
  1115.1000      8.0079      2.4356     -0.0037     12.9937     18.7899     65.0997
  1115.2000      8.0079      2.4296      0.0018     13.3551     18.2680     64.8279
  1115.3000      8.0113      2.4326     -0.0013     13.1735     17.5711     64.3686
  1115.4000      8.0113      2.4406      0.0007     12.6882     17.1940     64.8858
  1115.5000      8.0138      2.4467      0.0219     12.3203     17.1059     65.6524
  1115.6000      8.0138      2.4543      0.0107     11.8578     16.9139     63.7548
  1115.7000      8.0138      2.4637      0.0237     11.2935     16.7211     60.7273
  1115.8000      8.0039      2.4599      0.0681     11.5211     16.7846     61.6412
  1115.9000      8.0039      2.4445     -0.0168     12.4568     17.0245     66.0982
  1116.0000      7.9883      2.4394      0.0078     12.7627     17.3472     68.4270
  1116.1000      7.9883      2.4514     -0.0337     12.0364     17.4585     65.8572
  1116.2000      7.9883      2.4701      0.0250     10.9030     17.2432     61.7385
  1116.3000      7.9856      2.4875      0.0235      9.8512     17.3528     60.4175
  1116.4000      7.9856      2.5040      0.0486      8.8456     18.2161     62.6904
  1116.5000      7.9661      2.5196      0.0817      7.9006     19.2268     65.8397
  1116.6000      7.9661      2.5335      0.0450      7.0594     19.7400     67.2634
  1116.7000      7.9661      2.5520      0.0354      5.9380     19.6145     64.4116
  1116.8000      7.9562      2.5722      0.0697      4.7144     19.2632     59.2764
  1116.9000      7.9562      2.5736      0.0757      4.6292     19.2026     58.7332
  1117.0000      7.8990      2.5466      0.0571      6.2665     19.2657     63.6901
  1117.1000      7.8990      2.5111      0.0036      8.4200     19.4380     67.9237
  1117.2000      7.8990      2.4908      0.0363      9.6474     20.1084     70.1905
  1117.3000      7.9315      2.4947     -0.0138      9.4128     21.1947     74.6331
  1117.4000      7.9315      2.5211      0.0222      7.8139     22.0747     80.7506
  1117.5000      7.9436      2.5564      0.0224      5.6755     22.4394     85.3771
  1117.6000      7.9436      2.5935      0.0189      3.4261     22.8870     87.5160
  1117.7000      7.9436      2.6340      0.0810      0.9721     23.7746     89.7657
  1117.8000      7.9594      2.6568      0.1257     -0.4148     24.5993     94.3730
  1117.9000      7.9594      2.6445      0.0528      0.3315     25.1333     98.9117
  1118.0000      7.9510      2.6251      0.0252      1.5106     25.6826    101.6473
  1118.1000      7.9510      2.6237      0.0571      1.5925     26.6027    103.3468
  1118.2000      7.9510      2.6289      0.0622      1.2805     27.8138    105.0756
  1118.3000      7.9209      2.6304     -0.0037      1.1892     28.4714    107.5438
  1118.4000      7.9209      2.6339     -0.0027      0.9744     28.1531    108.0920
  1118.5000      7.9304      2.6389      0.0002      0.6746     27.5798    105.4879
  1118.6000      7.9304      2.6381     -0.0059      0.7192     27.3011    105.1434
  1118.7000      7.9304      2.6274      0.0391      1.3716     27.0876    110.5184
  1118.8000      7.9477      2.6011      0.0372      2.9609     26.8473    116.2376
  1118.9000      7.9477      2.5677     -0.0001      4.9898     26.8118    115.7480
  1119.0000      7.9502      2.5491      0.0029      6.1160     26.8948    110.7601
  1119.1000      7.9502      2.5531      0.0195      5.8721     26.9274    106.7506
  1119.2000      7.9502      2.5683     -0.0173      4.9529     27.0878    106.4127
  1119.3000      7.9274      2.5778      0.0302      4.3787     27.5502    108.7623
  1119.4000      7.9274      2.5685      0.0272      4.9404     27.9454    111.3203
  1119.5000      7.8690      2.5491      0.0169      6.1179     27.7964    113.6875
  1119.6000      7.8690      2.5361      0.0194      6.9016     27.4427    113.5005
  1119.7000      7.8690      2.5285      0.0256      7.3634     27.5789    107.1386
  1119.8000      7.8727      2.5205     -0.0018      7.8459     28.0652     99.8953
  1119.9000      7.8727      2.5165      0.0248      8.0886     28.4257    100.3240
  1120.0000      7.8836      2.5205      0.0299      7.8514     28.6887    106.1365
  1120.1000      7.8836      2.5317      0.0519      7.1702     28.9674    109.8349
  1120.2000      7.8836      2.5418      0.0932      6.5591     29.4233    112.2165
  1120.3000      7.8892      2.5448      0.0858      6.3787     29.9565    118.0476
  1120.4000      7.8892      2.5485      0.0958      6.1498     29.8945    125.9619
  1120.5000      7.8887      2.5533      0.0920      5.8608     29.1960    130.2486
  1120.6000      7.8887      2.5477      0.1048      6.1984     28.6440    128.6913
  1120.7000      7.8887      2.5343      0.0779      7.0150     28.6032    126.4037
  1120.8000      7.8927      2.5287      0.0343      7.3491     28.7903    127.2461
  1120.9000      7.8927      2.5361      0.0384      6.9004     28.8833    130.5236
  1121.0000      7.9105      2.5430      0.0540      6.4856     28.8969    133.6127
  1121.1000      7.9105      2.5360      0.0428      6.9088     28.9934    133.3652
  1121.2000      7.9105      2.5226     -0.0003      7.7202     29.2180    130.7991
  1121.3000      7.9249      2.5205      0.0223      7.8511     29.2051    129.3930
  1121.4000      7.9249      2.5314      0.0363      7.1861     28.4840    129.7965
