~Version Information
 VERS.                                  2.0 : CWLS LAS VERSION
 WRAP.                                   NO : WRAPING MODE
 SWARE .                 MController 2.5.0N : SOFTWARE VERSION
~Well Information
 WELL.                         State 16-41V : WELL
 COMP.                Petrogulf Corporation : COMPANY
 FLD.                      Purgatoire River : FIELD
 LOC.                NE/NE Sec 16 T33S R67W : LOCATION
 DATE.                             08/01/05 : DATE(S) LOGGED
 SRVC.       BLANCO Geological Services LLC : SERVICE COMPANY
 STAT.                                   CO : STATE
 CNTY.                           Las Animas : COUNTY
 CTRY.                                  USA : COUNTRY
 API.                       05-071-08344-00 : API NUMBER
 STRT.FT                             582.00 : START DEPTH
 STOP.FT                            2275.00 : STOP DEPTH
 STEP.FT                               1.00 : DEPTH INCREMENT
 NULL.                                -9999 : NULL VALUE
~Curve information
 DEPTH.FT                                   :
 ROP.MIN/FT                                 :
 GAS.UNITS                                  :
~ASCII Log data
# ...
      1782.0         0.23         31.3 
      1783.0         0.23         30.4 
      1784.0         0.20         30.2 
      1785.0         0.20         30.8 
      1786.0         0.17         31.4 
      1787.0         0.17         31.6 
      1788.0         0.27         30.4 
      1789.0         0.27         25.1 
      1790.0         0.32         19.8 
      1791.0         0.23         17.6 
      1792.0         0.33         21.9 
      1793.0         0.23         27.2 
      1794.0         0.27         38.4 
      1795.0         0.47         56.9 
      1796.0         1.58         58.8 
      1797.0         0.53         36.7 
      1798.0         0.43         33.4 
      1799.0         0.33         31.7 
      1800.0         0.33         30.9 
      1801.0         0.20         29.1 
      1802.0         0.23         27.9 
      1803.0         0.27         26.6 
      1804.0         0.33         25.3 
      1805.0         0.33         24.8 
      1806.0         0.38         24.5 
      1807.0         0.37         24.3 
      1808.0         0.30         24.3 
      1809.0         0.33         24.0 
      1810.0         0.27         24.2 
      1811.0         0.27         23.7 
      1812.0         0.27         23.3 
      1813.0         0.27         22.8 
      1814.0         0.27         22.7 
      1815.0         0.23         22.4 
      1816.0         0.40         24.2 
      1817.0         0.28         24.2 
      1818.0         0.27         22.0 
      1819.0         0.23         17.8 
      1820.0         0.23         15.7 
      1821.0         0.30         15.7 
      1822.0         0.27         19.4 
      1823.0         0.23         25.9 
      1824.0         0.23         33.6 
      1825.0         0.17         41.0 
      1826.0         1.95         58.2 
      1827.0         0.40         37.3 
      1828.0         0.37         33.1 
      1829.0         0.33         30.3 
      1830.0         0.27         28.9 
      1831.0         0.43         28.4 
      1832.0         0.42         27.0 
      1833.0         0.33         26.2 
      1834.0         0.27         25.1 
      1835.0         0.30         24.9 
      1836.0         0.27         24.4 
      1837.0         0.30         23.7 
      1838.0         0.27         23.8 
      1839.0         0.30         23.3 
      1840.0         0.30         23.0 
      1841.0         0.20         22.9 
      1842.0         0.27         22.6 
      1843.0         0.23         22.5 
      1844.0         0.32         22.3 
      1845.0         0.27         21.7 
      1846.0         0.27         21.8 
      1847.0         0.30         23.1 
      1848.0         0.30         23.5 
      1849.0         0.33         21.0 
      1850.0         0.27         16.1 
      1851.0         0.27         13.5 
      1852.0         0.30         13.9 
      1853.0         0.30         19.1 
      1854.0         0.32         27.3 
      1855.0         0.33         37.3 
      1856.0         2.03         53.8 
      1857.0         0.43         33.9 
      1858.0         0.30         30.5 
      1859.0         0.35         30.0 
      1860.0         0.30         28.6 
      1861.0         0.30         27.8 
      1862.0         0.07         26.3 
      1863.0         0.17         26.2 
      1864.0         0.20         25.9 
      1865.0         0.23         25.3 
      1866.0         0.23         24.8 
      1867.0         0.40         24.5 
      1868.0         0.37         24.1 
      1869.0         0.27         23.6 
      1870.0         0.28         23.8 
      1871.0         0.27         23.4 
      1872.0         0.20         23.0 
      1873.0         0.23         22.7 
      1874.0         0.27         22.5 
      1875.0         0.20         22.6 
      1876.0         0.23         24.8 
      1877.0         0.27         25.6 
      1878.0         0.30         23.9 
      1879.0         0.20         19.1 
      1880.0         0.27         16.4 
      1881.0         0.20         14.6 
      1882.0         0.20         15.6 
      1883.0         0.17         18.3 
      1884.0         0.22         24.2 
      1885.0         0.23         31.2 
      1886.0         2.37         73.5 
      1887.0         0.40         31.6 
      1888.0         0.35         29.9 
      1889.0         0.13         29.8 
      1890.0         0.27         29.8 
      1891.0         0.50         29.4 
      1892.0         0.37         32.0 
      1893.0         0.23         35.3 
      1894.0         0.37         36.0 
      1895.0         0.20         34.8 
      1896.0         0.27         33.0 
      1897.0         0.17         31.1 
      1898.0         0.13         29.5 
      1899.0         0.17         28.6 
      1900.0         0.35         27.4 
      1901.0         0.33         26.6 
      1902.0         0.43         25.8 
      1903.0         0.37         25.0 
      1904.0         0.37         24.2 
      1905.0         0.27         23.2 
      1906.0         0.30         22.6 
      1907.0         0.30         22.2 
      1908.0         0.33         23.2 
      1909.0         0.30         24.8 
      1910.0         0.28         24.4 
      1911.0         0.23         20.3 
      1912.0         0.33         16.5 
      1913.0         0.30         13.8 
      1914.0         0.27         15.7 
      1915.0         0.23         19.4 
      1916.0         1.47         59.4 
      1917.0         0.35         55.6 
      1918.0         0.43         48.1 
      1919.0         0.40         41.3 
      1920.0         0.33         33.8 
      1921.0         0.33         29.6 
      1922.0         0.30         27.4 
      1923.0         0.33         25.7 
      1924.0         0.40         24.9 
      1925.0         0.37         23.8 
      1926.0         0.42         23.5 
      1927.0         0.33         23.5 
      1928.0         0.37         22.3 
      1929.0         0.30         21.6 
      1930.0         0.27         20.9 
      1931.0         0.30         21.2 
      1932.0         0.37         21.3 
      1933.0         0.37         21.4 
      1934.0         0.37         21.3 
      1935.0         0.27         20.9 
      1936.0         0.32         20.9 
      1937.0         0.30         20.9 
      1938.0         0.27         21.2 
      1939.0         0.33         22.7 
      1940.0         0.30         22.6 
      1941.0         0.30         21.2 
      1942.0         0.30         18.1 
      1943.0         0.30         14.9 
      1944.0         0.30         14.6 
      1945.0         0.30         18.4 
      1946.0         2.72         49.5 
      1947.0         0.30         39.8 
      1948.0         0.38         35.5 
      1949.0         0.33         32.3 
      1950.0         0.33         30.8 
      1951.0         0.30         29.3 
      1952.0         0.27         27.0 
      1953.0         0.23         25.7 
      1954.0         0.33         25.0 
      1955.0         0.37         24.8 
      1956.0         0.30         24.5 
      1957.0         0.27         23.8 
      1958.0         0.27         22.8 
      1959.0         0.32         22.4 
      1960.0         0.17         22.0 
      1961.0         0.27         22.0 
      1962.0         0.30         21.7 
      1963.0         0.47         21.7 
      1964.0         0.27         20.8 
      1965.0         0.20         20.5 
      1966.0         0.27         20.0 
      1967.0         0.23         19.5 
      1968.0         0.30         19.3 
      1969.0         0.33         20.6 
      1970.0         0.42         20.6 
      1971.0         0.33         18.8 
      1972.0         0.27         14.9 
      1973.0         0.33         13.2 
      1974.0         0.30         14.2 
      1975.0         0.30         19.7 
      1976.0         1.72         49.6 
      1977.0         0.23         41.7 
      1978.0         0.30         38.5 
      1979.0         0.50         34.6 
      1980.0         0.37         29.6 
      1981.0         0.33         27.1 
