~Version Information
VERS.                      2.0: CWLS Log ASCII Standard - VERSION 2.0
WRAP.                       NO: One line per depth step
~Well Information Block
STRT.FT                -8.0000: 
STOP.FT              1357.5000: 
STEP.FT                 0.2500: 
NULL.                -999.2500: 
COMP.          Pioneer Natural Resources: COMPANY
WELL.          Lorencito 6-3-34-66: WELL
FLD.           Purgatorie River: FIELD
LOC.           2545' FNL & 1914' FWL: LOCATION
STAT.                       CO: State
CNTY.               Las Animas: COUNTY
CTRY. USA : Country
SECT. 3 : Section
TOWN. 34S : Township
RANG. 66W : Range
SRVC.          Patterson Wireline: SERVICE COMPANY
DATE.          Tue Sep 27 11:36:13 2005: LOG DATE
API.           05 071 08369 00: UNIQUE WELL ID
~Curve Information Block
DEPT.FT            0 000 00 00: Depth
CCL.                          : Casing Collar Locator
TT3.usec                      : CBL 3' Travel Time
AMP3.mV                       : CBL 3' Amplitude
GR.GAPI                       : Gamma Ray
~Parameter Information Block
~A  Depth       CCL         TT3         AMP3         GR     
    -8.0000   -999.2500   -999.2500   -999.2500    104.0786
    -7.7500   -999.2500   -999.2500   -999.2500    106.0361
    -7.5000   -999.2500   -999.2500   -999.2500    108.7333
    -7.2500   -999.2500   -999.2500   -999.2500    111.5037
    -7.0000   -999.2500   -999.2500   -999.2500    113.7782
    -6.7500   -999.2500   -999.2500   -999.2500    115.1624
    -6.5000   -999.2500   -999.2500   -999.2500    115.4101
    -6.2500   -999.2500   -999.2500   -999.2500    114.6382
    -6.0000   -999.2500   -999.2500   -999.2500    113.4695
    -5.7500   -999.2500   -999.2500   -999.2500    112.6505
    -5.5000   -999.2500   -999.2500   -999.2500    112.2336
    -5.2500   -999.2500   -999.2500   -999.2500    111.0802
    -5.0000   -999.2500   -999.2500   -999.2500    107.6796
    -4.7500   -999.2500   -999.2500   -999.2500    102.0403
    -4.5000   -999.2500   -999.2500   -999.2500     96.4401
    -4.2500   -999.2500   -999.2500   -999.2500     93.4459
    -4.0000   -999.2500   -999.2500   -999.2500     93.1309
    -3.7500   -999.2500   -999.2500   -999.2500     92.9161
    -3.5000   -999.2500   -999.2500   -999.2500     90.3312
    -3.2500   -999.2500   -999.2500   -999.2500     85.5086
    -3.0000   -999.2500   1149.0000      0.5740     80.8755
    -2.7500   -999.2500   1149.0000      0.5530     78.8414
    -2.5000   -999.2500   1149.0000      0.5365     80.0404
    -2.2500   -999.2500   1149.0000      0.5300     83.4615
    -2.0000   -999.2500   1149.0000      0.5343     87.4556
    -1.7500   -999.2500   1149.0000      0.5450     90.1032
    -1.5000   -999.2500   1149.0000      0.5558     89.4488
    -1.2500   -999.2500   1149.0000      0.5641     84.7554
    -1.0000   -999.2500   1149.0000      0.5715     77.6273
    -0.7500   -999.2500   1149.0000      0.5788     71.0590
    -0.5000   -999.2500   1149.0000      0.5844     67.0039
    -0.2500   -999.2500   1149.0000      0.5857     64.8974
     0.0000   -999.2500   1149.0000      0.5817     62.4324
     0.2500   -999.2500   1149.0000      0.5742     57.6619
     0.5000   -999.2500   1149.0000      0.5661     50.4224
     0.7500   -999.2500   1149.0000      0.5630     34.3353
     1.0000   -999.2500   1149.0000      0.5719     28.6429
     1.2500   -999.2500   1149.0000      0.5862     25.5041
     1.5000   -999.2500   1149.0000      0.6015     24.5336
     1.7500   -999.2500   1149.0000      0.6127     25.0987
     2.0000   -999.2500   1149.0000      0.6154     27.0191
     2.2500      0.0000   1149.0000      0.6086     30.2984
     2.5000      0.0000   1149.0000      0.5957     34.3595
     2.7500      0.0000   1149.0000      0.5829     38.2286
     3.0000      0.0000   1149.0000      0.5756     41.6855
     3.2500      0.0000   1149.0000      0.5751     45.6096
     3.5000      0.0000   1149.0000      0.5781     50.7348
     3.7500      0.0000   1149.0000      0.5803     56.4641
     4.0000      0.0000   1149.0000      0.5808     61.1896
     4.2500      0.0000   1149.0000      0.5805     63.3811
     4.5000      0.0000   1149.0000      0.5787     62.3218
     4.7500      0.0000   1149.0000      0.5727     58.4012
     5.0000      0.0000   1149.0000      0.5612     53.0432
     5.2500      0.0000   1149.0000      0.5463     48.1709
     5.5000      0.0000   1148.9432      0.5330     45.3625
     5.7500      0.0000   1148.5729      0.5304     45.1759
     6.0000      0.0000   1146.6926      0.5702     47.0039
     6.2500      0.0000   1139.2562      0.7588     49.5890
     6.5000      0.0000   1116.3529      1.3514     51.9342
     6.7500      0.0000   1061.4174      2.7527     53.8186
     7.0000      0.0000    958.7999      5.3068     55.3619
     7.2500      0.0000    809.5234      8.9204     56.2013
     7.5000      0.0000    640.4246     12.8941     55.4169
     7.7500      0.0000    491.2822     16.2787     52.4232
     8.0000      0.0000    388.9372     18.4816     47.7620
     8.2500      0.0000    334.5192     19.5200     42.9159
     8.5000      0.0000    312.7161     19.7734     39.3655
     8.7500      0.0000    307.5242     19.6242     37.7478
     9.0000      0.0000    309.4438     19.3118     37.6835
     9.2500      0.0000    314.1641     18.9680     38.2297
     9.5000      0.0000    319.6025     18.6681     38.5738
     9.7500      0.0000    325.4596     18.4337     38.6282
    10.0000      0.0000    334.4017     18.2308     39.0993
    10.2500      0.0000    352.5914     18.0055     40.8064
    10.5000      0.0000    386.5845     17.7308     43.7250
    10.7500      0.0000    435.4158     17.4194     46.7994
    11.0000      0.0000    483.7741     17.1009     48.9276
    11.2500      0.0000    509.0839     16.8037     50.0835
    11.5000      0.0000    501.7028     16.5509     51.2827
    11.7500      0.0000    474.8845     16.3591     53.6040
    12.0000      0.0000    450.7914     16.2269     57.4939
    12.2500      0.0000    443.2047     16.1221     62.8827
    12.5000      0.0000    456.9523     15.9899     69.4855
    12.7500      0.0000    491.4351     15.8047     76.7679
    13.0000      0.0000    533.7059     15.6243     83.7304
    13.2500      0.0000    557.6627     15.5479     89.0763
    13.5000      0.0000    546.1370     15.5718     91.9287
    13.7500      0.0000    515.0264     15.5369     92.4080
    14.0000      0.0000    507.3446     15.2905     91.2989
    14.2500      0.0000    560.8057     14.8651     89.0958
    14.5000      0.0000    679.3201     14.4347     85.5572
    14.7500      0.0000    830.3946     14.1417     80.3727
    15.0000     -2.0000    967.3956     14.0352     74.0626
    15.2500      0.0000   1056.7069     14.1384     67.7648
    15.5000      0.0000   1086.2297     14.5252     62.2137
    15.7500      0.0000   1054.3981     15.3226     57.5162
    16.0000      0.0000    961.7015     16.5994     53.8815
    16.2500      0.0000    818.3285     18.2042     51.9055
    16.5000      0.0000    653.3726     19.7771     51.9884
    16.7500      0.0000    505.4955     21.0196     53.9925
    17.0000      0.0000    400.7665     21.8899     57.5747
    17.2500      0.0000    341.5241     22.4766     62.4313
    17.5000      0.0000    314.4114     22.8193     68.0227
    17.7500      0.0000    304.2601     22.9391     73.3429
    18.0000      0.0000    301.1515     22.9205     77.3552
    18.2500      0.0000    300.4021     22.8685     79.7566
    18.5000      0.0000    300.2915     22.8303     81.0898
    18.7500      0.0000    300.3303     22.7960     81.9396
    19.0000      0.0000    300.4000     22.7448     82.1512
    19.2500      0.0000    300.4943     22.6666     81.0257
    19.5000      0.0000    300.6083     22.5621     78.1679
    19.7500      0.0000    300.7347     22.4421     73.8674
    20.0000      0.0000    300.8608     22.3314     68.8154
    20.2500      0.0000    300.9700     22.2631     63.8923
    20.5000      0.0000    301.0502     22.2596     60.0604
    20.7500      0.0000    301.1044     22.3133     58.0524
    21.0000      0.0000    301.1499     22.3875     58.1647
    21.2500      0.0000    301.2031     22.4396     60.3295
    21.5000      0.0000    301.2690     22.4453     64.1037
    21.7500      0.0000    301.3455     22.4037     68.7041
    22.0000      0.0000    301.4309     22.3249     73.5210
    22.2500      0.0000    301.5219     22.2229     78.5355
    22.5000      0.0000    301.6091     22.1177     83.8164
    22.7500      0.0000    301.6781     22.0349     88.7059
    23.0000      0.0000    301.7186     21.9968     91.9800
    23.2500      0.0000    301.7334     22.0128     92.9572
    23.5000      0.0000    301.7383     22.0791     92.1244
    23.7500      0.0000    301.7512     22.1842     90.5517
    24.0000      0.0000    301.7794     22.3086     89.1136
    24.2500      0.0000    301.8206     22.4210     88.6088
    24.5000      0.0000    301.8723     22.4840     90.0882
    24.7500      0.0000    301.9375     22.4729     94.1850
    25.0000      0.0000    302.0146     22.3930     99.9630
    25.2500      0.0000    302.0887     22.2784    104.9952
