~Version Information
VERS.                      2.0: CWLS Log ASCII Standard - VERSION 2.0
WRAP.                       NO: One line per depth step
~Well Information Block
STRT.FT               819.0000: 
STOP.FT              2497.0000: 
STEP.FT                 0.2500: 
NULL.                -999.2500: 
COMP.          Petrogulf Corporation: COMPANY
WELL.             State 16-21V: WELL
FLD.           Purgatorie River: FIELD
LOC.           1738' FWL & 332' FNL: LOCATION
PROV.                 Colorado: PROVINCE
CNTY.               Las Animas: COUNTRY
SRVC.          Patterson Wireline: SERVICE COMPANY
DATE.          Sun Jul 13 13:45:48 2003: LOG DATE
UWI.              05-071-07884: UNIQUE WELL ID 05 071 08829 00
~Curve Information Block
DEPT.FT            0 000 00 00: Depth
DCAL.in                       : CDL Caliper
RHOB.g/cc                     : CDL Bulk Density
RHOC.g/cc                     : CDL Density Correction
DPOR.pu                       : CDL Density Porosity
GR.GAPI                       : Gamma Ray
NPOR.pu                       : Neutron Porosity
~Parameter Information Block
~A  Depth       DCAL        RHOB        RHOC        DPOR         GR         NPOR    
# ...
  2475.0000      7.7612      2.5831      0.0855      4.0530   -999.2500     17.2977
  2475.2500      7.7724      2.5850      0.0788      3.9391   -999.2500     17.2080
  2475.5000      7.7895      2.5854      0.0699      3.9151   -999.2500     17.1900
  2475.7500      7.8000      2.5842      0.0672      3.9907   -999.2500     17.2804
  2476.0000      7.8014      2.5803      0.0699      4.2227   -999.2500     17.6599
  2476.2500      7.8006      2.5767      0.0746      4.4441   -999.2500     18.1206
  2476.5000      7.8040      2.5701      0.0817      4.8428   -999.2500     19.1024
  2476.7500      7.8085      2.5655      0.0849      5.1204   -999.2500     19.8549
  2477.0000      7.8076      2.5595      0.0887      5.4857   -999.2500     20.8773
  2477.2500      7.8090      2.5566      0.0915      5.6624   -999.2500     21.3694
  2477.5000      7.8234      2.5542      0.0949      5.8051   -999.2500     21.7771
  2477.7500      7.8381      2.5540      0.0949      5.8197   -999.2500     21.8732
  2478.0000      7.8275      2.5557      0.0916      5.7128   -999.2500     21.8385
  2478.2500      7.8011      2.5587      0.0894      5.5309   -999.2500     21.7280
  2478.5000      7.7838      2.5671      0.0900      5.0220   -999.2500     21.5103
  2478.7500      7.7715      2.5759      0.0930      4.4887   -999.2500     21.4073
  2479.0000      7.7612      2.5941      0.0976      3.3865   -999.2500     21.4293
  2479.2500      7.7573      2.6090      0.0981      2.4877   -999.2500     21.5698
  2479.5000      7.7595      2.6330      0.0926      1.0284   -999.2500     21.8813
  2479.7500      7.7645      2.6486      0.0849      0.0824   -999.2500     22.0877
  2480.0000      7.7730      2.6687      0.0696     -1.1362   -999.2500     22.3115
  2480.2500      7.7804      2.6790      0.0592     -1.7568   -999.2500     22.3713
  2480.5000      7.7716      2.6894      0.0468     -2.3858   -999.2500     22.3029
  2480.7500      7.7590      2.6936      0.0412     -2.6417   -999.2500     22.1952
  2481.0000      7.7580      2.6977      0.0352     -2.8921   -999.2500     22.1924
  2481.2500      7.7614      2.7001      0.0319     -3.0388   -999.2500     22.5536
  2481.5000      7.7634      2.7046      0.0281     -3.3098   -999.2500     24.2662
  2481.7500      7.7652      2.7083      0.0267     -3.5345   -999.2500     26.6197
  2482.0000      7.7657      2.7141      0.0265     -3.8825   -999.2500     32.3821
  2482.2500      7.7649      2.7169      0.0269     -4.0568   -999.2500     37.3396
  2482.5000      7.7638      2.7178      0.0270     -4.1063   -999.2500     44.6285
  2482.7500      7.7612      2.7150      0.0268     -3.9416   -999.2500     48.3339
  2483.0000      7.7567      2.7055      0.0275     -3.3648   -999.2500     51.6283
  2483.2500      7.7509      2.6959      0.0302     -2.7845   -999.2500     52.6482
  2483.5000      7.7453      2.6785      0.0399     -1.7251   -999.2500     53.2360
  2483.7500      7.7366      2.6661      0.0502     -0.9760   -999.2500     53.3476
  2484.0000      7.7261      2.6489      0.0681      0.0663   -999.2500     53.3892
  2484.2500      7.7361      2.6395      0.0787      0.6366   -999.2500     53.3938
  2484.5000      7.7737      2.6297      0.0886      1.2316   -999.2500   -999.2500
  2484.7500      7.8055      2.6262      0.0905      1.4451   -999.2500   -999.2500
  2485.0000      7.8058      2.6248      0.0876      1.5299   -999.2500   -999.2500
  2485.2500      7.7940      2.6256      0.0832      1.4765   -999.2500   -999.2500
  2485.5000      7.7933      2.6281      0.0746      1.3263   -999.2500   -999.2500
  2485.7500      7.7877      2.6298      0.0686      1.2273   -999.2500   -999.2500
  2486.0000      7.7665      2.6313      0.0615      1.1346   -999.2500   -999.2500
  2486.2500      7.7507      2.6314      0.0585      1.1252   -999.2500   -999.2500
  2486.5000      7.7470      2.6303      0.0553      1.1963   -999.2500   -999.2500
  2486.7500      7.7484      2.6286      0.0530      1.2978   -999.2500   -999.2500
  2487.0000      7.7524      2.6249      0.0487      1.5212   -999.2500   -999.2500
  2487.2500      7.7591      2.6218      0.0460      1.7113   -999.2500   -999.2500
  2487.5000      7.7629      2.6162      0.0436      2.0496   -999.2500   -999.2500
  2487.7500      7.7616      2.6120      0.0434      2.3049   -999.2500   -999.2500
  2488.0000      7.7570      2.6052      0.0437      2.7141   -999.2500   -999.2500
  2488.2500      7.7541      2.6007      0.0434      2.9860   -999.2500   -999.2500
  2488.5000      7.7572      2.5947      0.0424      3.3525   -999.2500   -999.2500
  2488.7500      7.7593      2.5914      0.0422      3.5501   -999.2500   -999.2500
  2489.0000      7.7552      2.5879      0.0435      3.7630   -999.2500   -999.2500
  2489.2500      7.7503      2.5864      0.0453      3.8524   -999.2500   -999.2500
  2489.5000      7.7497      2.5853      0.0484      3.9187   -999.2500   -999.2500
  2489.7500      7.7506      2.5853      0.0511      3.9218   -999.2500   -999.2500
  2490.0000      7.7520      2.5862      0.0568      3.8695   -999.2500   -999.2500
  2490.2500      7.7554      2.5872      0.0616      3.8036   -999.2500   -999.2500
  2490.5000      7.7563      2.5892      0.0683      3.6836   -999.2500   -999.2500
  2490.7500      7.7530      2.5905      0.0709      3.6067   -999.2500   -999.2500
  2491.0000      7.7515      2.5921      0.0709      3.5085   -999.2500   -999.2500
  2491.2500      7.7520      2.5933      0.0685      3.4349   -999.2500   -999.2500
  2491.5000      7.7507      2.5972      0.0628      3.1976   -999.2500   -999.2500
  2491.7500      7.7476      2.6035      0.0592      2.8189   -999.2500   -999.2500
  2492.0000      7.7448      2.6247      0.0569      1.5322   -999.2500   -999.2500
  2492.2500      7.7404      2.6521      0.0585     -0.1270   -999.2500   -999.2500
  2492.5000      7.7269      2.7241      0.0660     -4.4915   -999.2500   -999.2500
  2492.7500      7.6939      2.7994      0.0730     -9.0518   -999.2500   -999.2500
  2493.0000      7.5848      2.9615      0.0765    -18.8777   -999.2500   -999.2500
  2493.2500      7.0190      3.1035      0.0615    -27.4836   -999.2500   -999.2500
  2493.5000      5.1653      3.3557     -0.0175    -42.7667   -999.2500   -999.2500
  2493.7500      2.4684      3.5268     -0.1269    -53.1368   -999.2500   -999.2500
  2494.0000      0.9102      3.6972     -0.4046    -63.4638   -999.2500   -999.2500
  2494.2500      0.5687      3.6672     -0.6780    -61.6457   -999.2500   -999.2500
  2494.5000      0.5409      3.2624     -1.2358    -37.1128   -999.2500   -999.2500
  2494.7500   -999.2500      2.7387     -1.7111     -5.3772   -999.2500   -999.2500
  2495.0000   -999.2500      1.7487      0.0100     54.6226   -999.2500   -999.2500
  2495.2500   -999.2500      1.1241      0.0100     92.4778   -999.2500   -999.2500
  2495.5000   -999.2500      0.4566   -999.2500    132.9308   -999.2500   -999.2500
  2495.7500   -999.2500      0.2116   -999.2500    147.7825   -999.2500   -999.2500
  2496.0000   -999.2500      0.0512   -999.2500    157.5056   -999.2500   -999.2500
  2496.2500   -999.2500      0.0165   -999.2500    159.6053   -999.2500   -999.2500
  2496.5000   -999.2500      0.0022   -999.2500    160.4711   -999.2500   -999.2500
  2496.7500   -999.2500      0.0004   -999.2500    160.5804   -999.2500   -999.2500
  2497.0000   -999.2500      0.0000   -999.2500    160.6061   -999.2500   -999.2500
