~Version Information
VERS.                      2.0: CWLS Log ASCII Standard - VERSION 2.0
WRAP.                       NO: One line per depth step
~Well Information Block
STRT.FT               950.0000: 
STOP.FT              2417.7000: 
STEP.FT                 0.1000: 
NULL.                -999.2500: 
COMP.          Pioneer Natural Resources: COMPANY
WELL.            Chevron 13-13: WELL
FLD.           Purgatoire River: FIELD
LOC.           1560' FSL & 711' FWL--: LOCATION
CNTY.               Las Animas: COUNTY
SRVC.          Superior Well Services: SERVICE COMPANY
DATE.          Mon Feb 12 14:55:24 2007: LOG DATE
UWI.           05 071 08319 00: UNIQUE WELL ID
STAT.                 Colorado: STATE
~Curve Information Block
DEPT.FT            0 000 00 00: Depth
DCAL.in                       : CDL Caliper
RHOB.g/cc                     : CDL Bulk Density
RHOC.g/cc                     : CDL Density Correction
DPOR.pu                       : CDL Density Porosity
GR.GAPI                       : Gamma Ray
~Parameter Information Block
~A  Depth       DCAL        RHOB        RHOC        DPOR         GR     
# ...
  1241.2000      7.9694      2.5220      0.0052      7.7574     95.2043
  1241.3000      7.9687      2.5213      0.0418      7.8015     96.9500
  1241.4000      7.9687      2.5212      0.0291      7.8074     95.7806
  1241.5000      7.9682      2.5193      0.0405      7.9235     94.7526
  1241.6000      7.9682      2.5157      0.0589      8.1381     95.3048
  1241.7000      7.9682      2.5130      0.0657      8.3043     98.0064
  1241.8000      7.9688      2.5243      0.0305      7.6188    100.6360
  1241.9000      7.9688      2.5612      0.0638      5.3838     99.2971
  1242.0000      7.9700      2.6006      0.1245      2.9964     94.1760
  1242.1000      7.9700      2.6109      0.0868      2.3690     92.2235
  1242.2000      7.9700      2.5974      0.0690      3.1872     99.6982
  1242.3000      7.9700      2.5825      0.0075      4.0879    111.0576
  1242.4000      7.9700      2.5762      0.0575      4.4730    115.7837
  1242.5000      7.9713      2.5721      0.0928      4.7211    113.2998
  1242.6000      7.9713      2.5609      0.0924      5.4011    110.1955
  1242.7000      7.9713      2.5463      0.0531      6.2872    110.8205
  1242.8000      7.9730      2.5403      0.0571      6.6501    113.6673
  1242.9000      7.9730      2.5468      0.0804      6.2534    115.2116
  1243.0000      7.9742      2.5581      0.0735      5.5707    115.3947
  1243.1000      7.9742      2.5644      0.0627      5.1891    115.1982
  1243.2000      7.9742      2.5665      0.0634      5.0624    116.1932
  1243.3000      7.9751      2.5762      0.0408      4.4732    118.6165
  1243.4000      7.9751      2.6057      0.0204      2.6857    120.3430
  1243.5000      7.9747      2.6500      0.1000      0.0016    116.6207
  1243.6000      7.9747      2.6863      0.1047     -2.1998    108.3792
  1243.7000      7.9747      2.6966      0.1251     -2.8251    102.8135
  1243.8000      7.9742      2.6747      0.1348     -1.4960    102.6699
  1243.9000      7.9742      2.6316      0.0829      1.1170    105.2333
  1244.0000      7.9761      2.6006     -0.0109      2.9965    107.4414
  1244.1000      7.9761      2.6015      0.0382      2.9393    108.5968
  1244.2000      7.9761      2.6134      0.0288      2.2188    104.9303
  1244.3000      7.9797      2.6131      0.0301      2.2375     95.3283
  1244.4000      7.9797      2.6002      0.0498      3.0207     86.9149
  1244.5000      7.9840      2.5830      0.0109      4.0585     83.2746
  1244.6000      7.9840      2.5727      0.0136      4.6845     80.5668
  1244.7000      7.9840      2.5701      0.0312      4.8404     77.8518
  1244.8000      7.9887      2.5673      0.0244      5.0146     78.6246
  1244.9000      7.9887      2.5668     -0.0212      5.0431     82.7599
  1245.0000      7.9928      2.5744      0.0607      4.5828     87.1193
  1245.1000      7.9928      2.5778      0.0655      4.3740     91.0011
  1245.2000      7.9928      2.5615      0.0422      5.3613     94.3034
  1245.3000      7.9924      2.5294      0.0151      7.3116     95.2270
  1245.4000      7.9924      2.5085     -0.0388      8.5784     93.7468
  1245.5000      7.9882      2.5174      0.0495      8.0364     92.4267
  1245.6000      7.9882      2.5386      0.0705      6.7497     90.0281
  1245.7000      7.9882      2.5514      0.0496      5.9759     85.9825
  1245.8000      7.9860      2.5544      0.0855      5.7938     82.9695
  1245.9000      7.9860      2.5516      0.0792      5.9656     81.4361
  1246.0000      7.9859      2.5477      0.0648      6.2016     79.3833
  1246.1000      7.9859      2.5434      0.0777      6.4621     76.1323
  1246.2000      7.9859      2.5330      0.0426      7.0913     72.9196
  1246.3000      7.9870      2.5165      0.0426      8.0931     70.6647
  1246.4000      7.9870      2.5047      0.0259      8.8090     68.8394
  1246.5000      7.9896      2.5104      0.0452      8.4603     66.3454
  1246.6000      7.9896      2.5375      0.0446      6.8209     64.5715
  1246.7000      7.9896      2.5697      0.0738      4.8680     66.2525
  1246.8000      7.9917      2.5816      0.0806      4.1451     69.7696
  1246.9000      7.9917      2.5805      0.0338      4.2100     72.1645
  1247.0000      7.9939      2.5972      0.0482      3.1979     75.1635
  1247.1000      7.9939      2.6311      0.1338      1.1472     80.3527
  1247.2000      7.9939      2.6550      0.0888     -0.3011     84.3433
  1247.3000      7.9986      2.6578      0.0790     -0.4751     84.6608
  1247.4000      7.9986      2.6485      0.0655      0.0937     85.1016
  1247.5000      8.0036      2.6393      0.0256      0.6475     89.8327
  1247.6000      8.0036      2.6394      0.0267      0.6394     93.2870
  1247.7000      8.0036      2.6464      0.0754      0.2195     87.7496
  1247.8000      8.0071      2.6375      0.0803      0.7590     76.8428
  1247.9000      8.0071      2.5980      0.0019      3.1516     72.4455
  1248.0000      8.0082      2.5527     -0.0090      5.9000     78.5194
  1248.1000      8.0082      2.5427     -0.0413      6.5001     86.5696
  1248.2000      8.0082      2.5751     -0.0032      4.5379     89.9152
  1248.3000      8.0045      2.6063      0.0802      2.6468     87.7532
  1248.4000      8.0045      2.6059      0.0255      2.6758     81.4603
  1248.5000      8.0019      2.6042      0.0224      2.7775     74.8601
  1248.6000      8.0019      2.6270      0.0646      1.3936     70.2327
  1248.7000      8.0019      2.6447      0.0935      0.3190     68.3135
  1248.8000      8.0025      2.6336      0.0673      0.9946     70.1489
  1248.9000      8.0025      2.6209      0.0327      1.7644     71.9942
  1249.0000      8.0047      2.6314      0.0730      1.1256     69.3496
  1249.1000      8.0047      2.6496      0.0849      0.0227     65.3238
  1249.2000      8.0047      2.6590      0.0396     -0.5483     65.9347
  1249.3000      8.0038      2.6598      0.0870     -0.5950     70.3568
  1249.4000      8.0038      2.6543      0.0394     -0.2623     72.3817
  1249.5000      7.9977      2.6494      0.0507      0.0379     72.1027
  1249.6000      7.9977      2.6403      0.1014      0.5896     73.5468
  1249.7000      7.9977      2.6187      0.0237      1.8997     76.9515
  1249.8000      7.9926      2.5966      0.0403      3.2387     81.0661
  1249.9000      7.9926      2.5776      0.0856      4.3874     83.9155
  1250.0000      7.9899      2.5572      0.0100      5.6256     84.3176
  1250.1000      7.9899      2.5511      0.0066      5.9911     83.5639
  1250.2000      7.9899      2.5616      0.0699      5.3571     81.8820
  1250.3000      7.9898      2.5674      0.0569      5.0034     78.3179
  1250.4000      7.9898      2.5656      0.0346      5.1177     73.2524
  1250.5000      7.9906      2.5663      0.0679      5.0731     71.4831
  1250.6000      7.9906      2.5687      0.0856      4.9281     76.2570
  1250.7000      7.9906      2.5628      0.0928      5.2820     82.0993
  1250.8000      7.9918      2.5476      0.0374      6.2081     81.6316
  1250.9000      7.9918      2.5352      0.0384      6.9574     76.1409
  1251.0000      7.9923      2.5284      0.0786      7.3675     75.3305
  1251.1000      7.9923      2.5165      0.0704      8.0889     80.4516
  1251.2000      7.9923      2.4991      0.0421      9.1429     84.8490
  1251.3000      7.9909      2.4904      0.0170      9.6726     87.5030
  1251.4000      7.9909      2.4974     -0.0074      9.2460     88.9298
  1251.5000      7.9905      2.5065      0.0395      8.6963     87.6164
  1251.6000      7.9905      2.5052      0.0558      8.7748     85.1765
  1251.7000      7.9905      2.5025      0.0458      8.9417     84.5283
  1251.8000      7.9904      2.5082      0.0772      8.5911     84.6827
  1251.9000      7.9904      2.5146      0.0883      8.2049     83.0051
  1252.0000      7.9898      2.5158      0.0372      8.1363     80.5581
  1252.1000      7.9898      2.5193      0.0477      7.9239     78.1635
  1252.2000      7.9898      2.5283      0.0467      7.3755     75.5523
  1252.3000      7.9908      2.5410      0.0476      6.6089     71.8138
