~Version Information
VERS.                      2.0: CWLS Log ASCII Standard - VERSION 2.0
WRAP.                       NO: One line per depth step
~Well Information Block
STRT.FT               546.2500: 
STOP.FT              2488.5000: 
STEP.FT                 0.2500: 
NULL.                -999.2500: 
COMP.          Petrogulf Corporation: COMPANY
WELL.               Egan 9-11V: WELL
FLD.           Purgatorie River: FIELD
LOC.           724' FNL & 1379' FWL: LOCATION
PROV.                 Colorado: PROVINCE
CNTY.               Las Animas: COUNTRY
SRVC.          Patterson Wireline: SERVICE COMPANY
DATE.          Fri Jul 11 23:16:48 2003: LOG DATE
UWI.           05 071 07875 00: UNIQUE WELL ID
~Curve Information Block
DEPT.FT            0 000 00 00: Depth
DCAL.in                       : CDL Caliper
RHOB.g/cc                     : CDL Bulk Density
RHOC.g/cc                     : CDL Density Correction
DPOR.pu                       : CDL Density Porosity
GR.GAPI                       : Gamma Ray
NPOR.pu                       : Neutron Porosity
~Parameter Information Block
~A  Depth       DCAL        RHOB        RHOC        DPOR         GR         NPOR    
# ...
  1338.2500      8.4167      2.4711      0.0904     10.8427    128.1794     26.1053
  1338.5000      8.3870      2.4477      0.1089     12.2583    131.1203     26.2389
  1338.7500      8.3944      2.4300      0.1315     13.3333    133.7850     26.4772
  1339.0000      8.4331      2.4024      0.1638     15.0063    137.4368     26.9646
  1339.2500      8.4768      2.3851      0.1797     16.0517    138.7903     27.2753
  1339.5000      8.4867      2.3654      0.2047     17.2514    138.6100     27.5814
  1339.7500      8.4834      2.3589      0.2307     17.6431    137.2406     27.6725
  1340.0000      8.5816      2.3621      0.2827     17.4480    133.9342     27.7760
  1340.2500      8.8664      2.3727      0.3151     16.8081    131.0529     27.9387
  1340.5000      9.1637      2.3977      0.3413     15.2912    125.9465     28.4237
  1340.7500      9.1969      2.4173      0.3406     14.1038    122.5041     28.8628
  1341.0000      9.0207      2.4443      0.3193     12.4646    118.6714     29.5178
  1341.2500      8.8930      2.4565      0.2968     11.7278    117.7294     29.8511
  1341.5000      8.8836      2.4588      0.2532     11.5861    119.2526     30.0573
  1341.7500      8.8928      2.4471      0.2161     12.2960    121.9847     29.9533
  1342.0000      8.7972      2.4106      0.1524     14.5096    127.2747     29.5102
  1342.2500      8.6809      2.3782      0.1150     16.4698    130.5072     29.1700
  1342.5000      8.6564      2.3310      0.0914     19.3356    133.6633     28.8585
  1342.7500      8.6775      2.3085      0.1058     20.6996    134.5958     28.8414
  1343.0000      8.6938      2.2978      0.1644     21.3440    134.9435     28.9975
  1343.2500      8.7305      2.3075      0.2145     20.7577    134.9986     29.1079
  1343.5000      8.8754      2.3423      0.2858     18.6458    135.5682     29.1385
  1343.7500      9.1114      2.3736      0.3242     16.7518    136.4993     29.0708
  1344.0000      9.1176      2.4219      0.3627     13.8244    138.6447     28.9783
  1344.2500      8.7936      2.4500      0.3728     12.1214    140.3536     29.0075
  1344.5000      8.5164      2.4814      0.3617     10.2178    142.8221     29.1885
  1344.7500      8.3930      2.4951      0.3392      9.3882    144.1175     29.3211
  1345.0000      8.3476      2.5077      0.2918      8.6257    145.3031     29.3772
  1345.2500      8.3386      2.5131      0.2565      8.2976    145.5599     29.2404
  1345.5000      8.3322      2.5200      0.2026      7.8809    144.8836     28.6608
  1345.7500      8.3111      2.5247      0.1672      7.5956    143.5143     28.0090
  1346.0000      8.2812      2.5320      0.1179      7.1500    140.3411     26.8117
  1346.2500      8.2769      2.5365      0.0895      6.8762    138.1141     26.0688
  1346.5000      8.3045      2.5413      0.0561      6.5880    135.7473     25.3149
  1346.7500      8.3256      2.5424      0.0405      6.5237    135.0458     25.0659
  1347.0000      8.3294      2.5401      0.0253      6.6587    134.7903     24.8836
  1347.2500      8.3286      2.5363      0.0185      6.8923    134.5143     24.7810
  1347.5000      8.3284      2.5281      0.0102      7.3878    132.9328     24.6891
  1347.7500      8.3291      2.5220      0.0069      7.7573    131.0799     24.8102
  1348.0000      8.3310      2.5134      0.0092      8.2801    128.4417     25.4536
  1348.2500      8.3362      2.5085      0.0170      8.5733    127.7685     26.1314
  1348.5000      8.3452      2.5033      0.0349      8.8918    128.6535     27.1562
  1348.7500      8.3525      2.5017      0.0466      8.9879    129.5839     27.6184
  1349.0000      8.3562      2.5044      0.0583      8.8256    129.3491     27.7916
  1349.2500      8.3565      2.5115      0.0624      8.3921    127.3117     27.5902
  1349.5000      8.3505      2.5336      0.0694      7.0544    121.2008     27.0274
  1349.7500      8.3405      2.5563      0.0794      5.6769    115.4737     26.6309
  1350.0000      8.3343      2.5984      0.1026      3.1249    105.9064     26.1683
  1350.2500      8.3074      2.6268      0.1168      1.4036    100.2267     25.9430
  1350.5000      8.2272      2.6605      0.1199     -0.6382     95.1715     25.6183
  1350.7500      8.1370      2.6742      0.1072     -1.4672     94.9156     25.3848
  1351.0000      8.1106      2.6850      0.0848     -2.1220     98.7376     25.1063
  1351.2500      8.1545      2.6918      0.0843     -2.5323    102.8640     25.0298
  1351.5000      8.2238      2.7120      0.1119     -3.7576    108.4729     25.0281
  1351.7500      8.2643      2.7345      0.1366     -5.1212    110.0846     24.9995
  1352.0000      8.2698      2.7752      0.1549     -7.5850    107.4984     24.7828
  1352.2500      8.2589      2.7981      0.1439     -8.9755    102.8139     24.5332
  1352.5000      8.2425      2.8104      0.0908     -9.7188     94.6392     24.1697
  1352.7500      8.2284      2.7987      0.0427     -9.0100     90.9174     24.0649
  1353.0000      8.2193      2.7545     -0.0082     -6.3310     90.8201     24.2582
  1353.2500      8.2165      2.7149     -0.0094     -3.9315     94.7025     24.6201
  1353.5000      8.2205      2.6562      0.0292     -0.3747    104.9885     25.3865
  1353.7500      8.2520      2.6244      0.0640      1.5499    113.3216     25.9329
  1354.0000      8.3372      2.5923      0.1073      3.4970    125.2683     26.6027
  1354.2500      8.4397      2.5802      0.1250      4.2328    131.7414     26.8601
  1354.5000      8.4953      2.5711      0.1330      4.7840    139.0848     26.9285
  1354.7500      8.4866      2.5681      0.1279      4.9606    143.1425     26.8207
  1355.0000      8.4367      2.5648      0.1131      5.1643    148.8731     26.5722
  1355.2500      8.3920      2.5619      0.1046      5.3382    152.1471     26.3938
  1355.5000      8.3760      2.5555      0.0989      5.7263    155.1559     26.1375
  1355.7500      8.3826      2.5496      0.0987      6.0873    155.8065     26.0263
  1356.0000      8.4032      2.5380      0.1000      6.7860    155.7467     26.0984
  1356.2500      8.4293      2.5287      0.1019      7.3490    155.7167     26.3587
  1356.5000      8.4545      2.5127      0.1089      8.3237    156.3439     27.0150
  1356.7500      8.4752      2.5006      0.1164      9.0532    157.2695     27.5364
  1357.0000      8.4850      2.4808      0.1274     10.2529    159.0378     28.2678
  1357.2500      8.4860      2.4668      0.1311     11.1054    159.9442     28.6547
  1357.5000      8.4852      2.4452      0.1301     12.4138    159.7708     29.0748
  1357.7500      8.4840      2.4309      0.1268     13.2764    158.3891     29.2858
  1358.0000      8.4792      2.4102      0.1198     14.5348    155.5666     29.5641
  1358.2500      8.4736      2.3965      0.1129     15.3616    154.4313     29.7349
  1358.5000      8.4712      2.3756      0.0972     16.6294    154.9755     29.9217
  1358.7500      8.4644      2.3610      0.0845     17.5173    156.2812     29.9424
  1359.0000      8.4572      2.3379      0.0672     18.9171    157.6100     29.7535
  1359.2500      8.4560      2.3223      0.0588     19.8628    157.2656     29.5223
  1359.5000      8.4629      2.3008      0.0502     21.1641    155.0537     29.2104
  1359.7500      8.4868      2.2898      0.0464     21.8280    153.1654     29.1266
  1360.0000      8.5269      2.2827      0.0455     22.2631    151.0026     29.2085
  1360.2500      8.5580      2.2862      0.0502     22.0494    150.3888     29.3355
  1360.5000      8.5702      2.3056      0.0672     20.8701    150.4831     29.4958
  1360.7500      8.5706      2.3274      0.0858     19.5514    150.6393     29.5329
  1361.0000      8.5681      2.3693      0.1242     17.0094    149.8122     29.4823
  1361.2500      8.5752      2.4002      0.1541     15.1422    148.2811     29.4136
  1361.5000      8.6171      2.4445      0.1939     12.4517    145.5199     29.3114
  1361.7500      8.7150      2.4701      0.2084     10.9041    144.5904     29.2324
  1362.0000      8.8103      2.5000      0.2028      9.0930    146.1706     29.0145
