~Version Information
VERS.                      2.0: CWLS Log ASCII Standard - VERSION 2.0
WRAP.                       NO: One line per depth step
~Well Information Block
STRT.FT                -8.2500: 
STOP.FT              1795.0000: 
STEP.FT                 0.2500: 
NULL.                -999.2500: 
COMP.          Petrogulf Corporation: COMPANY
WELL.           Montoya 7-21 R: WELL
FLD.           Purgatoire River: FIELD
LOC.           445' FNL & 1942' FWL----: LOCATION
PROV.                 Colorado: PROVINCE
CNTY.               Las Animas: COUNTRY
SRVC.                         : SERVICE COMPANY
DATE.          Fri Sep 30 15:33:54 2005: LOG DATE
UWI.                          : UNIQUE WELL ID
~Curve Information Block
DEPT.FT            0 000 00 00: Depth
GR.GAPI                       : Gamma Ray
CCL.                          : Casing Collar Locator
TT3.usec                      : CBL 3' Travel Time
AMP3.mV                       : CBL 3' Amplitude
~Parameter Information Block
~A  Depth        GR         CCL         TT3         AMP3    
    -8.2500   -999.2500   -999.2500   -999.2500   -999.2500
    -8.0000   -999.2500   -999.2500   -999.2500   -999.2500
    -7.7500   -999.2500   -999.2500   -999.2500   -999.2500
    -7.5000   -999.2500   -999.2500    870.0000      2.9749
    -7.2500   -999.2500   -999.2500    870.0000      3.0087
    -7.0000   -999.2500   -999.2500    870.0000      3.0265
    -6.7500   -999.2500   -999.2500    870.0000      3.0284
    -6.5000   -999.2500   -999.2500    870.0000      3.0238
    -6.2500   -999.2500   -999.2500    870.0000      3.0197
    -6.0000   -999.2500   -999.2500    870.0000      3.0148
    -5.7500   -999.2500   -999.2500    870.0000      3.0052
    -5.5000   -999.2500   -999.2500    870.0000      2.9910
    -5.2500   -999.2500   -999.2500    870.0000      2.9735
    -5.0000   -999.2500   -999.2500    870.0000      2.9483
    -4.7500   -999.2500   -999.2500    870.0000      2.9073
    -4.5000   -999.2500   -999.2500    870.0000      2.8484
    -4.2500   -999.2500   -999.2500    870.0000      2.7850
    -4.0000   -999.2500   -999.2500    870.0000      2.7441
    -3.7500   -999.2500   -999.2500    870.0000      2.7498
    -3.5000   -999.2500   -999.2500    870.0000      2.8062
    -3.2500   -999.2500   -999.2500    870.0000      2.8923
    -3.0000   -999.2500   -999.2500    870.0000      2.9733
    -2.7500   -999.2500   -999.2500    870.0000      3.0202
    -2.5000   -999.2500   -999.2500    870.0000      3.0224
    -2.2500   -999.2500   -999.2500    870.0000      2.9860
    -2.0000   -999.2500      0.0000    870.0000      2.9252
    -1.7500   -999.2500      0.0000    870.0000      2.8570
    -1.5000   -999.2500      0.0000    870.0000      2.8016
    -1.2500   -999.2500      0.0000    870.0000      2.7790
    -1.0000   -999.2500      0.0000    870.0000      2.7986
    -0.7500   -999.2500      0.0000    870.0000      2.8501
    -0.5000   -999.2500     -1.5076    870.0000      2.9069
    -0.2500   -999.2500     -2.0000    870.0000      2.9426
     0.0000   -999.2500     -1.1624    870.0000      2.9476
     0.2500   -999.2500      0.0000    870.0000      2.9169
     0.5000   -999.2500      0.0000    870.0000      2.9138
     0.7500   -999.2500      0.0000    870.0000      2.9223
     1.0000   -999.2500      0.0000    870.0000      2.9323
     1.2500   -999.2500      0.0000    870.0000      2.9359
     1.5000   -999.2500      0.0000    870.0000      2.9330
     1.7500   -999.2500      0.0000    870.0000      2.9281
     2.0000   -999.2500      0.0000    870.0000      2.9255
     2.2500   -999.2500      0.0000    870.0000      2.9278
     2.5000   -999.2500      0.0000    870.0000      2.9360
     2.7500     56.8087      0.0000    870.0000      2.9496
     3.0000     59.1871      0.0000    870.0000      2.9644
     3.2500     62.9820      0.0000    870.0000      2.9743
     3.5000     66.8132      0.0000    869.9953      2.9761
     3.7500     69.4723      0.0000    869.9649      2.9688
     4.0000     70.4657      0.0000    869.8109      2.9502
     4.2500     69.8939      0.0000    869.2034      2.9178
     4.5000     68.3351      0.0000    867.3345      2.8787
     4.7500     66.6499      0.0000    862.8575      2.8511
     5.0000     65.4191      0.0000    854.4454      2.8500
     5.2500     64.4640      0.0000    841.8595      2.8786
     5.5000     63.0670      0.0000    826.0469      2.9503
     5.7500     60.8179      0.0000    806.9678      3.1825
     6.0000     58.3097      0.0000    780.4404      3.9803
     6.2500     56.9155      0.0000    737.6957      6.2690
     6.5000     57.8098      0.0000    670.2632     11.4851
     6.7500     61.2290      0.0000    578.2866     20.8684
     7.0000     66.5524      0.0000    475.1847     34.1583
     7.2500     72.6655      0.0000    382.0155     48.9451
     7.5000     78.0529      0.0000    314.7198     61.8504
     7.7500     81.1443      0.0000    276.0363     70.6813
     8.0000     81.4337      0.0000    258.3804     75.4189
     8.2500     80.2795      0.0000    251.9913     77.4030
     8.5000     79.9059      0.0000    250.1623     78.0293
     8.7500     81.3157      0.0000    249.7527     78.1461
     9.0000     83.5027      0.0000    249.6850     78.1268
     9.2500     84.7415      0.0000    249.6831     78.1064
     9.5000     84.1793      0.0000    249.6855     78.1238
     9.7500     82.1123      0.0000    249.6845     78.1782
    10.0000     79.4490      0.0000    249.6816     78.2515
    10.2500     77.3774      0.0000    249.6777     78.3322
    10.5000     77.1207      0.0000    249.6716     78.4228
    10.7500     79.3112      0.0000    249.6619     78.5283
    11.0000     83.4396      0.0000    249.6496     78.6421
    11.2500     88.0912      0.0000    249.6380     78.7509
    11.5000     91.8161      0.0000    249.6293     78.8473
    11.7500     93.8574      0.0000    249.6238     78.9309
    12.0000     94.3528      0.0000    249.6209     79.0012
    12.2500     94.1310      0.0000    249.6204     79.0566
    12.5000     94.1689      0.0000    249.6216     79.0989
    12.7500     94.8371      0.0000    249.6232     79.1343
    13.0000     95.7152      0.0000    249.6239     79.1677
    13.2500     96.4853      0.0000    249.6232     79.1973
    13.5000     97.7489      0.0000    249.6214     79.2194
    13.7500    100.3390      0.0000    249.6177     79.2425
    14.0000    103.9841      0.0000    249.6096     79.2910
    14.2500    107.2871      0.0000    249.5950     79.3847
    14.5000    108.9607      0.0000    249.5759     79.5157
    14.7500    108.5317      0.0000    249.5585     79.6465
    15.0000    106.0686      0.0000    249.5497     79.7312
    15.2500    101.9689      0.0000    249.5537     79.7424
    15.5000     96.9600      0.0000    249.5692     79.6880
    15.7500     91.6852      0.0000    249.5899     79.6045
    16.0000     86.2275      0.0000    249.6082     79.5306
    16.2500     80.3739      0.0000    249.6197     79.4858
    16.5000     74.3001      0.0000    249.6244     79.4721
    16.7500     68.7385      0.0000    249.6247     79.4841
    17.0000     64.4379      0.0000    249.6237     79.5123
    17.2500     61.6181      0.0000    249.6234     79.5440
    17.5000     60.0306      0.0000    249.6231     79.5702
    17.7500     59.4070      0.0000    249.6206     79.5890
    18.0000     59.6478      0.0000    249.6154     79.5980
    18.2500     60.6029      0.0000    249.6101     79.5878
    18.5000     61.9112      0.0000    249.6080     79.5499
    18.7500     63.1743      0.0000    249.6100     79.4885
    19.0000     64.1786      0.0000    249.6154     79.4146
    19.2500     64.9479      0.0000    249.6242     79.3354
    19.5000     65.6483      0.0000    249.6360     79.2610
    19.7500     66.3528      0.0000    249.6470     79.2150
    20.0000     66.8922      0.0000    249.6512     79.2251
    20.2500     67.1755      0.0000    249.6451     79.2993
    20.5000     67.5496      0.0000    249.6304     79.4185
    20.7500     68.3913      0.0000    249.6127     79.5517
    21.0000     69.3851      0.0000    249.5980     79.6716
    21.2500     69.7176      0.0000    249.5904     79.7565
    21.5000     69.0326      0.0000    249.5920     79.7882
    21.7500     67.9103      0.0000    249.6020     79.7598
    22.0000     67.5909      0.0000    249.6167     79.6862
    22.2500     69.4389      0.0000    249.6311     79.5981
    22.5000     74.1083      0.0000    249.6429     79.5182
    22.7500     80.6323      0.0000    249.6529     79.4461
    23.0000     86.7227      0.0000    249.6631     79.3700
    23.2500     90.5741      0.0000    249.6735     79.2916
    23.5000     92.3055      0.0000    249.6816     79.2346
    23.7500     93.4561      0.0000    249.6836     79.2288
    24.0000     95.3250      0.0000    249.6781     79.2825
    24.2500     97.9658      0.0000    249.6677     79.3692
    24.5000    100.4078      0.0000    249.6581     79.4421
    24.7500    101.4911      0.0000    249.6544     79.4649
    25.0000    100.7236      0.0000    249.6584     79.4307
