~Version Information
VERS.                      2.0: CWLS Log ASCII Standard - VERSION 2.0
WRAP.                       NO: One line per depth step
~Well Information Block
STRT.FT               500.0000: 
STOP.FT              2732.5000: 
STEP.FT                 0.2500: 
NULL.                -999.2500: 
COMP.          Pioneer Natural Resources: COMPANY
WELL.          Dude Canyon 22-32: WELL
FLD.           Purgatoire River: FIELD
LOC.           1662' FNL & 2446' FWL----: LOCATION
PROV.                 Colorado: PROVINCE
CNTY.               Las Animas: COUNTRY
SRVC.                Patterson: SERVICE COMPANY
DATE.          Thu Mar 10 07:15:42 2005: LOG DATE
UWI.           05 071 08257 00: UNIQUE WELL ID
~Curve Information Block
DEPT.FT            0 000 00 00: Depth
DIR.Ohm-m                     : IEL Induction Resistivity
GR.GAPI                       : Gamma Ray
SN.Ohm-m                      : IEL Short Normal
SP.mV                         : IEL Spontaneous Potential
~Parameter Information Block
~A  Depth       DIR          GR          SN          SP     
# ...
   935.5000     21.7699     97.6305   2000.0000   2000.0000
   935.7500     21.5086     98.2539   2000.0000   2000.0000
   936.0000     21.1709     98.5058   2000.0000   2000.0000
   936.2500     20.7894     98.6615   2000.0000   2000.0000
   936.5000     20.4064     99.6736   2000.0000   2000.0000
   936.7500     20.0638    101.0521   2000.0000   2000.0000
   937.0000     19.7900    103.7879   2000.0000   2000.0000
   937.2500     19.5904    105.5187   2000.0000   2000.0000
   937.5000     19.4462    107.0517   2000.0000   2000.0000
   937.7500     19.3224    107.2052   2000.0000   2000.0000
   938.0000     19.1838    106.9088   2000.0000   2000.0000
   938.2500     19.0104    107.2188   2000.0000   2000.0000
   938.5000     18.8049    109.5628   2000.0000   2000.0000
   938.7500     18.5864    112.3331   2000.0000   2000.0000
   939.0000     18.3757    117.1030   2000.0000   2000.0000
   939.2500     18.1800    119.9237   2000.0000   2000.0000
   939.5000     17.9892    123.0764   2000.0000   2000.0000
   939.7500     17.7839    124.4157   2000.0000   2000.0000
   940.0000     17.5494    124.8250   2000.0000   2000.0000
   940.2500     17.2844    123.7206   2000.0000   2000.0000
   940.5000     17.0020    120.6477   2000.0000   2000.0000
   940.7500     16.7222    118.7818   2000.0000   2000.0000
   941.0000     16.4658    117.8968   2000.0000   2000.0000
   941.2500     16.2494    118.6400   2000.0000   2000.0000
   941.5000     16.0846    120.6041   2000.0000   2000.0000
   941.7500     15.9779    121.7026   2000.0000   2000.0000
   942.0000     15.9325    122.3823   2000.0000   2000.0000
   942.2500     15.9504    122.3430   2000.0000   2000.0000
   942.5000     16.0340    122.2204   2000.0000   2000.0000
   942.7500     16.1863    122.1980   2000.0000   2000.0000
   943.0000     16.4101    121.5928   2000.0000   2000.0000
   943.2500     16.7080    120.3490   2000.0000   2000.0000
   943.5000     17.0833    117.1400   2000.0000   2000.0000
   943.7500     17.5385    114.4003   2000.0000   2000.0000
   944.0000     18.0723    109.6868   2000.0000   2000.0000
   944.2500     18.6718    105.9267   2000.0000   2000.0000
   944.5000     19.3065     98.8252   2000.0000   2000.0000
   944.7500     19.9297     93.3277   2000.0000   2000.0000
   945.0000     20.4911     85.6839   2000.0000   2000.0000
   945.2500     20.9554     82.3367   2000.0000   2000.0000
   945.5000     21.3110     81.3336   2000.0000   2000.0000
   945.7500     21.5589     83.3358   2000.0000   2000.0000
   946.0000     21.6882     89.6088   2000.0000   2000.0000
   946.2500     21.6574     95.4231   2000.0000   2000.0000
   946.5000     21.4018    104.9845   2000.0000   2000.0000
   946.7500     20.8707    110.3944   2000.0000   2000.0000
   947.0000     20.0687    114.6890   2000.0000   2000.0000
   947.2500     19.0672    114.8015   2000.0000   2000.0000
   947.5000     17.9763    112.8911   2000.0000   2000.0000
   947.7500     16.9028    111.9723   2000.0000   2000.0000
   948.0000     15.9208    113.2677   2000.0000   2000.0000
   948.2500     15.0618    116.2937   2000.0000   2000.0000
   948.5000     14.3219    123.4195   2000.0000   2000.0000
   948.7500     13.6759    129.0143   2000.0000   2000.0000
   949.0000     13.0953    137.0371   2000.0000   2000.0000
   949.2500     12.5622    141.5148   2000.0000   2000.0000
   949.5000     12.0741    146.5953   2000.0000   2000.0000
   949.7500     11.6386    148.8826   2000.0000   2000.0000
   950.0000     11.2647    150.6425   2000.0000   2000.0000
   950.2500     10.9560    150.8175   2000.0000   2000.0000
   950.5000     10.7081    150.1821   2000.0000   2000.0000
   950.7500     10.5118    149.5015   2000.0000   2000.0000
   951.0000     10.3562    148.1377   2000.0000   2000.0000
   951.2500     10.2318    146.7894   2000.0000   2000.0000
   951.5000     10.1307    143.9494   2000.0000   2000.0000
   951.7500     10.0463    141.7165   2000.0000   2000.0000
   952.0000      9.9726    138.5945   2000.0000   2000.0000
   952.2500      9.9040    137.0883   2000.0000   2000.0000
   952.5000      9.8378    135.8143   2000.0000   2000.0000
   952.7500      9.7756    135.2123   2000.0000   2000.0000
   953.0000      9.7224    133.8058   2000.0000   2000.0000
   953.2500      9.6835    132.5094   2000.0000   2000.0000
   953.5000      9.6626    131.0830   2000.0000   2000.0000
   953.7500      9.6605    131.1458   2000.0000   2000.0000
   954.0000      9.6774    132.6804   2000.0000   2000.0000
   954.2500      9.7131    133.9397   2000.0000   2000.0000
   954.5000      9.7679    135.0838   2000.0000   2000.0000
   954.7500      9.8421    135.2414   2000.0000   2000.0000
   955.0000      9.9363    134.9527   2000.0000   2000.0000
   955.2500     10.0500    134.6981   2000.0000   2000.0000
   955.5000     10.1801    134.7283   2000.0000   2000.0000
   955.7500     10.3188    135.2398   2000.0000   2000.0000
   956.0000     10.4553    136.5851   2000.0000   2000.0000
   956.2500     10.5788    137.4256   2000.0000   2000.0000
   956.5000     10.6836    137.8485   2000.0000   2000.0000
   956.7500     10.7699    137.5905   2000.0000   2000.0000
   957.0000     10.8407    137.1738   2000.0000   2000.0000
   957.2500     10.8989    137.0702   2000.0000   2000.0000
   957.5000     10.9467    136.0871   2000.0000   2000.0000
   957.7500     10.9883    133.9521   2000.0000   2000.0000
   958.0000     11.0327    128.3912   2000.0000   2000.0000
   958.2500     11.0917    124.1527   2000.0000   2000.0000
   958.5000     11.1756    119.3519   2000.0000   2000.0000
   958.7500     11.2880    118.0268   2000.0000   2000.0000
   959.0000     11.4222    118.8483   2000.0000   2000.0000
   959.2500     11.5603    120.6485   2000.0000   2000.0000
   959.5000     11.6785    123.7365   2000.0000   2000.0000
   959.7500     11.7576    125.2437   2000.0000   2000.0000
   960.0000     11.7954    125.9960   2000.0000   2000.0000
   960.2500     11.8106    125.7503   2000.0000   2000.0000
   960.5000     11.8352    125.4408   2000.0000   2000.0000
   960.7500     11.8984    125.7828   2000.0000   2000.0000
   961.0000     12.0124    126.9236   2000.0000   2000.0000
   961.2500     12.1673    127.5798   2000.0000   2000.0000
   961.5000     12.3385    127.8389   2000.0000   2000.0000
   961.7500     12.5007    127.6807   2000.0000   2000.0000
   962.0000     12.6413    127.5657   2000.0000   2000.0000
   962.2500     12.7629    127.5991   2000.0000   2000.0000
   962.5000     12.8781    126.9499   2000.0000   2000.0000
   962.7500     12.9982    125.5457   2000.0000   2000.0000
   963.0000     13.1266    122.3859   2000.0000   2000.0000
   963.2500     13.2560    120.4920   2000.0000   2000.0000
   963.5000     13.3737    119.3949   2000.0000   2000.0000
   963.7500     13.4704    120.1993   2000.0000   2000.0000
   964.0000     13.5467    123.9771   2000.0000   2000.0000
   964.2500     13.6113    128.1656   2000.0000   2000.0000
   964.5000     13.6723    135.8110   2000.0000   2000.0000
   964.7500     13.7320    140.5278   2000.0000   2000.0000
   965.0000     13.7890    145.1431   2000.0000   2000.0000
   965.2500     13.8467    146.3522   2000.0000   2000.0000
   965.5000     13.9179    146.2255   2000.0000   2000.0000
   965.7500     14.0192    145.3975   2000.0000   2000.0000
   966.0000     14.1582    143.1978   2000.0000   2000.0000
   966.2500     14.3239    140.8549   2000.0000   2000.0000
   966.5000     14.4894    135.9441   2000.0000   2000.0000
   966.7500     14.6270    132.1376   2000.0000   2000.0000
   967.0000     14.7273    126.7860   2000.0000   2000.0000
   967.2500     14.8074    124.1645   2000.0000   2000.0000
   967.5000     14.9006    122.5529   2000.0000   2000.0000
   967.7500     15.0374    123.0848   2000.0000   2000.0000
   968.0000     15.2301    125.2299   2000.0000   2000.0000
   968.2500     15.4711    126.5328   2000.0000   2000.0000
   968.5000     15.7395    126.8858   2000.0000   2000.0000
   968.7500     16.0132    125.7759   2000.0000   2000.0000
