~Version Information
VERS.                      2.0: CWLS Log ASCII Standard - VERSION 2.0
WRAP.                       NO: One line per depth step
~Well Information Block
STRT.FT                15.0000: 
STOP.FT              2620.5000: 
STEP.FT                 0.2500: 
NULL.                -999.2500: 
COMP.          Pioneer Natural Resources: COMPANY
WELL.               Zink 44-10: WELL
FLD.           Purgatoire River: FIELD
LOC.           548' FSL & 473' FEL: LOCATION
PROV.                 Colorado: PROVINCE
CNTY.               Las Animas: COUNTRY
SRVC.                Patterson: SERVICE COMPANY
DATE.          Tue Jun 21 13:36:23 2005: LOG DATE
UWI.           05 071 08380 00: UNIQUE WELL ID
~Curve Information Block
DEPT.FT            0 000 00 00: Depth
GR.GAPI                       : Gamma Ray
CCL.                          : Casing Collar Locator
TT3.usec                      : CBL 3' Travel Time
AMP3.mV                       : CBL 3' Amplitude
~Parameter Information Block
~A  Depth        GR         CCL         TT3         AMP3    
# ...
  1556.0000    126.1026      0.0000    267.7855     60.3260
  1556.2500    126.2068      0.0000    267.8444     59.7412
  1556.5000    127.4419      0.0000    267.9091     59.1316
  1556.7500    129.3903      0.0000    267.9747     58.4918
  1557.0000    130.4625      0.0000    268.0394     57.8548
  1557.2500    129.2616      0.0000    268.1013     57.2810
  1557.5000    126.2874      0.0000    268.1562     56.8230
  1557.7500    123.8941      0.0000    268.1973     56.5052
  1558.0000    124.3914      0.0000    268.2171     56.3251
  1558.2500    128.0358      0.0000    268.2119     56.2535
  1558.5000    132.6606      0.0000    268.1863     56.2255
  1558.7500    135.1670      0.0000    268.1540     56.1451
  1559.0000    133.5443      0.0000    268.1332     55.9151
  1559.2500    127.8881      0.0000    268.1404     55.4689
  1559.5000    120.2317      0.0000    268.1876     54.7820
  1559.7500    113.6277      0.0000    268.2790     53.8708
  1560.0000    110.7133      0.0000    268.4061     52.7876
  1560.2500    112.4297      0.0000    268.5509     51.6086
  1560.5000    117.7407      0.0000    268.6971     50.4093
  1560.7500    124.3887      0.0000    268.8394     49.2370
  1561.0000    130.0551      0.0000    268.9855     48.0943
  1561.2500    133.3992      0.0000    269.1473     46.9479
  1561.5000    134.5856      0.0000    269.3304     45.7683
  1561.7500    135.0158      0.0000    269.5252     44.5724
  1562.0000    136.2077      0.0000    269.7117     43.4278
  1562.2500    138.4056      0.0000    269.8734     42.4069
  1562.5000    140.1797      0.0000    270.0099     41.5344
  1562.7500    139.7054      0.0000    270.1355     40.7721
  1563.0000    136.4953      0.0000    270.2743     40.0377
  1563.2500    131.6957      0.0000    270.4588     39.2396
  1563.5000    126.9262      0.0000    270.7252     38.3173
  1563.7500    123.1609      0.0000    271.0943     37.2781
  1564.0000    120.4747      0.0000    271.5741     36.2084
  1564.2500    118.4703      0.0000    272.2153     35.2388
  1564.5000    116.9056      0.0000    273.1934     34.4767
  1564.7500    116.0800      0.0000    274.7532     33.9572
  1565.0000    116.6204      0.0000    276.8710     33.6502
  1565.2500    118.7428      0.0000    278.9189     33.5065
  1565.5000    121.7772      0.0000    279.9688     33.4845
  1565.7500    124.7591      0.0000    279.7489     33.5357
  1566.0000    127.4276      0.0000    279.0948     33.5943
  1566.2500    130.0951      0.0000    279.0573     33.6123
  1566.5000    132.4077      0.0000    279.6399     33.6095
  1566.7500    133.1051      0.0000    279.7958     33.6684
  1567.0000    131.7319      0.0000    278.6898     33.8618
  1567.2500    130.0044      0.0000    276.6039     34.1852
  1567.5000    130.5002      0.0000    274.5070     34.5591
  1567.7500    133.9836      0.0000    273.1254     34.8823
  1568.0000    138.6213      0.0000    272.6883     35.0686
  1568.2500    141.8283      0.0000    273.3874     35.0349
  1568.5000    142.3775      0.0000    275.8284     34.6736
  1568.7500    140.8448      0.0000    281.2194     33.8647
  1569.0000    138.5889      0.0000    291.7348     32.5387
  1569.2500    136.4473      0.0000    311.7445     30.7330
  1569.5000    134.2673      0.0000    348.7140     28.5876
  1569.7500    131.7281      0.0000    410.0292     26.2777
  1570.0000    129.4258      0.0000    494.7870     23.9422
  1570.2500    128.6823      0.0000    588.3540     21.6639
  1570.5000    130.2382      0.0000    668.8206     19.4899
  1570.7500    133.5860      0.0000    721.1122     17.4513
  1571.0000    137.5360      0.0000    744.4509     15.5639
  1571.2500    141.0480      0.0000    747.7387     13.8350
  1571.5000    143.7220      0.0000    741.0715     12.2875
  1571.7500    145.8315      0.0000    731.5322     10.9704
  1572.0000    147.7214      0.0000    723.0132      9.9312
  1572.2500    149.1353      0.0000    716.5774      9.1735
  1572.5000    149.3237      0.0000    711.0844      8.6403
  1572.7500    147.4843      0.0000    705.4039      8.2393
  1573.0000    142.9282      0.0000    700.5958      7.8839
  1573.2500    135.5235      0.0000    699.4191      7.5163
  1573.5000    126.4065      0.0000    703.4606      7.1064
  1573.7500    117.7553      0.0000    710.7807      6.6419
  1574.0000    111.3776      0.0000    716.6101      6.1283
  1574.2500    107.7381      0.0000    717.4105      5.5952
  1574.5000    106.5302      0.0000    714.7387      5.0891
  1574.7500    107.7316      0.0000    714.0515      4.6502
  1575.0000    111.5845      0.0000    718.8913      4.2908
  1575.2500    117.7680      0.0000    727.0345      3.9969
  1575.5000    124.9460      0.0000    733.2236      3.7471
  1575.7500    130.9547      0.0000    735.1232      3.5298
  1576.0000    133.3455      0.0000    735.3802      3.3463
  1576.2500    130.4792      0.0000    737.7941      3.1994
  1576.5000    122.9364      0.0000    742.9184      3.0848
  1576.7500    113.7534      0.0000    748.1944      2.9945
  1577.0000    106.4954      0.0000    751.0115      2.9297
  1577.2500    102.7335      0.0000    750.4290      2.9088
  1577.5000    101.5357      0.0000    747.1764      2.9611
  1577.7500    101.0936      0.0000    743.4064      3.1103
  1578.0000    100.2315      0.0000    741.5026      3.3611
  1578.2500     98.5741      0.0000    741.8519      3.6976
  1578.5000     96.1225      0.0000    742.3127      4.0944
  1578.7500     93.0827      0.0000    740.5087      4.5324
  1579.0000     89.9086      0.0000    736.1770      5.0064
  1579.2500     87.3692      0.0000    731.2542      5.5195
  1579.5000     86.4542      0.0000    728.2145      6.0723
  1579.7500     87.7905      0.0000    728.1741      6.6584
  1580.0000     90.7638      0.0000    730.0309      7.2734
  1580.2500     93.5778      0.0000    731.4172      7.9218
  1580.5000     94.8174      0.0000    730.7040      8.6095
  1580.7500     94.7269      0.0000    728.2195      9.3249
  1581.0000     94.4044      0.0000    725.5255     10.0303
  1581.2500     94.2591      0.0000    723.6495     10.6640
  1581.5000     94.1561      0.0000    722.0296     11.1372
  1581.7500     94.5900      0.0000    718.9115     11.3304
  1582.0000     96.5632      0.0000    712.1627     11.1486
  1582.2500    100.2896      0.0000    700.1985     10.6365
  1582.5000    104.8820      0.0000    684.1580     10.0025
  1582.7500    109.4950      0.0000    670.0126      9.4402
  1583.0000    114.2113      0.0000    666.0549      8.9440
  1583.2500    119.5196      0.0000    675.5223      8.3875
  1583.5000    125.1082      0.0000    692.7364      7.7420
  1583.7500    129.5150      0.0000    708.6407      7.1223
  1584.0000    131.1178      0.0000    718.9468      6.6549
  1584.2500    129.4654      0.0000    724.7391      6.3926
  1584.5000    125.6618     -2.5000    725.7244      6.3375
  1584.7500    121.5702     -2.5000    715.7719      6.4914
  1585.0000    118.7407      0.0000    688.6002      6.8857
  1585.2500    117.9766      0.0000    649.6370      7.5741
  1585.5000    119.5621      0.0000    619.2214      8.5714
  1585.7500    123.4195      0.0000    618.2460      9.7953
  1586.0000    128.8733      0.0000    648.7435     11.1001
  1586.2500    134.5872      0.0000    691.3094     12.3661
  1586.5000    139.2756      0.0000    720.5552     13.5379
  1586.7500    142.6792      0.0000    719.2887     14.6143
  1587.0000    145.5294      0.0000    681.3340     15.6503
  1587.2500    148.4385      0.0000    610.7178     16.7514
  1587.5000    151.2904      0.0000    522.2557     18.0140
  1587.7500    153.7941      0.0000    437.4200     19.4440
  1588.0000    156.0162      0.0000    373.4934     20.9461
  1588.2500    158.0934      0.0000    335.3573     22.4188
  1588.5000    159.6538      0.0000    317.1963     23.8609
  1588.7500    159.5392      0.0000    309.9558     25.3715
  1589.0000    156.2678      0.0000    306.7100     27.0460
  1589.2500    149.3712      0.0000    303.5983     28.8898
