~Version Information
VERS.                      2.0: CWLS Log ASCII Standard - VERSION 2.0
WRAP.                       NO: One line per depth step
~Well Information Block
STRT.FT               898.0000: 
STOP.FT              2360.0000: 
STEP.FT                 0.2500: 
NULL.                -999.2500: 
COMP.          Pioneer Natural Resources: COMPANY
WELL.             Trimax 44-23: WELL
FLD.           Purgatoire River: FIELD
LOC.           527' FSL & 1064' FEL: LOCATION
PROV.                 Colorado: PROVINCE
CNTY.               Las Animas: COUNTRY
SRVC.                Patterson: SERVICE COMPANY
DATE.          Sun Mar 13 04:57:04 2005: LOG DATE
UWI.           05 071 08326 00: UNIQUE WELL ID
~Curve Information Block
DEPT.FT            0 000 00 00: Depth
SN.Ohm-m                      : IEL Short Normal
SP.mV                         : IEL Spontaneous Potential
DIR.Ohm-m                     : IEL Induction Resistivity
GR.GAPI                       : Gamma Ray
~Parameter Information Block
~A  Depth        SN          SP         DIR          GR     
# ...
  2238.0000     19.4434      6.4150     18.3457     80.2025
  2238.2500     19.3885      6.6225     18.3608     78.2666
  2238.5000     19.3119      6.8488     18.3801     75.9418
  2238.7500     19.2439      7.1007     18.3972     74.8042
  2239.0000     19.2225      7.3772     18.4009     73.7708
  2239.2500     19.2607      7.6701     18.3839     73.6032
  2239.5000     19.3249      7.9662     18.3516     74.1904
  2239.7500     19.3760      8.2480     18.3238     75.0168
  2240.0000     19.4163      8.4940     18.3251     76.4239
  2240.2500     19.4735      8.6872     18.3727     77.2362
  2240.5000     19.5580      8.8287     18.4684     78.3368
  2240.7500     19.6529      8.9416     18.5993     79.2635
  2241.0000     19.7354      9.0539     18.7461     81.1928
  2241.2500     19.7978      9.1785     18.8912     82.5846
  2241.5000     19.8526      9.3085     19.0216     83.9363
  2241.7500     19.9221      9.4297     19.1263     83.9696
  2242.0000     20.0169      9.5327     19.1926     82.8256
  2242.2500     20.1233      9.6166     19.2054     81.6488
  2242.5000     20.2087      9.6859     19.1519     79.8006
  2242.7500     20.2385      9.7452     19.0294     78.5678
  2243.0000     20.1895      9.7939     18.8512     76.6621
  2243.2500     20.0598      9.8278     18.6438     75.4994
  2243.5000     19.8822      9.8431     18.4379     74.5221
  2243.7500     19.7046      9.8426     18.2574     74.7103
  2244.0000     19.5404      9.8379     18.1127     76.2876
  2244.2500     19.3563      9.8468     17.9989     77.7807
  2244.5000     19.1191      9.8867     17.8991     79.4635
  2244.7500     18.8399      9.9635     17.7935     79.6836
  2245.0000     18.5561     10.0669     17.6694     78.8921
  2245.2500     18.2846     10.1747     17.5264     78.3437
  2245.5000     18.0189     10.2658     17.3716     78.5595
  2245.7500     17.7625     10.3299     17.2122     79.3667
  2246.0000     17.5345     10.3707     17.0520     80.6912
  2246.2500     17.3469     10.4023     16.8920     81.2538
  2246.5000     17.1932     10.4420     16.7343     81.6180
  2246.7500     17.0557     10.5036     16.5847     81.6867
  2247.0000     16.9292     10.5932     16.4540     81.6095
  2247.2500     16.8423     10.7080     16.3547     81.4288
  2247.5000     16.8257     10.8380     16.2965     80.9133
  2247.7500     16.8642     10.9704     16.2823     80.3006
  2248.0000     16.9239     11.0962     16.3095     78.7715
  2248.2500     16.9989     11.2152     16.3729     77.3946
  2248.5000     17.1031     11.3342     16.4676     75.3389
  2248.7500     17.2413     11.4586     16.5866     74.4349
  2249.0000     17.3993     11.5887     16.7165     74.3084
  2249.2500     17.5603     11.7234     16.8359     75.0011
  2249.5000     17.7208     11.8643     16.9200     76.5767
  2249.7500     17.8856     12.0108     16.9513     77.4940
  2250.0000     18.0590     12.1547     16.9296     77.9707
  2250.2500     18.2400     12.2837     16.8771     77.4494
  2250.5000     18.4234     12.3882     16.8345     75.4716
  2250.7500     18.6050     12.4612     16.8497     73.7440
  2251.0000     18.7768     12.4936     16.9591     71.4738
  2251.2500     18.9162     12.4761     17.1708     70.5053
  2251.5000     18.9990     12.4091     17.4620     69.8406
  2251.7500     19.0277     12.3104     17.7940     69.8047
  2252.0000     19.0293     12.2121     18.1351     70.4735
  2252.2500     19.0306     12.1462     18.4727     71.6090
  2252.5000     19.0417     12.1274     18.8047     74.4921
  2252.7500     19.0573     12.1472     19.1234     76.9803
  2253.0000     19.0697     12.1825     19.4105     80.7355
  2253.2500     19.0988     12.2122     19.6465     82.7466
  2253.5000     19.1976     12.2305     19.8232     84.5760
  2253.7500     19.3837     12.2507     19.9481     85.0639
  2254.0000     19.5927     12.2992     20.0380     84.9681
  2254.2500     19.7595     12.4034     20.1095     84.3380
  2254.5000     19.8919     12.5790     20.1726     82.2636
  2254.7500     20.0336     12.8217     20.2288     80.1453
  2255.0000     20.2007     13.1064     20.2726     76.6040
  2255.2500     20.3572     13.3967     20.2964     74.5980
  2255.5000     20.4388     13.6595     20.2976     72.5996
  2255.7500     20.4135     13.8771     20.2811     71.8477
  2256.0000     20.3056     14.0503     20.2526     71.5373
  2256.2500     20.1484     14.1911     20.2066     72.1012
  2256.5000     19.9538     14.3121     20.1209     74.2385
  2256.7500     19.7291     14.4192     19.9655     76.1037
  2257.0000     19.4879     14.5119     19.7231     78.4002
  2257.2500     19.2465     14.5912     19.4039     79.1833
  2257.5000     19.0283     14.6684     19.0456     79.4107
  2257.7500     18.8555     14.7616     18.6982     79.2822
  2258.0000     18.7343     14.8773     18.4038     78.9005
  2258.2500     18.6502     14.9919     18.1835     78.3880
  2258.5000     18.5804     15.0585     18.0354     77.2579
  2258.7500     18.5162     15.0382     17.9438     76.6300
  2259.0000     18.4732     14.9314     17.8925     76.5009
  2259.2500     18.4703     14.7780     17.8755     76.9568
  2259.5000     18.5103     14.6321     17.8960     77.9401
  2259.7500     18.5908     14.5327     17.9559     78.4936
  2260.0000     18.7156     14.4918     18.0442     78.8926
  2260.2500     18.8840     14.4979     18.1353     78.7706
  2260.5000     19.0841     14.5293     18.2034     77.8020
  2260.7500     19.3036     14.5644     18.2394     76.5747
  2261.0000     19.5403     14.5870     18.2571     74.1402
  2261.2500     19.7992     14.5890     18.2811     72.4868
  2261.5000     20.0756     14.5778     18.3319     70.4855
  2261.7500     20.3461     14.5818     18.4203     69.5319
  2262.0000     20.5827     14.6391     18.5524     68.6220
  2262.2500     20.7717     14.7707     18.7329     68.5345
  2262.5000     20.9076     14.9628     18.9575     69.7516
  2262.7500     20.9816     15.1798     19.2024     71.5627
  2263.0000     20.9921     15.3893     19.4282     75.1978
  2263.2500     20.9520     15.5736     19.6023     77.7320
  2263.5000     20.8855     15.7264     19.7194     81.1239
  2263.7500     20.8313     15.8494     19.8009     82.9113
  2264.0000     20.8267     15.9532     19.8706     84.4787
  2264.2500     20.8829     16.0562     19.9355     84.5566
  2264.5000     21.0047     16.1759     19.9850     83.2488
  2264.7500     21.2105     16.3179     20.0073     81.7800
  2265.0000     21.5135     16.4739     20.0068     79.4947
  2265.2500     21.9070     16.6298     20.0071     78.1973
  2265.5000     22.3643     16.7764     20.0396     76.5877
  2265.7500     22.8255     16.9135     20.1247     75.6291
  2266.0000     23.2037     17.0439     20.2604     74.2651
  2266.2500     23.4501     17.1667     20.4207     73.3805
  2266.5000     23.5999     17.2760     20.5652     72.0315
  2266.7500     23.7124     17.3645     20.6537     71.1750
  2267.0000     23.8037     17.4262     20.6591     70.3531
  2267.2500     23.8572     17.4580     20.5751     70.3634
  2267.5000     23.8535     17.4641     20.4150     71.2638
  2267.7500     23.7767     17.4628     20.2050     72.2523
  2268.0000     23.6127     17.4828     19.9752     73.9490
  2268.2500     23.3643     17.5434     19.7538     75.1506
  2268.5000     23.0626     17.6392     19.5631     77.0783
  2268.7500     22.7497     17.7465     19.4188     78.3372
  2269.0000     22.4628     17.8456     19.3305     79.6817
  2269.2500     22.2412     17.9347     19.3041     79.9626
  2269.5000     22.1263     18.0269     19.3424     79.5342
  2269.7500     22.1492     18.1382     19.4451     78.9825
  2270.0000     22.3287     18.2753     19.6065     78.2734
  2270.2500     22.6917     18.4317     19.8181     77.9468
  2270.5000     23.2856     18.5907     20.0746     77.2105
  2270.7500     24.1334     18.7318     20.3742     76.0796
  2271.0000     25.1874     18.8372     20.7094     72.8731
  2271.2500     26.3707     18.9013     21.0520     69.8441
