~Version Information
 VERS.                                  2.0 : CWLS LAS VERSION
 WRAP.                                   NO : WRAPING MODE
 SWARE .                 MController 2.5.0J : SOFTWARE VERSION
~Well Information
 WELL.                         State 16-24R : WELL
 COMP.                Petrogulf Corporation : COMPANY
 FLD.                      Purgatoire River : FIELD
 LOC.                SE/SW Sec 16 T33S R67W : LOCATION
 DATE.                            8/9-11/05 : DATE(S) LOGGED
 SRVC.       BLANCO Geological Services LLC : SERVICE COMPANY
 STAT.                                   CO : STATE
 CNTY.                           Las Animas : COUNTY
 CTRY.                                  USA : COUNTRY
 API.                       05-071-08312-00 : API NUMBER
 STRT.FT                              27.00 : START DEPTH
 STOP.FT                            1870.00 : STOP DEPTH
 STEP.FT                               1.00 : DEPTH INCREMENT
 NULL.                                -9999 : NULL VALUE
~Curve information
 DEPTH.FT                                   :
 ROP.MIN/FT                                 :
 GAS.UNITS                                  :
~ASCII Log data
# ...
       627.0         0.45         15.6 
       628.0         0.40         14.3 
       629.0         0.30         14.1 
       630.0         0.30         14.2 
       631.0         0.23         13.9 
       632.0         0.23         14.1 
       633.0         0.23         14.7 
       634.0         0.30         14.7 
       635.0         0.40         15.1 
       636.0         0.37         15.0 
       637.0         0.52         15.3 
       638.0         0.43         15.2 
       639.0         0.57         15.5 
       640.0         0.47         15.6 
       641.0         0.47         15.4 
       642.0         0.53         14.9 
       643.0         0.40         14.5 
       644.0         0.27         14.7 
       645.0         0.32         14.5 
       646.0         0.33         14.7 
       647.0         0.30         14.7 
       648.0         0.43         14.8 
       649.0         0.40         14.2 
       650.0         0.40         14.5 
       651.0         0.37         14.3 
       652.0         0.30         14.7 
       653.0         0.37         14.2 
       654.0         0.48         13.1 
       655.0         0.37         12.0 
       656.0         1.67         18.3 
       657.0         0.40         17.7 
       658.0         0.43         16.0 
       659.0         0.52         15.1 
       660.0         0.47         15.0 
       661.0         0.47         15.3 
       662.0         0.60         15.7 
       663.0         0.77         16.0 
       664.0         0.53         16.1 
       665.0         0.55         15.4 
       666.0         0.43         15.1 
       667.0         0.40         15.1 
       668.0         0.43         15.0 
       669.0         0.50         15.0 
       670.0         0.43         15.4 
       671.0         0.67         15.7 
       672.0         0.62         15.9 
       673.0         0.57         16.0 
       674.0         0.50         16.2 
       675.0         0.67         16.3 
       676.0         0.77         16.5 
       677.0         0.62         16.2 
       678.0         0.53         15.5 
       679.0         0.40         16.5 
       680.0         0.37         16.9 
       681.0         0.47         16.9 
       682.0         0.53         16.6 
       683.0         0.57         18.4 
       684.0         0.58         16.9 
       685.0         0.27         12.6 
       686.0         2.43         22.4 
       687.0         0.42         16.8 
       688.0         0.47         15.7 
       689.0         0.57         15.6 
       690.0         0.53         15.2 
       691.0         0.37         15.4 
       692.0         0.60         15.5 
       693.0         0.40         15.9 
       694.0         0.38         15.7 
       695.0         0.13         14.2 
       696.0         0.23         13.9 
       697.0         0.17         13.6 
       698.0         0.23         12.6 
       699.0         0.23         13.1 
       700.0         0.23         13.2 
       701.0         0.20         13.1 
       702.0         0.23         13.3 
       703.0         0.20         13.4 
       704.0         0.23         13.8 
       705.0         0.33         14.0 
       706.0         0.27         13.9 
       707.0         0.43         14.6 
       708.0         0.35         15.0 
       709.0         0.43         14.9 
       710.0         0.43         15.2 
       711.0         0.43         15.3 
       712.0         0.40         14.8 
       713.0         0.37         13.4 
       714.0         0.30         11.4 
       715.0         0.23         10.2 
       716.0         1.35         18.1 
       717.0         0.30         19.5 
       718.0         0.43         19.3 
       719.0         0.33         16.8 
       720.0         0.37         14.9 
       721.0         0.40         14.8 
       722.0         0.43         15.1 
       723.0         0.55         15.3 
       724.0         0.30         14.6 
       725.0         0.23         14.6 
       726.0         0.23         14.7 
       727.0         0.30         14.7 
       728.0         0.33         14.7 
       729.0         0.40         16.3 
       730.0         0.33         18.0 
       731.0         0.27         17.6 
       732.0         0.23         16.3 
       733.0         0.20         15.3 
       734.0         0.28         14.9 
       735.0         0.33         14.9 
       736.0         0.37         14.6 
       737.0         0.33         14.3 
       738.0         0.40         14.5 
       739.0         0.37         14.7 
       740.0         0.33         15.0 
       741.0         0.40         15.3 
       742.0         0.68         15.4 
       743.0         0.37         14.4 
       744.0         0.37         13.0 
       745.0         0.30         11.4 
       746.0         2.17         21.8 
       747.0         0.45         19.1 
       748.0         0.43         15.8 
       749.0         0.30         16.8 
       750.0         0.23         17.2 
       751.0         0.20         16.8 
       752.0         0.13         16.0 
       753.0         0.13         16.0 
       754.0         0.17         15.5 
       755.0         0.23         16.4 
       756.0         0.27         17.1 
       757.0         0.27         18.0 
       758.0         0.30         18.3 
       759.0         0.42         18.9 
       760.0         0.47         18.7 
       761.0         0.43         18.8 
       762.0         0.43         19.2 
       763.0         0.67         19.1 
       764.0         0.50         18.5 
       765.0         0.40         18.1 
       766.0         0.37         17.9 
       767.0         0.42         18.1 
       768.0         0.40         18.3 
       769.0         0.40         18.2 
       770.0         0.43         18.9 
       771.0         0.60         84.0 
       772.0         0.53       2051.1 
       773.0         0.57       2663.9 
       774.0         0.48       2635.1 
       775.0         0.50       2030.1 
       776.0         1.97       2556.0 
       777.0         0.48       2668.4 
       778.0         0.60       2801.1 
       779.0         0.63       2820.1 
       780.0         0.53       2798.2 
       781.0         0.40       2765.5 
       782.0         0.60       2751.5 
       783.0         0.52       2730.6 
       784.0         0.63       2724.9 
       785.0         0.40       2679.2 
       786.0         0.33       2665.9 
       787.0         0.40       2678.2 
       788.0         0.47       2681.4 
       789.0         0.43       2677.9 
       790.0         0.33       2634.4 
       791.0         0.32       2642.0 
       792.0         0.20       2638.2 
       793.0         0.23       2610.6 
       794.0         0.23       2606.5 
       795.0         0.30       2617.0 
       796.0         0.33       2614.4 
       797.0         0.30       2586.5 
       798.0         0.30       2563.3 
       799.0         0.33       2554.8 
       800.0         0.47       2534.5 
       801.0         0.47       2518.3 
       802.0         0.28       2328.2 
       803.0         0.37       2064.1 
       804.0         0.40       1944.4 
       805.0         0.30       1744.5 
       806.0         1.97       3919.8 
       807.0         0.52       2861.7 
       808.0         0.37       2625.2 
       809.0         0.40       2409.1 
       810.0         0.43       2239.3 
       811.0         0.33       2138.0 
       812.0         0.33       2097.7 
       813.0         0.40       2080.0 
       814.0         0.43       2068.2 
       815.0         0.42       2058.4 
       816.0         0.40       2047.9 
       817.0         0.40       2079.0 
       818.0         1.30       2161.5 
       819.0         0.30       2136.8 
       820.0         0.27       2107.3 
       821.0         0.20       2091.1 
       822.0         0.23       2079.0 
       823.0         0.25       2060.0 
       824.0         0.20       2026.0 
       825.0         0.20       2000.6 
       826.0         0.23       1980.0 
