~Version Information
VERS.                      2.0: CWLS Log ASCII Standard - VERSION 2.0
WRAP.                       NO: One line per depth step
~Well Information Block
STRT.FT               454.0000: 
STOP.FT              1389.0000: 
STEP.FT                 0.1000: 
NULL.                -999.2500: 
COMP.          Pioneer Natural Resources: COMPANY
WELL.          Lorencito 6-3-34-66: WELL
FLD.           Purgatoire River: FIELD
LOC.           2545' FNL & 1914' FWL: LOCATION
STAT.                 Colorado: State
CNTY.               Las Animas: COUNTY
CTRY. USA : Country
SECT. 3 : Section
TOWN. 34S : Township
RANG. 66W : Range
SRVC.                Patterson: SERVICE COMPANY
DATE.          Mon Sep 12 07:20:37 2005: LOG DATE
API.        05 071 08369 00: UNIQUE WELL ID
~Curve Information Block
DEPT.FT            0 000 00 00: Depth
DCAL.in                       : CDL Caliper
RHOB.g/cc                     : CDL Bulk Density
RHOC.g/cc                     : CDL Density Correction
DPOR.pu                       : CDL Density Porosity
GR.GAPI                       : Gamma Ray
NPOR.pu                       : Neutron Porosity
~Parameter Information Block
~A  Depth       DCAL        RHOB        RHOC        DPOR         GR         NPOR    
# ...
  1375.6000      7.9133      2.5137      0.0994      8.2626   -999.2500   -999.2500
  1375.7000      7.9133      2.5220      0.1674      7.7590   -999.2500   -999.2500
  1375.8000      7.9093      2.5029      0.1133      8.9136   -999.2500   -999.2500
  1375.9000      7.9093      2.4897      0.0736      9.7168   -999.2500   -999.2500
  1376.0000      7.9348      2.5084      0.1249      8.5844   -999.2500   -999.2500
  1376.1000      7.9348      2.5416      0.1444      6.5727   -999.2500   -999.2500
  1376.2000      7.9348      2.5620      0.1309      5.3320   -999.2500   -999.2500
  1376.3000      7.8840      2.5640      0.1452      5.2135   -999.2500   -999.2500
  1376.4000      7.8840      2.5589      0.1069      5.5242   -999.2500   -999.2500
  1376.5000      7.8423      2.5567      0.1031      5.6554   -999.2500   -999.2500
  1376.6000      7.8423      2.5496      0.0776      6.0851   -999.2500   -999.2500
  1376.7000      7.8423      2.5321      0.0776      7.1440   -999.2500   -999.2500
  1376.8000      7.8537      2.5183      0.0485      7.9788   -999.2500   -999.2500
  1376.9000      7.8537      2.5200      0.0780      7.8773   -999.2500   -999.2500
  1377.0000      7.8615      2.5345      0.0728      7.0030   -999.2500   -999.2500
  1377.1000      7.8615      2.5521      0.0544      5.9313   -999.2500   -999.2500
  1377.2000      7.8615      2.5571      0.1056      5.6319   -999.2500   -999.2500
  1377.3000      7.8861      2.5410      0.0484      6.6069   -999.2500   -999.2500
  1377.4000      7.8861      2.5214      0.0479      7.7949   -999.2500   -999.2500
  1377.5000      7.9364      2.5143      0.0352      8.2224   -999.2500   -999.2500
  1377.6000      7.9364      2.5171      0.0626      8.0553   -999.2500   -999.2500
  1377.7000      7.9364      2.5299     -0.0224      7.2758   -999.2500   -999.2500
  1377.8000      7.9244      2.5542      0.0853      5.8089   -999.2500   -999.2500
  1377.9000      7.9244      2.5729      0.0826      4.6720   -999.2500   -999.2500
  1378.0000      7.9030      2.5766      0.0597      4.4496   -999.2500   -999.2500
  1378.1000      7.9030      2.5702      0.1132      4.8377   -999.2500   -999.2500
  1378.2000      7.9030      2.5541      0.0712      5.8139   -999.2500   -999.2500
  1378.3000      7.8867      2.5332      0.0454      7.0789   -999.2500   -999.2500
  1378.4000      7.8867      2.5201     -0.0014      7.8735   -999.2500   -999.2500
  1378.5000      7.8868      2.5152      0.0668      8.1718   -999.2500   -999.2500
  1378.6000      7.8868      2.5052      0.0374      8.7731   -999.2500   -999.2500
  1378.7000      7.8868      2.4942      0.0156      9.4403   -999.2500   -999.2500
  1378.8000      7.9225      2.5000      0.0136      9.0938   -999.2500   -999.2500
  1378.9000      7.9225      2.5208      0.0667      7.8279   -999.2500   -999.2500
  1379.0000      7.9350      2.5376      0.0706      6.8146   -999.2500   -999.2500
  1379.1000      7.9350      2.5413      0.0586      6.5871   -999.2500   -999.2500
  1379.2000      7.9350      2.5472     -0.0043      6.2288   -999.2500   -999.2500
  1379.3000      7.9386      2.5663      0.0658      5.0747   -999.2500   -999.2500
  1379.4000      7.9386      2.5875      0.0822      3.7906   -999.2500   -999.2500
  1379.5000      7.8986      2.6072      0.0941      2.5934   -999.2500   -999.2500
  1379.6000      7.8986      2.6207      0.1373      1.7742   -999.2500   -999.2500
  1379.7000      7.8986      2.6095      0.1389      2.4549   -999.2500   -999.2500
  1379.8000      7.9283      2.5798      0.0408      4.2547   -999.2500   -999.2500
  1379.9000      7.9283      2.5618      0.0147      5.3454   -999.2500   -999.2500
  1380.0000      7.9366      2.5610      0.0760      5.3935   -999.2500   -999.2500
  1380.1000      7.9366      2.5598      0.0858      5.4647   -999.2500   -999.2500
  1380.2000      7.9366      2.5539      0.0047      5.8216   -999.2500   -999.2500
  1380.3000      7.9184      2.5536      0.0044      5.8454   -999.2500   -999.2500
  1380.4000      7.9184      2.5621     -0.0118      5.3264   -999.2500   -999.2500
  1380.5000      7.8961      2.5722      0.0444      4.7152   -999.2500   -999.2500
  1380.6000      7.8961      2.5722      0.0590      4.7131   -999.2500   -999.2500
  1380.7000      7.8961      2.5535      0.0692      5.8512   -999.2500   -999.2500
  1380.8000      7.9089      2.5171      0.0654      8.0541   -999.2500   -999.2500
  1380.9000      7.9089      2.4836      0.0180     10.0863   -999.2500   -999.2500
  1381.0000      7.9220      2.4750      0.0214     10.6060   -999.2500   -999.2500
  1381.1000      7.9220      2.4910      0.0531      9.6340   -999.2500   -999.2500
  1381.2000      7.9220      2.5178      0.0131      8.0134   -999.2500   -999.2500
  1381.3000      7.9100      2.5463      0.0896      6.2857   -999.2500   -999.2500
  1381.4000      7.9100      2.5722      0.0684      4.7179   -999.2500   -999.2500
  1381.5000      7.8882      2.5936      0.1315      3.4182   -999.2500   -999.2500
  1381.6000      7.8882      2.6069      0.1747      2.6135   -999.2500   -999.2500
  1381.7000      7.8882      2.6108      0.1499      2.3756   -999.2500   -999.2500
  1381.8000      7.9219      2.6086      0.1557      2.5107   -999.2500   -999.2500
  1381.9000      7.9219      2.5968      0.1706      3.2264   -999.2500   -999.2500
  1382.0000      7.9023      2.5739      0.0779      4.6108   -999.2500   -999.2500
  1382.1000      7.9023      2.5518      0.0794      5.9504   -999.2500   -999.2500
  1382.2000      7.9023      2.5382      0.0764      6.7764   -999.2500   -999.2500
  1382.3000      7.8649      2.5315      0.0676      7.1807   -999.2500   -999.2500
  1382.4000      7.8649      2.5340      0.0301      7.0323   -999.2500   -999.2500
  1382.5000      7.8941      2.5490      0.0343      6.1207   -999.2500   -999.2500
  1382.6000      7.8941      2.5634      0.1106      5.2490   -999.2500   -999.2500
  1382.7000      7.8941      2.5629      0.0436      5.2768   -999.2500   -999.2500
  1382.8000      7.9331      2.5558      0.0494      5.7111   -999.2500   -999.2500
  1382.9000      7.9331      2.5524      0.0568      5.9144   -999.2500   -999.2500
  1383.0000      7.8222      2.5520      0.0731      5.9417   -999.2500   -999.2500
  1383.1000      7.8222      2.5563      0.0587      5.6815   -999.2500   -999.2500
  1383.2000      7.8222      2.5661      0.0692      5.0836   -999.2500   -999.2500
  1383.3000      7.9000      2.5671      0.0558      5.0240   -999.2500   -999.2500
  1383.4000      7.9000      2.5543      0.0188      5.8019   -999.2500   -999.2500
  1383.5000      7.9166      2.5468      0.0398      6.2546   -999.2500   -999.2500
  1383.6000      7.9166      2.5608      0.0793      5.4077   -999.2500   -999.2500
  1383.7000      7.9166      2.5961      0.0407      3.2690   -999.2500   -999.2500
  1383.8000      7.9330      2.6313      0.1538      1.1319   -999.2500   -999.2500
  1383.9000      7.9330      2.6356      0.0575      0.8699   -999.2500   -999.2500
  1384.0000      7.9219      2.6103      0.0818      2.4088   -999.2500   -999.2500
  1384.1000      7.9219      2.5753      0.0306      4.5264   -999.2500   -999.2500
  1384.2000      7.9219      2.5470      0.0594      6.2396   -999.2500   -999.2500
  1384.3000      7.9119      2.5352      0.0323      6.9555   -999.2500   -999.2500
  1384.4000      7.9119      2.5326      0.0539      7.1170   -999.2500   -999.2500
  1384.5000      7.8960      2.5323     -0.0076      7.1305   -999.2500   -999.2500
  1384.6000      7.8960      2.5408      0.0520      6.6208   -999.2500   -999.2500
  1384.7000      7.8960      2.5507      0.0728      6.0163   -999.2500   -999.2500
  1384.8000      7.9000      2.5478      0.0467      6.1936   -999.2500   -999.2500
  1384.9000      7.9000      2.5367      0.0262      6.8688   -999.2500   -999.2500
  1385.0000      7.9015      2.5369      0.0609      6.8550   -999.2500   -999.2500
  1385.1000      7.9015      2.5618      0.0517      5.3431   -999.2500   -999.2500
