~Version Information
VERS.                      2.0: CWLS Log ASCII Standard - VERSION 2.0
WRAP.                       NO: One line per depth step
~Well Information Block
STRT.FT               955.2500: 
STOP.FT              2226.0000: 
STEP.FT                 0.2500: 
NULL.                -999.2500: 
COMP.          Petrogulf Corporation: COMPANY
WELL.             Burson 8-13R: WELL
FLD.           Purgatorie River: FIELD
LOC.           1045' FNL & 2189' FEL: LOCATION
CNTY.               Las Animas: COUNTY
SRVC.                         : SERVICE COMPANY
DATE.          Fri Apr 30 04:52:15 2004: LOG DATE
UWI.           05 071 08039 00: UNIQUE WELL ID
STAT.                 Colorado: STATE
~Curve Information Block
DEPT.FT            0 000 00 00: Depth
SP.mV                         : DIL Spontaneous Potential
RILD.Ohm-m                    : DIL Deep Resistivity
RILM.Ohm-m                    : DIL Medium Resistivity
RLL3.Ohm-m                    : DIL Shallow Resistivity
~Parameter Information Block
~A  Depth        SP         RILD        RILM        RLL3    
# ...
  1457.7500    121.4672     15.8602     17.4420     39.0526
  1458.0000    121.5964     15.9821     17.7517     39.3776
  1458.2500    121.7543     16.1340     18.0024     39.1259
  1458.5000    121.9445     16.3080     18.2242     38.2676
  1458.7500    122.1585     16.4926     18.4489     37.0293
  1459.0000    122.3685     16.6746     18.7010     35.7677
  1459.2500    122.5381     16.8385     18.9938     34.8028
  1459.5000    122.6418     16.9709     19.3287     34.3591
  1459.7500    122.6790     17.0671     19.6945     34.5523
  1460.0000    122.6725     17.1337     20.0691     35.3517
  1460.2500    122.6626     17.1852     20.4265     36.5935
  1460.5000    122.6976     17.2363     20.7434     38.1067
  1460.7500    122.8267     17.2957     21.0012     39.8138
  1461.0000    123.0920     17.3626     21.1829     41.6515
  1461.2500    123.5125     17.4270     21.2701     43.4104
  1461.5000    124.0606     17.4724     21.2488     44.7156
  1461.7500    124.6542     17.4824     21.1207     45.1743
  1462.0000    125.1879     17.4478     20.9126     44.5336
  1462.2500    125.5911     17.3710     20.6724     42.7754
  1462.5000    125.8652     17.2662     20.4514     40.1778
  1462.7500    126.0689     17.1584     20.2863     37.3002
  1463.0000    126.2673     17.0755     20.1892     34.7980
  1463.2500    126.4898     17.0363     20.1492     33.1313
  1463.5000    126.7256     17.0377     20.1397     32.3807
  1463.7500    126.9468     17.0557     20.1304     32.2894
  1464.0000    127.1267     17.0617     20.0980     32.4577
  1464.2500    127.2437     17.0404     20.0302     32.5488
  1464.5000    127.2879     16.9972     19.9199     32.4072
  1464.7500    127.2718     16.9490     19.7590     32.0523
  1465.0000    127.2273     16.9111     19.5401     31.5869
  1465.2500    127.1818     16.8905     19.2644     31.1012
  1465.5000    127.1417     16.8858     18.9468     30.6267
  1465.7500    127.1001     16.8924     18.6120     30.1513
  1466.0000    127.0576     16.9065     18.2921     29.6781
  1466.2500    127.0304     16.9239     18.0264     29.2669
  1466.5000    127.0409     16.9378     17.8554     29.0080
  1466.7500    127.0993     16.9393     17.8035     28.9634
  1467.0000    127.1970     16.9229     17.8588     29.1457
  1467.2500    127.3137     16.8913     17.9704     29.5364
  1467.5000    127.4305     16.8562     18.0729     30.0882
  1467.7500    127.5328     16.8337     18.1238     30.7010
  1468.0000    127.6098     16.8384     18.1252     31.2228
  1468.2500    127.6575     16.8766     18.1123     31.4993
  1468.5000    127.6820     16.9411     18.1259     31.4364
  1468.7500    127.6954     17.0123     18.1904     31.0479
  1469.0000    127.7088     17.0663     18.3074     30.4770
  1469.2500    127.7282     17.0884     18.4584     29.9540
  1469.5000    127.7554     17.0809     18.6130     29.6683
  1469.7500    127.7935     17.0611     18.7412     29.6344
  1470.0000    127.8523     17.0487     18.8225     29.6644
  1470.2500    127.9437     17.0527     18.8491     29.4762
  1470.5000    128.0684     17.0669     18.8251     28.8614
  1470.7500    128.2087     17.0786     18.7671     27.8091
  1471.0000    128.3363     17.0846     18.7048     26.5155
  1471.2500    128.4302     17.0991     18.6722     25.3099
  1471.5000    128.4889     17.1474     18.6941     24.5843
  1471.7500    128.5293     17.2522     18.7748     24.7607
  1472.0000    128.5742     17.4227     18.8994     26.2140
  1472.2500    128.6404     17.6482     19.0419     29.0395
  1472.5000    128.7346     17.8881     19.1750     32.7237
  1472.7500    128.8559     18.0709     19.2761     36.0726
  1473.0000    128.9967     18.1200     19.3307     37.7617
  1473.2500    129.1433     18.0044     19.3340     37.2440
  1473.5000    129.2809     17.7676     19.2910     35.1432
  1473.7500    129.4019     17.4999     19.2141     32.7005
  1474.0000    129.5111     17.2841     19.1182     30.8840
  1474.2500    129.6213     17.1636     19.0171     29.9924
  1474.5000    129.7444     17.1449     18.9232     29.8395
  1474.7500    129.8893     17.2168     18.8479     30.0819
  1475.0000    130.0665     17.3645     18.7989     30.4161
  1475.2500    130.2899     17.5736     18.7746     30.6631
  1475.5000    130.5652     17.8237     18.7625     30.7966
  1475.7500    130.8753     18.0787     18.7462     30.9132
  1476.0000    131.1811     18.2845     18.7167     31.1583
  1476.2500    131.4420     18.3853     18.6768     31.6610
  1476.5000    131.6364     18.3565     18.6361     32.5069
  1476.7500    131.7655     18.2267     18.6025     33.7239
  1477.0000    131.8450     18.0675     18.5791     35.2447
  1477.2500    131.8982     17.9557     18.5662     36.8699
  1477.5000    131.9492     17.9398     18.5675     38.2909
  1477.7500    132.0139     18.0293     18.5921     39.1883
  1478.0000    132.0915     18.2037     18.6523     39.3335
  1478.2500    132.1700     18.4291     18.7568     38.6424
  1478.5000    132.2427     18.6709     18.9056     37.2176
  1478.7500    132.3191     18.8982     19.0909     35.3935
  1479.0000    132.4157     19.0854     19.3023     33.6836
  1479.2500    132.5351     19.2177     19.5318     32.5565
  1479.5000    132.6572     19.2991     19.7710     32.1811
  1479.7500    132.7524     19.3559     20.0064     32.3702
  1480.0000    132.8064     19.4255     20.2207     32.7760
  1480.2500    132.8316     19.5345     20.4027     33.1547
  1480.5000    132.8543     19.6768     20.5572     33.4764
  1480.7500    132.8937     19.8103     20.7046     33.8186
  1481.0000    132.9543     19.8840     20.8736     34.2005
  1481.2500    133.0302     19.8813     21.0942     34.5493
  1481.5000    133.1121     19.8416     21.3944     34.8239
  1481.7500    133.1938     19.8374     21.7953     35.1583
  1482.0000    133.2741     19.9287     22.3002     35.8697
  1482.2500    133.3563     20.1293     22.8806     37.2747
  1482.5000    133.4445     20.3994     23.4675     39.4144
  1482.7500    133.5416     20.6631     23.9613     41.9065
  1483.0000    133.6476     20.8459     24.2630     44.0688
  1483.2500    133.7570     20.9156     24.3124     45.2437
  1483.5000    133.8585     20.8966     24.1118     45.1139
  1483.7500    133.9414     20.8443     23.7231     43.8389
  1484.0000    134.0061     20.8063     23.2450     41.9709
  1484.2500    134.0690     20.7987     22.7859     40.2238
  1484.5000    134.1524     20.8088     22.4403     39.2119
  1484.7500    134.2670     20.8128     22.2713     39.2519
  1485.0000    134.4038     20.7945     22.2980     40.2924
  1485.2500    134.5393     20.7535     22.4897     41.9997
  1485.5000    134.6419     20.7000     22.7748     43.9504
  1485.7500    134.6780     20.6445     23.0653     45.8160
  1486.0000    134.6264     20.5933     23.2886     47.4603
  1486.2500    134.4894     20.5496     23.4045     48.9479
  1486.5000    134.2857     20.5166     23.3999     50.4637
  1486.7500    134.0369     20.4974     23.2772     52.1421
  1487.0000    133.7617     20.4953     23.0529     53.8859
  1487.2500    133.4754     20.5156     22.7636     55.3333
  1487.5000    133.1873     20.5654     22.4666     56.0318
  1487.7500    132.9027     20.6507     22.2257     55.6838
  1488.0000    132.6311     20.7728     22.0892     54.2763
  1488.2500    132.3913     20.9290     22.0766     52.0626
  1488.5000    132.2017     21.1171     22.1816     49.4881
  1488.7500    132.0639     21.3363     22.3887     47.1211
  1489.0000    131.9577     21.5790     22.6915     45.5732
  1489.2500    131.8514     21.8176     23.0983     45.3833
  1489.5000    131.7198     22.0054     23.6232     46.8224
  1489.7500    131.5554     22.1000     24.2713     49.6274
  1490.0000    131.3707     22.0959     25.0263     52.8535
  1490.2500    131.1937     22.0378     25.8463     55.1572
  1490.5000    131.0554     22.0007     26.6713     55.5449
  1490.7500    130.9738     22.0520     27.4449     54.0750
  1491.0000    130.9409     22.2224     28.1371     51.8508
