~Version Information
VERS.                      2.0: CWLS Log ASCII Standard - VERSION 2.0
WRAP.                       NO: One line per depth step
~Well Information Block
STRT.FT               240.0000: 
STOP.FT              1453.0000: 
STEP.FT                 0.2500: 
NULL.                -999.2500: 
COMP.          Petrogulf Corporation: COMPANY
WELL.          Robinson 15-12R: WELL
FLD.           Purgatorie River: FIELD
LOC.           1752' FNL & 561' FWL: LOCATION
PROV.                 Colorado: PROVINCE
CNTY.               Las Animas: COUNTRY
SRVC.                Patterson: SERVICE COMPANY
DATE.          Tue Sep 13 15:11:42 2005: LOG DATE
UWI.                          : UNIQUE WELL ID
~Curve Information Block
DEPT.FT            0 000 00 00: Depth
SP.mV                         : DIL Spontaneous Potential
RILD.Ohm-m                    : DIL Deep Resistivity
RILM.Ohm-m                    : DIL Medium Resistivity
RLL3.Ohm-m                    : DIL Shallow Resistivity
GR.GAPI                       : Gamma Ray
~Parameter Information Block
~A  Depth        SP         RILD        RILM        RLL3         GR     
# ...
   548.0000    177.1753     19.2940     29.2594     41.9963    132.1067
   548.2500    178.4612     17.7121     25.0833     38.9765    133.0194
   548.5000    179.6334     16.3825     21.2735     30.2149    132.1277
   548.7500    180.6330     15.9617     17.5346     19.3571    150.7531
   549.0000    181.5321     15.1674     15.7709     13.3599    158.7158
   549.2500    182.3385     14.5082     14.5205     11.9447    158.6975
   549.5000    182.9390     13.5934     13.7831     11.3875    149.5882
   549.7500    183.3892     12.9758     12.9514     11.4596    154.5852
   550.0000    183.5125     12.1687     12.1149     12.0592    176.1278
   550.2500    183.7606     11.5520     11.6366     13.0518    176.1322
   550.5000    184.0816     10.9087     11.1399     13.3458    175.0841
   550.7500    184.4950     10.3802     10.4578     12.9634    161.5795
   551.0000    184.7806     10.1932      9.9536     12.1983    143.4873
   551.2500    185.0999     10.0137      9.5857     11.5360    159.1808
   551.5000    185.3683      9.8971      9.2096     11.1228    159.9655
   551.7500    185.7876     10.0088      8.9046     10.3574    150.7008
   552.0000    186.3978     10.0375      9.0621      9.5991    150.0106
   552.2500    187.3198      9.9254      9.1442      9.1086    142.5050
   552.5000    188.1771      9.8236      9.3832      9.3777    166.6508
   552.7500    189.0390      9.6974      9.9409     11.1036    165.4980
   553.0000    189.5872      9.4772     10.4360     16.8907    160.3291
   553.2500    190.2110      9.3906     10.7540     25.7139    137.3405
   553.5000    191.2343      9.2087     10.4233     27.9291    134.5035
   553.7500    192.1555      9.2231      9.9260     18.4144    131.6427
   554.0000    192.9116      9.0336      9.7393     11.3932    129.9387
   554.2500    193.3080      8.9430      9.4999      9.7325    135.8541
   554.5000    193.5321      8.7992      9.2763     10.9200    128.2621
   554.7500    193.5936      9.0093      9.1525     12.6690    135.2638
   555.0000    193.6154      9.0839      8.9078     12.7381    159.0873
   555.2500    193.6748      8.8850      8.7610     10.7737    151.7880
   555.5000    193.5652      8.7902      8.5352      9.7235    166.6530
   555.7500    193.4098      8.6039      8.3081      9.6283    146.8762
   556.0000    193.3435      8.4967      8.1027      9.9832    127.0046
   556.2500    193.2180      8.5880      7.9827     10.0172    146.1664
   556.5000    192.9279      8.5104      7.9088      9.8653    153.2291
   556.7500    192.6835      8.6775      8.0069      9.4681    154.2856
   557.0000    192.4814      8.4769      8.1825      8.9634    144.9649
   557.2500    191.9852      8.6721      8.5037      8.8940    133.3978
   557.5000    191.6698      8.8169      8.6899     10.6057    111.6252
   557.7500    191.6304      8.8672      9.0094     12.4147    108.3963
   558.0000    191.7263      9.1475      9.3473     11.9334     96.2869
   558.2500    191.5123      9.1212      9.8927     11.6336     96.6344
   558.5000    190.9899      9.3854     10.2912     14.2752     78.5983
   558.7500    190.3058      9.5132     10.7404     22.4320     83.2026
   559.0000    189.5291      9.7549     11.0010     37.9300     64.2890
   559.2500    188.4590     10.1776     11.0449     49.6419     81.1451
   559.5000    187.3926     10.4102     10.8794     38.8444     91.4937
   559.7500    186.2835     10.7996     10.7264     20.3712    102.6022
   560.0000    185.2021     11.1859     10.4888     12.2852    127.3261
   560.2500    184.3342     11.8456     10.8620      9.6672    140.3775
   560.5000    183.5990     12.0083     11.2929      9.7519    142.0204
   560.7500    183.0750     12.5219     12.3031     11.6213    137.5074
   561.0000    182.6322     12.7296     13.0897     15.2654    137.2280
   561.2500    182.3003     12.8865     13.9520     19.0469    137.3899
   561.5000    182.1433     12.7362     14.9195     21.3725    133.0270
   561.7500    182.1906     13.1040     15.3188     22.6055    130.8045
   562.0000    182.2296     13.1625     16.0584     22.4779    114.2866
   562.2500    182.5076     13.8623     16.1093     21.0095    106.0720
   562.5000    183.0017     14.5686     17.0198     18.7127    117.1975
   562.7500    183.5740     14.7159     17.4239     20.6113    100.2274
   563.0000    184.1721     15.0325     18.6433     35.4883     72.7126
   563.2500    184.3872     15.9109     20.3285     63.5177     76.2965
   563.5000    184.7839     16.5354     21.1298     74.2137     97.5078
   563.7500    184.5159     17.2754     21.1112     42.0278    100.7726
   564.0000    184.2382     17.2938     20.9078     24.9919    116.2952
   564.2500    184.0725     18.0733     21.6886     22.0998    118.6878
   564.5000    183.8396     19.1026     21.7184     24.3543    112.4304
   564.7500    183.6791     20.3491     22.6192     25.0414    108.3128
   565.0000    183.5557     20.7449     24.0285     23.2346    118.3372
   565.2500    183.2594     21.5821     27.0294     25.5585    107.6026
   565.5000    182.5542     22.3266     28.0439     35.9567     63.8187
   565.7500    182.0110     22.0171     31.7668     47.7348     53.8709
   566.0000    181.7419     22.9377     33.3424     53.9281     51.8330
   566.2500    181.6487     23.0419     33.4468     57.4980     61.5383
   566.5000    181.6591     24.4309     35.5915     59.1911     66.3785
   566.7500    181.9121     25.2146     36.7486     58.6659     58.8020
   567.0000    182.3972     25.2247     36.2004     58.1671     56.8453
   567.2500    182.6184     27.3168     37.4778     58.7386     55.0780
   567.5000    182.8175     26.9231     40.0231     58.3849     47.1592
   567.7500    183.2462     29.3399     45.0657     57.3438     58.8212
   568.0000    183.6317     30.9335     44.5276     56.5501     60.3955
   568.2500    183.7484     31.4616     47.5706     56.6805     56.3412
   568.5000    183.6497     30.7358     48.4579     55.6255     48.1286
   568.7500    183.5729     30.8353     51.0561     54.6194     56.9638
   569.0000    183.6513     31.2201     49.8707     55.2168     52.6139
   569.2500    183.8426     30.0774     48.8092     55.1556     74.4953
   569.5000    183.9165     29.3516     50.1305     52.9262     80.1248
   569.7500    183.7563     27.8205     43.2364     48.1569     70.0945
   570.0000    183.6680     27.1776     43.0589     43.5377     83.2347
   570.2500    183.8237     26.0769     38.2237     39.9333     90.1700
   570.5000    184.0473     23.7766     35.8818     33.8965     98.4894
   570.7500    184.3295     22.4725     33.5031     28.0679    102.6104
   571.0000    184.5922     21.0289     31.1284     26.4945    108.6137
   571.2500    184.8683     19.1479     28.9235     32.4134    111.3316
   571.5000    185.6178     17.6915     25.3899     41.2694     87.4797
   571.7500    186.6897     16.7362     21.6144     39.6378     87.1342
   572.0000    187.5671     15.9376     18.5579     27.2536    112.2707
   572.2500    188.4398     15.3555     16.7388     17.1080    132.5798
   572.5000    189.3253     14.3921     14.6820     13.4296    138.4947
   572.7500    189.9386     14.2089     13.3178     12.0384    147.0501
   573.0000    190.2242     13.8173     12.7238     11.4467    152.4029
   573.2500    190.1092     13.3691     12.2847     10.9802    156.8494
   573.5000    189.9260     12.7397     11.9189     11.0853    151.0173
   573.7500    189.6176     12.2960     11.7593     11.3074    155.7026
   574.0000    189.3750     12.0880     11.7925     11.8616    142.7803
   574.2500    189.1269     11.5076     11.7825     12.7788    132.1713
   574.5000    188.8679     11.5414     11.5057     13.7202    147.5805
   574.7500    188.7397     11.1864     11.4032     14.4300    139.9982
   575.0000    188.9516     10.8431     11.1938     14.4624    151.8134
   575.2500    189.4313     10.9018     11.1845     14.3497    147.9254
   575.5000    189.8508     10.8630     11.0278     14.3252    162.1434
   575.7500    190.1202     10.9824     10.7883     14.1845    174.1693
