~Version Information
VERS.                      2.0: CWLS Log ASCII Standard - VERSION 2.0
WRAP.                       NO: One line per depth step
~Well Information Block
STRT.FT                -3.0000: 
STOP.FT              2043.2500: 
STEP.FT                 0.2500: 
NULL.                -999.2500: 
COMP.          Pioneer Natural Resources: COMPANY
WELL.           Galloway 32-13: WELL
FLD.           Purgatorie River: FIELD
LOC.           1809' FNL & 2004' FEL--: LOCATION
PROV.                       CO: PROVINCE
CNTY.               Las Animas: COUNTRY
SRVC.          Patterson Wireline: SERVICE COMPANY
DATE.          Thu Jul 14 13:02:15 2005: LOG DATE
UWI.           05 071 08423 00: UNIQUE WELL ID
~Curve Information Block
DEPT.FT            0 000 00 00: Depth
CCL.                          : Casing Collar Locator
TT3.usec                      : CBL 3' Travel Time
AMP3.mV                       : CBL 3' Amplitude
GR.GAPI                       : Gamma Ray
~Parameter Information Block
~A  Depth       CCL         TT3         AMP3         GR     
# ...
  2007.0000      0.0000    565.0556      3.9237     74.6312
  2007.2500      0.0000    563.9023      3.9823     74.6415
  2007.5000      0.0000    549.3046      4.0150     77.3761
  2007.7500      0.0000    530.5272      4.0098     82.2769
  2008.0000      0.0000    519.6299      3.9773     87.0765
  2008.2500      0.0000    523.6156      3.9494     89.7517
  2008.5000      0.0000    539.5165      3.9506     89.9846
  2008.7500      0.0000    556.1371      3.9645     88.5452
  2009.0000      0.0000    562.7079      3.9433     85.9784
  2009.2500      0.0000    556.9858      3.8605     82.4341
  2009.5000      0.0000    543.9984      3.7438     78.2715
  2009.7500      0.0000    528.8060      3.6429     74.2913
  2010.0000      0.0000    514.1341      3.5785     71.5262
  2010.2500     -2.0000    503.9473      3.5448     70.8866
  2010.5000      0.0000    504.6141      3.5558     72.6207
  2010.7500      0.0000    520.4115      3.6649     75.9620
  2011.0000      0.0000    547.8387      3.9178     79.5424
  2011.2500      0.0000    574.5422      4.2772     82.3265
  2011.5000      0.0000    585.6646      4.6088     84.1628
  2011.7500      0.0000    574.1253      4.7709     85.4649
  2012.0000      0.0000    545.7555      4.7315     86.4873
  2012.2500      0.0000    514.0116      4.5801     87.0749
  2012.5000      0.0000    489.7797      4.4311     87.0536
  2012.7500      0.0000    476.0408      4.3387     86.6291
  2013.0000      0.0000    470.0328      4.2983     86.2694
  2013.2500      0.0000    467.9190      4.2858     86.2273
  2013.5000      0.0000    467.2631      4.2787     86.1781
  2013.7500      0.0000    467.0503      4.2604     85.3650
  2014.0000      0.0000    466.9513      4.2276     83.2473
  2014.2500      0.0000    466.8703      4.1927     80.2224
  2014.5000      0.0000    466.7852      4.1718     77.6938
  2014.7500      0.0000    466.7634      4.1689     77.0588
  2015.0000      0.0000    467.0425      4.1734     78.3792
  2015.2500      0.0000    468.1772      4.1748     80.3152
  2015.5000      0.0000    471.1799      4.1733     81.5688
  2015.7500      0.0000    477.4425      4.1760     82.0278
  2016.0000      0.0000    488.4076      4.1850     82.1370
  2016.2500      0.0000    505.1160      4.1927     81.6092
  2016.5000      0.0000    527.5161      4.1865     79.6096
  2016.7500      0.0000    553.3887      4.1560     76.2715
  2017.0000      0.0000    578.0358      4.0990     73.2229
  2017.2500      0.0000    596.1172      4.0246     72.2371
  2017.5000      0.0000    604.4574      3.9491     73.8144
  2017.7500      0.0000    603.5986      3.8859     77.3258
  2018.0000      0.0000    598.0095      3.8412     82.0590
  2018.2500      0.0000    594.9552      3.8173     87.5959
  2018.5000      0.0000    600.4944      3.8093     93.2904
  2018.7500      0.0000    614.5721      3.8018     98.0006
  2019.0000      0.0000    631.0731      3.7788    100.8955
  2019.2500      0.0000    643.7307      3.7386    102.5347
  2019.5000      0.0000    651.0682      3.6972    104.5083
  2019.7500      0.0000    655.3123      3.6778    107.6278
  2020.0000      0.0000    658.2870      3.6915    110.8963
  2020.2500      0.0000    659.8066      3.7306    112.6585
  2020.5000      0.0000    659.2409      3.7839    112.3610
  2020.7500      0.0000    656.7723      3.8412    110.6959
  2021.0000      0.0000    652.2739      3.8826    108.4020
  2021.2500      0.0000    643.5469      3.8849    105.7542
  2021.5000      0.0000    627.0801      3.8491    103.2554
  2021.7500      0.0000    602.0390      3.8075    101.9231
  2022.0000      0.0000    573.8716      3.7984    102.2159
  2022.2500      0.0000    552.8029      3.8321    102.9629
  2022.5000      0.0000    547.3254      3.8809    102.0516
  2022.7500      0.0000    558.3920      3.9067     98.3660
  2023.0000      0.0000    579.2993      3.8975     92.8810
  2023.2500      0.0000    600.9181      3.8663     88.0202
  2023.5000      0.0000    617.4446      3.8259     86.0929
  2023.7500      0.0000    627.9011      3.7866     87.8822
  2024.0000      0.0000    633.3920      3.7651     92.2689
  2024.2500      0.0000    634.1738      3.7680     97.4606
  2024.5000      0.0000    629.0897      3.7780    102.6981
  2024.7500      0.0000    616.9857      3.7793    108.4015
  2025.0000      0.0000    598.7183      3.7813    114.8257
  2025.2500      0.0000    577.6138      3.7934    121.4167
  2025.5000      0.0000    557.0184      3.8002    127.6248
  2025.7500      0.0000    538.0047      3.7861    133.4755
  2026.0000      0.0000    520.7421      3.7642    138.7810
  2026.2500      0.0000    506.5699      3.7539    142.4010
  2026.5000      0.0000    496.6016      3.7512    142.8932
  2026.7500      0.0000    489.5318      3.7469    139.5193
  2027.0000      0.0000    482.8463      3.7520    132.3366
  2027.2500      0.0000    475.8097      3.7764    121.9888
  2027.5000      0.0000    470.3405      3.8031    109.8883
  2027.7500      0.0000    469.7256      3.8089     98.1588
  2028.0000      0.0000    477.1117      3.8013     88.8387
  2028.2500      0.0000    494.0265      3.8085     82.9487
  2028.5000      0.0000    518.6884      3.8356     80.0430
  2028.7500      0.0000    545.8041      3.8510     78.2264
  2029.0000      0.0000    569.3051      3.8255     74.6070
  2029.2500      0.0000    586.1891      3.7756     66.4487
  2029.5000      0.0000    598.0573      3.7533     52.9444
  2029.7500      0.0000    608.9061      3.7876     36.3608
  2030.0000      0.0000    620.9243      3.8409     20.9007
  2030.2500      0.0000    632.2944      3.8386      9.8399
  2030.5000      0.0000    639.1085      3.7483      3.7367
  2030.7500      0.0000    638.3488      3.6242      1.1326
  2031.0000      0.0000    628.3450      3.5610      0.2715
  2031.2500      0.0000    608.1994      3.5996      0.0509
  2031.5000      0.0000    579.3755      3.6857      0.0070
  2031.7500      0.0000    547.6974      3.7228      0.0000
  2032.0000      0.0000    520.9602      3.6623   -999.2500
  2032.2500      0.0000    503.2344      3.5457   -999.2500
  2032.5000      0.0000    492.5724      3.4641   -999.2500
  2032.7500      0.0000    484.6045      3.4734   -999.2500
  2033.0000      0.0000    477.1635      3.5440   -999.2500
  2033.2500      0.0000    471.2149      3.5908   -999.2500
  2033.5000      0.0000    468.7540      3.5508   -999.2500
  2033.7500      0.0000    470.3313      3.4372   -999.2500
  2034.0000      0.0000    473.0788      3.3192   -999.2500
  2034.2500      0.0000    469.0087      3.2445   -999.2500
  2034.5000      0.0000    445.4207      3.1723   -999.2500
  2034.7500      0.0000    390.7550      2.9934   -999.2500
  2035.0000      0.0000    304.9259      2.6343   -999.2500
  2035.2500      0.0000    204.6759      2.1440   -999.2500
  2035.5000      0.0000    115.0447      1.6637   -999.2500
  2035.7500      0.0000     53.0722      1.3132   -999.2500
  2036.0000      0.0000     19.8035      1.1187   -999.2500
  2036.2500      0.0000      5.9142      1.0358   -999.2500
  2036.5000      0.0000      1.4010      1.0086   -999.2500
  2036.7500      0.0000      0.2594      1.0016   -999.2500
  2037.0000      0.0000      0.0345      1.0002   -999.2500
  2037.2500      0.0000   -999.2500   -999.2500   -999.2500
  2037.5000      0.0000   -999.2500   -999.2500   -999.2500
  2037.7500      0.0000   -999.2500   -999.2500   -999.2500
  2038.0000      0.0000   -999.2500   -999.2500   -999.2500
  2038.2500      0.0000   -999.2500   -999.2500   -999.2500
  2038.5000      0.0000   -999.2500   -999.2500   -999.2500
  2038.7500      0.0000   -999.2500   -999.2500   -999.2500
  2039.0000      0.0000   -999.2500   -999.2500   -999.2500
  2039.2500      0.0000   -999.2500   -999.2500   -999.2500
  2039.5000      0.0000   -999.2500   -999.2500   -999.2500
  2039.7500      0.0000   -999.2500   -999.2500   -999.2500
  2040.0000      0.0000   -999.2500   -999.2500   -999.2500
  2040.2500      0.0000   -999.2500   -999.2500   -999.2500
