~Version Information
 VERS.                                  2.0 : CWLS LAS VERSION
 WRAP.                                   NO : WRAPING MODE
 SWARE .                 MController 2.5.0E : SOFTWARE VERSION
~Well Information
 WELL.                        Rangely 22-28 : WELL
 COMP.             Evergreen Operating Corp : COMPANY
 FLD.                      Purgatorie River : FIELD
 LOC.                SE/NW Sec 28 T32S R67W : LOCATION
 DATE.                09/14/2004-09/15/2004 : DATE(S) LOGGED
 SRVC.       Blanco Geological Services LLC : SERVICE COMPANY
 STAT.                                   CO : STATE
 CNTY.                           Las Animas : COUNTY
 CTRY.                                  USA : COUNTRY
 API.                       05-071-08044-00 : API NUMBER
 STRT.FT                             858.00 : START DEPTH
 STOP.FT                            2847.00 : STOP DEPTH
 STEP.FT                               1.00 : DEPTH INCREMENT
 NULL.                                -9999 : NULL VALUE
~Curve information
 DEPTH.FT                                   :
 ROP.MIN/FT                                 :
 GAS.UNITS                                  :
~ASCII Log data
# ...
     1858.00        0.333       2483.9 
     1859.00        0.400       2214.0 
     1860.00        0.333       1988.3 
     1861.00        0.450       1826.9 
     1862.00        0.633       1624.4 
     1863.00        0.467       1492.4 
     1864.00        0.433       1435.4 
     1865.00        0.367       1422.3 
     1866.00        0.333       1432.7 
     1867.00        0.233       1416.5 
     1868.00        0.233       1397.3 
     1869.00        0.367       1384.9 
     1870.00        0.283       1356.6 
     1871.00        0.300       1326.9 
     1872.00        0.133       1331.3 
     1873.00        0.233       1338.7 
     1874.00        0.233       1351.5 
     1875.00        0.200       1367.7 
     1876.00        0.200       1362.3 
     1877.00        0.200       1344.1 
     1878.00        0.167       1344.1 
     1879.00        0.200       1354.6 
     1880.00        0.200       1405.1 
     1881.00        0.233       1416.9 
     1882.00        0.167       1416.9 
     1883.00        0.133       1398.0 
     1884.00        0.400       1368.0 
     1885.00        0.817       1287.8 
     1886.00        2.233       2305.3 
     1887.00        1.017       2298.6 
     1888.00        0.467       2219.8 
     1889.00        0.533       2085.7 
     1890.00        0.567       1845.8 
     1891.00        0.567       1556.4 
     1892.00        0.433       1476.2 
     1893.00        0.267       1470.1 
     1894.00        0.250       1478.2 
     1895.00        0.267       1476.2 
     1896.00        0.233       1465.7 
     1897.00        0.233       1457.7 
     1898.00        0.267       1407.5 
     1899.00        0.233       1371.1 
     1900.00        0.200       1352.2 
     1901.00        0.200       1344.8 
     1902.00        0.200       1354.9 
     1903.00        0.233       1368.4 
     1904.00        0.300       1381.8 
     1905.00        0.333       1382.2 
     1906.00        0.333       1345.8 
     1907.00        0.317       1325.2 
     1908.00        0.267       1311.1 
     1909.00        0.267       1310.4 
     1910.00        0.267       1309.4 
     1911.00        0.233       1324.6 
     1912.00        0.300       1365.0 
     1913.00        0.267       1402.1 
     1914.00        0.267       1425.0 
     1915.00        0.233       1395.0 
     1916.00        0.267       1287.2 
     1917.00        0.067       1287.2 
     1918.00        4.233       3009.8 
     1919.00        0.633       2750.1 
     1920.00        0.433       2369.3 
     1921.00        0.367       2022.0 
     1922.00        0.367       1813.4 
     1923.00        0.300       1640.6 
     1924.00        0.367       1629.1 
     1925.00        0.267       1518.0 
     1926.00        0.200       1462.4 
     1927.00        0.200       1402.1 
     1928.00        0.183       1371.4 
     1929.00        0.200       1371.7 
     1930.00        0.200       1389.3 
     1931.00        0.267       1392.0 
     1932.00        0.367       1398.7 
     1933.00        0.433       1327.9 
     1934.00        0.533       1313.1 
     1935.00        0.433       1265.6 
     1936.00        0.333       1257.2 
     1937.00        0.300       1323.2 
     1938.00        0.283       1344.1 
     1939.00        0.267       1358.3 
     1940.00        0.267       1353.9 
     1941.00        0.333       1300.7 
     1942.00        0.433       1265.6 
     1943.00        0.500       1272.7 
     1944.00        0.400       1286.5 
     1945.00        1.350       1366.0 
     1946.00        0.200       1206.3 
     1947.00        0.100       1206.3 
     1948.00        2.983       1930.3 
     1949.00        0.367       1955.9 
     1950.00        0.267       1980.5 
     1951.00        0.300       1981.6 
     1952.00        0.267       1978.5 
     1953.00        0.233       1807.7 
     1954.00        0.233       1678.0 
     1955.00        0.267       1649.7 
     1956.00        0.300       1498.8 
     1957.00        0.267       1489.7 
     1958.00        0.267       1418.6 
     1959.00        0.317       1394.3 
     1960.00        0.267       1362.0 
     1961.00        0.267       1348.8 
     1962.00        0.267       1354.9 
     1963.00        0.233       1381.2 
     1964.00        0.300       1409.5 
     1965.00        0.333       1411.8 
     1966.00        0.300       1398.4 
     1967.00        0.467       1328.6 
     1968.00        0.333       1290.5 
     1969.00        0.300       1277.4 
     1970.00        0.350       1277.1 
     1971.00        0.333       1289.2 
     1972.00        0.300       1323.9 
     1973.00        0.233       1357.9 
     1974.00        0.300       1370.7 
     1975.00        0.700       1370.7 
     1976.00        3.417       2264.9 
     1977.00        0.567       2271.6 
     1978.00        0.333       2025.7 
     1979.00        0.650       1818.5 
     1980.00        0.400       1342.8 
     1981.00        0.333       1313.5 
     1982.00        1.067       1543.6 
     1983.00        1.450       1759.5 
     1984.00        7.167       1904.4 
     1985.00        0.667       1404.8 
     1986.00        0.533       1240.3 
     1987.00        0.400       1195.9 
     1988.00        0.333       1237.0 
     1989.00        0.333       1326.9 
     1990.00        0.417       1375.1 
     1991.00        0.367       1429.0 
     1992.00        0.367       1411.5 
     1993.00        0.367       1347.5 
     1994.00        2.617       1688.1 
     1995.00        0.133       1737.6 
     1996.00        0.133       1737.6 
     1997.00        0.267       1880.8 
     1998.00        1.033       2355.9 
     1999.00        1.783       2443.8 
     2000.00        1.433       2163.8 
     2001.00        0.833       1219.1 
     2002.00        1.950       1481.2 
     2003.00        1.967       1424.3 
     2004.00        0.517       1323.9 
     2005.00        0.533       1141.6 
     2006.00        4.517       2679.6 
     2007.00        0.433       1651.4 
     2008.00        0.433       1462.7 
     2009.00        0.483       1378.8 
     2010.00        0.400       1335.4 
     2011.00        0.333       1334.3 
     2012.00        0.333       1346.8 
     2013.00        0.400       1364.7 
     2014.00        0.367       1368.4 
     2015.00        0.367       1362.3 
     2016.00        0.367       1349.2 
     2017.00        0.400       1337.0 
     2018.00        0.383       1332.0 
     2019.00        0.433       1326.3 
     2020.00        0.467       1316.8 
     2021.00        0.367       1297.3 
     2022.00        0.400       1295.6 
     2023.00        0.367       1306.4 
     2024.00        0.433       1329.3 
     2025.00        0.400       1340.4 
     2026.00        0.483       1363.0 
     2027.00        0.467       1371.1 
     2028.00        0.467       1372.7 
     2029.00        0.500       1381.8 
     2030.00        0.567       1375.1 
     2031.00        0.533       1225.5 
     2032.00        0.533       1053.7 
     2033.00        0.550       1120.1 
     2034.00        0.533       1334.7 
     2035.00        0.267       1651.4 
     2036.00        1.833       2696.1 
     2037.00        0.383       2550.3 
     2038.00        0.367       2283.4 
     2039.00        0.467       2052.3 
     2040.00        0.533       1682.0 
     2041.00        0.600       1477.9 
     2042.00        0.500       1381.5 
     2043.00        0.400       1365.0 
     2044.00        0.417       1340.1 
     2045.00        0.333       1332.0 
     2046.00        0.367       1331.3 
     2047.00        0.367       1334.7 
     2048.00        0.333       1333.0 
     2049.00        0.367       1327.3 
     2050.00        0.333       1319.2 
     2051.00        0.333       1328.6 
     2052.00        0.367       1338.0 
     2053.00        0.333       1337.4 
     2054.00        0.383       1323.6 
     2055.00        0.333       1307.1 
     2056.00        0.367       1320.2 
     2057.00        0.333       1326.3 
