~Version Information
VERS.                      2.0: CWLS Log ASCII Standard - VERSION 2.0
WRAP.                       NO: One line per depth step
~Well Information Block
STRT.FT               784.0000: 
STOP.FT              1033.0000: 
STEP.FT                 0.1000: 
NULL.                -999.2500: 
COMP.          Pioneer Natural Resources: COMPANY
WELL.          Run-Away-Train 43-26: WELL
FLD.           Purgatoire River: FIELD
LOC.           1693' FSL & 1195' FEL: LOCATION
PROV.                 Colorado: PROVINCE
CNTY.               Las Animas: COUNTRY
SRVC.                Patterson: SERVICE COMPANY
DATE.          Wed Apr 06 07:23:28 2005: LOG DATE
UWI.           05 071 08188 00: UNIQUE WELL ID
~Curve Information Block
DEPT.FT            0 000 00 00: Depth
DCAL.in                       : CDL Caliper
RHOB.g/cc                     : CDL Bulk Density
RHOC.g/cc                     : CDL Density Correction
DPOR.pu                       : CDL Density Porosity
GR.GAPI                       : Gamma Ray
NPOR.pu                       : Neutron Porosity
~Parameter Information Block
~A  Depth       DCAL        RHOB        RHOC        DPOR         GR         NPOR    
# ...
   908.8000      7.8909      2.5364      0.0182      6.8829     49.1425     20.1011
   908.9000      7.8909      2.5405      0.0398      6.6385     48.1466     19.5445
   909.0000      7.8869      2.5401     -0.0052      6.6584     51.9211     19.1058
   909.1000      7.8869      2.5448     -0.0023      6.3762     57.6291     18.8541
   909.2000      7.8869      2.5486      0.0368      6.1453     61.3567     18.5851
   909.3000      7.8763      2.5373      0.0386      6.8327     60.1948     18.2933
   909.4000      7.8763      2.5185      0.0056      7.9719     55.1489     18.3844
   909.5000      7.8777      2.5104      0.0154      8.4586     50.7812     18.9767
   909.6000      7.8777      2.5103      0.0226      8.4666     49.9117     19.4565
   909.7000      7.8777      2.5013      0.0114      9.0151     52.9449     19.2275
   909.8000      7.8778      2.4837     -0.0090     10.0797     57.3454     18.7447
   909.9000      7.8778      2.4741     -0.0534     10.6613     58.8093     18.6478
   910.0000      7.8720      2.4774      0.0137     10.4599     56.8040     18.7410
   910.1000      7.8720      2.4813      0.0502     10.2262     55.4200     18.7895
   910.2000      7.8720      2.4767      0.0298     10.5022     57.0772     18.8192
   910.3000      7.8734      2.4634      0.0358     11.3075     58.7179     18.8287
   910.4000      7.8734      2.4441     -0.0169     12.4812     58.1129     18.8609
   910.5000      7.8770      2.4305     -0.0256     13.3019     58.1634     18.9636
   910.6000      7.8770      2.4319      0.0437     13.2201     58.8739     19.1386
   910.7000      7.8770      2.4451     -0.0047     12.4172     57.7363     19.2588
   910.8000      7.8849      2.4707      0.0107     10.8648     56.4442     19.1432
   910.9000      7.8849      2.5076      0.0162      8.6326     57.4304     19.0463
   911.0000      7.8827      2.5389      0.0942      6.7347     59.5157     19.2839
   911.1000      7.8827      2.5445      0.0811      6.3942     61.0458     19.5451
   911.2000      7.8827      2.5251      0.0715      7.5711     61.5213     19.5041
   911.3000      7.8819      2.5046      0.0262      8.8099     60.9983     19.4528
   911.4000      7.8819      2.5045      0.0282      8.8199     61.2892     19.7074
   911.5000      7.8728      2.5178      0.0498      8.0128     63.1739     19.8453
   911.6000      7.8728      2.5243      0.0623      7.6163     65.4647     19.6423
   911.7000      7.8728      2.5222      0.0325      7.7476     67.4686     19.6207
   911.8000      7.8499      2.5189      0.0844      7.9472     69.9963     19.9580
   911.9000      7.8499      2.5072      0.0647      8.6561     73.7275     20.2359
   912.0000      7.8529      2.4863      0.0123      9.9213     75.9010     20.0719
   912.1000      7.8529      2.4726     -0.0176     10.7495     73.3419     19.5864
   912.2000      7.8529      2.4759      0.0266     10.5500     67.6067     19.3679
   912.3000      7.8510      2.4920      0.0058      9.5762     61.7858     19.5877
   912.4000      7.8510      2.5132      0.0522      8.2918     57.4649     19.6220
   912.5000      7.8564      2.5321      0.0143      7.1477     56.0217     19.3173
   912.6000      7.8564      2.5461      0.0289      6.2971     56.5436     19.0723
   912.7000      7.8564      2.5504      0.0677      6.0358     56.8000     19.0987
   912.8000      7.8703      2.5421      0.0276      6.5373     56.4273     19.3539
   912.9000      7.8703      2.5369      0.0062      6.8574     55.0957     19.4343
   913.0000      7.8570      2.5414      0.0680      6.5805     53.1176     19.2171
   913.1000      7.8570      2.5339      0.0641      7.0347     53.0688     19.0279
   913.2000      7.8570      2.4957      0.0299      9.3494     55.8001     19.1280
   913.3000      7.8565      2.4437     -0.0552     12.5006     57.7880     19.4688
   913.4000      7.8565      2.4145     -0.0619     14.2733     55.8293     19.6818
   913.5000      7.8651      2.4187     -0.0388     14.0160     52.3768     19.6817
   913.6000      7.8651      2.4404     -0.0357     12.7049     51.1843     19.7577
   913.7000      7.8651      2.4714     -0.0579     10.8238     52.9467     19.9976
   913.8000      7.8634      2.5124      0.0189      8.3381     55.8183     20.0890
   913.9000      7.8634      2.5594      0.0192      5.4911     57.9380     19.7351
   914.0000      7.8685      2.6032      0.0771      2.8377     60.2178     19.3680
   914.1000      7.8685      2.6266      0.0834      1.4207     63.3959     19.5180
   914.2000      7.8685      2.6187      0.0697      1.8967     62.7085     19.8167
   914.3000      7.8843      2.5896      0.0639      3.6594     55.6296     19.7125
   914.4000      7.8843      2.5599      0.0073      5.4613     51.1721     19.2173
   914.5000      7.8790      2.5380      0.0466      6.7872     56.9501     18.5583
   914.6000      7.8790      2.5200      0.0377      7.8817     66.2113     17.9692
   914.7000      7.8790      2.5046     -0.0004      8.8113     69.4836     17.6269
   914.8000      7.8813      2.4976     -0.0132      9.2394     66.2518     17.5807
   914.9000      7.8813      2.5025      0.0354      8.9364     61.4350     17.8257
   915.0000      7.8818      2.5073      0.1079      8.6480     57.7609     18.3164
   915.1000      7.8818      2.4981      0.0886      9.2085     54.8004     18.7815
   915.2000      7.8818      2.4788      0.0168     10.3756     54.4783     18.8656
   915.3000      7.8796      2.4621      0.0283     11.3901     58.2848     18.5830
   915.4000      7.8796      2.4583     -0.0320     11.6196     62.7632     18.3198
   915.5000      7.8798      2.4646      0.0214     11.2375     63.7260     18.2385
   915.6000      7.8798      2.4614      0.0204     11.4292     61.3815     18.0873
   915.7000      7.8798      2.4473     -0.0190     12.2847     59.5478     17.7332
   915.8000      7.8789      2.4470     -0.0015     12.3025     60.3031     17.6002
   915.9000      7.8789      2.4672      0.0460     11.0769     62.8226     17.8797
   916.0000      7.8667      2.4769      0.1036     10.4895     65.0255     18.1917
   916.1000      7.8667      2.4568      0.0519     11.7076     64.6289     18.3271
   916.2000      7.8667      2.4385      0.0392     12.8199     62.8158     18.4186
   916.3000      7.8528      2.4555      0.0355     11.7901     62.6402     18.5501
   916.4000      7.8528      2.5008      0.0935      9.0423     64.1081     18.6800
   916.5000      7.8389      2.5494      0.1155      6.0960     66.2535     18.7418
   916.6000      7.8389      2.5783      0.1606      4.3464     67.9029     18.7660
   916.7000      7.8389      2.5738      0.1026      4.6191     66.5565     18.7126
   916.8000      7.8413      2.5469      0.0877      6.2467     62.3727     18.5054
   916.9000      7.8413      2.5218      0.0134      7.7691     57.3739     18.3293
   917.0000      7.8595      2.5123      0.0051      8.3474     52.5319     18.3936
   917.1000      7.8595      2.5129      0.0405      8.3081     49.7692     18.6627
   917.2000      7.8595      2.5170      0.0091      8.0590     49.7081     18.9946
   917.3000      7.8688      2.5270      0.0473      7.4566     49.8693     19.2482
   917.4000      7.8688      2.5384      0.0167      6.7662     48.9216     19.2708
   917.5000      7.8643      2.5434      0.0571      6.4600     47.8709     19.1508
   917.6000      7.8643      2.5373      0.0160      6.8304     48.3602     19.0565
   917.7000      7.8643      2.5217      0.0543      7.7782     50.9560     19.0195
   917.8000      7.8491      2.5043      0.0000      8.8274     54.9592     18.9760
   917.9000      7.8491      2.4919      0.0300      9.5805     59.0589     18.9369
   918.0000      7.8639      2.4835      0.0192     10.0912     61.7396     18.9023
   918.1000      7.8639      2.4810     -0.0064     10.2431     63.2285     18.7102
   918.2000      7.8639      2.4871      0.0104      9.8700     64.5630     18.3965
   918.3000      7.8746      2.4946      0.0390      9.4183     65.6295     18.2536
