~Version Information
VERS.                      2.0: CWLS Log ASCII Standard - VERSION 2.0
WRAP.                       NO: One line per depth step
~Well Information Block
STRT.FT               -12.5000: 
STOP.FT              2742.5000: 
STEP.FT                 0.2500: 
NULL.                -999.2500: 
COMP.          Pioneer Natural Resources: COMPANY
WELL.            Rangely 22-28: WELL
FLD.           Purgatorie River: FIELD
LOC.           720' FSL & 1036' FEL--: LOCATION
PROV.                       CO: PROVINCE
CNTY.               Las Animas: COUNTRY
SRVC.                         : SERVICE COMPANY
DATE.          Wed Nov 10 08:59:10 2004: LOG DATE
UWI.                          : UNIQUE WELL ID
~Curve Information Block
DEPT.FT            0 000 00 00: Depth
GR.GAPI                       : Gamma Ray
CCL.                          : Casing Collar Locator
TT3.usec                      : CBL 3' Travel Time
AMP3.mV                       : CBL 3' Amplitude
~Parameter Information Block
~A  Depth        GR         CCL         TT3         AMP3    
# ...
  2165.0000    148.3292      0.0000    761.9659      7.8820
  2165.2500    144.1407      0.0000    757.0712      7.5826
  2165.5000    138.0953      0.0000    753.0637      7.3446
  2165.7500    131.7010      0.0000    750.6794      7.1334
  2166.0000    126.9294      0.0000    748.5030      6.9080
  2166.2500    125.3757      0.0000    744.7972      6.6292
  2166.5000    127.6572      0.0000    739.2589      6.2848
  2166.7500    133.2062      0.0000    733.0974      5.9171
  2167.0000    140.3895      0.0000    728.2159      5.6242
  2167.2500    146.9771      0.0000    726.3076      5.5224
  2167.5000    151.0063      0.0000    727.8588      5.6993
  2167.7500    151.7247      0.0000    731.6216      6.1878
  2168.0000    149.8987      0.0000    735.2320      6.9708
  2168.2500    146.9830      0.0000    736.2077      8.0179
  2168.5000    143.8491      0.0000    731.9750      9.3385
  2168.7500    140.3593      0.0000    718.4895     11.0004
  2169.0000    135.9395      0.0000    689.0002     13.0746
  2169.2500    130.3444      0.0000    636.4583     15.5449
  2169.5000    124.1363      0.0000    560.8886     18.2582
  2169.7500    118.7632      0.0000    474.9605     20.9538
  2170.0000    116.0626      0.0000    398.6989     23.3472
  2170.2500    117.1929      0.0000    346.7810     25.2058
  2170.5000    121.5847      0.0000    322.3717     26.3720
  2170.7500    126.9777      0.0000    323.0213     26.7584
  2171.0000    130.9321      0.0000    349.2434     26.3513
  2171.2500    132.5500      0.0000    404.5253     25.2023
  2171.5000    132.5727      0.0000    486.3873     23.4014
  2171.7500    132.0529      0.0000    579.5742     21.0798
  2172.0000    131.6409      0.0000    661.8425     18.4544
  2172.2500    132.0412      0.0000    718.0546     15.8264
  2172.5000    134.0790      0.0000    747.8885     13.4769
  2172.7500    137.9145      0.0000    761.0237     11.5422
  2173.0000    142.6765      0.0000    767.5641      9.9918
  2173.2500    146.8811      0.0000    772.5714      8.7124
  2173.5000    148.8427      0.0000    776.3237      7.6095
  2173.7500    147.2110      0.0000    777.1716      6.6485
  2174.0000    141.9944      0.0000    773.9404      5.8327
  2174.2500    135.0345      0.0000    766.9570      5.1690
  2174.5000    128.9534      0.0000    757.9911      4.6605
  2174.7500    125.3800      0.0000    749.4616      4.3137
  2175.0000    123.9645      0.0000    743.2935      4.1323
  2175.2500    122.8861      0.0000    740.2964      4.0963
  2175.5000    120.4669      0.0000    740.3567      4.1529
  2175.7500    116.6005      0.0000    742.7830      4.2332
  2176.0000    112.7045      0.0000    746.3728      4.2851
  2176.2500    110.3234      0.0000    749.6409      4.2964
  2176.5000    109.9543      0.0000    751.5964      4.2884
  2176.7500    111.3727      0.0000    752.5030      4.2852
  2177.0000    114.6273      0.0000    753.6497      4.2902
  2177.2500    120.0145      0.0000    755.9025      4.2915
  2177.5000    126.9720      0.0000    758.2678      4.2858
  2177.7500    133.5586      0.0000    758.3403      4.2940
  2178.0000    137.5275      0.0000    754.6486      4.3560
  2178.2500    138.0211      0.0000    748.3464      4.5128
  2178.5000    136.2311      0.0000    742.2780      4.7840
  2178.7500    134.7372      0.0000    738.6128      5.1544
  2179.0000    136.1913      0.0000    737.5600      5.5860
  2179.2500    141.6649      0.0000    737.8869      6.0492
  2179.5000    149.4767      0.0000    738.0413      6.5482
  2179.7500    156.1468      0.0000    736.8673      7.1254
  2180.0000    159.1940      0.0000    734.0054      7.8467
  2180.2500    158.9124      0.0000    730.3118      8.7806
  2180.5000    157.2646      0.0000    727.7818      9.9736
  2180.7500    155.5359      0.0000    728.2878     11.4193
  2181.0000    153.4098      0.0000    731.9961     13.0359
  2181.2500    149.9532      0.0000    736.9587     14.6697
  2181.5000    145.0389      0.0000    739.5673     16.1370
  2181.7500    139.7296      0.0000    733.8696     17.2996
  2182.0000    135.3036      0.0000    710.4949     18.1405
  2182.2500    131.9627      0.0000    659.8883     18.7725
  2182.5000    128.7775      0.0000    581.3849     19.3489
  2182.7500    125.0200      0.0000    489.5216     19.9479
  2183.0000    121.1970      0.0000    407.6955     20.5298
  2183.2500    118.6016      0.0000    354.0476     20.9739
  2183.5000    118.2669      0.0000    335.0849     21.1295
  2183.7500    120.3451      0.0000    351.0746     20.8533
  2184.0000    123.6754      0.0000    401.1713     20.0599
  2184.2500    125.8526      0.0000    479.6099     18.7959
  2184.5000    124.7356      0.0000    570.3045     17.2825
  2184.7500    120.3781      0.0000    651.2248     15.8545
  2185.0000    114.8622      0.0000    705.9024     14.8013
  2185.2500    110.0321      0.0000    729.8795     14.2278
  2185.5000    106.0676      0.0000    728.4158     14.0494
  2185.7500    102.4514      0.0000    711.5845     14.0978
  2186.0000     99.4003      0.0000    690.0916     14.2147
  2186.2500     97.6584      0.0000    671.1049     14.2603
  2186.5000     97.5199      0.0000    656.5223     14.0966
  2186.7500     98.8639      0.0000    645.2825     13.6399
  2187.0000    101.8452      0.0000    636.0522     12.9568
  2187.2500    106.7156      0.0000    628.3140     12.2547
  2187.5000    112.9932      0.0000    624.7416     11.7025
  2187.7500    119.4375      0.0000    632.1978     11.2821
  2188.0000    125.0864      0.0000    655.3954     10.8705
  2188.2500    130.0625      0.0000    689.2269     10.4120
  2188.5000    134.9538      0.0000    721.4243      9.9239
  2188.7500    139.4521      0.0000    742.7542      9.3914
  2189.0000    142.2788     -2.0000    752.2333      8.7592
  2189.2500    142.6626      2.0000    753.9962      8.0206
  2189.5000    141.3065      0.0000    752.0667      7.2716
  2189.7500    139.7487      0.0000    748.3497      6.6747
  2190.0000    139.2133      0.0000    743.7352      6.3566
  2190.2500    140.1534      0.0000    739.4064      6.3037
  2190.5000    142.4436      0.0000    736.6368      6.3693
  2190.7500    145.6332      0.0000    736.1964      6.4164
  2191.0000    148.9898      0.0000    738.5453      6.4203
  2191.2500    151.4749      0.0000    743.6011      6.4043
  2191.5000    152.1589      0.0000    749.7602      6.3459
  2191.7500    151.0137      0.0000    753.7806      6.2088
  2192.0000    149.2132      0.0000    752.2348      6.0232
  2192.2500    148.2778      0.0000    742.7276      5.8703
  2192.5000    148.5892      0.0000    724.0336      5.7939
  2192.7500    148.6996      0.0000    697.0835      5.7592
  2193.0000    146.4228      0.0000    667.3014      5.6944
  2193.2500    140.8470      0.0000    643.7610      5.5535
  2193.5000    133.1205      0.0000    632.4668      5.3400
  2193.7500    125.1053      0.0000    630.2520      5.0897
  2194.0000    117.6804      0.0000    626.9839      4.8407
  2194.2500    110.6543      0.0000    614.2340      4.6161
  2194.5000    103.6829      0.0000    592.1439      4.4221
  2194.7500     96.5042      0.0000    568.8856      4.2562
  2195.0000     88.5897      0.0000    552.8781      4.1163
  2195.2500     79.5516      0.0000    544.7291      4.0031
  2195.5000     70.2094      0.0000    537.2787      3.9153
  2195.7500     62.5848      0.0000    523.3120      3.8458
  2196.0000     58.3231      0.0000    502.5671      3.7868
  2196.2500     57.3019      0.0000    481.9650      3.7394
  2196.5000     58.0470      0.0000    470.8454      3.7135
  2196.7500     59.1511      0.0000    476.4704      3.7163
  2197.0000     59.9581      0.0000    501.7934      3.7407
  2197.2500     60.2915      0.0000    543.6691      3.7629
  2197.5000     60.1977      0.0000    592.2769      3.7557
  2197.7500     59.9336      0.0000    635.1625      3.7126
  2198.0000     59.7251      0.0000    664.2554      3.6606
  2198.2500     59.4370      0.0000    679.0474      3.6426
