~Version Information
 VERS.                                  2.0 : CWLS LAS VERSION
 WRAP.                                   NO : WRAPING MODE
 SWARE .                 MController 2.5.0N : SOFTWARE VERSION
~Well Information
 WELL.                         Tomcat 32-10 : WELL
 COMP.    Pioneer Natural Resources USA Inc : COMPANY
 FLD.                      Purgatoire River : FIELD
 LOC.                SW/NE Sec 10 T33S R65W : LOCATION
 DATE.                              3/21/05 : DATE(S) LOGGED
 SRVC.       Blanco Geological Services LLC : SERVICE COMPANY
 STAT.                                   CO : STATE
 CNTY.                           Las Animas : COUNTY
 CTRY.                                  USA : COUNTRY
 API.                       05-071-08301-00 : API NUMBER
 STRT.FT                             356.00 : START DEPTH
 STOP.FT                             980.00 : STOP DEPTH
 STEP.FT                               1.00 : DEPTH INCREMENT
 NULL.                                -9999 : NULL VALUE
~Curve information
 DEPTH.FT                                   :
 ROP.MIN/FT                                 :
 GAS.UNITS                                  :
~ASCII Log data
       356.0     -9999.00          6.8 
       357.0         1.35          7.2 
       358.0         0.27          6.7 
       359.0         0.27          6.5 
       360.0         0.27          6.4 
       361.0         0.27          6.4 
       362.0         0.53          6.8 
       363.0         0.27          6.7 
       364.0         0.27          6.7 
       365.0         0.27          6.7 
       366.0         0.27          6.7 
       367.0         0.28          6.6 
       368.0         0.27          6.9 
       369.0         0.27          6.8 
       370.0         0.27          6.8 
       371.0         0.27          6.7 
       372.0         0.27          6.5 
       373.0         0.27          6.5 
       374.0         0.27          6.8 
       375.0         0.27          6.7 
       376.0         0.27          6.8 
       377.0         0.27          6.7 
       378.0         0.27          7.0 
       379.0         0.28          6.7 
       380.0         0.27          6.7 
       381.0         0.27          6.6 
       382.0         0.27          6.3 
       383.0         0.27          6.4 
       384.0         0.27          6.5 
       385.0         0.27          7.0 
       386.0         1.33          7.0 
       387.0         0.55          7.0 
       388.0         0.53          6.8 
       389.0         0.53          6.6 
       390.0         0.53          6.8 
       391.0         0.53          6.5 
       392.0         0.27          6.3 
       393.0         0.53          7.5 
       394.0         0.28          7.0 
       395.0         0.53          6.8 
       396.0         0.53          6.6 
       397.0         0.27          6.5 
       398.0         0.53          6.7 
       399.0         0.27          6.6 
       400.0         0.53          6.4 
       401.0         0.53          6.8 
       402.0         0.55          6.2 
       403.0         0.27          6.1 
       404.0         0.53          6.4 
       405.0         0.27          6.0 
       406.0         0.53          6.3 
       407.0         0.53          6.4 
       408.0         0.53          6.3 
       409.0         0.28          6.5 
       410.0         0.27          6.2 
       411.0         0.27          6.4 
       412.0         0.53          6.5 
       413.0         0.53          6.8 
       414.0         0.27          6.8 
       415.0         0.53          6.8 
       416.0         2.42          6.9 
       417.0         0.53          6.9 
       418.0         0.27          6.7 
       419.0         0.53          7.1 
       420.0         0.55          7.3 
       421.0         0.53          6.9 
       422.0         0.53          7.0 
       423.0         0.53          6.9 
       424.0         0.53          7.1 
       425.0         0.53          7.0 
       426.0         0.53          6.8 
       427.0         0.55          6.7 
       428.0         0.27          7.1 
       429.0         0.53          7.3 
       430.0         0.53          7.3 
       431.0         0.53         14.9 
       432.0         0.27         16.8 
       433.0         0.75         16.8 
       434.0         0.53         15.0 
       435.0         0.53         13.5 
       436.0         0.53         13.4 
       437.0         0.27         12.4 
       438.0         0.53         12.1 
       439.0         0.53         11.7 
       440.0         0.27         10.8 
       441.0         0.52         11.0 
       442.0         0.27         10.5 
       443.0         0.53         10.1 
       444.0         0.53         10.0 
       445.0         0.53          9.6 
       446.0         4.67         32.7 
       447.0         0.27         13.0 
       448.0         0.27         12.3 
       449.0         0.27         12.3 
       450.0         0.53         12.3 
       451.0         0.43         11.4 
       452.0         0.27          9.7 
       453.0         0.53          9.8 
       454.0         0.27          9.7 
       455.0         0.27          9.5 
       456.0         0.28          9.7 
       457.0         0.53          9.7 
       458.0         0.27          9.2 
       459.0         0.27          9.5 
       460.0         0.53          9.2 
       461.0         0.27          8.5 
       462.0         0.27          8.4 
       463.0         0.50          8.9 
       464.0         0.55          8.9 
       465.0         0.53          8.4 
       466.0         0.27          8.6 
       467.0         0.53         10.9 
       468.0         0.53         11.0 
       469.0         0.40         10.4 
       470.0         0.27          9.6 
       471.0         0.53          9.5 
       472.0         0.82          8.9 
       473.0         0.53          8.9 
       474.0         0.53          8.7 
       475.0         0.53          8.4 
       476.0         4.02         23.2 
       477.0         0.58         10.6 
       478.0         0.27         10.3 
       479.0         0.53         10.1 
       480.0         0.27          9.7 
       481.0         0.53          9.8 
       482.0         0.27          9.3 
       483.0         0.53          9.5 
       484.0         0.27          9.1 
       485.0         0.53          9.2 
       486.0         0.55          9.2 
       487.0         0.27          9.1 
       488.0         0.53          9.0 
       489.0         0.40          8.8 
       490.0         0.27          9.2 
       491.0         0.27          9.0 
       492.0         0.53          9.0 
       493.0         0.53          9.3 
       494.0         0.28          9.4 
       495.0         0.53          8.9 
       496.0         0.27          9.0 
       497.0         0.27          8.8 
       498.0         0.53          8.6 
       499.0         0.53          9.0 
       500.0         0.27          8.8 
       501.0         0.53          9.1 
       502.0         0.55          9.4 
       503.0         0.27          8.3 
       504.0         0.53          8.2 
       505.0         0.27          8.1 
       506.0         4.88         20.4 
       507.0         1.22         16.2 
       508.0         0.40          9.7 
       509.0         0.27          9.2 
       510.0         0.53          8.8 
       511.0         0.27          8.5 
       512.0         0.27          8.7 
       513.0         0.27          8.6 
       514.0         0.62          8.9 
       515.0         0.53          8.6 
       516.0         0.27          8.5 
       517.0         0.27          8.2 
       518.0         0.53          8.5 
       519.0         0.53          8.2 
       520.0         0.53          8.3 
       521.0         0.27          8.9 
       522.0         0.27          9.7 
       523.0         0.55         10.3 
       524.0         0.53          9.0 
       525.0         0.60          9.1 
       526.0         0.53          9.2 
       527.0         0.27          8.8 
       528.0         0.27          8.9 
       529.0         0.27          9.1 
       530.0         0.55          9.2 
       531.0         0.53          8.3 
       532.0         0.53          7.7 
       533.0         0.27          7.4 
       534.0         0.53          7.6 
       535.0         0.53          7.2 
       536.0         2.15         24.8 
       537.0         0.30         10.3 
       538.0         0.27         10.0 
       539.0         0.27          9.7 
       540.0         0.27          8.9 
       541.0         0.30          8.6 
       542.0         0.27          9.7 
       543.0         0.27         68.6 
       544.0         0.28        159.7 
       545.0         0.27        231.9 
       546.0         0.33        270.0 
       547.0         0.27        288.6 
       548.0         0.27        279.6 
       549.0         0.27        270.5 
       550.0         0.27        267.1 
       551.0         0.53        259.6 
       552.0         0.27        270.0 
       553.0         0.27        272.6 
       554.0         0.27        272.4 
       555.0         0.28        267.3 
