~Version Information
VERS.                      2.0: CWLS Log ASCII Standard - VERSION 2.0
WRAP.                       NO: One line per depth step
~Well Information Block
STRT.FT               650.0000: 
STOP.FT              2085.0000: 
STEP.FT                 0.1000: 
NULL.                -999.2500: 
COMP.          Pioneer Natural Resources: COMPANY
WELL.           Galloway 32-13: WELL
FLD.           Purgatoire River: FIELD
LOC.           1809' FNL & 2004' FEL: LOCATION
PROV.                 Colorado: PROVINCE
CNTY.               Las Animas: COUNTRY
SRVC.                Patterson: SERVICE COMPANY
DATE.          Sat Jul 09 02:17:51 2005: LOG DATE
UWI.           05 071 08423 00: UNIQUE WELL ID
~Curve Information Block
DEPT.FT            0 000 00 00: Depth
DCAL.in                       : CDL Caliper
RHOB.g/cc                     : CDL Bulk Density
RHOC.g/cc                     : CDL Density Correction
DPOR.pu                       : CDL Density Porosity
GR.GAPI                       : Gamma Ray
NPOR.pu                       : Neutron Porosity
~Parameter Information Block
~A  Depth       DCAL        RHOB        RHOC        DPOR         GR         NPOR    
# ...
  1782.8000      7.8991      2.5028      0.0609      8.9198    100.6500     22.1300
  1782.9000      7.8991      2.5099      0.0812      8.4936    103.6137     22.7603
  1783.0000      7.8990      2.4969      0.0951      9.2790    111.5378     23.0805
  1783.1000      7.8990      2.4747      0.0355     10.6250    115.7265     23.6511
  1783.2000      7.8990      2.4639      0.0472     11.2802    110.9859     24.3485
  1783.3000      7.9112      2.4680      0.0682     11.0274    101.9022     24.8357
  1783.4000      7.9112      2.4786      0.0432     10.3873     95.7350     25.4803
  1783.5000      7.9223      2.4896      0.0729      9.7229     96.3048     26.1179
  1783.6000      7.9223      2.4994      0.0674      9.1293    101.2822     26.1747
  1783.7000      7.9223      2.5168      0.0561      8.0711    101.2176     25.9569
  1783.8000      7.9233      2.5457      0.0915      6.3230     93.5567     25.4248
  1783.9000      7.9233      2.5702      0.1003      4.8380     87.1826     24.5343
  1784.0000      7.9139      2.5778      0.0925      4.3748     83.0842     24.1060
  1784.1000      7.9139      2.5827      0.0624      4.0779     77.6124     24.4664
  1784.2000      7.9139      2.6095      0.1193      2.4536     73.4113     25.0696
  1784.3000      7.8992      2.6743      0.0691     -1.4719     72.8931     25.5644
  1784.4000      7.8992      2.7679      0.1245     -7.1449     73.3854     25.9181
  1784.5000      7.8937      2.8456      0.1501    -11.8518     71.3987     26.1917
  1784.6000      7.8937      2.8734      0.1104    -13.5424     67.6560     26.5329
  1784.7000      7.8937      2.8563      0.1327    -12.5052     63.1228     26.6451
  1784.8000      7.8986      2.8121      0.0855     -9.8223     57.9177     25.9768
  1784.9000      7.8986      2.7498      0.0899     -6.0476     54.9995     25.0238
  1785.0000      7.9080      2.6647     -0.0154     -0.8898     55.6390     24.9338
  1785.1000      7.9080      2.5533     -0.0707      5.8618     57.4695     25.3270
  1785.2000      7.9080      2.4318     -0.2052     13.2262     60.1948     25.2794
  1785.3000      7.9274      2.3378     -0.2007     18.9195     65.6551     25.1495
  1785.4000      7.9274      2.2958     -0.0779     21.4639     74.9141     25.1726
  1785.5000      7.9644      2.2721      0.0851     22.9048     84.1419     24.9214
  1785.6000      7.9644      2.2021      0.0740     27.1450     88.2278     24.8416
  1785.7000      7.9644      2.0678      0.0483     35.2822     87.2607     26.0396
  1785.8000      8.0080      1.9161     -0.0239     44.4758     83.6363     27.8452
  1785.9000      8.0080      1.8036     -0.0286     51.2998     79.0587     28.5660
  1786.0000      8.0210      1.7414     -0.0368     55.0674     75.4917     28.5294
  1786.1000      8.0210      1.7055     -0.0159     57.2408     72.7585     28.8903
  1786.2000      8.0210      1.6725      0.0173     59.2447     70.8421     29.5522
  1786.3000      8.0112      1.6365      0.0367     61.4230     72.0542     30.0913
  1786.4000      8.0112      1.6034      0.0623     63.4321     76.2627     30.5471
  1786.5000      8.0252      1.5770      0.0356     65.0329     78.0666     31.0618
  1786.6000      8.0252      1.5603      0.0210     66.0433     74.4352     31.6556
  1786.7000      8.0252      1.5544      0.0306     66.3983     67.7171     32.3095
  1786.8000      8.0477      1.5566      0.0436     66.2667     61.4076     33.2618
  1786.9000      8.0477      1.5671      0.0007     65.6274     58.8967     33.9303
  1787.0000      8.0630      1.5836      0.0339     64.6297     60.7754     33.4959
  1787.1000      8.0630      1.5942      0.0749     63.9905     63.9830     32.4736
  1787.2000      8.0630      1.5985      0.0411     63.7244     66.6772     31.5640
  1787.3000      8.0803      1.6097      0.0170     63.0503     68.2480     31.1516
  1787.4000      8.0803      1.6278      0.0646     61.9529     69.0006     31.4088
  1787.5000      8.0843      1.6507      0.0078     60.5629     71.5259     31.7337
  1787.6000      8.0843      1.6939      0.0140     57.9484     77.8163     31.7579
  1787.7000      8.0843      1.7651      0.0835     53.6294     83.2483     32.1496
  1787.8000      8.0708      1.8536      0.0764     48.2688     83.6881     33.0598
  1787.9000      8.0708      1.9511      0.1133     42.3559     85.2258     33.4183
  1788.0000      8.0614      2.0542      0.1594     36.1121     89.5795     32.9228
  1788.1000      8.0614      2.1530      0.1868     30.1222     90.8577     32.1047
  1788.2000      8.0614      2.2359      0.1574     25.0940     90.6394     30.9516
  1788.3000      8.0446      2.2983      0.1582     21.3153     95.4537     29.5343
  1788.4000      8.0446      2.3430      0.1186     18.6037    103.9199     28.7012
  1788.5000      8.0080      2.3798      0.0837     16.3763    109.1502     28.9478
  1788.6000      8.0080      2.4191      0.1048     13.9927    110.0917     29.6305
  1788.7000      8.0080      2.4655      0.0821     11.1798    109.1661     29.7614
  1788.8000      7.9707      2.5120      0.0536      8.3657    105.3533     29.1518
  1788.9000      7.9707      2.5457      0.0831      6.3213    100.9728     28.8134
  1789.0000      7.9481      2.5584      0.0965      5.5493     98.3948     29.2899
  1789.1000      7.9481      2.5512      0.0755      5.9885     96.3138     29.7753
  1789.2000      7.9481      2.5368      0.0611      6.8614     95.9722     29.8400
  1789.3000      7.9459      2.5274      0.0304      7.4323     97.5276     29.3343
  1789.4000      7.9459      2.5209      0.0756      7.8242     99.9368     28.1449
  1789.5000      7.9659      2.5048      0.0636      8.8010    103.8171     26.6548
  1789.6000      7.9659      2.4801      0.0215     10.2967    108.9443     25.4820
  1789.7000      7.9659      2.4640     -0.0060     11.2717    112.5136     24.7224
  1789.8000      7.9951      2.4628      0.0362     11.3447    109.6289     24.2144
  1789.9000      7.9951      2.4637      0.0387     11.2900    102.1536     23.9816
  1790.0000      8.0089      2.4506      0.0708     12.0874     99.0142     23.6702
  1790.1000      8.0089      2.4245     -0.0094     13.6637    103.3565     22.9583
  1790.2000      8.0089      2.4107     -0.0125     14.5047    111.4165     22.4816
  1790.3000      8.0077      2.4233      0.0421     13.7375    116.4690     22.4733
  1790.4000      8.0077      2.4461      0.0182     12.3588    112.2022     22.4075
  1790.5000      8.0172      2.4629      0.0107     11.3419    105.5321     22.5998
  1790.6000      8.0172      2.4697      0.0590     10.9279    105.5022     23.1332
  1790.7000      8.0172      2.4674      0.0344     11.0680    106.0317     23.5249
  1790.8000      8.0408      2.4616      0.0431     11.4165    101.0435     23.6397
  1790.9000      8.0408      2.4479      0.0792     12.2473     93.8468     23.2087
  1791.0000      8.0501      2.4238      0.0567     13.7074     89.1924     22.1439
  1791.1000      8.0501      2.4062      0.0165     14.7737     89.6408     20.8496
  1791.2000      8.0501      2.4075      0.0073     14.6949     94.0810     20.0902
  1791.3000      8.0358      2.4233      0.0051     13.7416     99.1722     20.5476
  1791.4000      8.0358      2.4439      0.0626     12.4912     99.6305     21.8025
  1791.5000      8.0116      2.4661      0.0612     11.1459     91.6347     22.4983
  1791.6000      8.0116      2.4940      0.0375      9.4549     78.7776     21.8933
  1791.7000      8.0116      2.5193      0.1440      7.9215     67.8780     20.9176
  1791.8000      7.9944      2.5309      0.0434      7.2201     64.0626     20.5970
  1791.9000      7.9944      2.5328      0.0618      7.1001     65.4345     20.3300
  1792.0000      7.9876      2.5237      0.0451      7.6541     66.7722     19.2662
  1792.1000      7.9876      2.5058      0.0133      8.7403     67.7531     18.1605
  1792.2000      7.9876      2.4909      0.0184      9.6425     71.1361     17.8667
  1792.3000      7.9797      2.4852      0.0119      9.9852     75.1857     18.1532
