~Version Information
VERS.                      2.0: CWLS Log ASCII Standard - VERSION 2.0
WRAP.                       NO: One line per depth step
~Well Information Block
STRT.FT               580.0000: 
STOP.FT              2729.7500: 
STEP.FT                 0.2500: 
NULL.                -999.2500: 
COMP.          Pioneer Natural Resources: COMPANY
WELL.          Sand Pebbles 13-33: WELL
FLD.           Purgatoire River: FIELD
LOC.           1883' FSL & 63' FWL----: LOCATION
PROV.                 Colorado: PROVINCE
CNTY.               Las Animas: COUNTRY
SRVC.                Patterson: SERVICE COMPANY
DATE.          Fri Mar 11 13:47:45 2005: LOG DATE
UWI.           05 071 08224 00: UNIQUE WELL ID
~Curve Information Block
DEPT.FT            0 000 00 00: Depth
SN.Ohm-m                      : IEL Short Normal
SP.mV                         : IEL Spontaneous Potential
DIR.Ohm-m                     : IEL Induction Resistivity
GR.GAPI                       : Gamma Ray
~Parameter Information Block
~A  Depth        SN          SP         DIR          GR     
# ...
  1987.0000     15.8990    -19.4357     12.7930     80.0381
  1987.2500     14.9219    -18.4739     12.2196     89.6604
  1987.5000     13.9552    -17.4769     11.5996    104.3371
  1987.7500     12.9855    -16.5482     10.9798    113.0391
  1988.0000     12.0260    -15.7725     10.3853    123.3329
  1988.2500     11.1208    -15.2040      9.8276    128.2376
  1988.5000     10.3146    -14.8604      9.3124    132.8831
  1988.7500      9.6276    -14.7254      8.8442    134.4813
  1989.0000      9.0576    -14.7593      8.4274    135.5624
  1989.2500      8.5964    -14.9139      8.0652    135.9463
  1989.5000      8.2426    -15.1463      7.7589    136.3633
  1989.7500      7.9993    -15.4283      7.5065    136.5144
  1990.0000      7.8623    -15.7496      7.3027    136.6861
  1990.2500      7.8134    -16.1140      7.1401    136.8797
  1990.5000      7.8239    -16.5331      7.0099    137.1660
  1990.7500      7.8630    -17.0174      6.9048    137.1431
  1991.0000      7.9070    -17.5695      6.8203    136.4495
  1991.2500      7.9440    -18.1798      6.7553    135.4427
  1991.5000      7.9734    -18.8270      6.7127    133.2273
  1991.7500      7.9986    -19.4814      6.6975    131.6084
  1992.0000      8.0187    -20.1107      6.7152    130.0156
  1992.2500      8.0241    -20.6849      6.7698    130.2063
  1992.5000      7.9973    -21.1783      6.8620    132.7760
  1992.7500      7.9206    -21.5698      6.9887    135.3628
  1993.0000      7.7878    -21.8410      7.1440    138.5043
  1993.2500      7.6157    -21.9739      7.3212    139.2517
  1993.5000      7.4454    -21.9527      7.5140    138.3539
  1993.7500      7.3281    -21.7667      7.7182    137.0112
  1994.0000      7.3025    -21.4163      7.9320    135.1830
  1994.2500      7.3764    -20.9164      8.1547    134.7973
  1994.5000      7.5242    -20.2959      8.3852    136.0524
  1994.7500      7.7018    -19.5918      8.6196    137.7800
  1995.0000      7.8737    -18.8395      8.8511    140.4104
  1995.2500      8.0353    -18.0647      9.0713    141.7060
  1995.5000      8.2179    -17.2799      9.2742    143.2752
  1995.7500      8.4776    -16.4918      9.4591    144.6252
  1996.0000      8.8767    -15.7153      9.6311    147.7158
  1996.2500      9.4606    -14.9875      9.7987    150.3264
  1996.5000     10.2289    -14.3709      9.9714    153.9753
  1996.7500     11.1128    -13.9408     10.1580    155.5455
  1997.0000     11.9899    -13.7619     10.3674    156.2260
  1997.2500     12.7408    -13.8655     10.6087    155.7917
  1997.5000     13.3111    -14.2405     10.8899    154.1554
  1997.7500     13.7274    -14.8416     11.2151    152.2988
  1998.0000     14.0634    -15.6077     11.5843    148.0105
  1998.2500     14.3951    -16.4819     11.9955    144.2113
  1998.5000     14.7801    -17.4233     12.4494    137.8883
  1998.7500     15.2588    -18.4107     12.9546    133.8757
  1999.0000     15.8637    -19.4399     13.5290    128.8216
  1999.2500     16.6238    -20.5162     14.1971    126.0270
  1999.5000     17.5651    -21.6470     14.9855    121.8430
  1999.7500     18.7089    -22.8322     15.9172    118.4036
  2000.0000     20.0751    -24.0587     17.0062    111.5790
  2000.2500     21.6871    -25.2973     18.2536    105.8672
  2000.5000     23.5738    -26.5072     19.6450     95.5080
  2000.7500     25.7655    -27.6447     21.1500     87.2703
  2001.0000     28.2851    -28.6749     22.7234     73.3422
  2001.2500     31.1329    -29.5802     24.3125     64.0307
  2001.5000     34.2591    -30.3611     25.8713     52.3373
  2001.7500     37.5437    -31.0278     27.3733     46.9612
  2002.0000     40.7997    -31.5847     28.8058     42.8071
  2002.2500     43.7918    -32.0143     30.1440     42.3561
  2002.5000     46.2478    -32.2695     31.3204     44.3217
  2002.7500     47.8623    -32.2814     32.2198     46.6493
  2003.0000     48.3267    -31.9796     32.7129     49.8427
  2003.2500     47.4127    -31.3176     32.7083     50.6781
  2003.5000     45.0976    -30.2887     32.1833     49.0866
  2003.7500     41.6597    -28.9268     31.1786     46.6005
  2004.0000     37.6481    -27.2911     29.7799     43.0866
  2004.2500     33.6921    -25.4463     28.1053     42.6235
  2004.5000     30.2544    -23.4475     26.2909     47.0743
  2004.7500     27.4909    -21.3365     24.4646     53.8493
  2005.0000     25.3008    -19.1502     22.7190     68.1132
  2005.2500     23.4907    -16.9386     21.1046     78.4118
  2005.5000     21.9152    -14.7806     19.6401     91.6334
  2005.7500     20.5148    -12.7864     18.3288     97.8123
  2006.0000     19.2817    -11.0791     17.1699    103.1613
  2006.2500     18.2215     -9.7590     16.1648    104.9520
  2006.5000     17.3380     -8.8698     15.3178    106.5828
  2006.7500     16.6277     -8.3831     14.6334    107.4775
  2007.0000     16.0779     -8.2107     14.1107    108.5606
  2007.2500     15.6690     -8.2360     13.7410    108.9508
  2007.5000     15.3828     -8.3486     13.5085    109.0499
  2007.7500     15.2044     -8.4684     13.3955    109.0035
  2008.0000     15.1160     -8.5529     13.3854    109.0360
  2008.2500     15.0927     -8.5927     13.4640    109.0011
  2008.5000     15.1104     -8.6003     13.6174    108.4565
  2008.7500     15.1599     -8.5980     13.8311    107.8392
  2009.0000     15.2521     -8.6079     14.0919    107.3968
  2009.2500     15.4107     -8.6453     14.3920    107.9291
  2009.5000     15.6591     -8.7159     14.7299    109.9442
  2009.7500     16.0115     -8.8171     15.1077    111.5233
  2010.0000     16.4639     -8.9436     15.5274    112.9329
  2010.2500     16.9908     -9.0925     15.9892    112.6952
  2010.5000     17.5550     -9.2683     16.4931    110.3968
  2010.7500     18.1345     -9.4816     17.0416    107.8470
  2011.0000     18.7442     -9.7458     17.6408    103.3215
  2011.2500     19.4297    -10.0715     18.2998    100.4323
  2011.5000     20.2307    -10.4626     19.0286     97.3378
  2011.7500     21.1417    -10.9157     19.8348     96.5257
  2012.0000     22.0956    -11.4227     20.7148     97.2462
  2012.2500     22.9763    -11.9766     21.6415     98.7425
  2012.5000     23.6534    -12.5771     22.5545    102.0103
  2012.7500     24.0352    -13.2334     23.3667    104.6496
  2013.0000     24.1215    -13.9603     23.9918    108.7056
  2013.2500     24.0242    -14.7698     24.3792    110.9514
  2013.5000     23.9220    -15.6587     24.5279    112.9807
  2013.7500     23.9595    -16.6010     24.4688    113.4725
  2014.0000     24.1486    -17.5469     24.2327    113.5000
  2014.2500     24.3377    -18.4304     23.8305    113.3013
  2014.5000     24.2788    -19.1821     23.2570    112.5020
  2014.7500     23.7563    -19.7386     22.5101    111.4213
  2015.0000     22.6995    -20.0485     21.6113    109.4828
  2015.2500     21.2084    -20.0714     20.6124    108.8644
  2015.5000     19.4928    -19.7774     19.5831    110.2437
  2015.7500     17.7838    -19.1494     18.5889    112.6874
  2016.0000     16.2650    -18.1904     17.6718    117.4344
  2016.2500     15.0412    -16.9317     16.8467    120.4098
  2016.5000     14.1417    -15.4366     16.1089    123.3578
  2016.7500     13.5389    -13.7970     15.4449    123.9876
  2017.0000     13.1644    -12.1193     14.8399    123.2480
  2017.2500     12.9198    -10.5068     14.2802    122.3002
  2017.5000     12.7008     -9.0420     13.7554    121.6051
  2017.7500     12.4413     -7.7761     13.2606    122.1225
  2018.0000     12.1528     -6.7284     12.7989    123.9789
  2018.2500     11.9237     -5.8949     12.3804    125.1279
  2018.5000     11.8637     -5.2590     12.0175    125.5734
  2018.7500     12.0255     -4.8002     11.7194    125.0032
  2019.0000     12.3620     -4.4974     11.4897    123.4356
  2019.2500     12.7550     -4.3275     11.3279    122.0203
  2019.5000     13.0871     -4.2647     11.2326    119.0451
  2019.7500     13.2975     -4.2823     11.2030    116.4908
  2020.0000     13.3864     -4.3561     11.2378    112.3305
  2020.2500     13.3848     -4.4679     11.3322    109.6419
