~Version Information
VERS.                      2.0: CWLS Log ASCII Standard - VERSION 2.0
WRAP.                       NO: One line per depth step
~Well Information Block
STRT.FT               250.0000: 
STOP.FT              1687.7000: 
STEP.FT                 0.1000: 
NULL.                -999.2500: 
COMP.          Pioneer Natural Resources: COMPANY
WELL.          Moneypenny 31-36: WELL
FLD.           Purgatoire River: FIELD
LOC.           280' FNL & 1976' FEL: LOCATION
PROV.                 Colorado: PROVINCE
CNTY.               Las Animas: COUNTRY
SRVC.                Patterson: SERVICE COMPANY
DATE.          Fri Oct 01 13:54:40 2004: LOG DATE
UWI.           05 071 08183 00: UNIQUE WELL ID
~Curve Information Block
DEPT.FT            0 000 00 00: Depth
DCAL.in                       : CDL Caliper
RHOB.g/cc                     : CDL Bulk Density
RHOC.g/cc                     : CDL Density Correction
DPOR.pu                       : CDL Density Porosity
NPOR.pu                       : Neutron Porosity
GR.GAPI                       : Gamma Ray
~Parameter Information Block
~A  Depth       DCAL        RHOB        RHOC        DPOR        NPOR         GR     
# ...
   912.4000      8.0669      2.4906      0.0322      9.6613     22.9182    111.7145
   912.5000      8.0665      2.4804      0.0107     10.2790     22.6281    109.3755
   912.6000      8.0665      2.4767      0.0074     10.5024     22.4517    106.6649
   912.7000      8.0665      2.4823      0.0369     10.1615     22.7500    108.8646
   912.8000      8.0659      2.4901      0.0618      9.6892     23.2764    113.7684
   912.9000      8.0659      2.4988      0.0444      9.1619     23.3665    115.5744
   913.0000      8.0649      2.5119      0.0768      8.3690     22.8481    114.1928
   913.1000      8.0649      2.5257      0.1005      7.5313     22.0774    113.0942
   913.2000      8.0649      2.5399      0.0912      6.6747     21.5079    115.2202
   913.3000      8.0652      2.5574      0.1127      5.6095     21.3671    117.2753
   913.4000      8.0652      2.5746      0.1234      4.5690     21.4080    113.2195
   913.5000      8.0668      2.5884      0.1160      3.7349     21.2800    104.3202
   913.6000      8.0668      2.6044      0.1190      2.7653     21.0658     95.4783
   913.7000      8.0668      2.6203      0.1420      1.7987     20.8898     89.0914
   913.8000      8.0680      2.6241      0.1281      1.5718     20.7551     85.9105
   913.9000      8.0680      2.6195      0.0785      1.8491     20.9085     86.3002
   914.0000      8.0700      2.6239      0.0427      1.5827     21.4996     88.4987
   914.1000      8.0700      2.6376      0.1124      0.7493     22.1642     89.0105
   914.2000      8.0700      2.6418      0.1237      0.4942     22.6210     87.7239
   914.3000      8.0720      2.6277      0.0590      1.3529     23.1570     88.0249
   914.4000      8.0720      2.6056      0.0354      2.6935     23.8235     90.1644
   914.5000      8.0711      2.5875      0.0091      3.7855     24.1280     89.9206
   914.6000      8.0711      2.5741      0.0142      4.6003     24.0354     87.6469
   914.7000      8.0711      2.5585      0.0296      5.5431     24.1144     86.9300
   914.8000      8.0722      2.5478     -0.0584      6.1945     24.4248     86.0685
   914.9000      8.0722      2.5524      0.0197      5.9138     24.4699     82.3034
   915.0000      8.0736      2.5611      0.0285      5.3878     24.2987     78.7521
   915.1000      8.0736      2.5651     -0.0038      5.1425     24.3067     79.9342
   915.2000      8.0736      2.5704      0.0187      4.8214     24.2105     84.4964
   915.3000      8.0688      2.5733      0.0591      4.6475     23.7303     87.5401
   915.4000      8.0688      2.5631      0.0356      5.2667     23.1792     86.8092
   915.5000      8.0651      2.5456      0.0309      6.3270     22.7752     84.4162
   915.6000      8.0651      2.5384      0.0501      6.7619     22.5060     82.0711
   915.7000      8.0651      2.5406      0.1025      6.6285     22.4171     79.0224
   915.8000      8.0664      2.5382      0.0818      6.7781     22.4565     79.1674
   915.9000      8.0664      2.5289      0.1072      7.3370     22.3696     85.8557
   916.0000      8.0691      2.5166      0.0736      8.0829     22.0980     92.1505
   916.1000      8.0691      2.5026      0.0646      8.9346     21.8015     93.2968
   916.2000      8.0691      2.4895      0.0198      9.7278     21.6033     93.0415
   916.3000      8.0709      2.4824      0.0406     10.1591     21.5705     93.1788
   916.4000      8.0709      2.4876      0.0034      9.8432     21.5592     94.1146
   916.5000      8.0720      2.5085      0.0354      8.5788     21.4562     95.0597
   916.6000      8.0720      2.5248      0.1158      7.5883     21.2973     92.8450
   916.7000      8.0720      2.5146      0.0847      8.2063     20.9674     87.0525
   916.8000      8.0719      2.4972      0.0439      9.2586     20.5238     81.7299
   916.9000      8.0719      2.5018      0.0568      8.9841     20.3930     81.2565
   917.0000      8.0716      2.5253      0.0814      7.5592     20.6743     83.4934
   917.1000      8.0716      2.5506      0.0512      6.0263     21.0792     83.1821
   917.2000      8.0716      2.5640      0.1066      5.2131     21.3582     82.1174
   917.3000      8.0723      2.5583      0.0760      5.5584     21.5056     81.8601
   917.4000      8.0723      2.5447      0.0402      6.3815     21.7543     80.4744
   917.5000      8.0723      2.5383      0.0634      6.7705     21.9599     78.2647
   917.6000      8.0723      2.5323      0.1031      7.1316     21.8489     77.3698
   917.7000      8.0723      2.5102      0.1133      8.4705     21.6118     78.7314
   917.8000      8.0700      2.4740      0.0792     10.6692     21.4084     80.7092
   917.9000      8.0700      2.4429      0.0174     12.5488     21.1858     82.5121
   918.0000      8.0698      2.4232      0.0321     13.7452     21.0562     85.4348
   918.1000      8.0698      2.4093     -0.0012     14.5892     21.1677     88.0617
   918.2000      8.0698      2.4044      0.0084     14.8836     21.1943     87.7707
   918.3000      8.0746      2.4075      0.0458     14.6947     20.7787     88.1354
   918.4000      8.0746      2.4094      0.0626     14.5832     20.2550     90.9369
   918.5000      8.0793      2.4114      0.0547     14.4601     19.9123     93.5008
   918.6000      8.0793      2.4221      0.1127     13.8111     19.6439     95.3828
   918.7000      8.0793      2.4418      0.1122     12.6202     19.3290     96.2005
   918.8000      8.0795      2.4690      0.1032     10.9720     19.0532     93.6742
   918.9000      8.0795      2.5035      0.1378      8.8770     18.9026     88.0120
   919.0000      8.0791      2.5415      0.1107      6.5731     18.8473     83.2066
   919.1000      8.0791      2.5754      0.1536      4.5234     19.0977     81.1802
   919.2000      8.0791      2.5978      0.1522      3.1651     19.8758     80.1218
   919.3000      8.0827      2.6108      0.1573      2.3754     20.6865     79.7484
   919.4000      8.0827      2.6175      0.1461      1.9674     20.9734     79.8659
   919.5000      8.0860      2.6109      0.1071      2.3704     21.1413     79.0497
   919.6000      8.0860      2.5886      0.0776      3.7236     21.7253     78.8217
   919.7000      8.0860      2.5630      0.0262      5.2747     22.3891     81.6105
   919.8000      8.0869      2.5532      0.0190      5.8641     22.6725     84.8293
   919.9000      8.0869      2.5613      0.0587      5.3756     22.9647     84.2755
   920.0000      8.0882      2.5593      0.0638      5.4998     23.6022     80.4187
   920.1000      8.0882      2.5317      0.0101      7.1704     24.3400     76.7769
   920.2000      8.0882      2.5044      0.0013      8.8246     25.0329     74.0742
   920.3000      8.0988      2.5022      0.0229      8.9558     25.4427     71.8731
   920.4000      8.0988      2.5108      0.0448      8.4376     25.3688     72.0350
   920.5000      8.1189      2.5038      0.0160      8.8589     25.1234     77.8198
   920.6000      8.1189      2.4893     -0.0318      9.7393     24.9942     86.4768
   920.7000      8.1189      2.4903      0.0069      9.6791     24.9508     92.5196
   920.8000      8.1348      2.4999      0.0688      9.0983     24.8051     98.1892
   920.9000      8.1348      2.4960      0.0613      9.3341     24.5240    106.0781
   921.0000      8.1407      2.4793      0.0143     10.3484     24.1002    113.1411
   921.1000      8.1407      2.4674      0.0244     11.0662     23.4208    117.8078
   921.2000      8.1407      2.4685      0.0508     11.0008     22.6370    121.2338
   921.3000      8.1421      2.4825      0.0579     10.1494     22.0646    123.1006
   921.4000      8.1421      2.5034      0.1044      8.8856     21.8515    122.7852
   921.5000      8.1430      2.5150      0.0666      8.1834     22.0618    121.8508
   921.6000      8.1430      2.5093      0.0941      8.5272     22.5656    120.9629
   921.7000      8.1430      2.4960      0.0741      9.3335     22.9933    121.7700
   921.8000      8.1435      2.4892      0.0429      9.7476     23.2297    124.5747
   921.9000      8.1435      2.4883      0.0913      9.8006     23.5867    125.9092
