~Version Information
VERS.                      2.0: CWLS Log ASCII Standard - VERSION 2.0
WRAP.                       NO: One line per depth step
~Well Information Block
STRT.FT               671.6000: 
STOP.FT              1890.7000: 
STEP.FT                 0.1000: 
NULL.                -999.2500: 
COMP.          Petrogulf Corporation: COMPANY
WELL.             State 16-14R: WELL
FLD.           Purgatorie River: FIELD
LOC.           598' FSL & 682' FWL: LOCATION
CNTY.               Las Animas: COUNTY
SRVC.                         : SERVICE COMPANY
DATE.          Fri Nov 05 07:21:30 2004: LOG DATE
UWI.           05 071 08034 00: UNIQUE WELL ID
STAT.                 Colorado: STATE
~Curve Information Block
DEPT.FT            0 000 00 00: Depth
DCAL.in                       : CDL Caliper
RHOB.g/cc                     : CDL Bulk Density
RHOC.g/cc                     : CDL Density Correction
DPOR.pu                       : CDL Density Porosity
GR.GAPI                       : Gamma Ray
NPOR.pu                       : Neutron Porosity
~Parameter Information Block
~A  Depth       DCAL        RHOB        RHOC        DPOR         GR         NPOR    
# ...
  1007.6000      8.1562      2.6311      0.1007      1.1443     66.3143     19.8515
  1007.7000      8.1562      2.6362      0.0969      0.8336     67.4534     19.5242
  1007.8000      8.1683      2.6104      0.0588      2.4025     71.7804     19.2337
  1007.9000      8.1683      2.5699      0.0268      4.8520     79.5396     18.5928
  1008.0000      8.2034      2.5328      0.0209      7.1014     85.6989     17.4141
  1008.1000      8.2034      2.4890      0.0345      9.7552     87.1498     15.6743
  1008.2000      8.2034      2.4205     -0.0171     13.9063     84.8719     13.7082
  1008.3000      8.1696      2.3281     -0.0341     19.5096     81.5400     11.9628
  1008.4000      8.1696      2.2185     -0.0306     26.1508     78.7121     10.4299
  1008.5000      8.1998      2.0896     -0.0083     33.9645     77.2157      9.0509
  1008.6000      8.1998      1.9417     -0.0872     42.9278     78.7721      7.9912
  1008.7000      8.1998      1.7978     -0.1442     51.6493     83.1475      7.3382
  1008.8000      8.2393      1.6798     -0.1496     58.7977     84.6149      6.9352
  1008.9000      8.2393      1.5730     -0.0693     65.2748     78.2105      6.4428
  1009.0000      8.3159      1.4566     -0.0461     72.3283     68.2259      5.7277
  1009.1000      8.3159      1.3569     -0.0965     78.3717     62.1762      5.0925
  1009.2000      8.3159      1.3036      0.0948     81.6010     61.9624      4.7314
  1009.3000      8.3574      1.2790      0.1221     83.0881     64.8068      4.5258
  1009.4000      8.3574      1.2659      0.2168     83.8878     65.9349      4.3726
  1009.5000      8.4841      1.2738      0.2064     83.4067     61.2042      4.2784
  1009.6000      8.4841      1.3096      0.3131     81.2362     51.7131      4.1730
  1009.7000      8.4841      1.3588      0.3204     78.2550     42.2526      4.0906
  1009.8000      8.5568      1.4018      0.3475     75.6457     36.5049      4.2305
  1009.9000      8.5568      1.4325      0.3249     73.7873     33.3266      4.7222
  1010.0000      8.6740      1.4640      0.3436     71.8773     29.9333      5.5665
  1010.1000      8.6740      1.5127      0.3227     68.9294     27.4627      6.5809
  1010.2000      8.6740      1.5680      0.3434     65.5765     28.0119      7.5839
  1010.3000      8.8241      1.5969      0.3272     63.8250     30.8968      8.7343
  1010.4000      8.8241      1.5886      0.2011     64.3283     33.8512     10.1672
  1010.5000      8.8137      1.5633      0.1840     65.8609     36.1837     11.6196
  1010.6000      8.8137      1.5381      0.1787     67.3882     40.3809     12.7955
  1010.7000      8.8137      1.5278      0.1155     68.0132     45.8724     13.8812
  1010.8000      8.7411      1.5575      0.0913     66.2116     47.0121     15.6063
  1010.9000      8.7411      1.6322      0.1395     61.6828     43.7088     18.4138
  1011.0000      8.7806      1.7232      0.1711     56.1722     43.1334     21.4897
  1011.1000      8.7806      1.8122      0.1377     50.7787     49.1883     23.7555
  1011.2000      8.7806      1.9113      0.1668     44.7679     58.8749     25.5350
  1011.3000      8.4880      2.0308      0.2415     37.5291     66.2161     27.4255
  1011.4000      8.4880      2.1649      0.3603     29.4014     69.0945     28.9937
  1011.5000      8.4498      2.3036      0.3780     20.9927     70.9178     29.7047
  1011.6000      8.4498      2.4275      0.3464     13.4846     73.2751     29.6132
  1011.7000      8.4498      2.5037      0.3452      8.8654     76.6889     29.3438
  1011.8000      8.3695      2.5238      0.1972      7.6465     84.0994     29.5102
  1011.9000      8.3695      2.5191      0.0509      7.9316     93.6198     29.7688
  1012.0000      8.2495      2.5141      0.0672      8.2364     98.4841     29.7565
  1012.1000      8.2495      2.5113      0.0667      8.4037     98.7317     29.7294
  1012.2000      8.2495      2.5140      0.0686      8.2413    100.2518     29.6338
  1012.3000      8.1916      2.5268      0.0307      7.4696    105.4617     29.2091
  1012.4000      8.1916      2.5430      0.0632      6.4850    111.2766     28.6915
  1012.5000      8.1742      2.5540      0.0493      5.8185    115.9153     28.3250
  1012.6000      8.1742      2.5587      0.0527      5.5353    120.6578     27.9478
  1012.7000      8.1742      2.5565      0.0634      5.6660    125.1877     27.4566
  1012.8000      8.1386      2.5504      0.0627      6.0354    128.0652     27.1837
  1012.9000      8.1386      2.5448      0.1083      6.3741    129.3835     27.5226
  1013.0000      8.1398      2.5418      0.0603      6.5604    131.0180     28.3208
  1013.1000      8.1398      2.5429      0.0640      6.4934    133.6881     28.8981
  1013.2000      8.1398      2.5443      0.0988      6.4076    136.2386     28.6911
  1013.3000      8.1230      2.5458      0.0403      6.3169    134.6964     27.8718
  1013.4000      8.1230      2.5467      0.0966      6.2600    125.7544     27.1594
  1013.5000      8.1452      2.5387      0.0713      6.7457    116.1390     26.9675
  1013.6000      8.1452      2.5350      0.0257      6.9716    114.6125     27.1515
  1013.7000      8.1452      2.5521      0.0753      5.9332    119.0398     27.5403
  1013.8000      8.1174      2.5775      0.0754      4.3966    123.4827     27.9909
  1013.9000      8.1174      2.6029      0.0876      2.8564    126.4623     28.3953
  1014.0000      8.1259      2.6279      0.1622      1.3412    128.0651     28.8090
  1014.1000      8.1259      2.6368      0.1518      0.8016    127.8421     29.1146
  1014.2000      8.1259      2.6259      0.0845      1.4584    126.2174     29.1072
  1014.3000      8.1265      2.6125      0.0655      2.2719    123.5614     28.9020
  1014.4000      8.1265      2.6033      0.0728      2.8327    119.9658     28.6669
  1014.5000      8.1139      2.5909      0.0999      3.5822    116.8024     28.6156
  1014.6000      8.1139      2.5798      0.0576      4.2571    116.1517     28.9890
  1014.7000      8.1139      2.5792      0.0307      4.2928    118.1979     29.6720
  1014.8000      8.1321      2.5732      0.1103      4.6559    121.7927     30.3466
  1014.9000      8.1321      2.5495      0.0032      6.0930    127.7488     30.7711
  1015.0000      8.1185      2.5278     -0.0313      7.4048    134.7502     31.0141
  1015.1000      8.1185      2.5170     -0.0003      8.0629    136.4111     31.1337
  1015.2000      8.1185      2.5061      0.0041      8.7224    132.7338     30.9946
  1015.3000      8.1317      2.5022     -0.0475      8.9557    129.3848     30.7916
  1015.4000      8.1317      2.5217      0.0091      7.7777    125.8921     30.8145
  1015.5000      8.0930      2.5578      0.0442      5.5892    121.1893     30.8890
  1015.6000      8.0930      2.5941      0.0521      3.3876    119.6275     30.9504
  1015.7000      8.0930      2.6215      0.0880      1.7298    122.0428     30.8735
  1015.8000      8.0969      2.6351      0.1171      0.9040    123.9641     30.2023
  1015.9000      8.0969      2.6288      0.1473      1.2828    122.7287     29.1862
  1016.0000      8.1044      2.6055      0.0551      2.6951    120.6214     28.4974
  1016.1000      8.1044      2.5806      0.0412      4.2081    120.5641     28.2510
  1016.2000      8.1044      2.5677     -0.0309      4.9862    122.5283     28.1936
  1016.3000      8.0990      2.5725      0.0065      4.6995    127.2086     27.9989
  1016.4000      8.0990      2.5809      0.0557      4.1866    134.3086     27.4492
  1016.5000      8.1239      2.5767      0.0274      4.4426    140.8206     26.8297
  1016.6000      8.1239      2.5584      0.1263      5.5513    146.0522     26.4641
  1016.7000      8.1239      2.5362      0.0513      6.8958    148.5184     26.4422
  1016.8000      8.0928      2.5292      0.0470      7.3240    143.2451     26.7324
  1016.9000      8.0928      2.5385      0.0692      6.7582    132.4930     27.1785
  1017.0000      8.0951      2.5486      0.0666      6.1436    127.8754     27.4007
  1017.1000      8.0951      2.5555      0.0452      5.7273    133.9892     27.5492
