~Version Information
VERS.                      2.0: CWLS Log ASCII Standard - VERSION 2.0
WRAP.                       NO: One line per depth step
~Well Information Block
STRT.FT               250.0000: 
STOP.FT              1573.7500: 
STEP.FT                 0.2500: 
NULL.                -999.2500: 
COMP.          Pioneer Natural Resources: COMPANY
WELL.          Big Cat Federal 44-1: WELL
FLD.           Purgatoire River: FIELD
LOC.           197' FSL & 973' FEL--: LOCATION
CNTY.               Las Animas: COUNTY
SRVC.                Patterson: SERVICE COMPANY
DATE.          Sun Apr 23 14:54:11 2006: LOG DATE
UWI.           05 071 08042 00: UNIQUE WELL ID
STAT.                 Colorado: STATE
~Curve Information Block
DEPT.FT            0 000 00 00: Depth
DIR.Ohm-m                     : IEL Induction Resistivity
GR.GAPI                       : Gamma Ray
~Parameter Information Block
~A  Depth       DIR          GR     
# ...
  1532.2500     19.1071    100.6123
  1532.5000     18.9607     98.7073
  1532.7500     18.7381     97.9161
  1533.0000     18.4665     96.8487
  1533.2500     18.1718     96.0158
  1533.5000     17.8732     94.6876
  1533.7500     17.5816     93.9515
  1534.0000     17.3041     93.1761
  1534.2500     17.0497     92.7268
  1534.5000     16.8310     92.0488
  1534.7500     16.6582     91.8466
  1535.0000     16.5309     92.4415
  1535.2500     16.4332     93.4764
  1535.5000     16.3355     95.8556
  1535.7500     16.2029     98.0792
  1536.0000     16.0058    102.3968
  1536.2500     15.7273    105.4636
  1536.5000     15.3687    109.1574
  1536.7500     14.9507    110.8652
  1537.0000     14.5124    113.6034
  1537.2500     14.1021    116.6742
  1537.5000     13.7637    123.8605
  1537.7500     13.5232    129.3425
  1538.0000     13.3848    134.7903
  1538.2500     13.3364    134.4260
  1538.5000     13.3631    126.8416
  1538.7500     13.4581    118.3869
  1539.0000     13.6268    104.6900
  1539.2500     13.8820     97.0416
  1539.5000     14.2310     89.2342
  1539.7500     14.6654     86.0174
  1540.0000     15.1560     82.8957
  1540.2500     15.6569     81.5581
  1540.5000     16.1155     79.9201
  1540.7500     16.4831     77.9230
  1541.0000     16.7242     70.6540
  1541.2500     16.8253     61.8181
  1541.5000     16.8008     43.6665
  1541.7500     16.6908     30.7157
  1542.0000     16.5466     14.6847
  1542.2500     16.4131      7.6969
  1542.5000     16.3200      2.2767
  1542.7500     16.2851      0.8487
  1543.0000     16.3238      0.1461
  1543.2500     16.4538      0.0368
  1543.5000     16.6910      0.0024
  1543.7500     17.0426   -999.2500
  1544.0000     17.5045   -999.2500
  1544.2500     18.0649   -999.2500
  1544.5000     18.7089   -999.2500
  1544.7500     19.4197   -999.2500
  1545.0000     20.1772   -999.2500
  1545.2500     20.9560   -999.2500
  1545.5000     21.7229   -999.2500
  1545.7500     22.4339   -999.2500
  1546.0000     23.0354   -999.2500
  1546.2500     23.4726   -999.2500
  1546.5000     23.7047   -999.2500
  1546.7500     23.7219   -999.2500
  1547.0000     23.5619   -999.2500
  1547.2500     23.3148   -999.2500
  1547.5000     23.1023   -999.2500
  1547.7500     23.0372   -999.2500
  1548.0000     23.1883   -999.2500
  1548.2500     23.5667   -999.2500
  1548.5000     24.1331   -999.2500
  1548.7500     24.8160   -999.2500
  1549.0000     25.5308   -999.2500
  1549.2500     26.1970   -999.2500
  1549.5000     26.7492   -999.2500
  1549.7500     27.1396   -999.2500
  1550.0000     27.3360   -999.2500
  1550.2500     27.3200   -999.2500
  1550.5000     27.0929   -999.2500
  1550.7500     26.6781   -999.2500
  1551.0000     26.1177   -999.2500
  1551.2500     25.4675   -999.2500
  1551.5000     24.7934   -999.2500
  1551.7500     24.1647   -999.2500
  1552.0000     23.6371   -999.2500
  1552.2500     23.2353   -999.2500
  1552.5000     22.9499   -999.2500
  1552.7500     22.7523   -999.2500
  1553.0000     22.6173   -999.2500
  1553.2500     22.5341   -999.2500
  1553.5000     22.5016   -999.2500
  1553.7500     22.5184   -999.2500
  1554.0000     22.5759   -999.2500
  1554.2500     22.6600   -999.2500
  1554.5000     22.7572   -999.2500
  1554.7500     22.8582   -999.2500
  1555.0000     22.9564   -999.2500
  1555.2500     23.0410   -999.2500
  1555.5000     23.0957   -999.2500
  1555.7500     23.1078   -999.2500
  1556.0000     23.0813   -999.2500
  1556.2500     23.0375   -999.2500
  1556.5000     23.0004   -999.2500
  1556.7500     22.9785   -999.2500
  1557.0000     22.9608   -999.2500
  1557.2500     22.9271   -999.2500
  1557.5000     22.8622   -999.2500
  1557.7500     22.7653   -999.2500
  1558.0000     22.6503   -999.2500
  1558.2500     22.5377   -999.2500
  1558.5000     22.4439   -999.2500
  1558.7500     22.3736   -999.2500
  1559.0000     22.3238   -999.2500
  1559.2500     22.2953   -999.2500
  1559.5000     22.3023   -999.2500
  1559.7500     22.3699   -999.2500
  1560.0000     22.5237   -999.2500
  1560.2500     22.7776   -999.2500
  1560.5000     23.1296   -999.2500
  1560.7500     24.0251   -999.2500
  1561.0000     24.5646   -999.2500
  1561.2500     25.1821   -999.2500
  1561.5000     25.8582   -999.2500
  1561.7500     26.5371   -999.2500
  1562.0000     27.1215   -999.2500
  1562.2500     27.5037   -999.2500
  1562.5000     27.6160   -999.2500
  1562.7500     27.4799   -999.2500
  1563.0000     27.2290   -999.2500
  1563.2500     27.1174   -999.2500
  1563.5000     27.5452   -999.2500
  1563.7500     29.1449   -999.2500
  1564.0000     33.0547   -999.2500
  1564.2500     40.2580   -999.2500
  1564.5000     59.9655   -999.2500
  1564.7500    126.3642   -999.2500
  1565.0000 100000.0000   -999.2500
  1565.2500 100000.0000   -999.2500
  1565.5000 100000.0000   -999.2500
  1565.7500 100000.0000   -999.2500
  1566.0000 100000.0000   -999.2500
  1566.2500 100000.0000   -999.2500
  1566.5000 100000.0000   -999.2500
  1566.7500 100000.0000   -999.2500
  1567.0000 100000.0000   -999.2500
  1567.2500 100000.0000   -999.2500
  1567.5000 100000.0000   -999.2500
  1567.7500 100000.0000   -999.2500
  1568.0000 100000.0000   -999.2500
  1568.2500 100000.0000   -999.2500
  1568.5000 100000.0000   -999.2500
  1568.7500 100000.0000   -999.2500
  1569.0000 100000.0000   -999.2500
  1569.2500 100000.0000   -999.2500
  1569.5000 100000.0000   -999.2500
  1569.7500 100000.0000   -999.2500
  1570.0000 100000.0000   -999.2500
  1570.2500 100000.0000   -999.2500
  1570.5000 100000.0000   -999.2500
  1570.7500 100000.0000   -999.2500
  1571.0000 100000.0000   -999.2500
  1571.2500 100000.0000   -999.2500
  1571.5000 100000.0000   -999.2500
  1571.7500   3133.8796   -999.2500
  1572.0000   1890.9143   -999.2500
  1572.2500   1541.9119   -999.2500
  1572.5000   1414.9558   -999.2500
  1572.7500   1368.2867   -999.2500
  1573.0000   1352.5386   -999.2500
  1573.2500   1347.8695   -999.2500
  1573.5000   1346.6791   -999.2500
  1573.7500 100000.0000   -999.2500
