~Version Information
VERS.                      2.0: CWLS Log ASCII Standard - VERSION 2.0
WRAP.                       NO: One line per depth step
~Well Information Block
STRT.FT               420.0000: 
STOP.FT              1528.5000: 
STEP.FT                 0.2500: 
NULL.                -999.2500: 
COMP.          Evergreen Operating Corporation: COMPANY
WELL.              Chase 21-10: WELL
FLD.           Purgatoire River: FIELD
LOC.           1122' FNL & 1544' FWL: LOCATION
PROV.                       CO: PROVINCE
CNTY.               Las Animas: COUNTRY
SRVC.                         : SERVICE COMPANY
DATE.          Sun May 23 21:20:45 2004: LOG DATE
UWI.           05 071 08006 00: UNIQUE WELL ID
~Curve Information Block
DEPT.FT            0 000 00 00: Depth
SN.Ohm-m                      : IEL Short Normal
SP.mV                         : IEL Spontaneous Potential
DIR.Ohm-m                     : IEL Induction Resistivity
GR.GAPI                       : Gamma Ray
~Parameter Information Block
~A  Depth        SN          SP         DIR          GR     
# ...
   487.0000   2000.0000   2038.0000     53.0342     62.8203
   487.2500   2000.0000   2038.0000     48.9070     63.6579
   487.5000   2000.0000   2038.0000     44.5093     65.0426
   487.7500   2000.0000   2038.0000     40.1587     65.6730
   488.0000   2000.0000   2038.0000     36.1179     66.1754
   488.2500   2000.0000   2038.0000     32.5625     66.6373
   488.5000   2000.0000   2038.0000     29.5681     68.6640
   488.7500   2000.0000   2038.0000     27.1242     71.4975
   489.0000   2000.0000   2038.0000     25.1639     78.4092
   489.2500   2000.0000   2038.0000     23.5966     84.6307
   489.5000   2000.0000   2038.0000     22.3337     95.3653
   489.7500   2000.0000   2038.0000     21.3035    102.5351
   490.0000   2000.0000   2038.0000     20.4541    111.7976
   490.2500   2000.0000   2038.0000     19.7470    116.5762
   490.5000   2000.0000   2038.0000     19.1483    121.9969
   490.7500   2000.0000   2038.0000     18.6241    124.8893
   491.0000   2000.0000   2038.0000     18.1445    128.3692
   491.2500   2000.0000   2038.0000     17.6898    129.7754
   491.5000   2000.0000   2038.0000     17.2532    129.5751
   491.7500   2000.0000   2038.0000     16.8380    127.4485
   492.0000   2000.0000   2038.0000     16.4514    120.9532
   492.2500   2000.0000   2038.0000     16.1021    114.6598
   492.5000   2000.0000   2038.0000     15.7980    103.5918
   492.7500   2000.0000   2038.0000     15.5416     96.2030
   493.0000   2000.0000   2038.0000     15.3230     86.7335
   493.2500   2000.0000   2038.0000     15.1156     82.1994
   493.5000   2000.0000   2038.0000     14.8808     79.2442
   493.7500   2000.0000   2038.0000     14.5807     80.5264
   494.0000   2000.0000   2038.0000     14.1942     87.6254
   494.2500   2000.0000   2038.0000     13.7256     94.9754
   494.5000   2000.0000   2038.0000     13.2028    107.1534
   494.7500   2000.0000   2038.0000     12.6651    114.4399
   495.0000   2000.0000   2038.0000     12.1521    122.5399
   495.2500   2000.0000   2038.0000     11.6965    125.8539
   495.5000   2000.0000   2038.0000     11.3222    128.2742
   495.7500   2000.0000   2038.0000     11.0437    128.9447
   496.0000   2000.0000   2038.0000     10.8663    130.0181
   496.2500   2000.0000   2038.0000     10.7866    131.1815
   496.5000   2000.0000   2038.0000     10.7937    132.8669
   496.7500   2000.0000   2038.0000     10.8729    133.1234
   497.0000   2000.0000   2038.0000     11.0086    131.6982
   497.2500   2000.0000   2038.0000     11.1870    130.1332
   497.5000   2000.0000   2038.0000     11.3972    128.4911
   497.7500   2000.0000   2038.0000     11.6303    128.4310
   498.0000   2000.0000   2038.0000     11.8782    129.5602
   498.2500   2000.0000   2038.0000     12.1327    130.3516
   498.5000   2000.0000   2038.0000     12.3844    130.1667
   498.7500   2000.0000   2038.0000     12.6225    128.7127
   499.0000   2000.0000   2038.0000     12.8354    124.8413
   499.2500   2000.0000   2038.0000     13.0103    121.8224
   499.5000   2000.0000   2038.0000     13.1339    118.3929
   499.7500   2000.0000   2038.0000     13.1924    117.8400
   500.0000   2000.0000   2038.0000     13.1734    120.1811
   500.2500   2000.0000   2038.0000     13.0696    123.1497
   500.5000   2000.0000   2038.0000     12.8822    127.4279
   500.7500   2000.0000   2038.0000     12.6213    129.0914
   501.0000   2000.0000   2038.0000     12.3029    129.5482
   501.2500   2000.0000   2038.0000     11.9455    129.1303
   501.5000   2000.0000   2038.0000     11.5680    128.6328
   501.7500   2000.0000   2038.0000     11.1889    128.5734
   502.0000   2000.0000   2038.0000     10.8249    128.3256
   502.2500   2000.0000   2038.0000     10.4904    127.7729
   502.5000   2000.0000   2038.0000     10.1959    126.8742
   502.7500   2000.0000   2038.0000      9.9471    126.8859
   503.0000   2000.0000   2038.0000      9.7445    128.3309
   503.2500   2000.0000   2038.0000      9.5847    129.9146
   503.5000   2000.0000   2038.0000      9.4621    132.4017
   503.7500   2000.0000   2038.0000      9.3722    133.9722
   504.0000   2000.0000   2038.0000      9.3126    136.1953
   504.2500   2000.0000   2038.0000      9.2838    137.3509
   504.5000   2000.0000   2038.0000      9.2896    137.7153
   504.7500   2000.0000   2038.0000      9.3376    136.6980
   505.0000   2000.0000   2038.0000      9.4396    133.8257
   505.2500   2000.0000   2038.0000      9.6097    131.9853
   505.5000   2000.0000   2038.0000      9.8571    130.9708
   505.7500   2000.0000   2038.0000     10.1767    131.6843
   506.0000   2000.0000   2038.0000     10.5428    133.9801
   506.2500   2000.0000   2038.0000     10.9148    135.7524
   506.5000   2000.0000   2038.0000     11.2557    138.3051
   506.7500   2000.0000   2038.0000     11.5494    139.6916
   507.0000   2000.0000   2038.0000     11.8006    140.5254
   507.2500   2000.0000   2038.0000     12.0196    139.8783
   507.5000   2000.0000   2038.0000     12.2110    136.9493
   507.7500   2000.0000   2038.0000     12.3747    133.5528
   508.0000   2000.0000   2038.0000     12.5139    125.4044
   508.2500   2000.0000   2038.0000     12.6376    117.4343
   508.5000   2000.0000   2038.0000     12.7547    102.4301
   508.7500   2000.0000   2038.0000     12.8653     92.1192
   509.0000   2000.0000   2038.0000     12.9577     80.1310
   509.2500   2000.0000   2038.0000     13.0121     76.2263
   509.5000   2000.0000   2038.0000     13.0089     77.2782
   509.7500   2000.0000   2038.0000     12.9349     81.7812
   510.0000   2000.0000   2038.0000     12.7856     91.9198
   510.2500   2000.0000   2038.0000     12.5664     99.7037
   510.5000   2000.0000   2038.0000     12.2928    111.4328
   510.7500   2000.0000   2038.0000     11.9887    118.6112
   511.0000   2000.0000   2038.0000     11.6791    127.2528
   511.2500   2000.0000   2038.0000     11.3827    131.0048
   511.5000   2000.0000   2038.0000     11.1081    133.3708
   511.7500   2000.0000   2038.0000     10.8571    133.2485
   512.0000   2000.0000   2038.0000     10.6304    131.7581
   512.2500   2000.0000   2038.0000     10.4319    130.2920
   512.5000   2000.0000   2038.0000     10.2672    127.1577
   512.7500   2000.0000   2038.0000     10.1408    124.1458
   513.0000   2000.0000   2038.0000     10.0527    118.4452
   513.2500   2000.0000   2038.0000      9.9978    114.5896
   513.5000   2000.0000   2038.0000      9.9667    110.5099
   513.7500   2000.0000   2038.0000      9.9466    109.7605
   514.0000   2000.0000   2038.0000      9.9227    111.9602
   514.2500   2000.0000   2038.0000      9.8813    115.2084
   514.5000   2000.0000   2038.0000      9.8126    121.3470
   514.7500   2000.0000   2038.0000      9.7131    125.3436
   515.0000   2000.0000   2038.0000      9.5865    129.6592
   515.2500   2000.0000   2038.0000      9.4412    130.7368
   515.5000   2000.0000   2038.0000      9.2873    129.4444
   515.7500   2000.0000   2038.0000      9.1340    127.3087
   516.0000   2000.0000   2038.0000      8.9879    124.3754
   516.2500   2000.0000   2038.0000      8.8529    123.8502
   516.5000   2000.0000   2038.0000      8.7306    125.9968
   516.7500   2000.0000   2038.0000      8.6213    128.8360
   517.0000   2000.0000   2038.0000      8.5241    133.3234
   517.2500   2000.0000   2038.0000      8.4375    135.4323
   517.5000   2000.0000   2038.0000      8.3590    136.2636
   517.7500   2000.0000   2038.0000      8.2847    135.2123
   518.0000   2000.0000   2038.0000      8.2102    131.8337
   518.2500   2000.0000   2038.0000      8.1333    128.8147
   518.5000   2000.0000   2038.0000      8.0563    123.5959
   518.7500   2000.0000   2038.0000      7.9883    119.8146
   519.0000   2000.0000   2038.0000      7.9413    114.0044
   519.2500   2000.0000   2038.0000      7.9259    110.2380
   519.5000   2000.0000   2038.0000      7.9462    105.1324
   519.7500   2000.0000   2038.0000      7.9994    102.5399
   520.0000   2000.0000   2038.0000      8.0775    101.1464
   520.2500   2000.0000   2038.0000      8.1721    102.5393
