~Version Information
VERS.                      2.0: CWLS Log ASCII Standard - VERSION 2.0
WRAP.                       NO: One line per depth step
~Well Information Block
STRT.FT               846.5000: 
STOP.FT              2610.0000: 
STEP.FT                 0.2500: 
NULL.                -999.2500: 
COMP.          Petrogulf Corporation: COMPANY
WELL.            Lavedure 7-44: WELL
FLD.           Purgatoire River: FIELD
LOC.           969' FSL & 501' FEL: LOCATION
PROV.                 Colorado: PROVINCE
CNTY.               Las Animas: COUNTRY
SRVC.                Patterson: SERVICE COMPANY
DATE.          Sun Dec 07 15:26:03 2003: LOG DATE
UWI.                          : UNIQUE WELL ID
~Curve Information Block
DEPT.FT            0 000 00 00: Depth
SP.mV                         : DIL Spontaneous Potential
RILD.Ohm-m                    : DIL Deep Resistivity
RILM.Ohm-m                    : DIL Medium Resistivity
RLL3.Ohm-m                    : DIL Shallow Resistivity
GR.GAPI                       : Gamma Ray
~Parameter Information Block
~A  Depth        SP         RILD        RILM        RLL3         GR     
# ...
  2470.5000   -159.1414     31.4000     39.9206     57.0168    120.0495
  2470.7500   -157.8419     31.2002     39.7476     65.3076    111.6958
  2471.0000   -156.4296     30.8773     39.1193     73.6265     98.2707
  2471.2500   -154.9468     30.4719     38.0956     78.1369     90.1619
  2471.5000   -153.4824     30.0007     36.7607     76.2131     81.0409
  2471.7500   -152.1322     29.4605     35.2309     68.4227     77.2308
  2472.0000   -150.9895     28.8397     33.6313     57.9036     74.1822
  2472.2500   -150.1528     28.1307     32.0661     47.9740     73.2546
  2472.5000   -149.6870     27.3408     30.6089     40.3979     72.5147
  2472.7500   -149.5464     26.4985     29.3072     35.3428     72.0616
  2473.0000   -149.5557     25.6500     28.1902     32.1797     71.2404
  2473.2500   -149.4999     24.8433     27.2720     30.1317     70.6653
  2473.5000   -149.2423     24.1105     26.5518     28.5999     69.6753
  2473.7500   -148.7703     23.4602     26.0080     27.3168     68.7111
  2474.0000   -148.1537     22.8855     25.5917     26.3082     66.7181
  2474.2500   -147.4690     22.3777     25.2290     25.6723     65.3333
  2474.5000   -146.7563     21.9361     24.8423     25.3638     63.8947
  2474.7500   -146.0284     21.5677     24.3834     25.1787     63.5891
  2475.0000   -145.3097     21.2818     23.8548     24.9159     64.0597
  2475.2500   -144.6624     21.0814     23.3022     24.5256     64.8107
  2475.5000   -144.1750     20.9584     22.7859     24.1021     66.0840
  2475.7500   -143.9219     20.8917     22.3549     23.7717     66.5733
  2476.0000   -143.9229     20.8524     22.0345     23.6123     65.9418
  2476.2500   -144.1236     20.8128     21.8250     23.6558     64.4617
  2476.5000   -144.4035     20.7525     21.7059     23.9015     61.4778
  2476.7500   -144.6139     20.6590     21.6429     24.2927     59.8570
  2477.0000   -144.6382     20.5287     21.5993     24.6965     58.9042
  2477.2500   -144.4490     20.3677     21.5471     24.9473     59.0310
  2477.5000   -144.1198     20.1872     21.4744     24.9305     59.1794
  2477.7500   -143.7689     19.9937     21.3840     24.6250     58.6695
  2478.0000   -143.4836     19.7834     21.2860     24.0773     56.6964
  2478.2500   -143.2885     19.5492     21.1921     23.3737     54.8458
  2478.5000   -143.1603     19.2915     21.1134     22.6425     52.4850
  2478.7500   -143.0455     19.0183     21.0591     22.0446     52.0238
  2479.0000   -142.8708     18.7336     21.0308     21.7122     53.3949
  2479.2500   -142.5680     18.4266     21.0131     21.6773     55.0201
  2479.5000   -142.1040     18.0734     20.9707     21.8648     56.9367
  2479.7500   -141.4873     17.6527     20.8559     22.1613     57.4717
  2480.0000   -140.7519     17.1608     20.6258     22.4961     57.5789
  2480.2500   -139.9434     16.6146     20.2548     22.8683     57.6186
  2480.5000   -139.1131     16.0391     19.7339     23.3045     57.9970
  2480.7500   -138.3049     15.4562     19.0623     23.7823     58.4257
  2481.0000   -137.5339     14.8860     18.2437     24.1742     59.2769
  2481.2500   -136.7847     14.3572     17.2998     24.2391     60.2258
  2481.5000   -136.0427     13.9090     16.2864     23.6680     63.0164
  2481.7500   -135.3337     13.5783     15.2930     22.2097     66.0548
  2482.0000   -134.7365     13.3806     14.4184     19.8788     71.9489
  2482.2500   -134.3548     13.2987     13.7426     17.1110     76.2036
  2482.5000   -134.2704     13.2875     13.3126     14.6582     82.0998
  2482.7500   -134.5075     13.2927     13.1434     13.2172     85.0796
  2483.0000   -135.0282     13.2742     13.2238     13.1003     86.7659
  2483.2500   -135.7580     13.2214     13.5234     14.2284     85.4248
  2483.5000   -136.6144     13.1518     13.9961     16.3256     80.0028
  2483.7500   -137.5179     13.1001     14.5845     18.9901     75.2019
  2484.0000   -138.3841     13.1061     15.2223     21.6358     68.7650
  2484.2500   -139.1270     13.2064     15.8391     23.6161     66.0140
  2484.5000   -139.6821     13.4285     16.3746     24.5745     64.1387
  2484.7500   -140.0251     13.7875     16.8042     24.6456     63.5508
  2485.0000   -140.1590     14.2840     17.1566     24.2705     62.4781
  2485.2500   -140.0832     14.9017     17.5013     23.8614     61.6555
  2485.5000   -139.7899     15.6047     17.9100     23.6372     60.8409
  2485.7500   -139.2975     16.3374     18.4209     23.6462     60.5087
  2486.0000   -138.6790     17.0305     19.0257     23.8266     59.4623
  2486.2500   -138.0434     17.6138     19.6788     24.0623     58.1562
  2486.5000   -137.4828     18.0299     20.3171     24.2569     56.0412
  2486.7500   -137.0279     18.2410     20.8776     24.3892     55.1508
  2487.0000   -136.6368     18.2303     21.3046     24.4942     54.7620
  2487.2500   -136.2136     18.0018     21.5507     24.6076     54.7724
  2487.5000   -135.6506     17.5826     21.5757     24.7623     54.7996
  2487.7500   -134.8762     17.0225     21.3441     25.0319     54.9431
  2488.0000   -133.8858     16.3845     20.8298     25.4858     55.6990
  2488.2500   -132.7415     15.7319     20.0347     26.0024     56.6704
  2488.5000   -131.5489     15.1170     19.0142     26.1241     58.9431
  2488.7500   -130.4314     14.5770     17.8838     25.2296     61.0968
  2489.0000   -129.5076     14.1335     16.7854     23.0165     65.3959
  2489.2500   -128.8555     13.7914     15.8377     19.8974     68.8891
  2489.5000   -128.4699     13.5358     15.1047     16.8891     74.4108
  2489.7500   -128.2498     13.3345     14.5933     15.0036     77.6089
  2490.0000   -128.0458     13.1466     14.2683     14.5941     80.5746
  2490.2500   -127.7481     12.9338     14.0747     15.1792     81.1491
  2490.5000   -127.3519     12.6698     13.9593     15.9074     80.8289
  2490.7500   -126.9458     12.3432     13.8850     16.2794     80.7778
  2491.0000   -126.6293     11.9594     13.8314     16.4750     81.8434
  2491.2500   -126.4297     11.5388     13.7804     17.0304     82.9070
  2491.5000   -126.2893     11.1113     13.6977     18.2870     83.5238
  2491.7500   -126.1196     10.7069     13.5276     20.1310     82.8179
  2492.0000   -125.8656     10.3483     13.2141     22.0662     80.5908
  2492.2500   -125.5349     10.0469     12.7384     23.3690     78.9995
  2492.5000   -125.1797      9.8038     12.1401     23.2930     77.4879
  2492.7500   -124.8505      9.6124     11.5011     21.4668     77.5820
  2493.0000   -124.5561      9.4614     10.9069     18.3052     80.0746
  2493.2500   -124.2566      9.3380     10.4162     14.9195     83.1984
  2493.5000   -123.8881      9.2303     10.0521     12.4343     88.5496
  2493.7500   -123.4032      9.1293      9.8079     11.3143     91.3960
  2494.0000   -122.8083      9.0302      9.6596     11.2660     93.7538
  2494.2500   -122.1772      8.9331      9.5795     11.6425     94.4814
  2494.5000   -121.6290      8.8447      9.5486     11.9362     95.4145
  2494.7500   -121.2789      8.7785      9.5620     12.0598     96.1116
  2495.0000   -121.1878      8.7534      9.6267     12.3084     96.8682
  2495.2500   -121.3282      8.7898      9.7545     13.0310     97.0270
  2495.5000   -121.5858      8.9038      9.9556     14.2284     96.9922
  2495.7500   -121.8047      9.1027     10.2373     15.4506     96.9194
  2496.0000   -121.8590      9.3816     10.6052     16.1758     96.2938
  2496.2500   -121.7061      9.7264     11.0643     16.3719     94.9503
  2496.5000   -121.3886     10.1198     11.6178     16.6541     90.9891
  2496.7500   -120.9923     10.5486     12.2616     17.7831     87.4089
  2497.0000   -120.5987     11.0052     12.9775     19.9564     81.8353
  2497.2500   -120.2602     11.4845     13.7310     22.5930     78.3260
  2497.5000   -119.9966     11.9811     14.4764     24.7738     73.0513
  2497.7500   -119.7925     12.4900     15.1716     25.8514     69.3420
  2498.0000   -119.5951     13.0093     15.7926     25.7181     63.9627
  2498.2500   -119.3308     13.5353     16.3389     24.6777     61.1210
