~Version Information
VERS.                      2.0: CWLS Log ASCII Standard - VERSION 2.0
WRAP.                       NO: One line per depth step
~Well Information Block
STRT.FT                -9.7500: 
STOP.FT              2612.5000: 
STEP.FT                 0.2500: 
NULL.                -999.2500: 
COMP.                         : COMPANY
WELL.                         : WELL
FLD.                          : FIELD
LOC.                          : LOCATION
CNTY.                         : COUNTY
SRVC.                         : SERVICE COMPANY
DATE.          Mon Nov 17 14:56:03 2003: LOG DATE
UWI.                          : UNIQUE WELL ID
STAT.                         : STATE
~Curve Information Block
DEPT.FT            0 000 00 00: Depth
CCL.                          : Casing Collar Locator
TT3.usec                      : CBL 3' Travel Time
AMP3.mV                       : CBL 3' Amplitude
GR.GAPI                       : Gamma Ray
~Parameter Information Block
~A  Depth       CCL         TT3         AMP3         GR     
# ...
   693.7500      0.0000    260.6598     87.2385    149.8903
   694.0000      0.0000    260.6068     87.2560    147.0699
   694.2500      0.0000    260.5290     87.2983    141.7105
   694.5000      0.0000    260.4807     87.2897    135.7252
   694.7500      0.0000    260.5030     87.1610    131.1460
   695.0000      0.0000    260.6022     86.9212    128.9606
   695.2500      0.0000    260.7390     86.6689    128.5143
   695.5000      0.0000    260.8478     86.5089    128.2203
   695.7500      0.0000    260.8785     86.4647    127.0599
   696.0000      0.0000    260.8268     86.4804    125.5132
   696.2500      0.0000    260.7312     86.4914    125.1164
   696.5000      0.0000    260.6465     86.4787    127.0644
   696.7500      0.0000    260.6145     86.4656    131.2058
   697.0000      0.0000    260.6403     86.4840    136.2507
   697.2500      0.0000    260.6916     86.5447    140.6589
   697.5000      0.0000    260.7257     86.6281    143.2340
   697.7500      0.0000    260.7230     86.6889    143.3948
   698.0000      0.0000    260.7036     86.6674    141.4970
   698.2500      0.0000    260.7212     86.5112    138.7738
   698.5000      0.0000    260.8655     86.1972    136.5015
   698.7500      0.0000    261.3268     85.6822    135.3255
   699.0000      0.0000    262.5237     84.7468    135.3882
   699.2500      0.0000    265.1373     82.8889    136.5432
   699.5000      0.0000    269.7374     79.5808    138.3099
   699.7500      0.0000    276.0936     74.8599    140.1986
   700.0000      0.0000    283.0113     69.6097    142.1319
   700.2500      0.0000    289.2485     65.0013    143.9885
   700.5000      0.0000    294.4981     61.6495    144.7975
   700.7500      0.0000    299.1107     59.4699    143.2204
   701.0000      0.0000    303.1365     58.1456    139.1383
   701.2500      0.0000    306.1722     57.4062    134.1285
   701.5000      0.0000    307.9696     56.9762    130.0029
   701.7500      2.0000    308.7073     56.6026    127.4531
   702.0000      2.0000    308.6666     56.2189    126.4109
   702.2500      0.0000    307.8206     56.0855    126.9817
   702.5000      0.0000    305.7422     56.7824    129.3043
   702.7500      0.0000    301.9041     58.9203    132.8310
   703.0000      0.0000    296.1698     62.6251    136.4026
   703.2500      0.0000    289.0231     67.3175    138.9550
   703.5000      0.0000    281.3516     72.1481    139.9097
   703.7500      0.0000    274.1494     76.5157    139.3033
   704.0000      0.0000    268.3232     80.0685    137.9191
   704.2500      0.0000    264.4084     82.5441    136.9766
   704.5000      0.0000    262.3150     83.9058    137.2717
   704.7500      0.0000    261.4643     84.4689    138.5359
   705.0000      0.0000    261.2090     84.6979    139.7095
   705.2500      0.0000    261.1248     84.9069    139.9924
   705.5000      0.0000    261.0395     85.1571    139.5592
   705.7500      0.0000    260.9370     85.3533    138.9247
   706.0000      0.0000    260.8597     85.3974    137.8636
   706.2500      0.0000    260.8377     85.3073    135.6767
   706.5000      0.0000    260.8635     85.2149    132.2853
   706.7500      0.0000    260.8968     85.2629    128.3633
   707.0000      0.0000    260.8903     85.5001    124.6876
   707.2500      0.0000    260.8203     85.8494    121.9124
   707.5000      0.0000    260.7114     86.1419    120.6135
   707.7500      0.0000    260.6332     86.1978    121.0648
   708.0000      0.0000    260.6582     85.9458    123.0582
   708.2500      0.0000    260.8028     85.5096    126.0202
   708.5000      0.0000    261.0033     85.1504    129.2501
   708.7500      0.0000    261.1556     85.0701    132.1774
   709.0000      0.0000    261.1843     85.2645    134.5534
   709.2500      0.0000    261.0848     85.5730    136.2295
   709.5000      0.0000    260.9121     85.8332    136.6909
   709.7500      0.0000    260.7386     85.9639    135.2506
   710.0000      0.0000    260.6237     85.9436    131.9151
   710.2500      0.0000    260.6038     85.7814    127.5699
   710.5000      0.0000    260.6844     85.5296    122.9798
   710.7500      0.0000    260.8293     85.2894    118.1485
   711.0000      0.0000    260.9679     85.1633    113.1957
   711.2500      0.0000    261.0353     85.1825    109.4225
   711.5000      0.0000    261.0172     85.2796    108.6947
   711.7500      0.0000    260.9574     85.3336    111.6887
   712.0000      0.0000    260.9203     85.2601    117.2268
   712.2500      0.0000    260.9422     85.0780    123.3797
   712.5000      0.0000    261.0106     84.9019    128.6728
   712.7500      0.0000    261.0792     84.8552    132.1395
   713.0000      0.0000    261.1016     84.9721    133.0753
   713.2500      0.0000    261.0676     85.1654    131.3481
   713.5000      0.0000    261.0144     85.2917    127.6562
   713.7500      0.0000    260.9982     85.2685    122.9764
   714.0000      0.0000    261.0457     85.1400    117.9091
   714.2500      0.0000    261.1305     85.0287    112.9964
   714.5000      0.0000    261.1972     85.0241    109.5425
   714.7500      0.0000    261.2061     85.1271    109.3184
   715.0000      0.0000    261.1583     85.2906    112.8924
   715.2500      0.0000    261.0840     85.4766    118.5246
   715.5000      0.0000    261.0163     85.6579    123.3358
   715.7500      0.0000    260.9730     85.7901    125.6216
   716.0000      0.0000    260.9555     85.8149    125.7678
   716.2500      0.0000    260.9585     85.6913    125.1623
   716.5000      0.0000    260.9834     85.4213    124.6523
   716.7500      0.0000    261.0388     85.0616    124.0783
   717.0000      0.0000    261.1254     84.7270    122.9733
   717.2500      0.0000    261.2190     84.5529    121.3068
   717.5000      0.0000    261.2764     84.6133    119.5524
   717.7500      0.0000    261.2636     84.8598    118.4376
   718.0000      0.0000    261.1829     85.1501    118.6784
   718.2500      0.0000    261.0723     85.3408    120.4237
   718.5000      0.0000    260.9810     85.3622    122.8102
   718.7500      0.0000    260.9431     85.2317    124.5185
   719.0000      0.0000    260.9660     85.0329    124.9725
   719.2500      0.0000    261.0284     84.8831    124.7988
   719.5000      0.0000    261.0902     84.8844    125.1757
   719.7500      0.0000    261.1129     85.0629    126.9041
   720.0000      0.0000    261.0818     85.3409    129.8594
   720.2500      0.0000    261.0132     85.5748    133.0705
   720.5000      0.0000    260.9406     85.6411    135.5052
   720.7500      0.0000    260.8947     85.5068    136.9441
   721.0000      0.0000    260.8952     85.2359    137.9281
   721.2500      0.0000    260.9640     84.9327    138.8470
   721.5000      0.0000    261.1844     84.6329    139.3849
   721.7500      0.0000    261.8166     84.1874    138.7784
   722.0000      0.0000    263.4333     83.2146    136.4989
   722.2500      0.0000    266.8964     81.2090    132.9889
   722.5000      0.0000    272.9145     77.8301    129.6733
   722.7500      0.0000    281.2701     73.2574    127.6905
   723.0000      0.0000    290.4618     68.3083    126.5767
   723.2500      0.0000    298.4357     64.0544    124.5957
   723.5000      0.0000    303.8741     61.1689    120.3664
   723.7500      0.0000    306.7708     59.6198    114.1304
   724.0000      0.0000    307.9272     58.9206    107.6745
   724.2500      0.0000    308.1337     58.5532    102.9635
   724.5000      0.0000    307.7136     58.1980    100.4680
   724.7500      0.0000    306.4139     57.8370     98.8005
   725.0000      0.0000    303.5030     57.8599     96.3454
   725.2500      0.0000    298.2077     59.0014     93.1021
   725.5000      0.0000    290.5036     61.8795     90.4397
   725.7500      0.0000    281.6088     66.4076     89.1908
   726.0000      0.0000    273.4571     71.6889     88.7295
   726.2500      0.0000    267.4921     76.5486     87.9812
   726.5000      0.0000    263.9651     80.1854     86.6091
   726.7500      0.0000    262.2390     82.4271     84.9286
   727.0000      0.0000    261.5042     83.5502     83.2899
