~Version Information
VERS.                      2.0: CWLS Log ASCII Standard - VERSION 2.0
WRAP.                       NO: One line per depth step
~Well Information Block
STRT.FT               955.2500: 
STOP.FT              2226.0000: 
STEP.FT                 0.2500: 
NULL.                -999.2500: 
COMP.          Petrogulf Corporation: COMPANY
WELL.             Burson 8-13R: WELL
FLD.           Purgatorie River: FIELD
LOC.           1045' FNL & 2189' FEL: LOCATION
CNTY.               Las Animas: COUNTY
SRVC.                         : SERVICE COMPANY
DATE.          Fri Apr 30 04:52:15 2004: LOG DATE
UWI.           05 071 08039 00: UNIQUE WELL ID
STAT.                 Colorado: STATE
~Curve Information Block
DEPT.FT            0 000 00 00: Depth
SP.mV                         : DIL Spontaneous Potential
RILD.Ohm-m                    : DIL Deep Resistivity
RILM.Ohm-m                    : DIL Medium Resistivity
RLL3.Ohm-m                    : DIL Shallow Resistivity
~Parameter Information Block
~A  Depth        SP         RILD        RILM        RLL3    
# ...
   988.7500   2000.0000   -999.2500   -999.2500   -999.2500
   989.0000   2000.0000   -999.2500   -999.2500   -999.2500
   989.2500   2000.0000      6.0729   -999.2500   -999.2500
   989.5000   2000.0000      6.0741   -999.2500   -999.2500
   989.7500   2000.0000      6.0702   -999.2500   -999.2500
   990.0000   2000.0000      6.0669   -999.2500   -999.2500
   990.2500   2000.0000      6.0684   -999.2500   -999.2500
   990.5000   2000.0000      6.0754   -999.2500   -999.2500
   990.7500   2000.0000      6.0843   -999.2500   -999.2500
   991.0000   2000.0000      6.0915   -999.2500   -999.2500
   991.2500   2000.0000      6.0970   -999.2500   2000.0000
   991.5000   2000.0000      6.1039   -999.2500   2000.0000
   991.7500   2000.0000      6.1155   -999.2500   2000.0000
   992.0000   2000.0000      6.1321   -999.2500   2000.0000
   992.2500   2000.0000      6.1506   -999.2500   2000.0000
   992.5000   2000.0000      6.1665   -999.2500   2000.0000
   992.7500   2000.0000      6.1756   -999.2500   2000.0000
   993.0000   2000.0000      6.1752   -999.2500   2000.0000
   993.2500   2000.0000      6.1646   -999.2500   2000.0000
   993.5000   2000.0000      6.1447   -999.2500   2000.0000
   993.7500   2000.0000      6.1177   -999.2500   2000.0000
   994.0000   2000.0000      6.0863 100000.0000   2000.0000
   994.2500   2000.0000      6.0533 100000.0000   2000.0000
   994.5000   2000.0000      6.0211 100000.0000   2000.0000
   994.7500   2000.0000      5.9908 100000.0000   2000.0000
   995.0000   2000.0000      5.9630 100000.0000   2000.0000
   995.2500   2000.0000      5.9393 100000.0000   2000.0000
   995.5000   2000.0000      5.9248 100000.0000   2000.0000
   995.7500   2000.0000      5.9259 100000.0000   2000.0000
   996.0000   2000.0000      5.9467 100000.0000   2000.0000
   996.2500   2000.0000      5.9837 100000.0000   2000.0000
   996.5000   2000.0000      6.0251 100000.0000   2000.0000
   996.7500   2000.0000      6.0564 100000.0000   2000.0000
   997.0000   2000.0000      6.0688 100000.0000   2000.0000
   997.2500   2000.0000      6.0642 100000.0000   2000.0000
   997.5000   2000.0000      6.0532 100000.0000   2000.0000
   997.7500   2000.0000      6.0475 100000.0000   2000.0000
   998.0000   2000.0000      6.0539 100000.0000   2000.0000
   998.2500   2000.0000      6.0716 100000.0000   2000.0000
   998.5000   2000.0000      6.0942 100000.0000   2000.0000
   998.7500   2000.0000      6.1124 100000.0000   2000.0000
   999.0000   2000.0000      6.1183 100000.0000   2000.0000
   999.2500   2000.0000      6.1100 100000.0000   2000.0000
   999.5000   2000.0000      6.0977 100000.0000   2000.0000
   999.7500   2000.0000      6.1108 100000.0000   2000.0000
  1000.0000   2000.0000      6.1986 100000.0000   2000.0000
  1000.2500   2000.0000      6.4239 100000.0000   2000.0000
  1000.5000   2000.0000      6.8490 100000.0000   2000.0000
  1000.7500   2000.0000      7.5168 100000.0000   2000.0000
  1001.0000   2000.0000      8.4241 100000.0000   2000.0000
  1001.2500   2000.0000      9.4923 100000.0000   2000.0000
  1001.5000   2000.0000     10.5668 100000.0000   2000.0000
  1001.7500   2000.0000     11.4754 100000.0000   2000.0000
  1002.0000   2000.0000     12.1173 100000.0000   2000.0000
  1002.2500   2000.0000     12.5069 100000.0000   2000.0000
  1002.5000   2000.0000     12.7511 100000.0000   2000.0000
  1002.7500   2000.0000     12.9861 100000.0000   2000.0000
  1003.0000   2000.0000     13.3008 100000.0000   2000.0000
  1003.2500   2000.0000     13.6592 100000.0000   2000.0000
  1003.5000   2000.0000     13.8586 100000.0000   2000.0000
  1003.7500   2000.0000     13.6122 100000.0000   2000.0000
  1004.0000   2000.0000     12.7952 100000.0000   2000.0000
  1004.2500   2000.0000     11.6041 100000.0000   2000.0000
  1004.5000   2000.0000     10.3914 100000.0000   2000.0000
  1004.7500   2000.0000      9.4130 100000.0000   2000.0000
  1005.0000   2000.0000      8.7644 100000.0000   2000.0000
  1005.2500   2000.0000      8.4489 100000.0000   2000.0000
  1005.5000   2000.0000      8.4486 100000.0000   2000.0000
  1005.7500   2000.0000      8.7661 100000.0000   2000.0000
  1006.0000   2000.0000      9.4279 100000.0000   2000.0000
  1006.2500   2000.0000     10.4055 100000.0000   2000.0000
  1006.5000   2000.0000     11.3668 100000.0000   2000.0000
  1006.7500   2000.0000     11.4484 100000.0000   2000.0000
  1007.0000   2000.0000     10.0286 100000.0000   2000.0000
  1007.2500   2000.0000      7.8677 100000.0000   2000.0000
  1007.5000   2000.0000      6.0428 100000.0000   2000.0000
  1007.7500   2000.0000      4.8716 100000.0000   2000.0000
  1008.0000   2000.0000      4.2451 100000.0000   2000.0000
  1008.2500   2000.0000      4.0064 100000.0000   2000.0000
  1008.5000   2000.0000      4.0390 100000.0000   2000.0000
  1008.7500   2000.0000      4.2437 100000.0000   2000.0000
  1009.0000   2000.0000      4.4907 100000.0000   2000.0000
  1009.2500   2000.0000      4.6050 100000.0000   2000.0000
  1009.5000   2000.0000      4.4596 100000.0000   2000.0000
  1009.7500   2000.0000      4.1134 100000.0000   2000.0000
  1010.0000   2000.0000      3.7739 100000.0000   2000.0000
  1010.2500   2000.0000      3.6429 100000.0000   2000.0000
  1010.5000   2000.0000      3.8939    197.3103   2000.0000
  1010.7500   2000.0000      4.8336     21.0389   2000.0000
  1011.0000   2000.0000      7.4807     13.2625   2000.0000
  1011.2500   2000.0000     18.2565     11.8002   2000.0000
  1011.5000   2000.0000 100000.0000     12.8348   2000.0000
  1011.7500   2000.0000 100000.0000     15.9887   2000.0000
  1012.0000   2000.0000 100000.0000     21.2688   2000.0000
  1012.2500   2000.0000 100000.0000     27.6548   2000.0000
  1012.5000   2000.0000 100000.0000     33.1721   2000.0000
  1012.7500   2000.0000 100000.0000     37.8071   2000.0000
  1013.0000   2000.0000 100000.0000     44.0989   2000.0000
  1013.2500   2000.0000 100000.0000     54.6176   2000.0000
  1013.5000   2000.0000 100000.0000     67.9085   2000.0000
  1013.7500   2000.0000    164.0548     71.7001   2000.0000
  1014.0000   2000.0000     36.7014     58.2555   2000.0000
  1014.2500   2000.0000     24.7100     41.6845   2000.0000
  1014.5000   2000.0000     21.2195     30.4956   2000.0000
  1014.7500   2000.0000     20.1142     23.9781   2000.0000
  1015.0000   2000.0000     19.8876     20.2078   2000.0000
  1015.2500   2000.0000     20.0061     17.9311   2000.0000
  1015.5000   2000.0000     20.2278     16.4504   2000.0000
  1015.7500   2000.0000     20.3621     15.4039   2000.0000
  1016.0000   2000.0000     20.2198     14.6409   2000.0000
  1016.2500   2000.0000     19.7029     14.1397   2000.0000
  1016.5000   2000.0000     18.9035     13.9418   2000.0000
  1016.7500   2000.0000     18.0400     14.0972   2000.0000
  1017.0000   2000.0000     17.3107     14.6204   2000.0000
  1017.2500   2000.0000     16.8102     15.4523   2000.0000
  1017.5000   2000.0000     16.5364     16.4332   2000.0000
  1017.7500   2000.0000     16.4331     17.3252   2000.0000
  1018.0000   2000.0000     16.4301     17.9190   2000.0000
  1018.2500   2000.0000     16.4687     18.1575   2000.0000
  1018.5000   2000.0000     16.5120     18.1532   2000.0000
  1018.7500   2000.0000     16.5423     18.0821   2000.0000
  1019.0000   2000.0000     16.5516     18.0639   2000.0000
  1019.2500   2000.0000     16.5325     18.1054   2000.0000
  1019.5000   2000.0000     16.4774     18.1086   2000.0000
  1019.7500   2000.0000     16.3838     17.9365   2000.0000
  1020.0000   2000.0000     16.2604     17.5108   2000.0000
  1020.2500   2000.0000     16.1222     16.8686   2000.0000
  1020.5000   2000.0000     15.9806     16.1284   2000.0000
  1020.7500   2000.0000     15.8366     15.4095   2000.0000
  1021.0000   2000.0000     15.6840     14.7815   2000.0000
  1021.2500   2000.0000     15.5194     14.2644   2000.0000
  1021.5000   2000.0000     15.3489     13.8543   2000.0000
  1021.7500   2000.0000     15.1852     13.5442   2000.0000
  1022.0000   2000.0000     15.0387     13.3289   2000.0000
