~Version Information
VERS.                      2.0: CWLS Log ASCII Standard - VERSION 2.0
WRAP.                       NO: One line per depth step
~Well Information Block
STRT.FT               483.0000: 
STOP.FT              1702.5000: 
STEP.FT                 0.2500: 
NULL.                -999.2500: 
COMP.          Pioneer Natural Resources: COMPANY
WELL.            Mad Dog 42-31: WELL
FLD.           Purgatorie River: FIELD
LOC.           2064' FNL & 479' FEL: LOCATION
PROV.                 Colorado: PROVINCE
CNTY.               Las Animas: COUNTRY
SRVC.                         : SERVICE COMPANY
DATE.          Sun Oct 10 04:26:24 2004: LOG DATE
UWI.           05 071 08195 00: UNIQUE WELL ID
~Curve Information Block
DEPT.FT            0 000 00 00: Depth
LTEN.lb                       : Surface Line Tension
SN.Ohm-m                      : IEL Short Normal
SP.mV                         : IEL Spontaneous Potential
DIR.Ohm-m                     : IEL Induction Resistivity
GR.GAPI                       : Gamma Ray
~Parameter Information Block
~A  Depth       LTEN         SN          SP         DIR          GR     
# ...
   735.0000    584.4238     42.6845   -212.9303     36.5294     87.4115
   735.2500    583.8349     43.1798   -212.6494     37.9741     87.8461
   735.5000    584.1017     43.4236   -212.4346     39.3746     88.5649
   735.7500    585.3218     43.4906   -212.3259     40.6321     88.9580
   736.0000    587.7662     43.4228   -212.3219     41.4990     90.1883
   736.2500    590.9580     43.2339   -212.3987     41.7461     91.9011
   736.5000    593.7065     42.9372   -212.5316     41.3942     95.2819
   736.7500    594.8152     42.5681   -212.7099     40.7626     97.0759
   737.0000    593.3198     42.1835   -212.9444     40.2687     97.8707
   737.2500    588.6674     41.8421   -213.2634     40.1767     97.3012
   737.5000    581.6893     41.5832   -213.7018     40.4527     95.6648
   737.7500    575.2002     41.4170   -214.2845     40.7763     94.1554
   738.0000    572.5952     41.3320   -215.0183     40.7439     90.7603
   738.2500    575.2931     41.3104   -215.8793     40.1968     87.5977
   738.5000    581.5062     41.3401   -216.8061     39.3447     82.0699
   738.7500    587.6821     41.4135   -217.7018     38.5424     78.4705
   739.0000    591.4464     41.5203   -218.4438     38.0127     73.9372
   739.2500    593.2137     41.6422   -218.8951     37.7886     71.4587
   739.5000    594.9261     41.7588   -218.9377     37.8415     67.9343
   739.7500    597.6524     41.8574   -218.4975     38.2026     65.4782
   740.0000    600.7742     41.9353   -217.5714     38.9286     61.9488
   740.2500    603.1788     41.9907   -216.2384     39.9384     60.0546
   740.5000    604.6079     42.0099   -214.6473     40.8967     58.0224
   740.7500    605.7823     41.9627   -212.9912     41.3311     56.9671
   741.0000    607.7685     41.8089   -211.4671     40.9585     55.6259
   741.2500    611.1779     41.5151   -210.2303     39.8860     55.1135
   741.5000    615.1934     41.0708   -209.3699     38.4513     55.3026
   741.7500    617.4807     40.4959   -208.8956     36.9472     55.8731
   742.0000    615.9437     39.8383   -208.7488     35.5140     56.5477
   742.2500    610.7645     39.1626   -208.8233     34.2033     56.5670
   742.5000    604.4070     38.5350   -209.0018     33.0775     56.1233
   742.7500    599.7018     38.0045   -209.1860     32.2696     55.8291
   743.0000    597.9927     37.5906   -209.3186     31.9641     55.8757
   743.2500    598.7824     37.2835   -209.4024     32.3053     56.4101
   743.5000    600.7117     37.0554   -209.4914     33.2826     58.1026
   743.7500    602.5688     36.8764   -209.6829     34.6568     59.7857
   744.0000    603.5364     36.7263   -210.0800     35.9893     62.7875
   744.2500    603.2424     36.6036   -210.7620     36.8300     64.7495
   744.5000    601.9683     36.5278   -211.7542     36.9762     67.0743
   744.7500    600.4681     36.5302   -213.0146     36.5648     68.0754
   745.0000    599.4561     36.6342   -214.4386     35.9202     68.7738
   745.2500    599.4412     36.8356   -215.8836     35.3368     68.7494
   745.5000    600.7344     37.1016   -217.2026     34.9816     68.1537
   745.7500    603.0983     37.3904   -218.2740     34.9343     67.6257
   746.0000    605.5328     37.6807   -219.0186     35.2688     67.2409
   746.2500    606.8832     37.9870   -219.4031     36.0689     67.6021
   746.5000    606.6441     38.3509   -219.4354     37.3459     69.3756
   746.7500    605.0362     38.8139   -219.1498     38.9449     71.2091
   747.0000    602.6320     39.3982   -218.5950     40.5296     73.8050
   747.2500    600.2318     40.1105   -217.8302     41.6927     74.4517
   747.5000    598.8585     40.9662   -216.9251     42.1254     72.6532
   747.7500    599.4052     42.0069   -215.9581     41.7405     69.8471
   748.0000    602.1651     43.2920   -215.0211     40.6874     64.8762
   748.2500    606.6332     44.8653   -214.2069     39.2555     61.8445
   748.5000    611.5327     46.7128   -213.6049     37.7340     57.5961
   748.7500    615.2339     48.7245   -213.2819     36.3062     54.3426
   749.0000    616.6484     50.6707   -213.2597     35.0337     48.3306
   749.2500    615.9625     52.2056   -213.5089     33.8898     44.0610
   749.5000    614.3043     52.9227   -213.9486     32.7992     39.0733
   749.7500    612.5604     52.4675   -214.4616     31.6689     37.8355
   750.0000    610.7200     50.6732   -214.9261     30.4256     40.6430
   750.2500    608.5453     47.6440   -215.2442     29.0473     46.1596
   750.5000    606.6703     43.7319   -215.3686     27.5655     59.9648
   750.7500    606.6035     39.4135   -215.3095     26.0355     72.1499
   751.0000    609.2621     35.1392   -215.1237     24.5129     92.2337
   751.2500    613.5745     31.2322   -214.8870     23.0445    104.7987
   751.5000    616.9954     27.8660   -214.6717     21.6633    119.6055
   751.7500    617.5622     25.0956   -214.5331     20.3872    126.2510
   752.0000    615.2234     22.9001   -214.5022     19.2260    132.5943
   752.2500    611.4171     21.2123   -214.6033     18.1957    135.7284
   752.5000    607.9172     19.9394   -214.8553     17.3168    140.4086
   752.7500    606.0101     18.9814   -215.2767     16.5982    143.6464
   753.0000    606.0368     18.2513   -215.8721     16.0214    147.9057
   753.2500    607.2181     17.6909   -216.6172     15.5394    149.5840
   753.5000    608.0432     17.2729   -217.4477     15.0972    148.8319
   753.7500    607.5590     16.9882   -218.2632     14.6608    145.6288
   754.0000    606.5613     16.8261   -218.9505     14.2381    137.7820
   754.2500    606.9615     16.7593   -219.4130     13.8705    132.2832
   754.5000    609.5923     16.7405   -219.5918     13.5943    127.2575
   754.7500    613.0189     16.7099   -219.4700     13.4006    127.5714
   755.0000    614.7800     16.6072   -219.0697     13.2257    134.0553
   755.2500    613.4959     16.3830   -218.4282     12.9874    141.3106
   755.5000    609.5583     16.0094   -217.5789     12.6444    152.9623
   755.7500    604.2512     15.4883   -216.5518     12.2254    159.0107
   756.0000    598.7074     14.8520   -215.3790     11.7996    163.6390
   756.2500    593.6926     14.1505   -214.1102     11.4264    164.3579
   756.5000    589.8406     13.4292   -212.8248     11.1268    164.6420
   756.7500    587.5421     12.7112   -211.6282     10.8846    165.5764
   757.0000    586.4843     11.9965   -210.6395     10.6589    168.0992
   757.2500    585.7233     11.2784   -209.9655     10.4020    169.5333
   757.5000    584.6412     10.5631   -209.6655     10.0815    169.8574
   757.7500    583.8549      9.8808   -209.7334      9.7010    168.8821
   758.0000    584.8944      9.2854   -210.0911      9.3033    166.7026
   758.2500    588.7565      8.8441   -210.5995      8.9472    165.2933
   758.5000    594.7021      8.6143   -211.0956      8.6768    163.5278
   758.7500    600.6539      8.6134   -211.4330      8.5045    162.6784
   759.0000    604.8715      8.7988   -211.5220      8.4137    162.2805
   759.2500    607.0093      9.0767   -211.3578      8.3728    162.7742
   759.5000    607.5123      9.3407   -211.0185      8.3500    164.3139
   759.7500    606.6199      9.5145   -210.6389      8.3243    165.3127
   760.0000    604.3578      9.5769   -210.3671      8.2892    165.9497
   760.2500    601.1694      9.5606   -210.3211      8.2510    165.7716
   760.5000    598.2315      9.5337   -210.5487      8.2229    165.0586
   760.7500    597.1172      9.5708   -211.0182      8.2184    164.5652
   761.0000    598.9560      9.7219   -211.6277      8.2481    164.2556
   761.2500    603.4681      9.9915   -212.2400      8.3209    164.5336
   761.5000    608.5673     10.3422   -212.7245      8.4483    165.1659
   761.7500    611.3468     10.7207   -212.9940      8.6465    164.8249
   762.0000    610.2787     11.0918   -213.0246      8.9368    161.8368
   762.2500    606.5755     11.4593   -212.8494      9.3412    158.3431
   762.5000    602.9594     11.8648   -212.5367      9.8744    152.5447
   762.7500    601.0930     12.3737   -212.1583     10.5336    149.2517
