~Version Information
VERS.                      2.0: CWLS Log ASCII Standard - VERSION 2.0
WRAP.                       NO: One line per depth step
~Well Information Block
STRT.FT               440.0000: 
STOP.FT              1001.5000: 
STEP.FT                 0.1000: 
NULL.                -999.2500: 
COMP.          Pioneer Natural Resources: COMPANY
WELL.              Dylan 42-25: WELL
FLD.           Purgatoire River: FIELD
LOC.           2160' FNL & 855' FEL: LOCATION
PROV.                 Colorado: PROVINCE
CNTY.               Las Animas: COUNTRY
SRVC.                Patterson: SERVICE COMPANY
DATE.          Mon Apr 25 09:31:16 2005: LOG DATE
UWI.           05 071 08229 00: UNIQUE WELL ID
~Curve Information Block
DEPT.FT            0 000 00 00: Depth
DCAL.in                       : CDL Caliper
RHOB.g/cc                     : CDL Bulk Density
RHOC.g/cc                     : CDL Density Correction
DPOR.pu                       : CDL Density Porosity
GR.GAPI                       : Gamma Ray
NPOR.pu                       : Neutron Porosity
~Parameter Information Block
~A  Depth       DCAL        RHOB        RHOC        DPOR         GR         NPOR    
# ...
   699.2000      7.9348      2.4023      0.0757     15.0097    104.6410     29.2145
   699.3000      7.9473      2.4135      0.1080     14.3343    105.1958     30.3382
   699.4000      7.9473      2.4310      0.1364     13.2720    105.2791     31.3229
   699.5000      7.9445      2.4433      0.1391     12.5255    103.8214     31.7933
   699.6000      7.9445      2.4381      0.1296     12.8449    102.6579     31.7063
   699.7000      7.9445      2.4229      0.1218     13.7625    104.0067     31.0449
   699.8000      7.9119      2.4181      0.1069     14.0529    106.0234     29.9455
   699.9000      7.9119      2.4241      0.1412     13.6908    107.7336     28.6346
   700.0000      7.8867      2.4308      0.0522     13.2857    109.0629     27.5572
   700.1000      7.8867      2.4499      0.0466     12.1293    107.3771     27.2001
   700.2000      7.8867      2.4762      0.1293     10.5311    102.9152     27.5883
   700.3000      7.8917      2.4819      0.1085     10.1899     98.7588     28.2086
   700.4000      7.8917      2.4741      0.0440     10.6613     97.9418     28.5015
   700.5000      7.9109      2.4715      0.0591     10.8185     99.2540     28.4956
   700.6000      7.9109      2.4683      0.0525     11.0097     99.5161     28.5514
   700.7000      7.9109      2.4609      0.0382     11.4603     99.1350     28.9931
   700.8000      7.9386      2.4501      0.0403     12.1149    100.2536     29.6804
   700.9000      7.9386      2.4307      0.0166     13.2936    103.3647     29.6603
   701.0000      7.9237      2.4078     -0.0149     14.6789    105.0818     28.5682
   701.1000      7.9237      2.4033     -0.0022     14.9492    102.4444     27.7088
   701.2000      7.9237      2.4228      0.0370     13.7694     99.6361     27.6767
   701.3000      7.9150      2.4419      0.0440     12.6102    102.4960     27.5329
   701.4000      7.9150      2.4444      0.0339     12.4630    107.3728     27.2217
   701.5000      7.9186      2.4385      0.0037     12.8204    107.2140     27.4001
   701.6000      7.9186      2.4293      0.0328     13.3760    102.7599     28.0142
   701.7000      7.9186      2.4154      0.0162     14.2192    100.2503     28.4365
   701.8000      7.9383      2.4067     -0.0045     14.7425    103.6629     28.4687
   701.9000      7.9383      2.4117      0.0242     14.4440    109.4360     28.7625
   702.0000      7.9433      2.4195      0.0648     13.9698    112.0484     29.6001
   702.1000      7.9433      2.4200      0.0053     13.9409    109.2948     30.2724
   702.2000      7.9433      2.4201      0.0431     13.9314    102.7498     29.9605
   702.3000      7.9521      2.4213      0.0677     13.8608     96.4356     28.5762
   702.4000      7.9521      2.4211      0.0496     13.8735     92.0776     27.2307
   702.5000      7.9594      2.4252      0.0550     13.6266     87.6202     27.0195
   702.6000      7.9594      2.4300      0.0772     13.3332     85.2006     27.8851
   702.7000      7.9594      2.4294      0.0376     13.3708     86.1090     29.0765
   702.8000      7.9413      2.4265      0.0676     13.5451     87.4194     30.0234
   702.9000      7.9413      2.4198      0.0594     13.9494     89.1578     30.4493
   703.0000      7.9147      2.4077      0.0391     14.6843     90.2629     29.8861
   703.1000      7.9147      2.3898      0.0482     15.7710     89.2158     28.6580
   703.2000      7.9147      2.3439      0.0407     18.5542     89.1386     28.0985
   703.3000      7.9118      2.2352      0.0456     25.1367     90.6007     28.8013
   703.4000      7.9118      2.0766     -0.0759     34.7518     90.6700     29.9759
   703.5000      7.9224      1.9311     -0.1208     43.5701     89.6535     30.7892
   703.6000      7.9224      1.8258     -0.1155     49.9532     88.5416     31.2138
   703.7000      7.9224      1.7444     -0.1252     54.8843     87.2487     31.1211
   703.8000      7.9272      1.6943     -0.1939     57.9205     87.4945     30.1943
   703.9000      7.9272      1.7038     -0.2106     57.3458     88.3520     29.2534
   704.0000      7.9366      1.7727     -0.0596     53.1726     85.1717     28.9699
   704.1000      7.9366      1.8804     -0.0319     46.6395     78.6927     29.0268
   704.2000      7.9366      2.0163      0.1102     38.4049     76.3567     28.9354
   704.3000      7.9761      2.1608      0.2103     29.6510     79.4891     28.4318
   704.4000      7.9761      2.2831      0.2518     22.2368     81.9946     27.9689
   704.5000      7.9938      2.3685      0.2518     17.0608     80.8715     28.1404
   704.6000      7.9938      2.4242      0.1525     13.6846     79.4616     29.0686
   704.7000      7.9938      2.4560      0.1892     11.7573     79.7200     30.6358
   704.8000      7.9047      2.4630      0.1264     11.3357     79.2419     32.0179
   704.9000      7.9047      2.4624      0.1032     11.3682     78.2633     32.0713
   705.0000      7.8443      2.4830      0.0541     10.1217     79.5110     31.2109
   705.1000      7.8443      2.5270      0.1055      7.4553     81.1714     30.6568
   705.2000      7.8443      2.5646      0.1272      5.1771     79.6975     30.2213
   705.3000      7.8600      2.5819      0.0737      4.1286     78.4981     29.2617
   705.4000      7.8600      2.5964      0.1252      3.2496     81.7585     28.0872
   705.5000      7.8830      2.6169      0.1280      2.0082     85.7281     27.1962
   705.6000      7.8830      2.6341      0.1016      0.9666     86.4169     26.7437
   705.7000      7.8830      2.6354      0.1212      0.8843     85.9133     26.7883
   705.8000      7.9202      2.6149      0.0834      2.1251     86.6387     26.8594
   705.9000      7.9202      2.5831      0.0588      4.0574     87.8577     26.3135
   706.0000      7.8985      2.5546      0.0366      5.7832     87.3227     25.2641
   706.1000      7.8985      2.5357      0.0315      6.9275     84.0267     24.4773
   706.2000      7.8985      2.5257      0.0107      7.5339     81.1066     24.8230
   706.3000      7.8845      2.5242     -0.0034      7.6264     82.3195     26.2790
   706.4000      7.8845      2.5336      0.0589      7.0530     84.7791     27.3933
   706.5000      7.9103      2.5525      0.0128      5.9118     83.2265     27.2208
   706.6000      7.9103      2.5619      0.0871      5.3405     80.2176     26.4304
   706.7000      7.9103      2.5428      0.0530      6.4970     82.4810     25.9507
   706.8000      7.9082      2.5140     -0.0044      8.2409     88.2893     26.3938
   706.9000      7.9082      2.5069      0.0356      8.6753     92.2757     27.4319
   707.0000      7.9111      2.5249      0.0280      7.5842     95.8119     28.2452
   707.1000      7.9111      2.5453      0.0759      6.3434     98.9470     28.4635
   707.2000      7.9111      2.5393      0.0581      6.7066     95.1961     27.8870
   707.3000      7.9331      2.5113      0.0174      8.4055     85.7669     26.7780
   707.4000      7.9331      2.5007     -0.0410      9.0490     81.2831     25.5314
   707.5000      7.9223      2.5229      0.0724      7.7055     83.5028     24.8314
   707.6000      7.9223      2.5483      0.0460      6.1643     86.1917     25.7352
   707.7000      7.9223      2.5533      0.0844      5.8621     88.5981     27.5090
   707.8000      7.9226      2.5464      0.0325      6.2791     93.8774     28.2163
   707.9000      7.9226      2.5429      0.1062      6.4928    102.4537     27.5479
   708.0000      7.9121      2.5432      0.0481      6.4748    108.0620     26.4999
   708.1000      7.9121      2.5397      0.0788      6.6856    104.7137     25.8851
   708.2000      7.9121      2.5319      0.0723      7.1605     96.2291     25.6096
   708.3000      7.9130      2.5424      0.0439      6.5242     88.5502     25.2331
   708.4000      7.9130      2.5953      0.0440      3.3164     83.6746     24.9929
   708.5000      7.9147      2.6871      0.0832     -2.2496     83.7040     25.2260
   708.6000      7.9147      2.8041      0.1221     -9.3393     87.1361     25.5358
   708.7000      7.9147      2.9472      0.1519    -18.0092     86.3547     25.4591
