~Version Information
VERS.                      2.0: CWLS Log ASCII Standard - VERSION 2.0
WRAP.                       NO: One line per depth step
~Well Information Block
STRT.FT               575.0000: 
STOP.FT              2016.2000: 
STEP.FT                 0.1000: 
NULL.                -999.2500: 
COMP.          Pioneer Natural Resources: COMPANY
WELL.          Bucksnort 41-35: WELL
FLD.           Purgatoire River: FIELD
LOC.           117' FNL & 463' FEL--: LOCATION
PROV.                 Colorado: PROVINCE
CNTY.               Las Animas: COUNTRY
SRVC.                Patterson: SERVICE COMPANY
DATE.          Thu Jul 21 15:01:23 2005: LOG DATE
UWI.           05 071 08401 00: UNIQUE WELL ID
~Curve Information Block
DEPT.FT            0 000 00 00: Depth
DCAL.in                       : CDL Caliper
RHOB.g/cc                     : CDL Bulk Density
RHOC.g/cc                     : CDL Density Correction
DPOR.pu                       : CDL Density Porosity
NPOR.pu                       : Neutron Porosity
GR.GAPI                       : Gamma Ray
~Parameter Information Block
~A  Depth       DCAL        RHOB        RHOC        DPOR        NPOR         GR     
# ...
  1794.2000      7.8714      2.5243      0.0778      7.6170     30.3182    115.8556
  1794.3000      7.8639      2.5060      0.0184      8.7270     30.3822    125.7434
  1794.4000      7.8639      2.4965      0.0341      9.3031     30.6639    129.7361
  1794.5000      7.8560      2.4973      0.0550      9.2561     30.8765    125.5603
  1794.6000      7.8560      2.4983      0.0118      9.1930     30.5050    115.5211
  1794.7000      7.8560      2.5034      0.0199      8.8874     29.6855    108.0935
  1794.8000      7.8526      2.5209      0.0357      7.8217     29.0655    110.2444
  1794.9000      7.8526      2.5471      0.0763      6.2384     29.0178    117.5021
  1795.0000      7.8511      2.5614      0.1069      5.3717     29.3527    122.2081
  1795.1000      7.8511      2.5478      0.0626      6.1966     29.6738    125.7569
  1795.2000      7.8511      2.5228      0.0407      7.7067     29.7495    128.1412
  1795.3000      7.8508      2.5156      0.0498      8.1460     29.5636    127.5922
  1795.4000      7.8508      2.5239      0.0794      7.6443     29.4523    126.4874
  1795.5000      7.8549      2.5268      0.0335      7.4644     29.7714    126.4416
  1795.6000      7.8549      2.5197      0.0819      7.8944     29.9900    128.0887
  1795.7000      7.8549      2.5124      0.0196      8.3380     29.5815    129.6580
  1795.8000      7.8590      2.5151      0.0436      8.1734     29.0597    129.0449
  1795.9000      7.8590      2.5228      0.0527      7.7094     28.9907    126.7293
  1796.0000      7.8583      2.5269      0.0570      7.4625     29.1419    126.7298
  1796.1000      7.8583      2.5343      0.0425      7.0101     29.2323    132.6490
  1796.2000      7.8583      2.5508      0.0820      6.0096     29.3855    141.6733
  1796.3000      7.8555      2.5651      0.0651      5.1437     29.5684    148.6821
  1796.4000      7.8555      2.5694      0.0562      4.8840     29.6668    152.1400
  1796.5000      7.8535      2.5718      0.0609      4.7409     29.7859    152.0470
  1796.6000      7.8535      2.5798      0.0741      4.2558     29.9613    147.3004
  1796.7000      7.8535      2.5876      0.1208      3.7838     30.0256    140.4473
  1796.8000      7.8505      2.5858      0.0825      3.8923     29.8344    135.2161
  1796.9000      7.8505      2.5711      0.0800      4.7818     29.7364    132.8727
  1797.0000      7.8487      2.5494      0.0312      6.0964     29.9810    131.4794
  1797.1000      7.8487      2.5301      0.0719      7.2652     30.1117    126.5971
  1797.2000      7.8487      2.5145      0.0232      8.2139     29.9936    118.6444
  1797.3000      7.8505      2.5082      0.0154      8.5919     30.1668    113.4235
  1797.4000      7.8505      2.5128      0.0678      8.3124     30.5463    110.1523
  1797.5000      7.8538      2.5113      0.0498      8.4054     30.3196    106.0360
  1797.6000      7.8538      2.4927      0.0441      9.5363     29.4397    108.4113
  1797.7000      7.8538      2.4648     -0.0095     11.2218     28.8064    115.7956
  1797.8000      7.8573      2.4450      0.0160     12.4226     28.7962    116.0952
  1797.9000      7.8573      2.4422      0.0464     12.5918     28.9295    107.7975
  1798.0000      7.8625      2.4512      0.0505     12.0513     29.1333     98.6997
  1798.1000      7.8625      2.4552      0.0771     11.8037     29.7772     96.8600
  1798.2000      7.8625      2.4426      0.0628     12.5721     30.6047    102.9373
  1798.3000      7.8699      2.4223      0.0290     13.8008     30.9900    109.0501
  1798.4000      7.8699      2.4074      0.0573     14.7004     30.6377    111.1557
  1798.5000      7.8767      2.4035      0.0089     14.9391     29.5627    110.6867
  1798.6000      7.8767      2.4181      0.0240     14.0559     28.3471    107.5866
  1798.7000      7.8767      2.4472      0.0856     12.2900     27.7860    102.6509
  1798.8000      7.8833      2.4731      0.0980     10.7209     27.9137     99.5684
  1798.9000      7.8833      2.4861      0.1073      9.9315     27.8706    101.0787
  1799.0000      7.8919      2.4899      0.0910      9.7044     27.5692    105.3824
  1799.1000      7.8919      2.4938      0.0990      9.4640     27.7000    109.3935
  1799.2000      7.8919      2.5070      0.0566      8.6678     28.0691    112.6556
  1799.3000      7.8998      2.5216      0.1093      7.7843     28.1263    117.0976
  1799.4000      7.8998      2.5189      0.0575      7.9453     28.1339    122.3534
  1799.5000      7.9019      2.5066      0.0176      8.6907     28.4788    126.0869
  1799.6000      7.9019      2.5028      0.0519      8.9239     28.7924    127.5646
  1799.7000      7.9019      2.5054      0.0320      8.7652     28.9003    126.9805
  1799.8000      7.9015      2.5120      0.0192      8.3651     29.3680    125.7916
  1799.9000      7.9015      2.5200      0.0603      7.8777     29.9355    126.7033
  1800.0000      7.8955      2.5229      0.0564      7.7045     29.6867    128.5535
  1800.1000      7.8955      2.5304      0.0307      7.2504     29.0442    123.9483
  1800.2000      7.8955      2.5457      0.0735      6.3185     28.7771    109.9394
  1800.3000      7.8840      2.5491      0.0677      6.1182     28.7129     95.2309
  1800.4000      7.8840      2.5397      0.0305      6.6850     29.0400     88.6001
  1800.5000      7.8780      2.5341      0.0757      7.0264     29.7450     91.6832
  1800.6000      7.8780      2.5326      0.0207      7.1149     29.9474    102.5321
  1800.7000      7.8780      2.5316      0.0445      7.1778     29.8471    114.9864
  1800.8000      7.8778      2.5248      0.0511      7.5855     30.2698    121.7374
  1800.9000      7.8778      2.5071      0.0353      8.6605     30.8606    120.3440
  1801.0000      7.8769      2.4875     -0.0004      9.8504     31.0140    115.9925
  1801.1000      7.8769      2.4767      0.0092     10.5052     31.0087    115.8456
  1801.2000      7.8769      2.4728      0.0065     10.7374     31.1709    117.9341
  1801.3000      7.8759      2.4699      0.0245     10.9136     31.1880    116.1121
  1801.4000      7.8759      2.4694     -0.0108     10.9433     30.7022    113.9077
  1801.5000      7.8761      2.4718      0.0382     10.7971     29.8180    114.9619
  1801.6000      7.8761      2.4686      0.0115     10.9960     29.2030    118.0590
  1801.7000      7.8761      2.4598      0.0335     11.5250     29.1921    119.9483
  1801.8000      7.8747      2.4557      0.0206     11.7767     29.2598    115.5056
  1801.9000      7.8747      2.4651      0.0336     11.2057     29.2634    107.2014
  1802.0000      7.8724      2.4907      0.0554      9.6535     29.5512    100.1554
  1802.1000      7.8724      2.5260      0.1006      7.5130     30.1530     97.9329
  1802.2000      7.8724      2.5521      0.1237      5.9322     30.6335    100.7864
  1802.3000      7.8728      2.5511      0.0964      5.9928     30.7701    102.4015
  1802.4000      7.8728      2.5299      0.0782      7.2761     30.9602    100.9034
  1802.5000      7.8746      2.5071      0.0566      8.6576     31.2724    100.9428
  1802.6000      7.8746      2.4946      0.0133      9.4209     31.2423    103.0354
  1802.7000      7.8746      2.4976      0.0440      9.2365     30.7906    105.1870
  1802.8000      7.8761      2.5091      0.0586      8.5377     30.3216    109.3736
  1802.9000      7.8761      2.5195      0.0343      7.9067     30.0414    119.2810
  1803.0000      7.8758      2.5231      0.0663      7.6915     29.7960    131.1960
  1803.1000      7.8758      2.5138      0.0569      8.2540     29.3124    133.1864
  1803.2000      7.8758      2.5039     -0.0055      8.8568     28.6819    121.8040
  1803.3000      7.8752      2.5104      0.0581      8.4599     28.4886    110.0774
  1803.4000      7.8752      2.5211      0.0610      7.8100     28.7811    107.5066
  1803.5000      7.8765      2.5166      0.0476      8.0866     29.2941    108.4791
  1803.6000      7.8765      2.4947      0.0369      9.4145     30.2068    106.4414
  1803.7000      7.8765      2.4645      0.0120     11.2442     31.2405    104.2055
