~Version Information
VERS.                      2.0: CWLS Log ASCII Standard - VERSION 2.0
WRAP.                       NO: One line per depth step
~Well Information Block
STRT.FT               350.0000: 
STOP.FT              2264.0000: 
STEP.FT                 0.1000: 
NULL.                -999.2500: 
COMP.          Pioneer Natural Resources: COMPANY
WELL.             Warrior 32-1: WELL
FLD.           Purgatoire River: FIELD
LOC.           2624' FNL & 2392' FEL: LOCATION
PROV.                 Colorado: PROVINCE
CNTY.               Las Animas: COUNTRY
SRVC.                Patterson: SERVICE COMPANY
DATE.          Tue Oct 05 06:54:20 2004: LOG DATE
UWI.           05 071 08176 00: UNIQUE WELL ID
~Curve Information Block
DEPT.FT            0 000 00 00: Depth
DCAL.in                       : CDL Caliper
RHOB.g/cc                     : CDL Bulk Density
RHOC.g/cc                     : CDL Density Correction
DPOR.pu                       : CDL Density Porosity
NPOR.pu                       : Neutron Porosity
GR.GAPI                       : Gamma Ray
~Parameter Information Block
~A  Depth       DCAL        RHOB        RHOC        DPOR        NPOR         GR     
# ...
  2241.2000      7.7060      2.3724      0.0101     16.8248     14.7160   -999.2500
  2241.3000      7.6999      2.3841      0.0186     16.1128     15.0121   -999.2500
  2241.4000      7.6999      2.3957      0.0456     15.4140     15.2595   -999.2500
  2241.5000      7.6965      2.3979      0.0340     15.2806     15.6443   -999.2500
  2241.6000      7.6965      2.3957      0.0204     15.4096     15.9708   -999.2500
  2241.7000      7.6965      2.3960      0.0601     15.3954     15.8693   -999.2500
  2241.8000      7.6876      2.4028      0.0242     14.9844     15.7810   -999.2500
  2241.9000      7.6876      2.4209      0.0732     13.8819     16.5180   -999.2500
  2242.0000      7.6692      2.4490      0.0676     12.1834     17.7124   -999.2500
  2242.1000      7.6692      2.4823      0.0684     10.1666     18.6530   -999.2500
  2242.2000      7.6692      2.5135      0.1081      8.2708     19.1866   -999.2500
  2242.3000      7.6526      2.5363      0.1114      6.8879     19.2014   -999.2500
  2242.4000      7.6526      2.5518      0.1006      5.9515     19.0022   -999.2500
  2242.5000      7.6481      2.5558      0.1228      5.7087     19.3043   -999.2500
  2242.6000      7.6481      2.5467      0.0511      6.2583     20.4043   -999.2500
  2242.7000      7.6481      2.5415      0.0578      6.5778     21.8678   -999.2500
  2242.8000      7.6540      2.5479      0.0472      6.1865     22.7684   -999.2500
  2242.9000      7.6540      2.5579      0.0467      5.5803     22.7516   -999.2500
  2243.0000      7.6633      2.5663      0.0900      5.0724     22.2607   -999.2500
  2243.1000      7.6633      2.5730      0.0695      4.6695     21.6632   -999.2500
  2243.2000      7.6633      2.5802      0.0590      4.2291     21.3090   -999.2500
  2243.3000      7.6672      2.5844      0.0745      3.9750     21.2955   -999.2500
  2243.4000      7.6672      2.5812      0.0733      4.1702     21.2863   -999.2500
  2243.5000      7.6678      2.5782      0.0587      4.3519     21.4004   -999.2500
  2243.6000      7.6678      2.5762      0.1045      4.4729     23.0777   -999.2500
  2243.7000      7.6678      2.5640      0.0976      5.2127     28.4575   -999.2500
  2243.8000      7.6739      2.5492      0.0571      6.1093     36.4541   -999.2500
  2243.9000      7.6739      2.5523      0.0747      5.9201     42.4796   -999.2500
  2244.0000      7.6721      2.5696      0.0961      4.8727     44.8324   -999.2500
  2244.1000      7.6721      2.5819      0.0764      4.1247     45.3124   -999.2500
  2244.2000      7.6721      2.5877      0.0967      3.7771     45.3637   -999.2500
  2244.3000      7.6489      2.6036      0.1051      2.8137     45.3666   -999.2500
  2244.4000      7.6489      2.6376      0.1685      0.7536   -999.2500   -999.2500
  2244.5000      7.6246      2.6711      0.1834     -1.2818   -999.2500   -999.2500
  2244.6000      7.6246      2.6831      0.1871     -2.0060   -999.2500   -999.2500
  2244.7000      7.6246      2.6750      0.1442     -1.5135   -999.2500   -999.2500
  2244.8000      7.6127      2.6655      0.0908     -0.9397   -999.2500   -999.2500
  2244.9000      7.6127      2.6580      0.1302     -0.4860   -999.2500   -999.2500
  2245.0000      7.6044      2.6348      0.1106      0.9201   -999.2500   -999.2500
  2245.1000      7.6044      2.5982      0.0640      3.1407   -999.2500   -999.2500
  2245.2000      7.6044      2.5709      0.0312      4.7950   -999.2500   -999.2500
  2245.3000      7.5961      2.5597      0.0503      5.4740   -999.2500   -999.2500
  2245.4000      7.5961      2.5556      0.0571      5.7196   -999.2500   -999.2500
  2245.5000      7.5928      2.5516      0.0648      5.9632   -999.2500   -999.2500
  2245.6000      7.5928      2.5452      0.0425      6.3519   -999.2500   -999.2500
  2245.7000      7.5928      2.5378      0.0436      6.8024   -999.2500   -999.2500
  2245.8000      7.5977      2.5308      0.0661      7.2215   -999.2500   -999.2500
  2245.9000      7.5977      2.5318      0.0068      7.1612   -999.2500   -999.2500
  2246.0000      7.6095      2.5481      0.0236      6.1728   -999.2500   -999.2500
  2246.1000      7.6095      2.5612      0.1125      5.3813   -999.2500   -999.2500
  2246.2000      7.6095      2.5468      0.0688      6.2554   -999.2500   -999.2500
  2246.3000      7.6179      2.5160      0.0098      8.1242   -999.2500   -999.2500
  2246.4000      7.6179      2.4956      0.0113      9.3568   -999.2500   -999.2500
  2246.5000      7.6237      2.4940      0.0660      9.4561   -999.2500   -999.2500
  2246.6000      7.6237      2.5111     -0.0043      8.4153   -999.2500   -999.2500
  2246.7000      7.6237      2.5388      0.0932      6.7404   -999.2500   -999.2500
  2246.8000      7.6274      2.5453      0.0870      6.3463   -999.2500   -999.2500
  2246.9000      7.6274      2.5243      0.0002      7.6180   -999.2500   -999.2500
  2247.0000      7.6115      2.5087      0.0063      8.5632   -999.2500   -999.2500
  2247.1000      7.6115      2.5134      0.0447      8.2781   -999.2500   -999.2500
  2247.2000      7.6115      2.5170      0.0804      8.0599   -999.2500   -999.2500
  2247.3000      7.5525      2.4919      0.0539      9.5810   -999.2500   -999.2500
  2247.4000      7.5525      2.4473      0.0502     12.2820   -999.2500   -999.2500
  2247.5000      7.3784      2.4490     -0.0527     12.1813   -999.2500   -999.2500
  2247.6000      7.3784      2.4387     -0.0337     12.8082   -999.2500   -999.2500
  2247.7000      7.3784      2.0400      0.5364     36.9686   -999.2500   -999.2500
  2247.8000      6.7903      1.1631      0.0400     90.1124   -999.2500   -999.2500
  2247.9000      6.7903      0.3957      0.0400    136.6222   -999.2500   -999.2500
  2248.0000      5.2907      0.0753   -999.2500    156.0424   -999.2500   -999.2500
  2248.1000      5.2907      0.0078   -999.2500    160.1351   -999.2500   -999.2500
  2248.2000      5.2907      0.0004   -999.2500    160.5805   -999.2500   -999.2500
  2248.3000      3.3224      0.0000   -999.2500    160.6061   -999.2500   -999.2500
  2248.4000      3.3224      0.0000   -999.2500    160.6061   -999.2500   -999.2500
  2248.5000      2.2289   -999.2500   -999.2500   -999.2500   -999.2500   -999.2500
  2248.6000      2.2289   -999.2500   -999.2500   -999.2500   -999.2500   -999.2500
  2248.7000      2.2289   -999.2500   -999.2500   -999.2500   -999.2500   -999.2500
  2248.8000      1.9927   -999.2500   -999.2500   -999.2500   -999.2500   -999.2500
  2248.9000      1.9927   -999.2500   -999.2500   -999.2500   -999.2500   -999.2500
  2249.0000      1.9736   -999.2500   -999.2500   -999.2500   -999.2500   -999.2500
  2249.1000      1.9736   -999.2500   -999.2500   -999.2500   -999.2500   -999.2500
  2249.2000      1.9736   -999.2500   -999.2500   -999.2500   -999.2500   -999.2500
  2249.3000   -999.2500   -999.2500   -999.2500   -999.2500   -999.2500   -999.2500
  2249.4000   -999.2500   -999.2500   -999.2500   -999.2500   -999.2500   -999.2500
  2249.5000   -999.2500   -999.2500   -999.2500   -999.2500   -999.2500   -999.2500
  2249.6000   -999.2500   -999.2500   -999.2500   -999.2500   -999.2500   -999.2500
  2249.7000   -999.2500   -999.2500   -999.2500   -999.2500   -999.2500   -999.2500
  2249.8000   -999.2500   -999.2500   -999.2500   -999.2500   -999.2500   -999.2500
  2249.9000   -999.2500   -999.2500   -999.2500   -999.2500   -999.2500   -999.2500
  2250.0000   -999.2500   -999.2500   -999.2500   -999.2500   -999.2500   -999.2500
  2250.1000   -999.2500   -999.2500   -999.2500   -999.2500   -999.2500   -999.2500
  2250.2000   -999.2500   -999.2500   -999.2500   -999.2500   -999.2500   -999.2500
  2250.3000   -999.2500   -999.2500   -999.2500   -999.2500   -999.2500   -999.2500
  2250.4000   -999.2500   -999.2500   -999.2500   -999.2500   -999.2500   -999.2500
  2250.5000   -999.2500   -999.2500   -999.2500   -999.2500   -999.2500   -999.2500
  2250.6000   -999.2500   -999.2500   -999.2500   -999.2500   -999.2500   -999.2500
  2250.7000   -999.2500   -999.2500   -999.2500   -999.2500   -999.2500   -999.2500
