~Version Information
VERS.                      2.0: CWLS Log ASCII Standard - VERSION 2.0
WRAP.                       NO: One line per depth step
~Well Information Block
STRT.FT                -3.0000: 
STOP.FT              1679.2500: 
STEP.FT                 0.2500: 
NULL.                -999.2500: 
COMP.          Evergreen Operating Corp.: COMPANY
WELL.            Rimrock 14-29: WELL
FLD.           Purgatorie River: FIELD
LOC.           945' FSL & 604' FWL--: LOCATION
PROV.                       CO: PROVINCE
CNTY.               Las Animas: COUNTRY
SRVC.                         : SERVICE COMPANY
DATE.          Mon Oct 04 13:02:21 2004: LOG DATE
UWI.           05 071 08136 00: UNIQUE WELL ID
~Curve Information Block
DEPT.FT            0 000 00 00: Depth
GR.GAPI                       : Gamma Ray
CCL.                          : Casing Collar Locator
TT3.usec                      : CBL 3' Travel Time
AMP3.mV                       : CBL 3' Amplitude
~Parameter Information Block
~A  Depth        GR         CCL         TT3         AMP3    
    -3.0000   -999.2500   -999.2500   -999.2500   -999.2500
    -2.7500   -999.2500   -999.2500   -999.2500   -999.2500
    -2.5000   -999.2500   -999.2500   -999.2500   -999.2500
    -2.2500   -999.2500   -999.2500   -999.2500   -999.2500
    -2.0000   -999.2500   -999.2500   -999.2500   -999.2500
    -1.7500   -999.2500   -999.2500   1149.0000      1.3085
    -1.5000   -999.2500   -999.2500   1149.0000      1.2439
    -1.2500   -999.2500   -999.2500   1149.0000      1.2154
    -1.0000   -999.2500   -999.2500   1149.0000      1.2405
    -0.7500   -999.2500   -999.2500   1149.0000      1.3144
    -0.5000   -999.2500   -999.2500   1149.0000      1.4142
    -0.2500   -999.2500   -999.2500   1149.0000      1.5092
     0.0000   -999.2500   -999.2500   1149.0000      1.5731
     0.2500   -999.2500   -999.2500   1149.0000      1.5652
     0.5000   -999.2500   -999.2500   1149.0000      1.5015
     0.7500   -999.2500   -999.2500   1149.0000      1.4153
     1.0000   -999.2500   -999.2500   1149.0000      1.3273
     1.2500   -999.2500   -999.2500   1149.0000      1.2614
     1.5000   -999.2500   -999.2500   1149.0000      1.2375
     1.7500   -999.2500   -999.2500   1149.0000      1.2640
     2.0000   -999.2500   -999.2500   1149.0000      1.3341
     2.2500   -999.2500   -999.2500   1149.0000      1.4276
     2.5000   -999.2500   -999.2500   1149.0000      1.5178
     2.7500   -999.2500   -999.2500   1149.0000      1.5809
     3.0000   -999.2500   -999.2500   1149.0000      1.6033
     3.2500   -999.2500   -999.2500   1149.0000      1.5831
     3.5000   -999.2500   -999.2500   1149.0000      1.5265
     3.7500   -999.2500      0.0000   1149.0000      1.4435
     4.0000   -999.2500      0.0000   1149.0000      1.3484
     4.2500   -999.2500      0.0000   1149.0000      1.2617
     4.5000   -999.2500      0.0000   1149.0000      1.2095
     4.7500   -999.2500      0.0000   1149.0000      1.2254
     5.0000   -999.2500      0.0000   1149.0000      1.3636
     5.2500   -999.2500      0.0000   1149.0000      1.7113
     5.5000   -999.2500      0.0000   1149.0000      2.3664
     5.7500   -999.2500      0.0000   1149.0000      3.3715
     6.0000   -999.2500      0.0000   1149.0000      4.6561
     6.2500   -999.2500      0.0000   1149.0000      6.0549
     6.5000   -999.2500      0.0000   1149.0000      7.3947
     6.7500   -999.2500      0.0000   1149.0000      8.5716
     7.0000   -999.2500      0.0000   1149.0000      9.5623
     7.2500   -999.2500      0.0000   1149.0000     10.3876
     7.5000   -999.2500      0.0000   1149.0000     11.0736
     7.7500   -999.2500      0.0000   1149.0000     11.6466
     8.0000   -999.2500      0.0000   1148.9438     12.1575
     8.2500   -999.2500      0.0000   1148.5773     12.6958
     8.5000     53.0025      0.0000   1146.7159     13.3611
     8.7500     48.8822      0.0000   1139.3530     14.2120
     9.0000     45.8162      0.0000   1116.6705     15.2472
     9.2500     44.7770      0.0000   1062.2463     16.4342
     9.5000     45.9579      0.0000    960.5362     17.7428
     9.7500     48.4797      0.0000    812.4758     19.1462
    10.0000     50.7969      0.0000    644.5669     20.6061
    10.2500     51.7270      0.0000    496.1799     22.0772
    10.5000     51.2902      0.0000    393.9180     23.5369
    10.7500     50.5159      0.0000    338.8518     25.0062
    11.0000     50.3678      0.0000    315.5385     26.5288
    11.2500     50.9185      0.0000    307.6095     28.1197
    11.5000     51.5082      0.0000    305.2685     29.7452
    11.7500     51.4419      0.0000    304.5111     31.3601
    12.0000     50.3882      0.0000    304.1331     32.9530
    12.2500     48.3678      0.0000    303.8420     34.5386
    12.5000     45.7095      0.0000    303.5098     36.1115
    12.7500     42.9413      0.0000    302.9587     37.6338
    13.0000     40.4803      0.0000    301.7676     39.0792
    13.2500     38.5022      0.0000    299.2235     40.4725
    13.5000     37.2381      0.0000    294.6357     41.8676
    13.7500     37.0998      0.0000    288.0100     43.2897
    14.0000     38.1602      0.0000    280.4576     44.7121
    14.2500     39.6275      0.0000    273.6718     46.0834
    14.5000     40.2758      0.0000    268.8314     47.3672
    14.7500     39.5831      0.0000    266.0328     48.5543
    15.0000     38.2720      0.0000    264.6536     49.6434
    15.2500     37.6404      0.0000    264.0110     50.6262
    15.5000     38.4899      0.0000    263.6826     51.5027
    15.7500     40.7556      0.0000    263.4774     52.3036
    16.0000     43.9438      0.0000    263.3187     53.0919
    16.2500     47.5680      0.0000    263.1730     53.9491
    16.5000     51.0352      0.0000    263.0223     54.9477
    16.7500     53.5018      0.0000    262.8603     56.1049
    17.0000     54.3577      0.0000    262.6907     57.3499
    17.2500     53.8744      0.0000    262.5245     58.5476
    17.5000     53.0186      0.0000    262.3724     59.5659
    17.7500     52.5866      0.0000    262.2398     60.3317
    18.0000     52.7403      0.0000    262.1277     60.8629
    18.2500     53.2671      0.0000    262.0347     61.2823
    18.5000     53.9020      0.0000    261.9555     61.7858
    18.7500     54.3316      0.0000    261.8807     62.5405
    19.0000     54.2392      0.0000    261.8001     63.5709
    19.2500     53.6953      0.0000    261.7095     64.7389
    19.5000     53.5390      0.0000    261.6127     65.8424
    19.7500     55.0645      0.0000    261.5185     66.7419
    20.0000     58.8962      0.0000    261.4344     67.4080
    20.2500     63.9773      0.0000    261.3646     67.8834
    20.5000     67.9792      0.0000    261.3105     68.2312
    20.7500     69.1003      0.0000    261.2723     68.5074
    21.0000     67.5481      0.0000    261.2473     68.7484
    21.2500     65.1735      0.0000    261.2298     68.9703
    21.5000     63.6821      0.0000    261.2139     69.1831
    21.7500     63.3835      0.0000    261.1967     69.4019
    22.0000     63.5523      0.0000    261.1779     69.6406
    22.2500     63.4344      0.0000    261.1555     69.8973
    22.5000     62.7365      0.0000    261.1252     70.1563
    22.7500     61.6879      0.0000    261.0850     70.4048
    23.0000     61.0237      0.0000    261.0396     70.6339
    23.2500     61.7205      0.0000    260.9991     70.8196
    23.5000     64.4838      0.0000    260.9718     70.9151
    23.7500     69.2209      0.0000    260.9593     70.8803
    24.0000     74.7751      0.0000    260.9578     70.7217
    24.2500     79.3596      0.0000    260.9615     70.5018
    24.5000     81.7600      0.0000    260.9657     70.3118
    24.7500     82.1512      0.0000    260.9687     70.2319
    25.0000     81.4380      0.0000    260.9702     70.3027
    25.2500     80.1182      0.0000    260.9701     70.5132
    25.5000     78.2898      0.0000    260.9661     70.8075
    25.7500     76.3889      0.0000    260.9561     71.1091
    26.0000     75.2317      0.0000    260.9403     71.3551
    26.2500     75.1898      0.0000    260.9225     71.5176
    26.5000     75.5082      0.0000    260.9067     71.6028
    26.7500     74.7535      0.0000    260.8945     71.6393
    27.0000     72.3202      0.0000    260.8849     71.6678
    27.2500     69.4178      0.0000    260.8759     71.7262
    27.5000     68.2006      0.0000    260.8665     71.8268
    27.7500     69.9840      0.0000    260.8581     71.9443
    28.0000     74.4905      0.0000    260.8532     72.0289
    28.2500     80.3536      0.0000    260.8540     72.0372
    28.5000     85.8482      0.0000    260.8596     71.9647
    28.7500     89.5414      0.0000    260.8670     71.8591
    29.0000     91.0513      0.0000    260.8724     71.7991
    29.2500     91.3263      0.0000    260.8738     71.8452
    29.5000     91.7382      0.0000    260.8725     71.9971
    29.7500     92.7026      0.0000    260.8710     72.2011
    30.0000     93.4097      0.0000    260.8703     72.4004
    30.2500     93.0400      0.0000    260.8692     72.5728
