~Version Information
VERS.                      2.0: CWLS Log ASCII Standard - VERSION 2.0
WRAP.                       NO: One line per depth step
~Well Information Block
STRT.FT                 0.0000: 
STOP.FT              1916.0000: 
STEP.FT                 0.1000: 
NULL.                -999.2500: 
COMP.          Pioneer Natural Resources: COMPANY
WELL.          Blackjack 32-11 Tr: WELL
FLD.           Purgatorie River: FIELD
LOC.           2066' FNL & 1453' FEL: LOCATION
PROV.                 Colorado: PROVINCE
CNTY.               Las Animas: COUNTRY
SRVC.                Patterson: SERVICE COMPANY
DATE.          Tue Aug 16 12:08:23 2005: LOG DATE
UWI.                          : UNIQUE WELL ID
~Curve Information Block
DEPT.FT            0 000 00 00: Depth
DCAL.in                       : CDL Caliper
RHOB.g/cc                     : CDL Bulk Density
RHOC.g/cc                     : CDL Density Correction
DPOR.pu                       : CDL Density Porosity
GR.GAPI                       : Gamma Ray
NPOR.pu                       : Neutron Porosity
~Parameter Information Block
~A  Depth       DCAL        RHOB        RHOC        DPOR         GR         NPOR    
     0.0000     16.2116     -2.2134     -1.4284     -0.0973    125.4178     57.4878
     0.1000     16.2116     -1.8420     -1.2989     -0.0899    122.9855     57.1472
     0.2000     16.2116     -1.7466     -1.5017     -0.0880    118.4609     57.1778
     0.3000     16.2141     -1.7252     -1.2592     -0.0876    116.0461     57.2969
     0.4000     16.2141     -1.7933     -1.3045     -0.0889    116.3064     57.3582
     0.5000     16.2165     -1.7996     -2.4262     -0.0890    119.8538     57.3388
     0.6000     16.2165     -1.5708     -1.2648     -0.0845    124.7919     57.2850
     0.7000     16.2165     -1.2216     -1.0866     -0.0775    126.6011     57.2014
     0.8000     16.2148     -0.9525     -0.6542     -0.0721    126.9208     57.0361
     0.9000     16.2148     -0.8358     -0.6185     -0.0698    130.3976     56.7829
     1.0000     16.2281     -0.8422     -0.6461     -0.0699    134.9256     56.5444
     1.1000     16.2281     -0.8924     -0.8734     -0.0709    136.8535     56.4566
     1.2000     16.2281     -0.9453     -0.6668     -0.0719    137.9018     56.4952
     1.3000     16.2351     -1.0274     -0.6950     -0.0736    141.5779     56.4947
     1.4000     16.2351     -1.1116     -1.0755     -0.0753    147.3477     56.3624
     1.5000     16.2353     -1.1208     -0.7453     -0.0755    152.1805     56.1097
     1.6000     16.2353     -1.0493     -0.6873     -0.0740    153.2560     55.8767
     1.7000     16.2353     -0.9248     -0.4477     -0.0715    151.4275     55.7820
     1.8000     16.2323     -0.7518     -0.3519     -0.0681    155.0134     55.7592
     1.9000     16.2323     -0.5517      0.0998     -0.0641    167.4961     55.6763
     2.0000     16.2378     -0.3820      0.3813     -0.0607    177.6520     55.4763
     2.1000     16.2378     -0.2592      0.5036     -0.0582    179.2901     55.1714
     2.2000     16.2378     -0.1379      0.7717     -0.0558    181.2397     54.7192
     2.3000     16.2338      0.0083      1.0655     -0.0529    189.4163     54.0635
     2.4000     16.2338      0.1662      1.2640     -0.0497    199.6328     53.4077
     2.5000     16.2262      0.3170      1.4835     -0.0467    208.2439     52.9692
     2.6000     16.2262      0.4496      1.5938     -0.0440    212.0892     52.6067
     2.7000     16.2262      0.5581      1.7398     -0.0419    210.1777     52.0861
     2.8000     16.2218      0.6386      1.7777     -0.0402    207.6874     51.2476
     2.9000     16.2218      0.6918      1.8183     -0.0392    205.7537     49.8998
     3.0000     16.2240      0.7173      1.8759     -0.0387    202.2660     48.0031
     3.1000     16.2240      0.7121      1.8497     -0.0388    201.5004     45.8296
     3.2000     16.2240      0.6833      1.8296     -0.0394    203.4433     43.7301
     3.3000     16.2259      0.6471      1.7842     -0.0401    200.2260     41.6122
     3.4000     16.2259      0.6221      1.7471     -0.0406    188.6784     39.1985
     3.5000     16.2275      0.6159      1.8042     -0.0407    174.2816     36.7337
     3.6000     16.2275      0.6209      1.7809     -0.0406    166.5899     34.9279
     3.7000     16.2275      0.6284      1.8276     -0.0405    166.8172     33.9303
     3.8000     16.2283      0.6349      1.8086     -0.0403    167.1533     33.0492
     3.9000     16.2283      0.6433      1.8075     -0.0402    165.8338     31.9723
     4.0000     16.2234      0.6547      1.8328     -0.0399    162.7978     31.2486
     4.1000     16.2234      0.6618      1.8573     -0.0398    155.3519     31.2553
     4.2000     16.2234      0.6626      1.8108     -0.0398    147.7078     31.6172
     4.3000     16.2242      0.6655      1.8429     -0.0397    145.0329     31.8740
     4.4000     16.2242      0.6764      1.8222     -0.0395    145.5954     32.0476
     4.5000     16.2253      0.6942      1.8707     -0.0391    145.6921     32.0647
     4.6000     16.2253      0.7125      1.8810     -0.0388    143.8453     31.6200
     4.7000     16.2253      0.7252      1.8924     -0.0385    141.2699     31.1791
     4.8000     16.2224      0.7296      1.9083     -0.0384    140.3430     31.3625
     4.9000     16.2224      0.7270      1.8765     -0.0385    140.6763     31.7734
     5.0000     16.2189      0.7253      1.8571     -0.0385    139.6938     31.7733
     5.1000     16.2189      0.7305      1.8870     -0.0384    137.2433     31.4173
     5.2000     16.2189      0.7435      1.8513     -0.0382    133.5455     31.0754
     5.3000     16.2243      0.7615      1.9271     -0.0378    129.5261     30.8916
     5.4000     16.2243      0.7775      1.9223     -0.0375    126.0057     30.7870
     5.5000     16.2195      0.7899      1.9145     -0.0372    124.6310     30.5817
     5.6000     16.2195      0.8013      1.9364     -0.0370    125.5911     30.3007
     5.7000     16.2195      0.8105      1.9317     -0.0368    125.4206     30.2261
     5.8000     16.2169      0.8171      1.9461     -0.0367    124.9206     30.4464
     5.9000     16.2169      0.8192      1.9565     -0.0366    128.3837     30.8551
     6.0000     16.2216      0.8172      1.9362     -0.0367    132.9216     31.1958
     6.1000     16.2216      0.8193      1.9240     -0.0366    131.5228     31.0693
     6.2000     16.2216      0.8276      1.9658     -0.0365    124.2236     30.4153
     6.3000     16.2223      0.8340      1.9589     -0.0363    115.1974     29.6622
     6.4000     16.2223      0.8394      1.9433     -0.0362    108.3471     29.3076
     6.5000     16.2299      0.8542      1.9382     -0.0359    105.0868     29.3706
     6.6000     16.2299      0.8782      1.9945     -0.0355    105.1971     29.6056
     6.7000     16.2299      0.8946      2.0136     -0.0351    107.1750     30.0851
     6.8000     16.2203      0.8960      1.9907     -0.0351    108.4937     30.5407
     6.9000     16.2203      0.8965      1.9615     -0.0351    110.7404     30.2727
     7.0000     16.2166      0.9104      1.9873     -0.0348    115.3552     29.2119
     7.1000     16.2166      0.9276      2.0557     -0.0345    117.4274     28.0709
     7.2000     16.2166      0.9308      2.0310     -0.0344    114.7583     27.4360
     7.3000     16.2188      0.9251      2.0072     -0.0345    111.0073     27.1153
     7.4000     16.2188      0.9297      1.9863     -0.0344    109.4146     26.6896
     7.5000     16.2185      0.9491      2.0563     -0.0340    110.0416     26.3034
     7.6000     16.2185      0.9688      2.0715     -0.0336    108.8810     26.2497
     7.7000     16.2185      0.9721      2.1048     -0.0336    105.0187     26.6220
     7.8000     16.2138      0.9525      2.0702     -0.0340    103.3273     27.1762
     7.9000     16.2138      0.9230      2.0010     -0.0346    105.5141     26.9503
     8.0000     16.2165      0.9053      1.9908     -0.0349    107.7208     25.6958
     8.1000     16.2165      0.9005      2.0320     -0.0350    107.2386     24.8045
     8.2000     16.2165      0.8957      1.9940     -0.0351    106.7708     24.9190
     8.3000     16.2134      0.8857      2.0135     -0.0353    108.7754     25.1940
     8.4000     16.2134      0.8737      1.9773     -0.0355    110.8420     25.1251
     8.5000     16.2159      0.8674      1.9475     -0.0357    110.7894     25.1260
     8.6000     16.2159      0.8714      1.9925     -0.0356    109.1518     25.5817
     8.7000     16.2159      0.8819      1.9806     -0.0354    107.7224     26.2352
     8.8000     16.2185      0.8928      2.0155     -0.0352    106.7668     26.3051
     8.9000     16.2185      0.8996      1.9881     -0.0350    105.1018     25.7786
     9.0000     16.2171      0.9037      2.0028     -0.0349    103.6497     25.6187
     9.1000     16.2171      0.9089      1.9944     -0.0348    104.4760     26.0759
     9.2000     16.2171      0.9171      2.0037     -0.0347    108.2169     26.4561
     9.3000     16.2221      0.9281      2.0057     -0.0345    115.2004     26.1957
     9.4000     16.2221      0.9399      2.0231     -0.0342    122.9589     25.6193
     9.5000     16.2145      0.9515      2.0132     -0.0340    125.7058     25.6361
