~Version Information
VERS.                      2.0: CWLS Log ASCII Standard - VERSION 2.0
WRAP.                       NO: One line per depth step
~Well Information Block
STRT.FT                -8.2500: 
STOP.FT              1119.7500: 
STEP.FT                 0.2500: 
NULL.                -999.2500: 
COMP.          Pioneer Natural Resources: COMPANY
WELL.             Linda T 32-3: WELL
FLD.           Purgatorie River: FIELD
LOC.           1350' FNL & 2290' FEL------: LOCATION
PROV.                       CO: PROVINCE
CNTY.               Las Animas: COUNTRY
SRVC.                         : SERVICE COMPANY
DATE.          Thu Feb 10 08:20:40 2005: LOG DATE
UWI.          005 071 08215   : UNIQUE WELL ID
~Curve Information Block
DEPT.FT            0 000 00 00: Depth
CCL.                          : Casing Collar Locator
TT3.usec                      : CBL 3' Travel Time
AMP3.mV                       : CBL 3' Amplitude
GR.GAPI                       : Gamma Ray
~Parameter Information Block
~A  Depth       CCL         TT3         AMP3         GR     
# ...
   293.2500      0.0000    724.1636      9.9587     90.7555
   293.5000      0.0000    703.8936     10.1226     96.9217
   293.7500      0.0000    677.2654     10.3091    101.8539
   294.0000      0.0000    652.3267     10.4683    104.3647
   294.2500      0.0000    640.8369     10.5342    103.1675
   294.5000      0.0000    649.0790     10.4780     98.5545
   294.7500      0.0000    671.6183     10.3391     92.6865
   295.0000      0.0000    696.0558     10.1938     87.8907
   295.2500      0.0000    712.7839     10.0952     85.1663
   295.5000      0.0000    719.4340     10.0454     84.4271
   295.7500      0.0000    718.8694     10.0152     85.2819
   296.0000      0.0000    715.3820      9.9819     87.0599
   296.2500      0.0000    712.0447      9.9482     88.7242
   296.5000      0.0000    709.9225      9.9315     89.3957
   296.7500      0.0000    708.7514      9.9391     89.0168
   297.0000      0.0000    708.0267      9.9571     88.6188
   297.2500      0.0000    707.4778      9.9614     89.7852
   297.5000      0.0000    707.0562      9.9376     93.1823
   297.7500      0.0000    706.7901      9.8891     97.4781
   298.0000      0.0000    706.6971      9.8267    100.3937
   298.2500      0.0000    706.7228      9.7562    101.0846
   298.5000      0.0000    706.7318      9.6794    101.0372
   298.7500      0.0000    706.6119      9.6014    102.4919
   299.0000      0.0000    706.4083      9.5301    106.2591
   299.2500      0.0000    706.3057      9.4707    111.0097
   299.5000      0.0000    706.4508      9.4231    114.2755
   299.7500      0.0000    706.8166      9.3826    114.1480
   300.0000      0.0000    707.2485      9.3426    110.6463
   300.2500      0.0000    707.5994      9.2957    105.8209
   300.5000      0.0000    707.7800      9.2377    102.1942
   300.7500      0.0000    707.7186      9.1706    100.7025
   301.0000      0.0000    707.3763      9.1039    100.3022
   301.2500      0.0000    706.8722      9.0522     99.6728
   301.5000      0.0000    706.6002      9.0302     98.8326
   301.7500      0.0000    707.2467      9.0446     98.7765
   302.0000      0.0000    709.6645      9.0896    100.1634
   302.2500      0.0000    714.4376      9.1496    103.0007
   302.5000      0.0000    721.1518      9.2092    106.8845
   302.7500      0.0000    727.9807      9.2605    110.5680
   303.0000      0.0000    732.3636      9.3021    111.9222
   303.2500      0.0000    732.6036      9.3307    109.5833
   303.5000      0.0000    729.2017      9.3373    104.4793
   303.7500      0.0000    724.7424      9.3150     98.9900
   304.0000      0.0000    722.0928      9.2704     95.0003
   304.2500      0.0000    722.1340      9.2260     93.4042
   304.5000      0.0000    723.1611      9.2079     94.6525
   304.7500      0.0000    722.7825      9.2266     98.4259
   305.0000      0.0000    720.4056      9.2698    102.9821
   305.2500      0.0000    717.5973      9.3116    106.0740
   305.5000      0.0000    716.1100      9.3302    106.7895
   305.7500      0.0000    716.0057      9.3236    105.9328
   306.0000      0.0000    715.8711      9.3106    104.7537
   306.2500      0.0000    714.5428      9.3121    104.0000
   306.5000      0.0000    712.2085      9.3316    104.0287
   306.7500      0.0000    709.8730      9.3589    104.9220
   307.0000      0.0000    708.2508      9.3873    106.2608
   307.2500      0.0000    707.3848      9.4177    107.3108
   307.5000      0.0000    706.9883      9.4474    107.7320
   307.7500      0.0000    706.7968      9.4661    108.0126
   308.0000      0.0000    706.6276      9.4626    109.0264
   308.2500      0.0000    706.0715      9.4318    110.9910
   308.5000      0.0000    703.9227      9.3745    112.8643
   308.7500      0.0000    697.6779      9.3004    113.0135
   309.0000      0.0000    684.1951      9.2309    110.7704
   309.2500      0.0000    662.5814      9.1937    107.4321
   309.5000      0.0000    637.1155      9.2098    105.2601
   309.7500      0.0000    615.7938      9.2815    105.1010
   310.0000      0.0000    605.3498      9.3727    105.5476
   310.2500      0.0000    609.2297      9.3922    104.8309
   310.5000      0.0000    628.6985      9.2266    102.7504
   310.7500      0.0000    660.9576      8.8348    100.1791
   311.0000      0.0000    696.7659      8.3096     97.5886
   311.2500      0.0000    724.9958      7.8156     95.0003
   311.5000      0.0000    740.4841      7.4645     92.7778
   311.7500      2.0000    745.6802      7.2651     91.4849
   312.0000      2.0000    745.1220      7.1812     91.2918
   312.2500      0.0000    738.7724      7.2180     92.2016
   312.5000      0.0000    720.5992      7.4499     94.4878
   312.7500      0.0000    685.7639      7.9482     98.2458
   313.0000      0.0000    641.6390      8.6553    102.6857
   313.2500      0.0000    609.1592      9.3484    106.5208
   313.5000      0.0000    607.3497      9.7817    109.0372
   313.7500      0.0000    635.5884      9.8736    110.3402
   314.0000      0.0000    674.8198      9.7298    110.6364
   314.2500      0.0000    705.7929      9.5129    109.7827
   314.5000      0.0000    722.3706      9.3234    107.7117
   314.7500      0.0000    729.0483      9.1770    104.9529
   315.0000      0.0000    731.8322      9.0441    102.5075
   315.2500      0.0000    733.3048      8.8979    101.2341
   315.5000      0.0000    733.3205      8.7363    101.2540
   315.7500      0.0000    731.6898      8.5736    101.7415
   316.0000      0.0000    729.6160      8.4197    101.3665
   316.2500      0.0000    728.7370      8.2787     99.4308
   316.5000      0.0000    729.4517      8.1615     96.6699
   316.7500      0.0000    730.8129      8.0897     94.4635
   317.0000      0.0000    731.7343      8.0875     93.3485
   317.2500      0.0000    731.7417      8.1689     92.9982
   317.5000      0.0000    730.9030      8.3250     93.3944
   317.7500      0.0000    729.7131      8.5204     94.9985
   318.0000      0.0000    728.8182      8.7083     97.7671
   318.2500      0.0000    728.2798      8.8566    100.8321
   318.5000      0.0000    727.1593      8.9620    103.3214
   318.7500      0.0000    724.2981      9.0392    105.0466
   319.0000      0.0000    719.6310      9.0981    106.2460
   319.2500      0.0000    714.4266      9.1331    106.6344
   319.5000      0.0000    710.1818      9.1333    105.0110
   319.7500      0.0000    707.6161      9.0995    100.4655
   320.0000      0.0000    706.7194      9.0501     93.9632
   320.2500      0.0000    707.3505      9.0113     87.9510
   320.5000      0.0000    709.5397      8.9987     84.3262
   320.7500      0.0000    713.3000      9.0068     83.4069
   321.0000      0.0000    718.3232      9.0151     84.5755
   321.2500      0.0000    723.9875      9.0053     87.0189
   321.5000      0.0000    729.6365      8.9726     89.9533
   321.7500      0.0000    734.6522      8.9247     92.9083
   322.0000      0.0000    738.2881      8.8753     95.9988
   322.2500      0.0000    739.8272      8.8369     99.7207
   322.5000      0.0000    739.1481      8.8117    104.3346
   322.7500      0.0000    736.9932      8.7838    109.0769
   323.0000      0.0000    734.3979      8.7255    111.9378
   323.2500      0.0000    731.8394      8.6202    110.9062
   323.5000      0.0000    729.2308      8.4793    105.7959
   323.7500      0.0000    726.6758      8.3343     98.5019
   324.0000      0.0000    724.6610      8.2142     91.5363
   324.2500      0.0000    723.4506      8.1302     86.6604
   324.5000      0.0000    722.7487      8.0796     84.4713
   324.7500      0.0000    721.9283      8.0569     84.5579
   325.0000      0.0000    720.3473      8.0606     86.0753
   325.2500      0.0000    717.7543      8.0882     88.3058
   325.5000      0.0000    714.6102      8.1269     90.4087
   325.7500      0.0000    711.7679      8.1535     90.9909
   326.0000      0.0000    709.7689      8.1478     88.7875
   326.2500      0.0000    708.5969      8.1063     83.9235
   326.5000      0.0000    707.9620      8.0426     77.9253
