~Version Information
VERS.                      2.0: CWLS Log ASCII Standard - VERSION 2.0
WRAP.                       NO: One line per depth step
~Well Information Block
STRT.FT                -9.5000: 
STOP.FT              2451.0000: 
STEP.FT                 0.2500: 
NULL.                -999.2500: 
COMP.          Petrogulf Corporation: COMPANY
WELL.           Vallejo 19-31V: WELL
FLD.           Purgatorie River: FIELD
LOC.           345' FNL & 2457' FEL: LOCATION
CNTY.               Las Animas: COUNTY
SRVC.                         : SERVICE COMPANY
DATE.          Mon Mar 08 08:24:37 2004: LOG DATE
UWI.           05-071-07919-00: UNIQUE WELL ID
STAT.                 Colorado: STATE
~Curve Information Block
DEPT.FT            0 000 00 00: Depth
MINMK.                        : Surface Line Tension
GR.GAPI                       : Gamma Ray
CCL.                          : Casing Collar Locator
TT3.usec                      : CBL 3' Travel Time
AMP3.mV                       : CBL 3' Amplitude
~Parameter Information Block
~A  Depth      MINMK         GR         CCL         TT3         AMP3    
# ...
  2426.5000      0.0000     71.3491      0.0000    697.5359      2.5823
  2426.7500      0.0000     72.3929      0.0000    689.9257      2.6715
  2427.0000      0.0000     75.8468      0.0000    673.2092      2.6766
  2427.2500      0.0000     80.5460      0.0000    655.1900      2.5728
  2427.5000      0.0000     85.2766      0.0000    643.5610      2.3781
  2427.7500      0.0000     89.2330      0.0000    641.2481      2.1551
  2428.0000      0.0000     92.0716      0.0000    643.6371      1.9848
  2428.2500      0.0000     94.0653      0.0000    643.3095      1.9426
  2428.5000      0.0000     95.9462      0.0000    640.1669      2.0088
  2428.7500      0.0000     98.0775      0.0000    639.7520      2.0681
  2429.0000      0.0000     99.9470      0.0000    642.6951      2.0624
  2429.2500      0.0000    100.9048      0.0000    644.3582      2.0375
  2429.5000      0.0000    101.1226      0.0000    641.0818      2.0397
  2429.7500      0.0000    101.2881      0.0000    632.9533      2.0569
  2430.0000      0.0000    101.4923      0.0000    624.6096      2.0711
  2430.2500      0.0000    100.9723      0.0000    621.5837      2.0963
  2430.5000      0.0000     99.0495      0.0000    623.9686      2.1480
  2430.7500      0.0000     96.0108      0.0000    627.8439      2.2222
  2431.0000      0.0000     93.1467      0.0000    630.5980      2.3033
  2431.2500      0.0000     92.1955      0.0000    631.2253      2.3876
  2431.5000      0.0000     94.4778      0.0000    629.6975      2.4815
  2431.7500      0.0000     99.9616      0.0000    629.5642      2.5893
  2432.0000      0.0000    107.1477      0.0000    638.2918      2.7146
  2432.2500      0.0000    114.1216      0.0000    658.4291      2.8265
  2432.5000      0.0000    119.6856      0.0000    680.1689      2.8725
  2432.7500      0.0000    123.5754      0.0000    690.7393      2.8301
  2433.0000      0.0000    126.0705      0.0000    689.3314      2.6956
  2433.2500      0.0000    127.4026      0.0000    683.0712      2.4781
  2433.5000      0.0000    127.0249      0.0000    673.0350      2.2186
  2433.7500      0.0000    123.6013      0.0000    657.0261      1.9826
  2434.0000      0.0000    116.3415      0.0000    638.9548      1.8189
  2434.2500      0.0000    106.3824      0.0000    625.9726      1.7120
  2434.5000      0.0000     96.4956      0.0000    620.7377      1.6099
  2434.7500      0.0000     89.3549      0.0000    619.0924      1.5006
  2435.0000      0.0000     86.0253      0.0000    616.3398      1.4205
  2435.2500      0.0000     85.7952      0.0000    614.5297      1.3970
  2435.5000      0.0000     87.0965      0.0000    619.8999      1.4251
  2435.7500      0.0000     88.5889      0.0000    634.2599      1.4907
  2436.0000      0.0000     89.8632      0.0000    650.2667      1.5823
  2436.2500      0.0000     91.4776      0.0000    658.7726      1.6807
  2436.5000      0.0000     94.2117      0.0000    660.2952      1.7587
  2436.7500      0.0000     98.1259      0.0000    659.9479      1.8061
  2437.0000      0.0000    102.4407      0.0000    657.0439      1.8363
  2437.2500      0.0000    106.2036      0.0000    650.7643      1.8574
  2437.5000      0.0000    108.8725      0.0000    646.5366      1.8562
  2437.7500      0.0000    110.5939      0.0000    649.3448      1.8327
  2438.0000      0.0000    112.2330      0.0000    657.3110      1.8143
  2438.2500      0.0000    114.7188      0.0000    661.5295      1.8206
  2438.5000      0.0000    117.8347      0.0000    642.1597      1.8214
  2438.7500      0.0000    119.9128      0.0000    567.7123      1.7190
  2439.0000      0.0000    119.2211      0.0000    422.1055      1.4304
  2439.2500      0.0000    115.7132      0.0000    243.2495      1.0224
  2439.5000      0.0000    111.2516      0.0000    101.6821      0.6767
  2439.7500      0.0000    108.1154      0.0000     29.4429      0.4934
  2440.0000      0.0000    107.1974      0.0000      5.7323      0.4318
  2440.2500      0.0000    107.4542      0.0000      0.7343      0.4186
  2440.5000      0.0000    107.0502      0.0000      0.0586      0.4168
  2440.7500      0.0000    105.1183      0.0000   -999.2500   -999.2500
  2441.0000      0.0000    102.4421      0.0000   -999.2500   -999.2500
  2441.2500      0.0000    100.5187      0.0000   -999.2500   -999.2500
  2441.5000      0.0000    100.2205      0.0000   -999.2500   -999.2500
  2441.7500      0.0000    101.3609      0.0000   -999.2500   -999.2500
  2442.0000      0.0000    103.1160      0.0000   -999.2500   -999.2500
  2442.2500      0.0000    104.5441      0.0000   -999.2500   -999.2500
  2442.5000      0.0000    104.9082      0.0000   -999.2500   -999.2500
  2442.7500      0.0000    104.0212      0.0000   -999.2500   -999.2500
  2443.0000      0.0000    102.6235      0.0000   -999.2500   -999.2500
  2443.2500      0.0000    102.2022      0.0000   -999.2500   -999.2500
  2443.5000      0.0000    103.9054      0.0000   -999.2500   -999.2500
  2443.7500      0.0000    107.4212      0.0000   -999.2500   -999.2500
  2444.0000      0.0000    110.9875      0.0000   -999.2500   -999.2500
  2444.2500      0.0000    112.6516      0.0000   -999.2500   -999.2500
  2444.5000      0.0000    111.8146      0.0000   -999.2500   -999.2500
  2444.7500      0.0000    109.7105      0.0000   -999.2500   -999.2500
  2445.0000      0.0000    108.2103      0.0000   -999.2500   -999.2500
  2445.2500      0.0000    108.1917      0.0000   -999.2500   -999.2500
  2445.5000      0.0000    109.2622      0.0000   -999.2500   -999.2500
  2445.7500      0.0000    110.5702      0.0000   -999.2500   -999.2500
  2446.0000      0.0000    111.2211      0.0000   -999.2500   -999.2500
  2446.2500      0.0000    110.2559   -999.2500   -999.2500   -999.2500
  2446.5000      0.0000    107.1525   -999.2500   -999.2500   -999.2500
  2446.7500      0.0000    102.4915   -999.2500   -999.2500   -999.2500
  2447.0000      0.0000     97.7105   -999.2500   -999.2500   -999.2500
  2447.2500      0.0000     94.1631   -999.2500   -999.2500   -999.2500
  2447.5000      0.0000     92.3951   -999.2500   -999.2500   -999.2500
  2447.7500      0.0000     91.6932   -999.2500   -999.2500   -999.2500
  2448.0000      0.0000     89.8422   -999.2500   -999.2500   -999.2500
  2448.2500      0.0000     83.7960   -999.2500   -999.2500   -999.2500
  2448.5000      0.0000     71.5600   -999.2500   -999.2500   -999.2500
  2448.7500      0.0000     54.0497   -999.2500   -999.2500   -999.2500
  2449.0000      0.0000     35.0873   -999.2500   -999.2500   -999.2500
  2449.2500      0.0000     19.1286   -999.2500   -999.2500   -999.2500
  2449.5000      0.0000      8.5985   -999.2500   -999.2500   -999.2500
  2449.7500      0.0000      3.1418   -999.2500   -999.2500   -999.2500
  2450.0000      0.0000      0.9227   -999.2500   -999.2500   -999.2500
  2450.2500   -999.2500      0.2156   -999.2500   -999.2500   -999.2500
  2450.5000   -999.2500      0.0393   -999.2500   -999.2500   -999.2500
  2450.7500   -999.2500      0.0051   -999.2500   -999.2500   -999.2500
  2451.0000   -999.2500      0.0000   -999.2500   -999.2500   -999.2500
