~Version Information
VERS.                      2.0: CWLS Log ASCII Standard - VERSION 2.0
WRAP.                       NO: One line per depth step
~Well Information Block
STRT.FT                 1.5000: 
STOP.FT              1895.2500: 
STEP.FT                 0.2500: 
NULL.                -999.2500: 
COMP.          Petrogulf Corporation: COMPANY
WELL.             State 16-32R: WELL
FLD.           Purgatorie River: FIELD
LOC.           1849' FNL & 1677' FEL: LOCATION
CNTY.               Las Animas: COUNTY
SRVC.                         : SERVICE COMPANY
DATE.          Thu May 20 08:40:19 2004: LOG DATE
UWI.           05 071 08033 00: UNIQUE WELL ID
STAT.                 Colorado: STATE
~Curve Information Block
DEPT.FT            0 000 00 00: Depth
GR.GAPI                       : Gamma Ray
CCL.                          : Casing Collar Locator
TT3.usec                      : CBL 3' Travel Time
AMP3.mV                       : CBL 3' Amplitude
~Parameter Information Block
~A  Depth        GR         CCL         TT3         AMP3    
# ...
   504.0000     52.7176      0.0000    249.1479     54.3541
   504.2500     52.1136      0.0000    247.6777     54.8679
   504.5000     50.7685      0.0000    247.3391     55.0564
   504.7500     49.8746      0.0000    247.2490     55.1660
   505.0000     50.0695      0.0000    247.1871     55.2889
   505.2500     50.9932      0.0000    247.1384     55.3934
   505.5000     52.0279      0.0000    247.1095     55.4641
   505.7500     52.8619      0.0000    247.0834     55.5988
   506.0000     53.1777      0.0000    247.0321     55.9057
   506.2500     52.5204      0.0000    246.9445     56.3897
   506.5000     50.9388      0.0000    246.8282     56.9786
   506.7500     49.2755      0.0000    246.7032     57.5260
   507.0000     48.3716      0.0000    246.6008     57.8110
   507.2500     48.2112      0.0000    246.5556     57.6835
   507.5000     48.1942      0.0000    246.6116     57.1832
   507.7500     48.0987      0.0000    246.9640     56.3935
   508.0000     48.4227      0.0000    248.2485     55.3141
   508.2500     49.8150      0.0000    251.3304     54.0240
   508.5000     52.3410      0.0000    255.6030     52.8062
   508.7500     55.2028      0.0000    258.1145     51.9685
   509.0000     57.1338      0.0000    257.5659     51.5578
   509.2500     57.3510      0.0000    257.8117     51.3203
   509.5000     56.2084      0.0000    263.1142     50.9651
   509.7500     54.7994      0.0000    272.0775     50.3922
   510.0000     54.0569      0.0000    279.5686     49.7173
   510.2500     54.4452      0.0000    282.2228     49.2302
   510.5000     56.3486      0.0000    279.3327     49.2881
   510.7500     60.2408      0.0000    271.4499     50.0817
   511.0000     66.2211      0.0000    261.2971     51.4295
   511.2500     73.4787      0.0000    253.0763     52.8810
   511.5000     80.2351      0.0000    248.7727     54.0368
   511.7500     84.1804      0.0000    247.3625     54.6516
   512.0000     83.4246      0.0000    247.4359     54.5783
   512.2500     77.7463      0.0000    248.9857     53.8608
   512.5000     69.0096      0.0000    253.2498     52.8091
   512.7500     60.0018      0.0000    260.4174     51.8458
   513.0000     52.8670      0.0000    266.6826     51.3036
   513.2500     48.7471      0.0000    266.7166     51.3376
   513.5000     48.3457      0.0000    260.5650     51.8883
   513.7500     52.0504      0.0000    253.6000     52.7270
   514.0000     59.4995      0.0000    249.5632     53.6730
   514.2500     69.6234      0.0000    248.1020     54.7411
   514.5000     81.2019      0.0000    247.6776     55.9550
   514.7500     92.9114      0.0000    247.5122     57.1716
   515.0000    103.0287      0.0000    247.4345     58.2256
   515.2500    110.0195      0.0000    247.4046     59.0848
   515.5000    113.7031      0.0000    247.3737     59.7024
   515.7500    115.2466      0.0000    247.3205     59.8183
   516.0000    115.8127      0.0000    247.2766     59.1612
   516.2500    115.3888      0.0000    247.2884     57.7929
   516.5000    112.8555      0.0000    247.3724     56.1412
   516.7500    107.2524      0.0000    247.5299     54.7743
   517.0000     99.1564      0.0000    247.9356     53.9314
   517.2500     90.7048      0.0000    249.4181     53.2333
   517.5000     84.1066      0.0000    253.7120     52.1743
   517.7500     80.3147      0.0000    261.9670     50.7783
   518.0000     79.3094      0.0000    272.2142     49.4815
   518.2500     81.2719      0.0000    280.3646     48.5904
   518.5000     86.7696      0.0000    284.4514     47.9809
   518.7500     95.5396      0.0000    285.6496     47.2292
   519.0000    105.5182      0.0000    285.7759     46.0317
   519.2500    113.6371      0.0000    285.7561     44.5189
   519.5000    117.7504      0.0000    285.7841     43.1941
   519.7500    117.7397      0.0000    285.7983     42.4982
   520.0000    115.0227      0.0000    285.7322     42.4501
   520.2500    111.2738      0.0000    285.4163     42.8976
   520.5000    107.4635      0.0000    284.0611     43.9075
   520.7500    103.7040      0.0000    279.9323     45.6191
   521.0000     99.6586      0.0000    271.8304     47.8271
   521.2500     95.0248      0.0000    261.6592     49.9539
   521.5000     89.9293      0.0000    253.4397     51.5763
   521.7500     85.2245      0.0000    249.0826     52.7984
   522.0000     82.3310      0.0000    247.4566     53.9011
   522.2500     82.4122      0.0000    246.9250     54.8941
   522.5000     85.4508      0.0000    246.7264     55.6215
   522.7500     90.1463      0.0000    246.6612     56.0737
   523.0000     94.7622      0.0000    246.6778     56.3500
   523.2500     98.0925      0.0000    246.7644     56.4009
   523.5000     99.8322      0.0000    246.9236     56.0401
   523.7500    100.2949      0.0000    247.1371     55.2399
   524.0000     99.8921      0.0000    247.3593     54.2581
   524.2500     98.8797      0.0000    247.5453     53.4635
   524.5000     97.6102      0.0000    247.6720     53.1422
   524.7500     96.7763      0.0000    247.7334     53.3981
   525.0000     96.9403      0.0000    247.7319     54.1347
   525.2500     97.7404      0.0000    247.6785     55.2073
   525.5000     98.0696      0.0000    247.5951     56.6014
   525.7500     97.2315      0.0000    247.5042     58.3774
   526.0000     95.4959      0.0000    247.4207     60.4708
   526.2500     93.5801      0.0000    247.3603     62.6012
   526.5000     92.2174      0.0000    247.3383     64.4095
   526.7500     92.2557      0.0000    247.3519     65.7659
   527.0000     94.3365      0.0000    247.3757     66.8465
   527.2500     97.8934      0.0000    247.3746     67.7329
   527.5000    100.6740      0.0000    247.3289     68.0807
   527.7500     99.9521      0.0000    247.2625     67.3704
   528.0000     94.8486      0.0000    247.2660     65.4807
   528.2500     87.3561      0.0000    247.5937     62.9496
   528.5000     80.5694      0.0000    249.5032     60.5386
   528.7500     75.9100      0.0000    257.3915     58.3181
   529.0000     72.5551      0.0000    278.2185     55.0925
   529.2500     69.4472      0.0000    310.2629     49.5502
   529.5000     67.0162      0.0000    334.0697     42.4899
   529.7500     66.5558      0.0000    333.0114     36.4596
   530.0000     68.5344      0.0000    316.2747     32.9980
   530.2500     72.0513      0.0000    302.3333     31.6089
   530.5000     75.7652      0.0000    297.3174     30.8996
   530.7500     79.0326     -2.0000    300.2422     29.9376
   531.0000     82.2029     -2.0000    312.9871     28.7060
   531.2500     85.8939      0.0000    338.7556     27.6320
   531.5000     89.9098      0.0000    376.4442     27.0576
   531.7500     93.0452      0.0000    416.0908     27.0872
   532.0000     94.2460      0.0000    434.0083     28.0659
   532.2500     93.8227      0.0000    409.4783     31.0225
   532.5000     93.1900      0.0000    355.0385     36.4165
   532.7500     93.4892      0.0000    303.2758     42.9367
   533.0000     94.7359      0.0000    270.8462     48.7631
   533.2500     96.0138      0.0000    255.2205     53.1517
   533.5000     96.0354      0.0000    249.1551     56.4338
   533.7500     93.7485      0.0000    247.2847     59.0958
   534.0000     88.9272      0.0000    246.8059     61.1616
   534.2500     82.2723      0.0000    246.6990     62.4962
   534.5000     74.9954      0.0000    246.7159     63.2539
   534.7500     68.5025      0.0000    246.7927     63.7076
   535.0000     64.3019      0.0000    246.8903     63.8924
   535.2500     63.5048      0.0000    246.9846     63.6410
   535.5000     65.9568      0.0000    247.0579     62.8742
   535.7500     70.0182      0.0000    247.1010     61.6998
   536.0000     73.5246      0.0000    247.1262     60.3485
   536.2500     75.0398      0.0000    247.1537     59.1040
   536.5000     74.2667      0.0000    247.1816     58.1122
   536.7500     71.6776      0.0000    247.1872     57.3406
   537.0000     68.2258      0.0000    247.1598     56.7920
   537.2500     65.2222      0.0000    247.1199     56.4984
