~Version Information
VERS.                      2.0: CWLS Log ASCII Standard - VERSION 2.0
WRAP.                       NO: One line per depth step
~Well Information Block
STRT.FT                10.0000: 
STOP.FT              1066.5000: 
STEP.FT                 0.2500: 
NULL.                -999.2500: 
COMP.          Pioneer Natural Resources: COMPANY
WELL.            Redland 23-24: WELL
FLD.           Purgatoire River: FIELD
LOC.           2356' FSL & 1880' FWL----: LOCATION
PROV.                 Colorado: PROVINCE
CNTY.               Las Animas: COUNTRY
SRVC.                         : SERVICE COMPANY
DATE.          Thu Mar 24 10:01:02 2005: LOG DATE
UWI.           05 071 08221   : UNIQUE WELL ID
~Curve Information Block
DEPT.FT            0 000 00 00: Depth
CCL.                          : Casing Collar Locator
TT3.usec                      : CBL 3' Travel Time
AMP3.mV                       : CBL 3' Amplitude
AMP5.mV                       : CBL 5' Amplitude
GR.GAPI                       : Gamma Ray
~Parameter Information Block
~A  Depth       CCL         TT3         AMP3        AMP5         GR     
# ...
    66.0000      0.0000    870.6218      7.7807      5.1746     81.6565
    66.2500      0.0000    869.1937      7.4959      4.5653     79.6068
    66.5000      0.0000    869.6155      7.3539      5.0876     78.6831
    66.7500      0.0000    868.6851      7.2986      3.6078     78.8067
    67.0000      0.0000    862.4595      7.2346      2.9114     79.7779
    67.2500      0.0000    849.6265      7.0873      1.8668     81.2862
    67.5000      0.0000    831.6052      6.8331      1.3446     83.1687
    67.7500      0.0000    810.5676      6.4907      1.1705     85.5116
    68.0000      0.0000    788.6027      6.1000      2.1280     88.1496
    68.2500      0.0000    768.5182      5.7075      0.9093     90.1313
    68.5000      0.0000    753.7306      5.3566      0.7352     90.3347
    68.7500      0.0000    745.8850      5.0777      0.6482     88.9434
    69.0000      0.0000    742.5092      4.8861      0.8223     87.7622
    69.2500      0.0000    738.0067      4.7819      0.7352     88.4901
    69.5000      0.0000    727.8799      4.7474      0.9964     90.7655
    69.7500      0.0000    712.3235      4.7442      1.0834     92.1776
    70.0000      0.0000    695.5989      4.7176      0.3870     90.3903
    70.2500      0.0000    682.0362      4.6116      0.9964     85.4150
    70.5000      0.0000    673.0556      4.3924      0.4741     79.7117
    70.7500      0.0000    667.9560      4.0655      0.1259     75.9858
    71.0000      0.0000    666.4604      3.6691      0.3870     75.1605
    71.2500      0.0000    669.3986      3.2480      0.9964     76.4297
    71.5000      0.0000    676.9955      2.8374      1.2575     78.5414
    71.7500      0.0000    687.3908      2.4647      1.4316     80.6220
    72.0000      0.0000    697.3454      2.1528      1.9539     82.2410
    72.2500      0.0000    704.9716      1.9090      2.7373     83.2612
    72.5000      0.0000    712.6261      1.7193      3.3466     83.7497
    72.7500      0.0000    726.6896      1.5675      2.9984     83.9015
    73.0000      0.0000    752.6848      1.4657      3.1725     83.8704
    73.2500      0.0000    789.5359      1.4548      3.6078     83.5139
    73.5000      0.0000    829.1041      1.5663      3.6948     82.2929
    73.7500      0.0000    861.8676      1.7834      3.3466     79.4668
    74.0000      0.0000    882.9924      2.0488      3.5207     74.6898
    74.2500      0.0000    893.4147      2.3085      3.2596     68.6794
    74.5000      0.0000    896.7811      2.5398      2.8244     63.0768
    74.7500      0.0000    896.6171      2.7397      3.3466     59.2174
    75.0000      0.0000    895.6616      2.8953      3.9560     57.1346
    75.2500      0.0000    895.8757      2.9764      2.4762     55.9486
    75.5000      0.0000    897.7160      2.9586      3.9560     54.9136
    75.7500      0.0000    899.6195      2.8532      3.1725     53.8092
    76.0000      0.0000    898.9659      2.7151      4.8264     52.7210
    76.2500      0.0000    894.1298      2.6298      5.0005     51.9296
    76.5000      0.0000    886.2181      2.6912      4.6523     51.9123
    76.7500      0.0000    879.0612      2.9749      4.5653     52.9588
    77.0000      0.0000    876.7279      3.5096      4.8264     54.5828
    77.2500      0.0000    880.1449      4.2571      4.8264     55.6142
    77.5000      0.0000    886.1333      5.1230      5.4358     55.2130
    77.7500      0.0000    889.6313      5.9973      5.0876     53.7624
    78.0000      0.0000    886.4230      6.7920      4.4782     52.5706
    78.2500      0.0000    874.6572      7.4486      5.5228     52.5594
    78.5000      0.0000    855.7529      7.9252      5.1746     53.4220
    78.7500      0.0000    834.2545      8.1863      5.7839     54.2620
    79.0000      0.0000    815.4173      8.2075      5.9580     54.8753
    79.2500      0.0000    802.3838      8.0016      6.2192     56.0299
    79.5000      0.0000    796.1448      7.6478      5.9580     58.5407
    79.7500      0.0000    796.9674      7.2744      5.0005     62.3141
    80.0000      0.0000    803.5239      6.9835      5.1746     66.2385
    80.2500      0.0000    811.0091      6.7891      6.0451     68.8575
    80.5000      0.0000    813.1339      6.6397      5.0876     69.2849
    80.7500      0.0000    807.3805      6.4865      5.1746     67.7314
    81.0000      0.0000    796.9706      6.3141      6.3933     65.2220
    81.2500      0.0000    787.2239      6.1203      5.0005     62.7069
    81.5000      0.0000    781.4274      5.9038      7.0896     60.3799
    81.7500      0.0000    780.4158      5.6845      6.2192     57.9705
    82.0000      0.0000    784.1267      5.5219      5.4358     55.6133
    82.2500      0.0000    791.7660      5.4948      5.8710     54.0190
    82.5000      0.0000    801.0084      5.6443      5.8710     53.6509
    82.7500      0.0000    809.3981      5.9188      5.6098     54.0448
    83.0000      0.0000    817.6230      6.1762      5.0005     54.2174
    83.2500      0.0000    829.3185      6.2673      4.0430     53.6107
    83.5000      0.0000    845.6934      6.1424      4.4782     52.4021
    83.7500      0.0000    862.2372      5.8742      4.0430     51.0497
    84.0000      0.0000    872.9589      5.5841      4.3041     49.9766
    84.2500      0.0000    876.5075      5.3576      3.6948     49.6873
    84.5000      0.0000    876.1234      5.2224      3.0855     50.7380
    84.7500      0.0000    874.5811      5.1762      3.6948     53.3224
    85.0000      0.0000    871.4570      5.2127      2.9114     56.9895
    85.2500      0.0000    865.7356      5.3208      3.4337     60.8708
    85.5000      0.0000    859.1828      5.4677      3.6078     64.2055
    85.7500      0.0000    855.3830      5.5940      3.8689     66.7954
    86.0000      0.0000    855.6783      5.6339      3.2596     68.9875
    86.2500      0.0000    857.6439      5.5487      3.2596     71.2029
    86.5000      0.0000    858.5322      5.3539      3.6948     73.6357
    86.7500      0.0000    859.1674      5.1207      4.1301     76.3448
    87.0000      0.0000    862.7079      4.9358      2.9114     79.0833
    87.2500      0.0000    870.0693      4.8384      2.3891     80.9368
    87.5000      0.0000    878.7297      4.7923      2.6503     80.8095
    87.7500      0.0000    886.0350      4.7303      2.2150     78.6728
    88.0000      0.0000    891.4035      4.6243      2.6503     75.9522
    88.2500      0.0000    894.6746      4.5060      2.6503     74.3971
    88.5000      0.0000    893.9213      4.4230      2.9114     74.7976
    88.7500      0.0000    885.9860      4.3895      2.7373     76.8270
    89.0000      0.0000    869.1910      4.3784      2.3891     79.5652
    89.2500      0.0000    845.8360      4.3534      2.1280     81.8564
    89.5000      0.0000    822.2097      4.3009      2.9984     82.7171
    89.7500      0.0000    805.3314      4.2331      2.4762     82.1176
    90.0000      0.0000    798.7627      4.1681      2.4762     81.4111
    90.2500      0.0000    801.3425      4.1117      2.3891     82.5248
    90.5000      0.0000    809.4633      4.0618      2.2150     86.3369
    90.7500      0.0000    819.5154      4.0280      3.3466     91.8616
    91.0000      0.0000    828.3011      4.0397      2.1280     97.2140
    91.2500      0.0000    832.2838      4.1258      2.3891    101.2455
    91.5000      0.0000    827.6755      4.2825      1.1705    103.9883
    91.7500      0.0000    812.9102      4.4621      1.6927    105.8224
    92.0000      0.0000    792.3887      4.5925      1.3446    106.7415
    92.2500      0.0000    775.8369      4.6219      1.7798    106.4782
    92.5000      0.0000    770.7520      4.5618      2.2150    105.1021
    92.7500      0.0000    775.9194      4.4875      2.2150    103.3242
    93.0000      0.0000    783.8632      4.4897      2.6503    102.0643
    93.2500      0.0000    787.4679      4.6172      3.6078    101.6954
    93.5000      0.0000    783.6096      4.8534      2.6503    101.7464
    93.7500      0.0000    774.7950      5.1293      3.1725    101.4134
