~Version Information
VERS.                      2.0: CWLS Log ASCII Standard - VERSION 2.0
WRAP.                       NO: One line per depth step
~Well Information Block
STRT.FT               590.0000: 
STOP.FT              1563.5000: 
STEP.FT                 0.1000: 
NULL.                -999.2500: 
COMP.          Petrogulf Corporation: COMPANY
WELL.             State 16-43R: WELL
FLD.           Purgatorie River: FIELD
LOC.           2538' FSL & 716' FEL: LOCATION
PROV.                 Colorado: PROVINCE
CNTY.               Las Animas: COUNTRY
SRVC.                Patterson: SERVICE COMPANY
DATE.          Tue Aug 09 14:21:37 2005: LOG DATE
UWI.                          : UNIQUE WELL ID
~Curve Information Block
DEPT.FT            0 000 00 00: Depth
DCAL.in                       : CDL Caliper
RHOB.g/cc                     : CDL Bulk Density
RHOC.g/cc                     : CDL Density Correction
DPOR.pu                       : CDL Density Porosity
GR.GAPI                       : Gamma Ray
NPOR.pu                       : Neutron Porosity
~Parameter Information Block
~A  Depth       DCAL        RHOB        RHOC        DPOR         GR         NPOR    
# ...
   906.8000      8.0685      2.4654      0.0266     11.1908    125.5926     24.1130
   906.9000      8.0685      2.4794      0.0815     10.3364    126.5681     23.9359
   907.0000      8.0743      2.4958      0.0845      9.3461    126.4248     24.0105
   907.1000      8.0743      2.5117      0.0490      8.3823    126.3004     23.9889
   907.2000      8.0743      2.5278      0.0715      7.4047    125.6629     23.8328
   907.3000      8.0648      2.5357      0.0621      6.9296    123.2637     23.8837
   907.4000      8.0648      2.5232      0.1124      7.6854    120.9814     23.9497
   907.5000      8.0628      2.4938      0.0074      9.4644    121.3425     23.4910
   907.6000      8.0628      2.4801     -0.0420     10.3000    124.2562     22.8539
   907.7000      8.0628      2.4975      0.0518      9.2444    126.2612     22.5428
   907.8000      8.0677      2.5140      0.1177      8.2435    126.0918     22.3787
   907.9000      8.0677      2.5005      0.0647      9.0579    125.2454     22.1980
   908.0000      8.0696      2.4617      0.0466     11.4149    124.3314     21.9513
   908.1000      8.0696      2.4097      0.0334     14.5640    124.3123     21.4951
   908.2000      8.0696      2.3512     -0.0021     18.1080    126.0162     20.9355
   908.3000      8.0871      2.2860      0.0324     22.0601    128.2640     20.4217
   908.4000      8.0871      2.2134     -0.0078     26.4611    128.5964     19.9148
   908.5000      8.0875      2.1504     -0.0394     30.2796    126.5526     19.4519
   908.6000      8.0875      2.1173     -0.0173     32.2864    125.8941     19.2382
   908.7000      8.0875      2.1066      0.0183     32.9329    128.5321     19.4151
   908.8000      8.1118      2.0990      0.0034     33.3969    132.1418     19.6771
   908.9000      8.1118      2.0923      0.0495     33.8030    136.3689     19.6458
   909.0000      8.1212      2.0871      0.1191     34.1125    141.7257     19.5459
   909.1000      8.1212      2.0724      0.1470     35.0086    145.3207     19.6085
   909.2000      8.1212      2.0492      0.1042     36.4101    145.0059     19.7378
   909.3000      8.0912      2.0364      0.0652     37.1861    142.6794     20.0290
   909.4000      8.0912      2.0414      0.0539     36.8873    142.4824     20.6041
   909.5000      8.0887      2.0647      0.0210     35.4742    145.4060     21.3594
   909.6000      8.0887      2.1149      0.0259     32.4314    147.8560     22.1063
   909.7000      8.0887      2.1872      0.1116     28.0508    149.0363     22.7614
   909.8000      8.0970      2.2597      0.1616     23.6543    151.4992     23.5274
   909.9000      8.0970      2.3175      0.2151     20.1494    153.0707     24.4466
   910.0000      8.0650      2.3549      0.2254     17.8818    150.4272     25.2699
   910.1000      8.0650      2.3718      0.1705     16.8633    147.5510     25.8325
   910.2000      8.0650      2.3808      0.1068     16.3145    149.2625     26.0533
   910.3000      8.0665      2.4010      0.0470     15.0898    155.2715     25.9894
   910.4000      8.0665      2.4297      0.0635     13.3522    163.1260     25.8579
   910.5000      8.0285      2.4498      0.0413     12.1308    171.4932     25.8722
   910.6000      8.0285      2.4655      0.0060     11.1820    179.2085     26.0117
   910.7000      8.0285      2.4848      0.0919     10.0106    182.4039     26.0539
   910.8000      8.0341      2.4999      0.0462      9.0976    179.1718     25.9799
   910.9000      8.0341      2.5070      0.0988      8.6650    175.7337     26.1091
   911.0000      8.0546      2.5082      0.0861      8.5942    175.1454     26.6226
   911.1000      8.0546      2.5074      0.0776      8.6399    173.2585     27.1615
   911.2000      8.0546      2.5091      0.0971      8.5366    171.6043     27.3618
   911.3000      8.0246      2.5141      0.1085      8.2347    172.7680     27.4325
   911.4000      8.0246      2.5250      0.0958      7.5737    173.3288     27.6931
   911.5000      7.9981      2.5402      0.1007      6.6541    170.7466     27.9406
   911.6000      7.9981      2.5468      0.1215      6.2546    165.3863     27.8842
   911.7000      7.9981      2.5367      0.1031      6.8659    158.6589     27.7424
   911.8000      7.9936      2.5213      0.0838      7.8026    153.6852     27.9210
   911.9000      7.9936      2.5169      0.0636      8.0653    153.1855     28.3250
   912.0000      7.9988      2.5260      0.0698      7.5177    153.8052     28.5923
   912.1000      7.9988      2.5400      0.0694      6.6692    150.0361     28.6381
   912.2000      7.9988      2.5558      0.0394      5.7094    142.5782     28.5349
   912.3000      8.0481      2.5769      0.0953      4.4329    135.1554     28.2556
   912.4000      8.0481      2.6032      0.1213      2.8354    128.6981     27.7076
   912.5000      8.0361      2.6300      0.1554      1.2091    122.9291     27.0614
   912.6000      8.0361      2.6466      0.1581      0.2047    117.8904     26.6992
   912.7000      8.0361      2.6436      0.1806      0.3850    114.6785     26.7044
   912.8000      7.9177      2.6282      0.1368      1.3239    111.5096     26.8022
   912.9000      7.9177      2.6202      0.1117      1.8032    105.6868     26.7291
   913.0000      7.9153      2.6363      0.0452      0.8329    100.2751     26.3480
   913.1000      7.9153      2.6783      0.0527     -1.7148     99.5708     25.8356
   913.2000      7.9153      2.7234      0.1152     -4.4477    102.5155     25.6057
   913.3000      7.9501      2.7370      0.1285     -5.2753    103.6598     25.7319
   913.4000      7.9501      2.7093      0.1063     -3.5916     99.5389     25.8833
   913.5000      7.9488      2.6668     -0.0094     -1.0169     95.1489     25.8206
   913.6000      7.9488      2.6375      0.0288      0.7583     95.4802     25.7127
   913.7000      7.9488      2.6183      0.0238      1.9188     99.0589     25.4339
   913.8000      7.9381      2.6033     -0.0105      2.8292    102.7257     24.6483
   913.9000      7.9381      2.5954      0.0348      3.3110    102.7001     23.6649
   914.0000      7.9676      2.5832      0.0794      4.0483     98.9460     22.9026
   914.1000      7.9676      2.5554      0.0589      5.7337     96.3962     22.3250
   914.2000      7.9676      2.5224      0.0690      7.7315     98.1627     21.9202
   914.3000      7.9678      2.5052      0.0131      8.7740    102.7601     21.7488
   914.4000      7.9678      2.5135      0.0929      8.2718    105.9334     21.6893
   914.5000      7.9361      2.5332      0.1168      7.0772    105.6758     21.5442
   914.6000      7.9361      2.5434      0.1235      6.4578    103.7082     21.2861
   914.7000      7.9361      2.5401      0.1086      6.6627    102.2169     21.2452
   914.8000      7.9204      2.5301      0.1250      7.2647    101.5769     21.6572
   914.9000      7.9204      2.5156      0.1039      8.1473    101.4331     22.1104
   915.0000      7.9229      2.4995      0.0850      9.1202    101.6151     22.1128
   915.1000      7.9229      2.4910      0.0539      9.6366    100.9136     21.7587
   915.2000      7.9229      2.4978      0.0809      9.2262    100.1215     21.4519
   915.3000      7.9440      2.5237      0.0623      7.6542    101.3373     21.3993
   915.4000      7.9440      2.5595      0.1144      5.4860    101.6781     21.4285
   915.5000      7.9465      2.5823      0.1337      4.1015    100.0190     21.2652
   915.6000      7.9465      2.5846      0.1195      3.9662    100.0165     21.0141
   915.7000      7.9465      2.5787      0.1207      4.3196    102.1643     21.0768
   915.8000      7.9411      2.5737      0.1181      4.6231    103.9273     21.4338
   915.9000      7.9411      2.5699      0.1224      4.8520    104.8154     21.6661
   916.0000      7.9192      2.5706      0.0887      4.8128    105.0568     21.6947
   916.1000      7.9192      2.5779      0.1037      4.3676    103.2968     21.6301
   916.2000      7.9192      2.5810      0.1340      4.1820    100.8909     21.4309
   916.3000      7.9162      2.5720      0.0749      4.7267    100.4370     21.2036
