~Version Information
VERS.                      2.0: CWLS Log ASCII Standard - VERSION 2.0
WRAP.                       NO: One line per depth step
~Well Information Block
STRT.FT                -7.5000: 
STOP.FT              2304.7500: 
STEP.FT                 0.2500: 
NULL.                -999.2500: 
COMP.          Pioneer Natural Resources: COMPANY
WELL.          Foothills 12-36: WELL
FLD.           Purgatorie River: FIELD
LOC.           2450' FNL & 201' FWL--: LOCATION
PROV.                       CO: PROVINCE
CNTY.               Las Animas: COUNTRY
SRVC.          Patterson Wireline: SERVICE COMPANY
DATE.          Tue Apr 26 11:10:08 2005: LOG DATE
UWI.           05 071 08339 00: UNIQUE WELL ID
~Curve Information Block
DEPT.FT            0 000 00 00: Depth
CCL.                          : Casing Collar Locator
TT3.usec                      : CBL 3' Travel Time
AMP3.mV                       : CBL 3' Amplitude
GR.GAPI                       : Gamma Ray
~Parameter Information Block
~A  Depth       CCL         TT3         AMP3         GR     
# ...
  1366.0000      0.0000    777.3171      5.9808    128.5442
  1366.2500      0.0000    775.6172      6.0038    124.4177
  1366.5000      0.0000    776.4628      6.0248    120.8442
  1366.7500      0.0000    780.3262      6.0176    119.0718
  1367.0000      0.0000    785.3563      5.9755    118.5021
  1367.2500      0.0000    789.4681      5.9177    117.6676
  1367.5000      0.0000    792.1494      5.8798    115.3741
  1367.7500      0.0000    794.3904      5.8852    111.1083
  1368.0000      0.0000    797.5721      5.9224    105.1834
  1368.2500      0.0000    802.3057      5.9607     98.8479
  1368.5000      0.0000    807.6301      5.9848     94.0349
  1368.7500      0.0000    811.2009      5.9979     92.4661
  1369.0000      0.0000    810.9247      5.9980     94.4510
  1369.2500      0.0000    806.7211      5.9733     98.4634
  1369.5000      0.0000    800.3522      5.9223    102.2631
  1369.7500      0.0000    793.4855      5.8582    104.6533
  1370.0000      0.0000    786.2913      5.7943    106.2042
  1370.2500      0.0000    777.9136      5.7364    108.4915
  1370.5000      0.0000    767.9121      5.6910    112.8584
  1370.7500      0.0000    757.4780      5.6651    119.6995
  1371.0000      0.0000    749.5299      5.6535    128.3085
  1371.2500      0.0000    746.9630      5.6378    137.0307
  1371.5000      0.0000    749.9590      5.6047    143.8832
  1371.7500      0.0000    755.5218      5.5607    147.5495
  1372.0000      0.0000    760.4446      5.5181    147.9171
  1372.2500      0.0000    764.2798      5.4757    145.7431
  1372.5000      0.0000    768.7811      5.4214    141.9380
  1372.7500      0.0000    775.0141      5.3513    136.8806
  1373.0000      0.0000    781.6879      5.2717    130.1779
  1373.2500      0.0000    786.0012      5.1770    121.3889
  1373.5000      0.0000    785.9551      5.0471    111.1102
  1373.7500      0.0000    782.6843      4.8884    100.9655
  1374.0000      0.0000    780.7371      4.7583     92.5043
  1374.2500      0.0000    784.6315      4.7117     86.4965
  1374.5000      0.0000    794.2738      4.7328     83.2338
  1374.7500      0.0000    804.9545      4.7531     83.0380
  1375.0000      0.0000    812.4545      4.7277     86.2098
  1375.2500      0.0000    817.2047      4.6622     92.4166
  1375.5000      2.0000    822.9593      4.5819    100.1517
  1375.7500      2.0000    832.4744      4.5042    106.9314
  1376.0000      0.0000    845.1489      4.4368    110.3729
  1376.2500      0.0000    857.7189      4.3971    109.4060
  1376.5000      0.0000    865.8839      4.4331    104.5596
  1376.7500      0.0000    866.3130      4.6037     97.1682
  1377.0000      0.0000    859.1191      4.9084     88.4161
  1377.2500      0.0000    848.2119      5.2498     79.1456
  1377.5000      0.0000    838.0493      5.5031     70.3921
  1377.7500      0.0000    830.4250      5.6173     63.7073
  1378.0000      0.0000    824.8193      5.6288     60.5422
  1378.2500      0.0000    820.5035      5.6004     61.2408
  1378.5000      0.0000    817.3182      5.5756     64.7670
  1378.7500      0.0000    815.2356      5.5730     69.4007
  1379.0000      0.0000    814.0600      5.5888     73.6391
  1379.2500      0.0000    813.4968      5.5975     76.6990
  1379.5000      0.0000    813.2278      5.5682     78.7836
  1379.7500      0.0000    812.9818      5.4933     81.0405
  1380.0000      0.0000    812.6004      5.4000     84.6377
  1380.2500      0.0000    812.0137      5.3295     89.4111
  1380.5000      0.0000    811.1395      5.3023     93.6153
  1380.7500      0.0000    809.8540      5.3031     95.2280
  1381.0000      0.0000    808.0969      5.2992     93.3956
  1381.2500      0.0000    805.9893      5.2743     88.6445
  1381.5000      0.0000    803.8179      5.2411     82.0991
  1381.7500      0.0000    801.8984      5.2204     74.8999
  1382.0000      0.0000    800.4487      5.2169     68.1776
  1382.2500      0.0000    799.5291      5.2222     62.9112
  1382.5000      0.0000    799.0093      5.2328     59.5277
  1382.7500      0.0000    798.5469      5.2524     57.8922
  1383.0000      0.0000    797.7255      5.2777     57.7714
  1383.2500      0.0000    796.4796      5.2939     59.0729
  1383.5000      0.0000    795.4927      5.2902     61.6115
  1383.7500      0.0000    795.8910      5.2740     64.7579
  1384.0000      0.0000    798.1963      5.2631     67.4588
  1384.2500      0.0000    801.6733      5.2679     68.8689
  1384.5000      0.0000    804.9308      5.2855     69.0901
  1384.7500      0.0000    807.0457      5.3093     69.1628
  1385.0000      0.0000    808.0205      5.3394     70.3306
  1385.2500      0.0000    808.4350      5.3806     73.4377
  1385.5000      0.0000    808.8538      5.4287     78.7671
  1385.7500      0.0000    809.3822      5.4601     85.9369
  1386.0000      0.0000    809.5228      5.4422     93.9058
  1386.2500      0.0000    808.3583      5.3655    101.5271
  1386.5000      0.0000    804.9567      5.2609    108.1164
  1386.7500      0.0000    799.0524      5.1811    112.9994
  1387.0000      0.0000    791.9732      5.1632    114.7943
  1387.2500      0.0000    786.8188      5.2091    112.3083
  1387.5000      0.0000    786.6710      5.2966    106.4933
  1387.7500      0.0000    791.9070      5.4034    100.5815
  1388.0000      0.0000    799.6619      5.5180     97.8617
  1388.2500      0.0000    806.1964      5.6299     99.7696
  1388.5000      0.0000    809.2524      5.7152    105.9165
  1388.7500      0.0000    808.2117      5.7427    115.0728
  1389.0000      0.0000    803.2480      5.7026    125.9778
  1389.2500      0.0000    795.4373      5.6240    137.7447
  1389.5000      0.0000    787.5200      5.5559    149.5146
  1389.7500      0.0000    783.4038      5.5288    159.6132
  1390.0000      0.0000    785.7538      5.5351    165.7175
  1390.2500      0.0000    793.7389      5.5454    166.6231
  1390.5000      0.0000    803.5525      5.5372    163.6686
  1390.7500      0.0000    811.3779      5.5065    160.0203
  1391.0000      0.0000    815.6935      5.4550    158.6287
  1391.2500      0.0000    817.1507      5.3790    160.6196
  1391.5000      0.0000    817.1971      5.2792    164.6710
  1391.7500      0.0000    817.1759      5.1725    167.4136
  1392.0000      0.0000    818.1298      5.0844    165.1291
  1392.2500      0.0000    820.7009      5.0281    155.9512
  1392.5000      0.0000    824.9207      4.9959    140.9874
  1392.7500      0.0000    830.2413      4.9685    123.8571
  1393.0000      0.0000    835.8440      4.9322    109.1103
  1393.2500      0.0000    840.8214      4.8859    100.0714
  1393.5000      0.0000    844.2629      4.8348     97.2169
  1393.7500      0.0000    845.7355      4.7813     98.4363
  1394.0000      0.0000    845.8589      4.7250    101.0486
  1394.2500      0.0000    846.0037      4.6731    103.6905
  1394.5000      0.0000    847.1170      4.6471    106.5472
  1394.7500      0.0000    848.9641      4.6738    110.4421
  1395.0000      0.0000    850.4708      4.7579    115.9435
  1395.2500      0.0000    850.3786      4.8685    122.7674
  1395.5000      0.0000    847.3929      4.9597    129.6692
  1395.7500      0.0000    840.5083      5.0076    135.2723
  1396.0000      0.0000    830.3025      5.0264    139.4400
  1396.2500      0.0000    819.9458      5.0518    143.6855
  1396.5000      0.0000    813.6628      5.1128    149.9067
  1396.7500      0.0000    813.3259      5.2117    158.7363
  1397.0000      0.0000    816.9997      5.3233    169.0369
  1397.2500      0.0000    821.0481      5.4116    178.5661
  1397.5000      0.0000    823.0845      5.4481    185.0514
  1397.7500      0.0000    823.0444      5.4188    187.0754
  1398.0000      0.0000    822.3257      5.3256    184.5399
  1398.2500      0.0000    822.0960      5.1910    178.6387
  1398.5000      0.0000    822.0641      5.0575    171.4058
  1398.7500      0.0000    820.8033      4.9660    165.0500
  1399.0000      0.0000    817.4147      4.9310    161.0690
  1399.2500      0.0000    812.8550      4.9387    159.2166
