~Version Information
VERS.                      2.0: CWLS Log ASCII Standard - VERSION 2.0
WRAP.                       NO: One line per depth step
~Well Information Block
STRT.FT               664.0000: 
STOP.FT              1113.5000: 
STEP.FT                 0.1000: 
NULL.                -999.2500: 
COMP.          Petrogulf Corporation: COMPANY
WELL.          Great Plains 22-21R: WELL
FLD.           Purgatorie River: FIELD
LOC.           73' FNL & 1992' FWL: LOCATION
PROV.                 Colorado: PROVINCE
CNTY.               Las Animas: COUNTRY
SRVC.                Patterson: SERVICE COMPANY
DATE.          Thu Sep 08 08:02:28 2005: LOG DATE
UWI.                          : UNIQUE WELL ID
~Curve Information Block
DEPT.FT            0 000 00 00: Depth
DCAL.in                       : CDL Caliper
RHOB.g/cc                     : CDL Bulk Density
RHOC.g/cc                     : CDL Density Correction
DPOR.pu                       : CDL Density Porosity
GR.GAPI                       : Gamma Ray
NPOR.pu                       : Neutron Porosity
~Parameter Information Block
~A  Depth       DCAL        RHOB        RHOC        DPOR         GR         NPOR    
# ...
   779.2000      8.0054      2.6047      0.0518      2.7454    132.0402     21.3851
   779.3000      7.9879      2.6140      0.0120      2.1816    137.8309     21.3480
   779.4000      7.9879      2.6173      0.0321      1.9797    142.0609     21.4880
   779.5000      7.9945      2.6109      0.0429      2.3725    142.8043     21.7590
   779.6000      7.9945      2.5938      0.0155      3.4041    144.3185     21.6119
   779.7000      7.9945      2.5765      0.0229      4.4525    146.2062     21.0551
   779.8000      8.0044      2.5656     -0.0299      5.1130    143.1648     20.8428
   779.9000      8.0044      2.5654      0.0548      5.1267    139.0721     21.1876
   780.0000      8.0021      2.5773      0.0445      4.4070    140.8222     21.5805
   780.1000      8.0021      2.5997      0.0389      3.0482    146.3659     21.7067
   780.2000      8.0021      2.6169      0.1209      2.0065    148.4186     21.7295
   780.3000      8.0058      2.6096      0.0627      2.4467    144.3123     21.8248
   780.4000      8.0058      2.5896      0.0370      3.6600    139.5843     21.9819
   780.5000      8.0075      2.5741      0.0442      4.5970    139.0503     21.9629
   780.6000      8.0075      2.5648      0.0277      5.1667    140.9228     21.7852
   780.7000      8.0075      2.5646     -0.0017      5.1781    140.6810     21.5829
   780.8000      8.0067      2.5727      0.0223      4.6825    136.3427     21.2913
   780.9000      8.0067      2.5785      0.0252      4.3350    130.8771     21.2400
   781.0000      7.9909      2.5787      0.0262      4.3205    129.4853     21.6016
   781.1000      7.9909      2.5803      0.0111      4.2231    132.7300     21.7981
   781.2000      7.9909      2.5863      0.0761      3.8624    134.7533     21.5527
   781.3000      7.9758      2.5989      0.0560      3.0958    132.4364     21.1699
   781.4000      7.9758      2.6266      0.0529      1.4163    128.4944     20.9116
   781.5000      7.9613      2.6595      0.1079     -0.5787    125.0839     20.8916
   781.6000      7.9613      2.6721      0.0885     -1.3409    123.2271     21.0618
   781.7000      7.9613      2.6679      0.0461     -1.0823    123.2453     21.1174
   781.8000      7.9547      2.6671      0.0453     -1.0353    124.1828     20.8283
   781.9000      7.9547      2.6672      0.0363     -1.0431    125.7309     20.3400
   782.0000      7.9477      2.6562      0.0485     -0.3738    127.3797     19.8901
   782.1000      7.9477      2.6353      0.0325      0.8895    126.4145     19.4246
   782.2000      7.9477      2.6120      0.0270      2.3018    120.0914     18.8698
   782.3000      7.9454      2.5931     -0.0082      3.4509    111.3786     18.4460
   782.4000      7.9454      2.5836      0.0231      4.0256    106.7135     18.2118
   782.5000      7.9421      2.5781      0.0430      4.3560    108.0411     17.9338
   782.6000      7.9421      2.5718      0.0011      4.7377    109.2820     17.7204
   782.7000      7.9421      2.5710      0.0506      4.7858    107.2115     17.9146
   782.8000      7.9413      2.5824      0.0171      4.0952    107.1437     18.2694
   782.9000      7.9413      2.6012      0.0219      2.9553    109.8431     18.2685
   783.0000      7.9455      2.6068      0.0644      2.6195    109.1307     18.0160
   783.1000      7.9455      2.5942      0.0273      3.3804    103.6203     17.7827
   783.2000      7.9455      2.5921      0.0153      3.5112     97.6411     17.3677
   783.3000      7.9405      2.6155      0.0657      2.0892     92.7679     16.6331
   783.4000      7.9405      2.6442      0.0583      0.3541     88.9742     15.9487
   783.5000      7.9438      2.6540      0.0890     -0.2440     87.1671     15.6950
   783.6000      7.9438      2.6473      0.0672      0.1631     86.1742     15.8014
   783.7000      7.9438      2.6399      0.0806      0.6097     84.7057     16.0194
   783.8000      7.9433      2.6347      0.0686      0.9258     83.1449     16.0691
   783.9000      7.9433      2.6307      0.0548      1.1668     81.9864     15.8653
   784.0000      7.9356      2.6382      0.0507      0.7179     82.0653     15.5909
   784.1000      7.9356      2.6600      0.0747     -0.6073     82.9565     15.2995
   784.2000      7.9356      2.6837      0.0837     -2.0431     83.4728     15.0251
   784.3000      7.9376      2.7030      0.0706     -3.2127     84.9683     15.0127
   784.4000      7.9376      2.7192      0.1216     -4.1909     87.1666     15.4155
   784.5000      7.9315      2.7308      0.0657     -4.8941     86.6281     16.0662
   784.6000      7.9315      2.7413      0.0981     -5.5325     83.2761     16.5222
   784.7000      7.9315      2.7528      0.1044     -6.2301     80.0971     16.6153
   784.8000      7.9342      2.7579      0.1000     -6.5415     78.2909     16.5828
   784.9000      7.9342      2.7485      0.0870     -5.9679     76.6495     16.5559
   785.0000      7.9335      2.7258      0.0905     -4.5953     75.7848     16.5392
   785.1000      7.9335      2.7007      0.0679     -3.0745     77.6969     16.4726
   785.2000      7.9335      2.6834      0.0217     -2.0254     81.1070     16.2915
   785.3000      7.9460      2.6754     -0.0014     -1.5386     83.4049     16.0704
   785.4000      7.9460      2.6711      0.0109     -1.2813     82.5236     15.6730
   785.5000      7.9448      2.6644      0.0364     -0.8728     78.9388     15.0154
   785.6000      7.9448      2.6550      0.0335     -0.3026     77.3947     14.4548
   785.7000      7.9448      2.6493      0.0326      0.0417     80.6914     14.1560
   785.8000      7.9546      2.6455      0.0415      0.2715     86.3459     14.1415
   785.9000      7.9546      2.6361      0.0497      0.8452     91.1357     14.4023
   786.0000      7.9722      2.6229      0.0412      1.6394     95.2670     14.5903
   786.1000      7.9722      2.6086      0.0262      2.5077     98.9464     14.4682
   786.2000      7.9722      2.5915      0.0222      3.5454    101.1247     14.4765
   786.3000      7.9854      2.5815     -0.0150      4.1491    104.0685     15.0603
   786.4000      7.9854      2.5837      0.0586      4.0206    109.4911     15.9745
   786.5000      8.0159      2.5834      0.0227      4.0352    114.7906     16.5806
   786.6000      8.0159      2.5749      0.0203      4.5543    116.5822     16.5819
   786.7000      8.0159      2.5657     -0.0021      5.1069    115.1248     16.4686
   786.8000      8.0313      2.5634      0.0227      5.2455    114.2575     16.7518
   786.9000      8.0313      2.5656      0.0243      5.1170    115.7086     17.1704
   787.0000      8.0293      2.5644      0.0376      5.1900    116.8462     17.5491
   787.1000      8.0293      2.5604      0.0129      5.4288    116.6737     18.0303
   787.2000      8.0293      2.5665      0.0262      5.0598    116.1631     18.3899
   787.3000      8.0451      2.5896      0.0575      3.6626    114.6475     18.5034
   787.4000      8.0451      2.6150      0.0680      2.1228    112.3188     18.7254
   787.5000      8.0323      2.6233      0.0673      1.6200    108.4394     19.0746
   787.6000      8.0323      2.6122      0.0478      2.2924    102.1627     19.0566
   787.7000      8.0323      2.6021      0.0123      2.9046     97.1113     18.6741
   787.8000      8.0198      2.6108      0.0757      2.3768     95.9164     18.2846
   787.9000      8.0198      2.6286      0.0656      1.2996     95.9244     17.9129
   788.0000      7.9842      2.6388      0.0377      0.6782     92.7196     17.3712
   788.1000      7.9842      2.6360      0.0987      0.8507     87.5615     16.5902
   788.2000      7.9842      2.6275      0.0341      1.3617     85.1797     15.8599
   788.3000      7.9602      2.6277      0.0665      1.3486     85.8661     15.5684
   788.4000      7.9602      2.6355      0.0899      0.8801     85.8873     15.6351
   788.5000      7.9562      2.6474      0.0336      0.1569     83.5339     15.6382
   788.6000      7.9562      2.6646      0.0914     -0.8853     82.1554     15.4313
   788.7000      7.9562      2.6777      0.0551     -1.6776     85.1198     15.4597
