~Version Information
 VERS.                                  2.0 : CWLS LAS VERSION
 WRAP.                                   NO : WRAPING MODE
 SWARE .                 MController 2.5.0E : SOFTWARE VERSION
~Well Information
 WELL.                       Parklane 43-34 : WELL
 COMP.             Evergreen Operating Corp : COMPANY
 FLD.                      Purgatorie River : FIELD
 LOC.                NE/SE Sec 34 T32S R66W : LOCATION
 DATE.                          10/04-06/04 : DATE(S) LOGGED
 SRVC.       Blanco Geological Services LLC : SERVICE COMPANY
 STAT.                                   CO : STATE
 CNTY.                           Las Animas : COUNTY
 CTRY.                                  USA : COUNTRY
 API.                       05-071-08162-00 : API NUMBER
 STRT.FT                             467.00 : START DEPTH
 STOP.FT                            2245.00 : STOP DEPTH
 STEP.FT                               1.00 : DEPTH INCREMENT
 NULL.                                -9999 : NULL VALUE
~Curve information
 DEPTH.FT                                   :
 ROP.MIN/FT                                 :
 GAS.UNITS                                  :
~ASCII Log data
      467.00    -9999.000          2.3 
      468.00        1.967          2.9 
      469.00        0.383          2.7 
      470.00        0.100          2.0 
      471.00        0.067          1.9 
      472.00        0.100          2.3 
      473.00        0.100          1.8 
      474.00        0.067          2.4 
      475.00        0.100          1.8 
      476.00        0.067          2.4 
      477.00        0.100          2.3 
      478.00        0.133          1.8 
      479.00        0.133          1.9 
      480.00        1.400          2.5 
      481.00        1.583          3.1 
      482.00        2.300          3.3 
      483.00        2.050          3.2 
      484.00        1.500          3.5 
      485.00        2.217          3.7 
      486.00        1.133          3.4 
      487.00        1.217          3.6 
      488.00        1.333          3.9 
      489.00        1.250          4.3 
      490.00        0.300          4.3 
      491.00        0.267          3.9 
      492.00        0.233          3.8 
      493.00        1.033          4.3 
      494.00        1.133          4.3 
      495.00        1.050          4.4 
      496.00        1.000          4.6 
      497.00        0.967          4.7 
      498.00        1.117          4.5 
      499.00        0.967          4.8 
      500.00        0.667          5.3 
      501.00        1.217          5.2 
      502.00        2.100          5.4 
      503.00        1.450          5.4 
      504.00        1.533          5.6 
      505.00        1.517          5.6 
      506.00        1.733          5.6 
      507.00        1.750          6.1 
      508.00        1.800          6.2 
      509.00        1.850          6.1 
      510.00        1.933          6.2 
      511.00        2.950          6.2 
      512.00        1.883          6.4 
      513.00        3.517          6.2 
      514.00        0.600          6.3 
      515.00        0.267          6.7 
      516.00        0.167          6.5 
      517.00        0.267          6.3 
      518.00        0.167          6.8 
      519.00        0.067          5.7 
      520.00        0.100          5.7 
      521.00        0.200          6.7 
      522.00        0.100          5.7 
      523.00        0.067          6.2 
      524.00        0.100          6.7 
      525.00        0.067          6.3 
      526.00        0.100          6.1 
      527.00        0.100          5.9 
      528.00        0.183          6.6 
      529.00        0.800          6.7 
      530.00        0.100          5.7 
      531.00        0.067          6.4 
      532.00        0.133          5.8 
      533.00        0.267          6.4 
      534.00        0.200          6.4 
      535.00        0.100          5.9 
      536.00        0.100          5.8 
      537.00        0.133          5.9 
      538.00        0.100          6.7 
      539.00        0.300          6.0 
      540.00        0.133          6.7 
      541.00        0.200          6.5 
      542.00        0.300          6.9 
      543.00        0.350          6.9 
      544.00        1.100          6.9 
      545.00        0.200          6.1 
      546.00        0.133          5.6 
      547.00        0.100          5.7 
      548.00        0.167          6.0 
      549.00        0.200          6.6 
      550.00        0.233          6.0 
      551.00        1.350          7.1 
      552.00        0.533          6.6 
      553.00        0.200          5.8 
      554.00        0.133          5.7 
      555.00        0.167          5.8 
      556.00        0.133          6.0 
      557.00        0.167          6.6 
      558.00        0.133          5.7 
      559.00        0.167          6.7 
      560.00        0.167          6.4 
      561.00        0.167          6.3 
      562.00        0.167          6.0 
      563.00        0.200          6.3 
      564.00        0.133          7.3 
      565.00        0.300         16.3 
      566.00        1.217         54.9 
      567.00        0.100         58.5 
      568.00        0.233         60.9 
      569.00        0.233         62.6 
      570.00        0.167         62.5 
      571.00        0.233         61.5 
      572.00        0.167         61.0 
      573.00        0.100         61.2 
      574.00        0.100         60.9 
      575.00        0.133         60.5 
      576.00        0.167         62.2 
      577.00        0.100         66.2 
      578.00        0.133         66.1 
      579.00        0.133         61.8 
      580.00        0.133         54.8 
      581.00        0.133         49.0 
      582.00        0.133         46.0 
      583.00        0.150         44.7 
      584.00        0.133         42.5 
      585.00        0.167         40.4 
      586.00        0.133         39.6 
      587.00        0.167         37.9 
      588.00        0.133         35.6 
      589.00        0.133         37.2 
      590.00        0.167         73.3 
      591.00        0.167        137.9 
      592.00        0.133        173.5 
      593.00        0.200        189.8 
      594.00        0.167        189.2 
      595.00        0.200        174.5 
      596.00        1.033        147.5 
      597.00        0.350         56.4 
      598.00        0.267         50.2 
      599.00        0.300         47.8 
      600.00        0.267         46.2 
      601.00        0.200         46.1 
      602.00        0.167         46.4 
      603.00        0.200         44.9 
      604.00        0.167         42.9 
      605.00        0.200         43.9 
      606.00        0.133         43.5 
      607.00        0.100         43.1 
      608.00        0.167         46.0 
      609.00        0.133         46.4 
      610.00        0.167         43.9 
      611.00        0.133         37.6 
      612.00        0.167         34.0 
      613.00        0.133         31.9 
      614.00        0.167         30.8 
      615.00        0.167         29.9 
      616.00        0.117         29.2 
      617.00        0.167         28.1 
      618.00        0.133         26.5 
      619.00        0.200         25.5 
      620.00        0.167         34.2 
      621.00        0.167        127.6 
      622.00        0.133        229.7 
      623.00        0.100        277.4 
      624.00        0.133        301.0 
      625.00        0.133        306.1 
      626.00        1.567        291.4 
      627.00        0.200         35.9 
      628.00        0.217         30.7 
      629.00        0.167         25.6 
      630.00        0.167         22.6 
      631.00        0.167         21.2 
      632.00        0.133         18.6 
      633.00        0.100         18.1 
      634.00        0.133         17.8 
      635.00        0.133         16.4 
      636.00        0.133         16.7 
      637.00        0.200         17.7 
      638.00        0.167         18.1 
      639.00        0.167         20.0 
      640.00        0.200         18.6 
      641.00        0.133         17.8 
      642.00        0.133         17.7 
      643.00        0.167         17.0 
      644.00        0.200         17.7 
      645.00        0.233         17.5 
      646.00        0.167         16.9 
      647.00        0.167         15.9 
      648.00        0.183         15.9 
      649.00        0.200         15.7 
      650.00        0.133         16.3 
      651.00        0.200         25.7 
      652.00        0.133         36.6 
      653.00        0.100         43.9 
      654.00        0.100         52.0 
      655.00        0.100         59.3 
      656.00        1.200         75.7 
      657.00        0.200         41.7 
      658.00        0.233         36.8 
      659.00        0.233         30.6 
      660.00        0.233         25.3 
      661.00        0.200         19.2 
      662.00        0.183         16.0 
      663.00        0.200         13.3 
      664.00        0.167         12.3 
      665.00        0.200         12.8 
      666.00        0.133         12.9 
