~Version Information
 VERS.                                  2.0 : CWLS LAS VERSION
 WRAP.                                   NO : WRAPING MODE
 SWARE .                 MController 2.5.0J : SOFTWARE VERSION
~Well Information
 WELL.                         Squeal 11-26 : WELL
 COMP.    Pioneer Natural Resources USA Inc : COMPANY
 FLD.                      Purgatoire River : FIELD
 LOC.                NW/NW Sec 26 T32S R67W : LOCATION
 DATE.                         6/13-14/2005 : DATE(S) LOGGED
 SRVC.       Blanco Geological Services LLC : SERVICE COMPANY
 STAT.                                   CO : STATE
 CNTY.                           Las Animas : COUNTY
 CTRY.                                  USA : COUNTRY
 API.                       05-071-08404-00 : API NUMBER
 STRT.FT                             285.00 : START DEPTH
 STOP.FT                            2760.00 : STOP DEPTH
 STEP.FT                               1.00 : DEPTH INCREMENT
 NULL.                                -9999 : NULL VALUE
~Curve information
 DEPTH.FT                                   :
 ROP.MIN/FT                                 :
 GAS.UNITS                                  :
~ASCII Log data
# ...
      1285.0         0.27         13.0 
      1286.0         0.27         12.8 
      1287.0         0.27         12.6 
      1288.0         0.23         12.7 
      1289.0         0.33         12.3 
      1290.0        11.77        464.8 
      1291.0         0.67       1424.3 
      1292.0         0.47       1115.7 
      1293.0         0.33        630.2 
      1294.0         0.30        493.7 
      1295.0         0.22        450.3 
      1296.0         0.10        444.6 
      1297.0         0.13        448.6 
      1298.0         0.10        455.0 
      1299.0         0.20        465.8 
      1300.0         0.10        468.5 
      1301.0         0.13        474.9 
      1302.0         0.07        478.2 
      1303.0         0.10        483.6 
      1304.0         0.10        490.7 
      1305.0         0.27        512.3 
      1306.0         0.33        539.6 
      1307.0         0.33        548.3 
      1308.0         0.13        545.3 
      1309.0         0.20        539.6 
      1310.0         0.30        520.0 
      1311.0         0.27        481.6 
      1312.0         0.27        459.0 
      1313.0         0.17        440.0 
      1314.0         0.22        440.0 
      1315.0         0.27         16.5 
      1316.0         0.40         13.6 
      1317.0         0.43         11.0 
      1318.0         0.27         10.3 
      1319.0         0.27         10.6 
      1320.0         7.27        212.4 
      1321.0         0.43        174.9 
      1322.0         0.47         84.3 
      1323.0         0.45         26.5 
      1324.0         0.47         11.8 
      1325.0         0.37          8.8 
      1326.0         0.40         11.6 
      1327.0         0.40         15.2 
      1328.0         0.47         18.5 
      1329.0         0.40         19.8 
      1330.0         0.52         19.2 
      1331.0         0.60         17.6 
      1332.0         0.30         17.8 
      1333.0         0.50         19.7 
      1334.0         0.40         20.6 
      1335.0         0.33         21.4 
      1336.0         0.33         23.1 
      1337.0         0.57         23.7 
      1338.0         0.38         21.8 
      1339.0         0.63         19.9 
      1340.0         0.40         23.6 
      1341.0         0.23         25.7 
      1342.0         0.27         34.1 
      1343.0         0.33         49.0 
      1344.0         0.37         57.7 
      1345.0         0.37         59.1 
      1346.0         0.27         59.2 
      1347.0         0.48         61.0 
      1348.0         0.33         61.5 
      1349.0         0.30         57.7 
      1350.0        12.48       4841.6 
      1351.0         0.78       4279.6 
      1352.0         0.40        878.2 
      1353.0         0.37        568.9 
      1354.0         0.40        484.6 
      1355.0         0.27        442.2 
      1356.0         0.57        487.3 
      1357.0         0.53        527.8 
      1358.0         0.55        528.1 
      1359.0         0.93        501.5 
      1360.0         0.37        484.6 
      1361.0         0.27        499.1 
      1362.0         0.40        537.2 
      1363.0         0.57        563.5 
      1364.0         0.40        565.2 
      1365.0         0.38        561.8 
      1366.0         0.27        561.1 
      1367.0         0.40        559.4 
      1368.0         0.33        541.2 
      1369.0         0.47        518.0 
      1370.0         0.47        492.7 
      1371.0         0.43        487.0 
      1372.0         0.57        492.7 
      1373.0         0.62        494.1 
      1374.0         0.50        496.4 
      1375.0         0.40        499.1 
      1376.0         0.13        501.5 
      1377.0         0.10        505.2 
      1378.0         0.27        523.7 
      1379.0         0.47        548.3 
      1380.0         6.40        728.6 
      1381.0         0.60        768.3 
      1382.0         0.75        812.5 
      1383.0         0.57        594.8 
      1384.0         0.53        440.0 
      1385.0         0.33         15.1 
      1386.0         0.20         16.0 
      1387.0         0.17         21.7 
      1388.0         0.17         27.8 
      1389.0         0.33         43.6 
      1390.0         0.47         56.8 
      1391.0         0.52         67.3 
      1392.0         0.47         72.1 
      1393.0         0.43         72.2 
      1394.0         0.47         67.0 
      1395.0         0.50         54.8 
      1396.0         0.63         44.2 
      1397.0         0.47         45.3 
      1398.0         0.42         51.2 
      1399.0         0.43         57.6 
      1400.0         0.37         60.0 
      1401.0         0.33         60.3 
      1402.0         0.37         59.2 
      1403.0         0.30         57.1 
      1404.0         0.33         58.0 
      1405.0         0.23         59.7 
      1406.0         0.37         62.3 
      1407.0         0.27         64.1 
      1408.0         0.25         65.3 
      1409.0         0.27         67.1 
      1410.0        14.33       4669.1 
      1411.0         0.33        440.0 
      1412.0         0.30         33.6 
      1413.0         0.40         48.5 
      1414.0         0.27         64.2 
      1415.0         0.37         83.6 
      1416.0         0.45         93.0 
      1417.0         0.27         92.6 
      1418.0         0.27         86.3 
      1419.0         0.60        374.5 
      1420.0         0.30       1503.5 
      1421.0         0.60       1558.4 
      1422.0         1.18       1489.7 
      1423.0         0.47       1413.5 
      1424.0         0.43       1315.8 
      1425.0         0.43       1211.7 
      1426.0         0.33       1162.2 
      1427.0         0.40       1125.1 
      1428.0         0.43       1080.3 
      1429.0         0.23       1017.0 
      1430.0         0.17        997.8 
      1431.0         0.23       1012.6 
      1432.0         0.28       1038.9 
      1433.0         0.40       1049.0 
      1434.0         0.47       1047.3 
      1435.0         0.43       1058.7 
      1436.0         0.50       1071.9 
      1437.0         0.37       1071.5 
      1438.0         0.40       1053.4 
      1439.0         0.47       1002.1 
      1440.0        11.97       4198.4 
      1441.0         0.53       1694.2 
      1442.0         0.67        691.8 
      1443.0         0.52        779.1 
      1444.0         0.30        893.7 
      1445.0         0.33       1006.9 
      1446.0         0.37       1076.3 
      1447.0         0.30       1107.9 
      1448.0         0.17       1116.4 
      1449.0         0.33       1119.7 
      1450.0         0.20       1110.3 
      1451.0         0.23       1102.9 
      1452.0         0.27       1087.0 
      1453.0         0.13       1062.1 
      1454.0         0.13       1047.3 
      1455.0         0.13       1032.8 
      1456.0         0.55       1052.0 
      1457.0         0.27       1071.2 
      1458.0         0.27       1073.9 
      1459.0         0.23       1065.5 
      1460.0         0.27       1052.7 
      1461.0         0.40       1042.9 
      1462.0         0.53       1023.7 
      1463.0         0.90        998.8 
      1464.0         0.75        851.2 
      1465.0         0.63        904.1 
      1466.0         0.97       1080.0 
      1467.0         0.83       1077.6 
      1468.0         0.65        971.1 
      1469.0         0.70        995.7 
      1470.0         6.53       1956.6 
      1471.0         1.03       2524.0 
      1472.0         0.67       2707.9 
      1473.0         0.47       1306.4 
      1474.0         0.25        666.6 
      1475.0         0.20        551.7 
      1476.0         0.23        489.4 
      1477.0         0.17        442.9 
      1478.0         0.23        467.8 
      1479.0         0.37        566.2 
      1480.0         0.50        703.0 
      1481.0         0.43        787.9 
      1482.0         0.40        845.1 
      1483.0         0.47        876.1 
      1484.0         0.52        876.5 
