~Version Information
VERS.                      2.0: CWLS Log ASCII Standard - VERSION 2.0
WRAP.                       NO: One line per depth step
~Well Information Block
STRT.FT               948.2500: 
STOP.FT              2134.5000: 
STEP.FT                 0.2500: 
NULL.                -999.2500: 
COMP.          Petrogulf Corporation: COMPANY
WELL.             Valejo 8-12R: WELL
FLD.           Purgatorie River: FIELD
LOC.           1351'' FNL & 1562' FWL: LOCATION
CNTY.               Las Animas: COUNTY
SRVC.                         : SERVICE COMPANY
DATE.          Wed Apr 28 02:30:32 2004: LOG DATE
UWI.           05 071 08038 00: UNIQUE WELL ID
STAT.                 Colorado: STATE
~Curve Information Block
DEPT.FT            0 000 00 00: Depth
SP.mV                         : DIL Spontaneous Potential
RILD.Ohm-m                    : DIL Deep Resistivity
RILM.Ohm-m                    : DIL Medium Resistivity
RLL3.Ohm-m                    : DIL Shallow Resistivity
GR.GAPI                       : Gamma Ray
~Parameter Information Block
~A  Depth        SP         RILD        RILM        RLL3         GR     
# ...
  2096.2500    162.0272     10.9325     13.3740     17.4943   -999.2500
  2096.5000    161.8188     11.0133     13.5067     17.2760   -999.2500
  2096.7500    161.4768     11.0555     13.5710     17.0206   -999.2500
  2097.0000    161.1728     11.0626     13.5673     16.7188   -999.2500
  2097.2500    161.0564     11.0447     13.5056     16.4129   -999.2500
  2097.5000    161.1860     11.0155     13.4025     16.1528   -999.2500
  2097.7500    161.5055     10.9884     13.2787     15.9406   -999.2500
  2098.0000    161.8777     10.9732     13.1556     15.7379   -999.2500
  2098.2500    162.1550     10.9733     13.0524     15.5433   -999.2500
  2098.5000    162.2471     10.9857     12.9815     15.4476   -999.2500
  2098.7500    162.1477     11.0017     12.9461     15.5733   -999.2500
  2099.0000    161.9116     11.0116     12.9400     15.9424   -999.2500
  2099.2500    161.6097     11.0106     12.9515     16.4160   -999.2500
  2099.5000    161.2963     11.0021     12.9680     16.7783   -999.2500
  2099.7500    160.9955     10.9955     12.9813     16.8835   -999.2500
  2100.0000    160.6952     10.9998     12.9909     16.7405   -999.2500
  2100.2500    160.3542     11.0199     13.0048     16.4742   -999.2500
  2100.5000    159.9305     11.0544     13.0362     16.2179   -999.2500
  2100.7500    159.4153     11.0973     13.0970     16.0416   -999.2500
  2101.0000    158.8436     11.1411     13.1906     15.9723   -999.2500
  2101.2500    158.2688     11.1798     13.3068     16.0518   -999.2500
  2101.5000    157.7269     11.2107     13.4244     16.3204   -999.2500
  2101.7500    157.2208     11.2343     13.5215     16.7177   -999.2500
  2102.0000    156.7295     11.2533     13.5883     17.0364   -999.2500
  2102.2500    156.2190     11.2712     13.6327     17.0516   -999.2500
  2102.5000    155.6454     11.2915     13.6754     16.7394   -999.2500
  2102.7500    154.9654     11.3169     13.7374     16.3564   -999.2500
  2103.0000    154.1750     11.3507     13.8307     16.2654   -999.2500
  2103.2500    153.3473     11.3985     13.9542     16.6521   -999.2500
  2103.5000    152.6114     11.4660     14.0944     17.3860   -999.2500
  2103.7500    152.0624     11.5551     14.2299     18.1401   -999.2500
  2104.0000    151.7003     11.6600     14.3382     18.6479   -999.2500
  2104.2500    151.4725     11.7696     14.4031     18.8539   -999.2500
  2104.5000    151.3517     11.8719     14.4202     18.8480   -999.2500
  2104.7500    151.3347     11.9589     14.3957     18.7183   -999.2500
  2105.0000    151.3819     12.0262     14.3433     18.5011   -999.2500
  2105.2500    151.4078     12.0726     14.2780     18.2282   -999.2500
  2105.5000    151.3353     12.0997     14.2127     17.9618   -999.2500
  2105.7500    151.1427     12.1124     14.1556     17.7714   -999.2500
  2106.0000    150.8612     12.1175     14.1102     17.6767   -999.2500
  2106.2500    150.5426     12.1216     14.0779     17.6089   -999.2500
  2106.5000    150.2291     12.1277     14.0613     17.4599   -999.2500
  2106.7500    149.9373     12.1341     14.0653     17.2181   -999.2500
  2107.0000    149.6531     12.1363     14.0921     17.0485   -999.2500
  2107.2500    149.3362     12.1308     14.1357     17.1759   -999.2500
  2107.5000    148.9436     12.1201     14.1836     17.6649   -999.2500
  2107.7500    148.4619     12.1122     14.2253     18.3279   -999.2500
  2108.0000    147.9249     12.1168     14.2630     18.8485   -999.2500
  2108.2500    147.3979     12.1403     14.3121     19.0000   -999.2500
  2108.5000    146.9388     12.1836     14.3889     18.7948   -999.2500
  2108.7500    146.5655     12.2436     14.4974     18.4623   -999.2500
  2109.0000    146.2594     12.3171     14.6255     18.2652   -999.2500
  2109.2500    146.0011     12.4018     14.7534     18.3108   -999.2500
  2109.5000    145.8035     12.4948     14.8663     18.5206   -999.2500
  2109.7500    145.7054     12.5911     14.9615     18.7525   -999.2500
  2110.0000    145.7300     12.6828     15.0470     18.9131   -999.2500
  2110.2500    145.8432     12.7623     15.1354     18.9650   -999.2500
  2110.5000    145.9582     12.8244     15.2367     18.9024   -999.2500
  2110.7500    145.9874     12.8668     15.3522     18.7906   -999.2500
  2111.0000    145.8887     12.8885     15.4715     18.8110   -999.2500
  2111.2500    145.6715     12.8890     15.5726     19.1813   -999.2500
  2111.5000    145.3844     12.8699     15.6282     19.9687   -999.2500
  2111.7500    145.1016     12.8386     15.6174     20.9663   -999.2500
  2112.0000    144.9009     12.8081     15.5373     21.7494   -999.2500
  2112.2500    144.8277     12.7929     15.4054     21.8734   -999.2500
  2112.5000    144.8706     12.8043     15.2511     21.1327   -999.2500
  2112.7500    144.9702     12.8473     15.1048     19.7744   -999.2500
  2113.0000    145.0551     12.9216     14.9917     18.4716   -999.2500
  2113.2500    145.0771     13.0216     14.9321     17.9190   -999.2500
  2113.5000    145.0267     13.1309     14.9420     18.2989   -999.2500
  2113.7500    144.9262     13.2176     15.0335     19.1519   -999.2500
  2114.0000    144.8140     13.2387     15.2139     19.8622   -999.2500
  2114.2500    144.7264     13.1624     15.4831     20.3014   -999.2500
  2114.5000    144.6849     12.9935     15.8300     20.9550   -999.2500
  2114.7500    144.6916     12.7759     16.2277     22.4013   -999.2500
  2115.0000    144.7332     12.5663     16.6336     24.7009   -999.2500
  2115.2500    144.7866     12.4058     16.9940     27.3087   -999.2500
  2115.5000    144.8258     12.3081     17.2570     29.4893   -999.2500
  2115.7500    144.8321     12.2664     17.3858     30.7048   -999.2500
  2116.0000    144.8092     12.2657     17.3677     30.6673   -999.2500
  2116.2500    144.7856     12.2909     17.2169     29.2884   -999.2500
  2116.5000    144.7905     12.3296     16.9700     26.8016   -999.2500
  2116.7500    144.8183     12.4531     16.6766     23.8650   -999.2500
  2117.0000    144.8119     12.5779     16.3855     21.3069   -999.2500
  2117.2500    144.6694     12.6207     16.1338     19.6508   -999.2500
  2117.5000    144.2649     12.6669     15.9404     18.8896   -999.2500
  2117.7500    143.4952     12.7187     15.8088     18.6727   -999.2500
  2118.0000    142.3791     12.7723     15.7341     18.6329   -999.2500
  2118.2500    141.1533     12.8205     15.7117     18.5769   -999.2500
  2118.5000    140.2225     12.8597     15.7429     18.5137   -999.2500
  2118.7500    139.9194     12.8955     15.8346     18.6135   -999.2500
  2119.0000    140.2626     12.9453     15.9945     19.1321   -999.2500
  2119.2500    140.9396     13.0395     16.2231     20.2855   -999.2500
  2119.5000    141.3888     13.2340     16.5058     22.1188   -999.2500
  2119.7500    140.6525     13.6374     16.8054     24.4763   -999.2500
  2120.0000    136.9311     14.4525     17.0665     27.0920   -999.2500
  2120.2500    127.4792     16.0412     17.2350     29.6638   -999.2500
  2120.5000    109.8769     18.8485     17.2916     31.8026   -999.2500
  2120.7500     84.5634     24.5264     17.2698     32.9869   -999.2500
  2121.0000     56.1837     36.0126     17.2401     32.7520   -999.2500
  2121.2500     31.3463     62.3702     17.2722     31.0641   -999.2500
  2121.5000     14.3828    142.7950     17.4063     28.5022   -999.2500
  2121.7500      5.3456    934.0323     17.6513     25.9859   -999.2500
  2122.0000      1.5916 100000.0000     17.9996     24.2561   -999.2500
  2122.2500      0.3762 100000.0000     18.4416     23.5681   -999.2500
  2122.5000      0.0695 100000.0000     18.9700     23.7829   -999.2500
  2122.7500      0.0092 100000.0000     19.5817     24.6492   -999.2500
  2123.0000   -999.2500 100000.0000     20.2913     25.9986   -999.2500
  2123.2500   -999.2500 100000.0000     21.1696     27.7594   -999.2500
  2123.5000   -999.2500    352.3568     22.4106     29.8686   -999.2500
  2123.7500   -999.2500    467.2597     24.4329     32.2065   -999.2500
  2124.0000   -999.2500    718.8980     28.0708     34.6066   -999.2500
