~Version Information
VERS.                      2.0: CWLS Log ASCII Standard - VERSION 2.0
WRAP.                       NO: One line per depth step
~Well Information Block
STRT.FT               850.0000: 
STOP.FT              1609.7000: 
STEP.FT                 0.1000: 
NULL.                -999.2500: 
COMP.          Petrogulf Corporation: COMPANY
WELL.          Great Plains 22-21R: WELL
FLD.           Purgatorie River: FIELD
LOC.           73' FNL & 1992' FWL: LOCATION
PROV.                 Colorado: PROVINCE
CNTY.               Las Animas: COUNTRY
SRVC.                Patterson: SERVICE COMPANY
DATE.          Wed Sep 14 12:10:29 2005: LOG DATE
UWI.                          : UNIQUE WELL ID
~Curve Information Block
DEPT.FT            0 000 00 00: Depth
NPOR.pu                       : Neutron Porosity
GR.GAPI                       : Gamma Ray
CCL.                          : Casing Collar Locator
~Parameter Information Block
~A  Depth       NPOR         GR         CCL     
# ...
  1434.5000     24.4913    109.5944      0.0000
  1434.6000     24.4913    109.5944      0.0000
  1434.7000     24.4913    109.5944      0.0000
  1434.8000     25.0061    114.4244      0.0000
  1434.9000     25.0061    114.4244      0.0000
  1435.0000     25.6845    118.4620      0.0000
  1435.1000     25.6845    118.4620      0.0000
  1435.2000     25.6845    118.4620      0.0000
  1435.3000     26.5474    120.7734      0.0000
  1435.4000     26.5474    120.7734      0.0000
  1435.5000     27.5327    121.0669      0.0000
  1435.6000     27.5327    121.0669      0.0000
  1435.7000     27.5327    121.0669      0.0000
  1435.8000     28.4535    119.8173      0.0000
  1435.9000     28.4535    119.8173      0.0000
  1436.0000     29.0601    117.9595      0.0000
  1436.1000     29.0601    117.9595      0.0000
  1436.2000     29.0601    117.9595      0.0000
  1436.3000     29.1978    116.3526      0.0000
  1436.4000     29.1978    116.3526      0.0000
  1436.5000     28.9336    115.4371      0.0000
  1436.6000     28.9336    115.4371      0.0000
  1436.7000     28.9336    115.4371      0.0000
  1436.8000     28.5164    115.3094      0.0000
  1436.9000     28.5164    115.3094      0.0000
  1437.0000     28.1880    115.9155      0.0000
  1437.1000     28.1880    115.9155      0.0000
  1437.2000     28.1880    115.9155      0.0000
  1437.3000     28.0209    117.0790      0.0000
  1437.4000     28.0209    117.0790      0.0000
  1437.5000     27.9172    118.4818      0.0000
  1437.6000     27.9172    118.4818      0.0000
  1437.7000     27.9172    118.4818      0.0000
  1437.8000     27.7414    119.7022      0.0000
  1437.9000     27.7414    119.7022      0.0000
  1438.0000     27.4539    120.2253      0.0000
  1438.1000     27.4539    120.2253      0.0000
  1438.2000     27.4539    120.2253      0.0000
  1438.3000     27.1349    119.5909      0.0000
  1438.4000     27.1349    119.5909      0.0000
  1438.5000     26.8950    117.8450      0.0000
  1438.6000     26.8950    117.8450      0.0000
  1438.7000     26.8950    117.8450      0.0000
  1438.8000     26.7770    115.8279      0.0000
  1438.9000     26.7770    115.8279      0.0000
  1439.0000     26.7459    114.7350      0.0000
  1439.1000     26.7459    114.7350      0.0000
  1439.2000     26.7459    114.7350      0.0000
  1439.3000     26.7573    115.2392      0.0000
  1439.4000     26.7573    115.2392      0.0000
  1439.5000     26.8192    117.0616      0.0000
  1439.6000     26.8192    117.0616      0.0000
  1439.7000     26.8192    117.0616      0.0000
  1439.8000     26.9830    119.3658      0.0000
  1439.9000     26.9830    119.3658      0.0000
  1440.0000     27.2741    121.5004      0.0000
  1440.1000     27.2741    121.5004      0.0000
  1440.2000     27.2741    121.5004      0.0000
  1440.3000     27.6418    123.3862      0.0000
  1440.4000     27.6418    123.3862      0.0000
  1440.5000     27.9871    125.2392      0.0000
  1440.6000     27.9871    125.2392      0.0000
  1440.7000     27.9871    125.2392      0.0000
  1440.8000     28.2239    127.0227      0.0000
  1440.9000     28.2239    127.0227      0.0000
  1441.0000     28.3028    128.3527      0.0000
  1441.1000     28.3028    128.3527      0.0000
  1441.2000     28.3028    128.3527      0.0000
  1441.3000     28.2109    129.0418      0.0000
  1441.4000     28.2109    129.0418      0.0000
  1441.5000     27.9870    129.4969      0.0000
  1441.6000     27.9870    129.4969      0.0000
  1441.7000     27.9870    129.4969      0.0000
  1441.8000     27.7199    130.1683      0.0000
  1441.9000     27.7199    130.1683      0.0000
  1442.0000     27.4952    130.6628      0.0000
  1442.1000     27.4952    130.6628      0.0000
  1442.2000     27.4952    130.6628      0.0000
  1442.3000     27.3386    129.8598      0.0000
  1442.4000     27.3386    129.8598      0.0000
  1442.5000     27.2202    127.1415      0.0000
  1442.6000     27.2202    127.1415      0.0000
  1442.7000     27.2202    127.1415      0.0000
  1442.8000     27.1098    123.2256      0.0000
  1442.9000     27.1098    123.2256      0.0000
  1443.0000     27.0093    119.4887      0.0000
  1443.1000     27.0093    119.4887      0.0000
  1443.2000     27.0093    119.4887      0.0000
  1443.3000     26.9367    116.8524      0.0000
  1443.4000     26.9367    116.8524      0.0000
  1443.5000     26.9023    115.7298      0.0000
  1443.6000     26.9023    115.7298      0.0000
  1443.7000     26.9023    115.7298      0.0000
  1443.8000     26.9161    116.4672      0.0000
  1443.9000     26.9161    116.4672      0.0000
  1444.0000     26.9922    119.0442      0.0000
  1444.1000     26.9922    119.0442      0.0000
  1444.2000     26.9922    119.0442      0.0000
  1444.3000     27.1228    122.5461      0.0000
  1444.4000     27.1228    122.5461      0.0000
  1444.5000     27.2712    125.5377      0.0000
  1444.6000     27.2712    125.5377      0.0000
  1444.7000     27.2712    125.5377      0.0000
  1444.8000     27.4079    127.0848      0.0000
  1444.9000     27.4079    127.0848      0.0000
  1445.0000     27.5361    127.3715      0.0000
  1445.1000     27.5361    127.3715      0.0000
  1445.2000     27.5361    127.3715      0.0000
  1445.3000     27.6824    127.4562      0.0000
  1445.4000     27.6824    127.4562      0.0000
  1445.5000     27.8850    128.4483      0.0000
  1445.6000     27.8850    128.4483      0.0000
  1445.7000     27.8850    128.4483      0.0000
  1445.8000     28.1761    130.6751      0.0000
  1445.9000     28.1761    130.6751      0.0000
  1446.0000     28.5317    133.3504      0.0000
  1446.1000     28.5317    133.3504      0.0000
  1446.2000     28.5317    133.3504      0.0000
  1446.3000     28.8457    134.8539      0.0000
  1446.4000     28.8457    134.8539      0.0000
  1446.5000     29.0050    133.6679      0.0000
  1446.6000     29.0050    133.6679      0.0000
  1446.7000     29.0050    133.6679      0.0000
  1446.8000     28.9986    129.5981      0.0000
  1446.9000     28.9986    129.5981      0.0000
  1447.0000     28.9167    124.1285      0.0000
  1447.1000     28.9167    124.1285      0.0000
  1447.2000     28.9167    124.1285      0.0000
  1447.3000     28.8303    119.3214      0.0000
  1447.4000     28.8303    119.3214      0.0000
  1447.5000     28.6923    116.3302      0.0000
  1447.6000     28.6923    116.3302      0.0000
  1447.7000     28.6923    116.3302      0.0000
  1447.8000     28.3751    114.9454      0.0000
  1447.9000     28.3751    114.9454      0.0000
  1448.0000     27.8036    114.2529      0.0000
  1448.1000     27.8036    114.2529      0.0000
  1448.2000     27.8036    114.2529      0.0000
  1448.3000     27.0518    113.3975      0.0000
  1448.4000     27.0518    113.3975      0.0000
  1448.5000     26.3165    111.8837      0.0000
  1448.6000     26.3165    111.8837      0.0000
  1448.7000     26.3165    111.8837      0.0000
  1448.8000     25.8115    109.7114      0.0000
  1448.9000     25.8115    109.7114      0.0000
  1449.0000     25.6707    107.4683      0.0000
  1449.1000     25.6707    107.4683      0.0000
  1449.2000     25.6707    107.4683      0.0000
  1449.3000     25.8991    106.1257      0.0000
  1449.4000     25.8991    106.1257      0.0000
  1449.5000     26.3760    106.7010      0.0000
  1449.6000     26.3760    106.7010      0.0000
  1449.7000     26.3760    106.7010      0.0000
  1449.8000     26.9141    109.9295      0.0000
  1449.9000     26.9141    109.9295      0.0000
  1450.0000     27.3571    115.6290      0.0000
  1450.1000     27.3571    115.6290      0.0000
  1450.2000     27.3571    115.6290      0.0000
  1450.3000     27.6468    122.1832      0.0000
  1450.4000     27.6468    122.1832      0.0000
  1450.5000     27.8024    127.2799      0.0000
  1450.6000     27.8024    127.2799      0.0000
  1450.7000     27.8024    127.2799      0.0000
  1450.8000     27.8517    129.5653      0.0000
  1450.9000     27.8517    129.5653      0.0000
  1451.0000     27.8044    129.5894      0.0000
  1451.1000     27.8044    129.5894      0.0000
