~Version Information
VERS.                      2.0: CWLS Log ASCII Standard - VERSION 2.0
WRAP.                       NO: One line per depth step
~Well Information Block
STRT.FT               647.0000: 
STOP.FT              1167.5000: 
STEP.FT                 0.2500: 
NULL.                -999.2500: 
COMP.          Pioneer Natural Resources: COMPANY
WELL.             Linda T 32-3: WELL
FLD.           Purgatoire River: FIELD
LOC.           1350' FNL & 2290' FEL: LOCATION
PROV.                 Colorado: PROVINCE
CNTY.               Las Animas: COUNTRY
SRVC.                Patterson: SERVICE COMPANY
DATE.          Sat Feb 05 06:41:02 2005: LOG DATE
UWI.           05 071 08215 00: UNIQUE WELL ID
~Curve Information Block
DEPT.FT            0 000 00 00: Depth
SN.Ohm-m                      : IEL Short Normal
SP.mV                         : IEL Spontaneous Potential
DIR.Ohm-m                     : IEL Induction Resistivity
GR.GAPI                       : Gamma Ray
~Parameter Information Block
~A  Depth        SN          SP         DIR          GR     
   647.0000   2000.0000   2000.0000     71.0030    102.8731
   647.2500   2000.0000   2000.0000     70.8603    103.8357
   647.5000   2000.0000   2000.0000     70.9428    104.3402
   647.7500   2000.0000   2000.0000     71.2864    104.4866
   648.0000   2000.0000   2000.0000     71.7673    105.5418
   648.2500   2000.0000   2000.0000     72.1681    106.9526
   648.5000   2000.0000   2000.0000     72.3293    109.4566
   648.7500   2000.0000   2000.0000     72.2722    111.0422
   649.0000   2000.0000   2000.0000     72.1648    113.2116
   649.2500   2000.0000   2000.0000     72.1592    114.3843
   649.5000   2000.0000   2000.0000     72.2077    114.9869
   649.7500   2000.0000   2000.0000     71.9969    114.2105
   650.0000   2000.0000   2000.0000     71.1091    111.4390
   650.2500   2000.0000   2000.0000     69.3914    109.1468
   650.5000   2000.0000   2000.0000     67.2290    106.2958
   650.7500   2000.0000   2000.0000     65.3878    105.1837
   651.0000   2000.0000   2000.0000     64.5616    104.5943
   651.2500   2000.0000   2000.0000     65.0357    104.6456
   651.5000   2000.0000   2000.0000     66.6330    104.9875
   651.7500   2000.0000   2000.0000     68.8600    105.2007
   652.0000   2000.0000   2000.0000     71.1391    105.0744
   652.2500   2000.0000   2000.0000     72.9938    104.4493
   652.5000   2000.0000   2000.0000     74.1182    102.6324
   652.7500   2000.0000   2000.0000     74.4054    101.1088
   653.0000   2000.0000   2000.0000     73.9832     99.0981
   653.2500   2000.0000   2000.0000     73.1579     98.2050
   653.5000   2000.0000   2000.0000     72.2323     97.3102
   653.7500   2000.0000   2000.0000     71.3640     96.6255
   654.0000   2000.0000   2000.0000     70.5953     94.9757
   654.2500   2000.0000   2000.0000     69.9922     93.5252
   654.5000   2000.0000   2000.0000     69.7028     91.5434
   654.7500   2000.0000   2000.0000     69.8474     90.8630
   655.0000   2000.0000   2000.0000     70.3282     91.1637
   655.2500   2000.0000   2000.0000     70.7651     92.0487
   655.5000   2000.0000   2000.0000     70.6907     93.7382
   655.7500   2000.0000   2000.0000     69.9048     94.6249
   656.0000   2000.0000   2000.0000     68.6487     94.4360
   656.2500   2000.0000   2000.0000     67.3974     92.5324
   656.5000   2000.0000   2000.0000     66.5299     86.3966
   656.7500   2000.0000   2000.0000     66.1604     80.4730
   657.0000   2000.0000   2000.0000     66.1727     70.2439
   657.2500   2000.0000   2000.0000     66.3126     63.3782
   657.5000   2000.0000   2000.0000     66.2634     54.1004
   657.7500   2000.0000   2000.0000     65.7479     48.9699
   658.0000   2000.0000   2000.0000     64.7078     43.0721
   658.2500   2000.0000   2000.0000     63.4443     40.3366
   658.5000   2000.0000   2000.0000     62.5067     38.0507
   658.7500   2000.0000   2000.0000     62.3367     37.6687
   659.0000   2000.0000   2000.0000     62.8846     38.1690
   659.2500   2000.0000   2000.0000     63.4183     38.5771
   659.5000   2000.0000   2000.0000     62.7736     38.3620
   659.7500   2000.0000   2000.0000     60.1482     37.4949
   660.0000   2000.0000   2000.0000     55.8130     35.4298
   660.2500   2000.0000   2000.0000     50.9293     33.8921
   660.5000   2000.0000   2000.0000     46.8600     31.9359
   660.7500   2000.0000   2000.0000     44.8393     31.1264
   661.0000   2000.0000   2000.0000     46.2230     30.7940
   661.2500   2000.0000   2000.0000     53.4251     31.0112
   661.5000   2000.0000   2000.0000     72.7455     31.5935
   661.7500   2000.0000   2000.0000    126.2429     32.0513
   662.0000   2000.0000   2000.0000    339.0560     32.9833
   662.2500   2000.0000   2000.0000   8090.4390     33.8381
   662.5000   2000.0000   2000.0000 100000.0000     35.1959
   662.7500   2000.0000   2000.0000   1215.1136     35.7869
   663.0000   2000.0000   2000.0000    411.7237     35.7039
   663.2500   2000.0000   2000.0000    283.3338     34.9860
   663.5000   2000.0000   2000.0000    277.9848     33.2367
   663.7500   2000.0000   2000.0000    431.3163     31.8774
   664.0000   2000.0000   2000.0000 100000.0000     30.0641
   664.2500   2000.0000   2000.0000 100000.0000     29.3347
   664.5000   2000.0000   2000.0000 100000.0000     29.2859
   664.7500   2000.0000   2000.0000 100000.0000     29.8510
   665.0000   2000.0000   2000.0000 100000.0000     30.9258
   665.2500   2000.0000   2000.0000 100000.0000     31.3136
   665.5000   2000.0000   2000.0000 100000.0000     31.1155
   665.7500   2000.0000   2000.0000 100000.0000     30.9026
   666.0000   2000.0000   2000.0000 100000.0000     31.9962
   666.2500   2000.0000   2000.0000 100000.0000     34.4975
   666.5000   2000.0000   2000.0000 100000.0000     41.5549
   666.7500   2000.0000   2000.0000 100000.0000     48.4722
   667.0000   2000.0000   2000.0000 100000.0000     61.9632
   667.2500   2000.0000   2000.0000 100000.0000     72.7315
   667.5000   2000.0000   2000.0000 100000.0000     90.2052
   667.7500   2000.0000   2000.0000 100000.0000    101.4213
   668.0000   2000.0000   2000.0000   1366.2354    115.3279
   668.2500   2000.0000   2000.0000      9.3410    121.9782
   668.5000   2000.0000   2000.0000      4.8123    128.2469
   668.7500   2000.0000   2000.0000      3.7289    121.8368
   669.0000   2000.0000   2000.0000      3.6255    123.6110
   669.2500   2000.0000   2000.0000      4.1141    124.6669
   669.5000   2000.0000   2000.0000      5.2115    127.2363
   669.7500   2000.0000   2000.0000      7.2146    120.4958
   670.0000   2000.0000   2000.0000     11.1432    124.6285
   670.2500   2000.0000   2000.0000     21.3833    127.4737
   670.5000     20.2575     -2.1626     83.4919    131.9000
   670.7500     19.3180     -3.1320 100000.0000    135.1961
   671.0000     17.3056     -7.2351 100000.0000    140.7327
   671.2500     15.2367    -12.2485 100000.0000    144.3223
   671.5000     14.0827    -16.1446     61.1960    147.9711
   671.7500     13.8537    -18.2184     22.9823    148.5427
   672.0000     13.9627    -18.8805     14.7862    146.8527
   672.2500     13.9676    -18.8313     11.8236    144.8173
   672.5000     13.8056    -18.5351     10.5957    141.4624
   672.7500     13.6031    -18.1631     10.0797    139.0654
   673.0000     13.4238    -17.7353      9.8708    135.0224
   673.2500     13.3017    -17.2488      9.7945    132.2796
   673.5000     13.3066    -16.7243      9.7827    129.1020
   673.7500     13.2734    -16.1836      9.8256    128.1044
   674.0000     12.9486    -15.6228      9.9528    128.4265
   674.2500     12.5539    -15.0222     10.2089    129.5581
   674.5000     12.5992    -14.3852     10.6140    131.9816
   674.7500     13.1297    -13.7561     11.1159    133.8724
   675.0000     13.6245    -13.1956     11.5764    137.1349
   675.2500     13.7060    -12.7401     11.8349    139.6170
   675.5000     13.6139    -12.3854     11.8213    143.4313
   675.7500     13.7543    -12.1014     11.5943    145.5872
   676.0000     14.1037    -11.8544     11.2649    147.4880
   676.2500     14.2846    -11.6173     10.9112    147.6684
   676.5000     13.9968    -11.3685     10.5632    146.5799
   676.7500     13.3596    -11.0965     10.2311    145.4981
   677.0000     12.8481    -10.8062      9.9328    144.5997
   677.2500     12.7725    -10.5154      9.6975    144.8695
   677.5000     12.9899    -10.2420      9.5510    145.9488
   677.7500     13.1518     -9.9983      9.5005    146.3491
   678.0000     13.1210     -9.7953      9.5289    145.8099
   678.2500     13.0976     -9.6474      9.6029    144.8715
   678.5000     13.2441     -9.5601      9.6872    142.9970
   678.7500     13.3487     -9.5089      9.7564    141.4214
   679.0000     13.0752     -9.4383      9.7976    138.6113
   679.2500     12.4211     -9.2957      9.8067    136.8082
   679.5000     11.7343     -9.0699      9.7841    135.1014
   679.7500     11.2972     -8.7977      9.7342    134.8750
   680.0000     11.1164     -8.5416      9.6662    135.4975
   680.2500     11.1154     -8.3643      9.5930    136.0336
