~Version Information
VERS.                      2.0: CWLS Log ASCII Standard - VERSION 2.0
WRAP.                       NO: One line per depth step
~Well Information Block
STRT.FT                -8.2500: 
STOP.FT              2356.2500: 
STEP.FT                 0.2500: 
NULL.                -999.2500: 
COMP.          Petrogulf Corporation: COMPANY
WELL.             State 16-12V: WELL
FLD.           Purgatorie River: FIELD
LOC.           1992' FNL & 1237' FWL: LOCATION
PROV.                 Colorado: PROVINCE
CNTY.               Las Animas: COUNTRY
SRVC.                Patterson: SERVICE COMPANY
DATE.          Thu Aug 11 14:44:06 2005: LOG DATE
UWI.                          : UNIQUE WELL ID
~Curve Information Block
DEPT.FT            0 000 00 00: Depth
GR.GAPI                       : Gamma Ray
CCL.                          : Casing Collar Locator
TT3.usec                      : CBL 3' Travel Time
AMP3.mV                       : CBL 3' Amplitude
~Parameter Information Block
~A  Depth        GR         CCL         TT3         AMP3    
# ...
  1700.2500    111.0666      0.0000    791.1923     10.7687
  1700.5000    118.9420      0.0000    790.2534     10.4016
  1700.7500    124.0279      0.0000    789.3842     10.1361
  1701.0000    124.6489      0.0000    788.2722      9.9702
  1701.2500    121.8100      0.0000    787.3635      9.7987
  1701.5000    117.9958      0.0000    786.6790      9.5422
  1701.7500    114.8484      0.0000    785.9565      9.2268
  1702.0000    112.5622      0.0000    785.0759      8.8999
  1702.2500    110.7443      0.0000    783.4724      8.5635
  1702.5000    108.8206      0.0000    778.5512      8.2316
  1702.7500    106.1392      0.0000    765.0214      7.9527
  1703.0000    102.6725      0.0000    739.5405      7.7632
  1703.2500     99.4240      0.0000    708.7172      7.6900
  1703.5000     97.5611      0.0000    687.3937      7.7932
  1703.7500     97.2739      0.0000    686.8436      8.1439
  1704.0000     97.6170      0.0000    707.3028      8.7263
  1704.2500     97.2773      0.0000    737.2733      9.4116
  1704.5000     95.3595      0.0000    760.8028     10.0933
  1704.7500     91.4581      0.0000    771.1317     10.8167
  1705.0000     85.3251      0.0000    773.4023     11.7263
  1705.2500     77.1058      0.0000    773.5426     12.8797
  1705.5000     68.0375      0.0000    770.0488     14.1221
  1705.7500     60.2154      0.0000    756.2204     15.2044
  1706.0000     55.1110      0.0000    727.6496     15.9873
  1706.2500     52.5418      0.0000    692.5936     16.4059
  1706.5000     51.3348      0.0000    672.9757     16.3478
  1706.7500     50.6946      0.0000    679.9049     15.7562
  1707.0000     50.7289      0.0000    700.0922     14.7907
  1707.2500     52.1423      0.0000    720.1834     13.7724
  1707.5000     55.9093      0.0000    737.9476     12.9964
  1707.7500     62.9912      0.0000    749.8387     12.5888
  1708.0000     73.7308      0.0000    752.4370     12.4289
  1708.2500     87.2102      0.0000    749.7754     12.2394
  1708.5000    101.1004      0.0000    748.7354     11.8514
  1708.7500    112.3300      0.0000    752.9121     11.3188
  1709.0000    118.6404      0.0000    762.1374     10.7920
  1709.2500    120.0760      0.0000    773.1500     10.4019
  1709.5000    118.7833      0.0000    781.6473     10.2541
  1709.7500    117.1012      0.0000    786.0319     10.4112
  1710.0000    116.1422      0.0000    787.9066     10.8175
  1710.2500    116.0990      0.0000    789.7484     11.3148
  1710.5000    116.9488      0.0000    793.5538     11.7841
  1710.7500    118.3162      0.0000    799.3091     12.1786
  1711.0000    119.2930      0.0000    802.3450     12.3919
  1711.2500    119.0083      0.0000    795.4443     12.2566
  1711.5000    117.4820      0.0000    777.6894     11.7258
  1711.7500    115.9331      0.0000    757.1879     10.9224
  1712.0000    116.0562      0.0000    740.2415     10.0458
  1712.2500    118.5562      0.0000    725.2795      9.2949
  1712.5000    122.1356      0.0000    714.8594      8.7386
  1712.7500    124.0241      0.0000    719.6102      8.2714
  1713.0000    121.9514      0.0000    740.1043      7.8116
  1713.2500    116.1072      0.0000    762.6942      7.4066
  1713.5000    109.2250      0.0000    777.9590      7.0886
  1713.7500    104.5069      0.0000    786.0576      6.7904
  1714.0000    103.4499      0.0000    786.3007      6.4339
  1714.2500    105.4619      0.0000    776.4149      6.0337
  1714.5000    108.9184      0.0000    761.3331      5.7050
  1714.7500    112.3434      0.0000    752.8528      5.5482
  1715.0000    115.0953      0.0000    757.2158      5.5376
  1715.2500    117.3520      0.0000    769.6764      5.5678
  1715.5000    119.4554      0.0000    784.9156      5.5707
  1715.7500    121.3431      0.0000    801.0790      5.5306
  1716.0000    122.6919      0.0000    811.5378      5.4307
  1716.2500    123.2844      0.0000    808.8900      5.2770
  1716.5000    123.0342      0.0000    797.2468      5.1496
  1716.7500    122.1431      0.0000    786.1550      5.1379
  1717.0000    121.5555      0.0000    777.8128      5.2528
  1717.2500    122.4978      0.0000    770.1151      5.4660
  1717.5000    124.8859      0.0000    764.1390      5.8042
  1717.7500    126.7621      0.0000    766.2440      6.3554
  1718.0000    126.1422      0.0000    786.6213      7.2091
  1718.2500    123.3026      0.0000    828.3160      8.3942
  1718.5000    120.8592      0.0000    874.2905      9.8826
  1718.7500    121.6702      0.0000    896.5127     11.7061
  1719.0000    126.6176      0.0000    885.3173     13.9769
  1719.2500    133.9714      0.0000    852.2565     16.6266
  1719.5000    140.7039      0.0000    808.0380     19.2571
  1719.7500    144.7345      0.0000    764.3700     21.4629
  1720.0000    146.1437      0.0000    734.8867     23.2228
  1720.2500    146.3110      0.0000    713.9678     24.8610
  1720.5000    146.2188      0.0000    675.2465     26.6960
  1720.7500    145.9835      0.0000    600.2029     28.8003
  1721.0000    145.7782      0.0000    505.0555     30.9632
  1721.2500    146.2512      0.0000    427.4836     32.7620
  1721.5000    147.5438      0.0000    385.1110     33.8501
  1721.7500    148.7134      0.0000    367.7899     34.2410
  1722.0000    149.0125      0.0000    362.6549     34.1814
  1722.2500    149.2784      0.0000    364.1774     33.8950
  1722.5000    151.1928      0.0000    368.2068     33.5269
  1722.7500    155.3594      0.0000    371.1821     33.2052
  1723.0000    160.6574      0.0000    372.3897     33.0895
  1723.2500    165.2223      0.0000    372.6631     33.2298
  1723.5000    167.7824      0.0000    372.6838     33.3514
  1723.7500    168.3168      0.0000    372.8620     33.0372
  1724.0000    167.6210      0.0000    373.7326     32.2028
  1724.2500    166.1543      0.0000    376.6511     31.1333
  1724.5000    163.4911      0.0000    383.5787     30.1495
  1724.7500    159.0583      0.0000    393.1530     29.5615
  1725.0000    153.1478      0.0000    398.0264     29.5831
  1725.2500    146.9432      0.0000    393.1857     29.8872
  1725.5000    141.6758      0.0000    383.7218     29.7163
  1725.7500    137.8591      0.0000    376.9943     28.7413
  1726.0000    135.0303      0.0000    374.3480     27.3686
  1726.2500    132.0477      0.0000    374.1406     26.1019
  1726.5000    127.9870      0.0000    377.5081     25.0349
  1726.7500    123.1439      0.0000    393.5699     23.9925
  1727.0000    119.0926      0.0000    441.4434     22.7914
  1727.2500    117.6096      0.0000    532.7999     21.3309
  1727.5000    119.4927      0.0000    643.7418     19.6908
  1727.7500    124.0872      0.0000    729.3202     18.1125
  1728.0000    129.6737      0.0000    771.7641     16.7633
  1728.2500    134.3993      0.0000    785.0805     15.5967
  1728.5000    137.1321      0.0000    784.4603     14.4139
  1728.7500    137.6284      0.0000    778.9423     13.0545
  1729.0000    136.1701      0.0000    778.2695     11.7709
  1729.2500    133.3072      0.0000    787.2783     11.0868
  1729.5000    129.7957      0.0000    802.3047     10.9340
  1729.7500    126.2993      0.0000    816.5768     10.8663
  1730.0000    122.9660      0.0000    819.2779     11.0173
  1730.2500    119.4973      0.0000    801.7646     11.6449
  1730.5000    115.8216      0.0000    771.3378     12.5241
  1730.7500    112.6740      0.0000    738.7646     13.4153
  1731.0000    111.1793      0.0000    709.5256     14.3060
  1731.2500    111.6430      0.0000    698.7607     15.1742
  1731.5000    113.0075      0.0000    714.2480     16.0293
  1731.7500    113.8460      0.0000    734.2504     17.1804
  1732.0000    113.8798      0.0000    733.0588     18.9208
  1732.2500    114.2756      0.0000    708.4706     20.7320
  1732.5000    116.3899      0.0000    680.2485     21.8829
  1732.7500    120.4265      0.0000    662.6401     22.6256
  1733.0000    125.4158      0.0000    644.2061     23.4384
  1733.2500    130.1523      0.0000    610.6085     24.2164
  1733.5000    133.8359      0.0000    559.2602     24.8930
