~Version Information
VERS.                      2.0: CWLS Log ASCII Standard - VERSION 2.0
WRAP.                       NO: One line per depth step
~Well Information Block
STRT.FT               300.0000: 
STOP.FT               871.2500: 
STEP.FT                 0.2500: 
NULL.                -999.2500: 
COMP.          Pioneer Natural Resources: COMPANY
WELL.            Hustler 12-17: WELL
FLD.           Purgatoire River: FIELD
LOC.           2150' FNL & 450' FWL: LOCATION
PROV.                 Colorado: PROVINCE
CNTY.               Las Animas: COUNTRY
SRVC.                Patterson: SERVICE COMPANY
DATE.          Mon Dec 20 09:25:34 2004: LOG DATE
UWI.           05 071 08236 00: UNIQUE WELL ID
~Curve Information Block
DEPT.FT            0 000 00 00: Depth
SN.Ohm-m                      : IEL Short Normal
SP.mV                         : IEL Spontaneous Potential
DIR.Ohm-m                     : IEL Induction Resistivity
GR.GAPI                       : Gamma Ray
~Parameter Information Block
~A  Depth        SN          SP         DIR          GR     
# ...
   534.5000    645.9807   -800.0005     17.0377     93.0462
   534.7500    645.9807   -800.0005     17.1286     91.6234
   535.0000    645.9807   -800.0005     17.2584     90.4566
   535.2500    645.9807   -800.0005     17.4083     90.6809
   535.5000    645.9807   -800.0005     17.5561     91.8934
   535.7500    645.9807   -800.0005     17.6821     92.5218
   536.0000    645.9807   -800.0005     17.7772     92.2172
   536.2500    645.9807   -800.0005     17.8429     91.1632
   536.5000    645.9807   -800.0005     17.8815     89.2043
   536.7500    645.9807   -800.0005     17.8827     88.4002
   537.0000    645.9807   -800.0005     17.8208     88.8710
   537.2500    645.9807   -800.0005     17.6615     90.3701
   537.5000    645.9807   -800.0005     17.3761     93.7103
   537.7500    645.9807   -800.0005     16.9523     95.9591
   538.0000    645.9807   -800.0005     16.4008     98.1654
   538.2500    645.9807   -800.0005     15.7542     98.5394
   538.5000    645.9807   -800.0005     15.0593     97.8644
   538.7500    645.9807   -800.0005     14.3660     97.1494
   539.0000    645.9807   -800.0005     13.7174     96.5160
   539.2500    645.9807   -800.0005     13.1446     96.6060
   539.5000    645.9807   -800.0005     12.6640     97.3202
   539.7500    645.9807   -800.0005     12.2778     97.8526
   540.0000    645.9807   -800.0005     11.9751     98.3377
   540.2500    645.9807   -800.0005     11.7364     98.5110
   540.5000    645.9807   -800.0005     11.5401     98.8355
   540.7500    645.9807   -800.0005     11.3674     99.0877
   541.0000    645.9807   -800.0005     11.2051     99.0695
   541.2500    645.9807   -800.0005     11.0455     98.4661
   541.5000    645.9807   -800.0005     10.8842     96.5905
   541.7500    645.9807   -800.0005     10.7196     95.0804
   542.0000    645.9807   -800.0005     10.5511     93.3034
   542.2500    645.9807   -800.0005     10.3795     92.6143
   542.5000    645.9807   -800.0005     10.2070     91.9480
   542.7500    645.9807   -800.0005     10.0390     91.5504
   543.0000    645.9807   -800.0005      9.8860     91.2786
   543.2500    645.9807   -800.0005      9.7646     91.6607
   543.5000    645.9807   -800.0005      9.6962     93.3059
   543.7500    645.9807   -800.0005      9.7027     94.7935
   544.0000    645.9807   -800.0005      9.8017     96.4840
   544.2500    645.9807   -800.0005     10.0015     96.6386
   544.5000    645.9807   -800.0005     10.2967     95.1355
   544.7500    645.9807   -800.0005     10.6648     93.3787
   545.0000    645.9807   -800.0005     11.0658     90.7651
   545.2500    645.9807   -800.0005     11.4481     89.5266
   545.5000    645.9807   -800.0005     11.7613     88.5414
   545.7500    645.9807   -800.0005     11.9717     88.3308
   546.0000    645.9807   -800.0005     12.0698     88.8305
   546.2500    645.9807   -800.0005     12.0651     90.1254
   546.5000    645.9807   -800.0005     11.9732     94.1079
   546.7500    645.9807   -800.0005     11.8039     97.9053
   547.0000    645.9807   -800.0005     11.5608    103.9460
   547.2500    645.9807   -800.0005     11.2501    107.2820
   547.5000    645.9807   -800.0005     10.8891    110.0736
   547.7500    645.9807   -800.0005     10.5064    110.1184
   548.0000    645.9807   -800.0005     10.1340    107.8254
   548.2500    645.9807   -800.0005      9.7978    105.5598
   548.5000    645.9807   -800.0005      9.5139    102.7319
   548.7500    645.9807   -800.0005      9.2893    101.7764
   549.0000    645.9807   -800.0005      9.1255    101.7952
   549.2500    645.9807   -800.0005      9.0207    102.5369
   549.5000    645.9807   -800.0005      8.9704    104.0590
   549.7500    645.9807   -800.0005      8.9675    104.8121
   550.0000    645.9807   -800.0005      9.0039    104.7298
   550.2500    645.9807   -800.0005      9.0744    103.6638
   550.5000    645.9807   -800.0005      9.1799    100.7701
   550.7500    645.9807   -800.0005      9.3282     98.4068
   551.0000    645.9807   -800.0005      9.5316     95.3279
   551.2500    645.9807   -800.0005      9.8024     94.1915
   551.5000    645.9807   -800.0005     10.1509     94.0145
   551.7500    645.9807   -800.0005     10.5856     94.2904
   552.0000    645.9807   -800.0005     11.1142     93.5997
   552.2500    645.9807   -800.0005     11.7444     91.6794
   552.5000    645.9807   -800.0005     12.4815     86.6814
   552.7500    645.9807   -800.0005     13.3262     82.6800
   553.0000    645.9807   -800.0005     14.2746     77.1761
   553.2500    645.9807   -800.0005     15.3180     92.9504
   553.5000    645.9807   -800.0005     16.4449     89.4146
   553.7500    645.9807   -800.0005     17.6420     87.9487
   554.0000    645.9807   -800.0005     18.8918     86.4596
   554.2500    645.9807   -800.0005     20.1700    102.7581
   554.5000    645.9807   -800.0005     21.4416    101.1026
   554.7500    645.9807   -800.0005     22.6654     99.6233
   555.0000    645.9807   -800.0005     23.8027     96.5527
   555.2500    645.9807   -800.0005     24.8256     94.0709
   555.5000    645.9807   -800.0005     25.7159     90.4110
   555.7500    645.9807   -800.0005     26.4569     88.4699
   556.0000    645.9807   -800.0005     27.0286     86.8875
   556.2500    645.9807   -800.0005     27.4108     86.8661
   556.5000    645.9807   -800.0005     27.5903     88.0774
   556.7500    645.9807   -800.0005     27.5690     89.2558
   557.0000    645.9807   -800.0005     27.3715     90.9536
   557.2500    645.9807   -800.0005     27.0511     91.9820
   557.5000    645.9807   -800.0005     26.6911     93.4586
   557.7500    645.9807   -800.0005     26.3898     94.3338
   558.0000    645.9807   -800.0005     26.2378     95.0718
   558.2500    645.9807   -800.0005     26.2983     94.7669
   558.5000    645.9807   -800.0005     26.5972     92.3429
   558.7500    645.9807   -800.0005     27.1177     89.3903
   559.0000    645.9807   -800.0005     27.7909     84.3060
   559.2500    645.9807   -800.0005     28.4917     81.7507
   559.5000    645.9807   -800.0005     29.0748     80.5462
   559.7500    645.9807   -800.0005     29.4511     81.1938
   560.0000    645.9807   -800.0005     29.6492     82.3799
   560.2500    645.9807   -800.0005     29.7924     82.2992
   560.5000    645.9807   -800.0005     30.0155     80.7450
   560.7500    645.9807   -800.0005     30.4026     79.4093
   561.0000    645.9807   -800.0005     30.9733     77.8162
   561.2500    645.9807   -800.0005     31.6871     76.9341
   561.5000    645.9807   -800.0005     32.4460     75.1882
   561.7500    645.9807   -800.0005     33.1199     73.4720
   562.0000    645.9807   -800.0005     33.6144     70.2654
   562.2500    645.9807   -800.0005     33.9332     68.2360
   562.5000    645.9807   -800.0005     34.1642     66.5313
   562.7500    645.9807   -800.0005     34.3962     66.5824
   563.0000    645.9807   -800.0005     34.6525     67.7432
   563.2500    645.9807   -800.0005     34.8894     68.5763
   563.5000    645.9807   -800.0005     35.0536     69.5129
   563.7500    645.9807   -800.0005     35.1461     70.1734
   564.0000    645.9807   -800.0005     35.2455     71.6688
   564.2500    645.9807   -800.0005     35.4673     72.9984
   564.5000    645.9807   -800.0005     35.8906     75.0245
   564.7500    645.9807   -800.0005     36.5011     75.9133
   565.0000    645.9807   -800.0005     37.1911     75.6632
   565.2500    645.9807   -800.0005     37.8172     74.2865
   565.5000    645.9807   -800.0005     38.2709     71.3032
   565.7500    645.9807   -800.0005     38.5108     69.5857
   566.0000    645.9807   -800.0005     38.5509     68.2404
   566.2500    645.9807   -800.0005     38.4501     67.9205
   566.5000    645.9807   -800.0005     38.3203     67.3781
   566.7500    645.9807   -800.0005     38.3142     66.6831
   567.0000    645.9807   -800.0005     38.5550     65.3406
   567.2500    645.9807   -800.0005     39.0384     64.6199
   567.5000    645.9807   -800.0005     39.5809     64.5926
   567.7500    645.9807   -800.0005     39.8867     65.6040
