~Version Information
VERS.                      2.0: CWLS Log ASCII Standard - VERSION 2.0
WRAP.                       NO: One line per depth step
~Well Information Block
STRT.FT               650.0000: 
STOP.FT              1080.5000: 
STEP.FT                 0.1000: 
NULL.                -999.2500: 
COMP.          Pioneer Natural Resources: COMPANY
WELL.            Galileo 21-11: WELL
FLD.           Purgatoire River: FIELD
LOC.           407' FNL & 2394' FWL: LOCATION
PROV.                 Colorado: PROVINCE
CNTY.               Las Animas: COUNTRY
SRVC.                Patterson: SERVICE COMPANY
DATE.          Mon Apr 11 16:20:08 2005: LOG DATE
UWI.           05 071 08353 00: UNIQUE WELL ID
~Curve Information Block
DEPT.FT            0 000 00 00: Depth
DCAL.in                       : CDL Caliper
RHOB.g/cc                     : CDL Bulk Density
RHOC.g/cc                     : CDL Density Correction
DPOR.pu                       : CDL Density Porosity
GR.GAPI                       : Gamma Ray
NPOR.pu                       : Neutron Porosity
~Parameter Information Block
~A  Depth       DCAL        RHOB        RHOC        DPOR         GR         NPOR    
# ...
   755.6000      7.9964      2.6200      0.0287      1.8193    103.9979     23.8324
   755.7000      7.9964      2.6263      0.0545      1.4347    103.1068     23.2468
   755.8000      7.9959      2.6426      0.1176      0.4479     98.0685     22.9109
   755.9000      7.9959      2.6492      0.0738      0.0459     95.6988     23.3731
   756.0000      7.9962      2.6375      0.0947      0.7558     97.9922     23.9564
   756.1000      7.9962      2.6143      0.0222      2.1657    100.4682     23.9536
   756.2000      7.9962      2.5939      0.0412      3.3980     98.6809     23.8749
   756.3000      7.9964      2.5808      0.0359      4.1948     92.8793     24.2894
   756.4000      7.9964      2.5696      0.0515      4.8755     88.6071     24.7597
   756.5000      7.9974      2.5643     -0.0028      5.1939     90.3837     24.8900
   756.6000      7.9974      2.5743     -0.0129      4.5888     96.9904     24.7392
   756.7000      7.9974      2.5894      0.0309      3.6704    101.9969     24.4393
   756.8000      7.9959      2.5892      0.0648      3.6829    100.5155     24.4703
   756.9000      7.9959      2.5752     -0.0092      4.5363     96.6603     24.9695
   757.0000      7.9959      2.5618      0.0272      5.3427     97.1694     25.3567
   757.1000      7.9959      2.5513      0.0272      5.9818     99.2996     25.1969
   757.2000      7.9959      2.5446      0.0264      6.3874     97.7240     24.7644
   757.3000      7.9977      2.5453     -0.0097      6.3433     96.3487     24.6836
   757.4000      7.9977      2.5536      0.0131      5.8441     97.2488     24.9133
   757.5000      8.0015      2.5647      0.0192      5.1683     97.2142     24.8018
   757.6000      8.0015      2.5682      0.0399      4.9578     96.6845     24.3231
   757.7000      8.0015      2.5621      0.0582      5.3250     96.5070     23.9228
   757.8000      7.9959      2.5631     -0.0077      5.2677     96.4670     23.3372
   757.9000      7.9959      2.5797      0.0295      4.2604     97.1833     21.6772
   758.0000      7.9938      2.5940      0.0419      3.3964     99.0742     19.1401
   758.1000      7.9938      2.5868      0.0367      3.8294    100.4005     16.9811
   758.2000      7.9938      2.5502      0.0124      6.0511     99.1971     15.8562
   758.3000      7.9939      2.4759     -0.0150     10.5507     97.0276     15.5209
   758.4000      7.9939      2.3642     -0.0381     17.3220     95.7920     15.3943
   758.5000      7.9958      2.2345     -0.0695     25.1845     93.0125     15.1991
   758.6000      7.9958      2.1138     -0.1208     32.4950     86.8410     15.3821
   758.7000      7.9958      2.0258     -0.1611     37.8333     79.5126     16.2819
   758.8000      7.9987      1.9790     -0.1899     40.6640     73.4788     17.4377
   758.9000      7.9987      1.9697     -0.1537     41.2305     70.9417     18.5766
   759.0000      8.0007      2.0029     -0.1217     39.2181     73.0830     19.6325
   759.1000      8.0007      2.0853      0.0289     34.2236     76.5569     20.2027
   759.2000      8.0007      2.2023      0.1861     27.1353     78.2092     20.3317
   759.3000      7.9970      2.3266      0.3380     19.6005     79.4540     20.5573
   759.4000      7.9970      2.4308      0.3386     13.2828     78.7939     21.1803
   759.5000      7.9888      2.4960      0.3045      9.3346     74.0337     21.8432
   759.6000      7.9888      2.5251      0.1750      7.5684     70.4005     21.9634
   759.7000      7.9888      2.5345      0.1352      7.0011     72.5371     21.6523
   759.8000      7.9701      2.5330      0.0861      7.0905     77.9445     21.2671
   759.9000      7.9701      2.5256      0.0734      7.5380     82.5538     20.7958
   760.0000      7.9661      2.5176      0.0350      8.0233     84.2715     20.4068
   760.1000      7.9661      2.5109      0.0734      8.4314     83.0504     20.3522
   760.2000      7.9661      2.5036      0.0488      8.8746     82.4016     20.4393
   760.3000      7.9668      2.5002      0.0350      9.0798     84.4809     20.3904
   760.4000      7.9668      2.5121      0.0681      8.3604     83.9792     20.4155
   760.5000      7.9704      2.5377      0.0642      6.8087     78.6520     20.7757
   760.6000      7.9704      2.5572      0.1352      5.6260     76.0788     21.2749
   760.7000      7.9704      2.5575      0.0787      5.6037     80.7226     21.3817
   760.8000      7.9674      2.5522      0.0782      5.9252     88.3802     20.8201
   760.9000      7.9674      2.5578      0.0575      5.5852     92.9649     20.1513
   761.0000      7.9676      2.5715      0.0758      4.7547     92.6453     19.8981
   761.1000      7.9676      2.5808      0.0733      4.1917     90.2477     19.9831
   761.2000      7.9676      2.5823      0.0633      4.1059     87.6609     20.0017
   761.3000      7.9666      2.5839      0.0318      4.0060     86.4142     19.8011
   761.4000      7.9666      2.5872      0.0694      3.8061     87.5696     19.7183
   761.5000      7.9644      2.5827      0.0896      4.0804     90.8412     19.9910
   761.6000      7.9644      2.5700      0.0720      4.8487     93.1614     20.4404
   761.7000      7.9644      2.5570      0.0540      5.6336     90.5863     20.6552
   761.8000      7.9664      2.5433      0.0323      6.4659     87.6401     20.4638
   761.9000      7.9664      2.5229      0.0329      7.7015     89.3881     20.1749
   762.0000      7.9683      2.4975      0.0053      9.2448     92.0613     20.2134
   762.1000      7.9683      2.4769      0.0302     10.4912     90.6418     20.5411
   762.2000      7.9683      2.4706      0.0287     10.8724     86.6709     20.6356
   762.3000      7.9811      2.4800      0.0191     10.3057     85.1597     20.5912
   762.4000      7.9811      2.4960     -0.0060      9.3338     85.9191     20.8071
   762.5000      7.9694      2.5066      0.0269      8.6907     86.3343     20.8924
   762.6000      7.9694      2.5037      0.0177      8.8652     87.0871     20.3868
   762.7000      7.9694      2.4868      0.0196      9.8913     87.1223     19.5175
   762.8000      7.9662      2.4718     -0.0402     10.7991     84.4509     19.1167
   762.9000      7.9662      2.4818     -0.0227     10.1928     81.0652     19.6059
   763.0000      7.9671      2.5126      0.0266      8.3255     79.9679     20.3431
   763.1000      7.9671      2.5398      0.0529      6.6758     81.2826     20.5350
   763.2000      7.9671      2.5525      0.0599      5.9107     82.9377     20.1670
   763.3000      7.9668      2.5553      0.0672      5.7413     85.3445     19.8301
   763.4000      7.9668      2.5527      0.0940      5.8941     89.2771     19.7297
   763.5000      7.9660      2.5420      0.0604      6.5430     91.8032     19.6811
   763.6000      7.9660      2.5270      0.0281      7.4566     90.3468     19.7785
   763.7000      7.9660      2.5208      0.0204      7.8312     87.9881     20.2033
   763.8000      7.9639      2.5254      0.0565      7.5531     87.6415     20.6994
   763.9000      7.9639      2.5286      0.0499      7.3604     89.9540     20.7345
   764.0000      7.9663      2.5226      0.0404      7.7216     92.8579     20.3170
   764.1000      7.9663      2.5092      0.0360      8.5340     91.9903     19.8471
   764.2000      7.9663      2.4994      0.0328      9.1266     89.2291     19.5326
   764.3000      7.9681      2.5046      0.0421      8.8110     89.9419     19.7416
   764.4000      7.9681      2.5194      0.0667      7.9166     91.2127     20.4784
   764.5000      7.9650      2.5300      0.0632      7.2738     88.6627     21.0142
   764.6000      7.9650      2.5362      0.0696      6.8962     86.7837     20.9959
   764.7000      7.9650      2.5433      0.0624      6.4683     88.4261     20.5927
   764.8000      7.9661      2.5439      0.0993      6.4289     87.3917     20.0857
   764.9000      7.9661      2.5342      0.0606      7.0181     82.5498     19.9917
   765.0000      7.9665      2.5257      0.0231      7.5317     80.2357     20.6242
   765.1000      7.9665      2.5214      0.0495      7.7917     82.4209     21.5162
