~Version Information
VERS.                      2.0: CWLS Log ASCII Standard - VERSION 2.0
WRAP.                       NO: One line per depth step
~Well Information Block
STRT.FT               340.0000: 
STOP.FT              1542.5000: 
STEP.FT                 0.2500: 
NULL.                -999.2500: 
COMP.          Petrogulf Corporation: COMPANY
WELL.            Montoya 7-21R: WELL
FLD.           Purgatorie River: FIELD
LOC.           445' FNL & 1942' FWL: LOCATION
PROV.                 Colorado: PROVINCE
CNTY.               Las Animas: COUNTRY
SRVC.                Patterson: SERVICE COMPANY
DATE.          Thu Sep 15 10:37:42 2005: LOG DATE
UWI.                          : UNIQUE WELL ID
~Curve Information Block
DEPT.FT            0 000 00 00: Depth
SP.mV                         : DIL Spontaneous Potential
RILD.Ohm-m                    : DIL Deep Resistivity
RILM.Ohm-m                    : DIL Medium Resistivity
RLL3.Ohm-m                    : DIL Shallow Resistivity
GR.GAPI                       : Gamma Ray
~Parameter Information Block
~A  Depth        SP         RILD        RILM        RLL3         GR     
# ...
  1208.0000    181.4364     15.5803     16.3416     16.4672    152.5061
  1208.2500    180.7857     15.4419     16.8632     16.9361    128.9625
  1208.5000    180.0190     15.6221     17.4603     18.0516    138.4152
  1208.7500    179.3166     15.3924     18.1057     19.7725    143.9934
  1209.0000    178.7602     15.4923     18.4457     22.4193    139.2372
  1209.2500    178.2056     15.4766     18.8292     24.4519    128.0170
  1209.5000    177.8489     15.4322     18.7547     24.3855    105.9515
  1209.7500    177.6478     15.5680     18.1614     23.8625     90.7677
  1210.0000    177.5199     15.5743     18.2149     22.7930    109.5608
  1210.2500    177.3858     15.5438     17.7452     20.0863    110.1243
  1210.5000    177.2015     15.6105     17.8165     18.6038    131.5285
  1210.7500    177.0389     15.7185     17.4773     19.0406    136.5464
  1211.0000    177.0426     15.7297     17.1383     19.5277    142.3709
  1211.2500    177.1200     15.7035     16.8909     19.1609    139.3806
  1211.5000    177.2276     15.5541     16.8347     18.8310    127.7568
  1211.7500    177.4039     15.4591     16.5339     18.5730    136.0672
  1212.0000    177.6072     15.3971     15.7816     18.2782    126.8290
  1212.2500    177.8286     15.2500     15.3619     18.6789    123.1579
  1212.5000    177.9495     15.2650     15.3941     19.0289    131.4369
  1212.7500    177.9522     15.2288     14.9666     18.5364    120.9380
  1213.0000    177.7507     15.6117     14.7202     17.8257    115.5815
  1213.2500    177.5388     15.8702     14.7477     16.8920    123.0989
  1213.5000    177.3888     16.3371     14.8003     16.2512    163.3795
  1213.7500    177.2276     17.0814     14.8916     15.9228    155.2336
  1214.0000    177.1517     17.5268     15.6372     15.5605    152.8594
  1214.2500    177.2695     18.2835     17.0223     15.8324    166.3142
  1214.5000    177.4594     19.3905     18.7619     19.8212    147.8009
  1214.7500    177.7455     19.9843     20.9184     30.3743    137.2518
  1215.0000    178.0647     20.9956     23.1816     45.5121    137.8577
  1215.2500    178.2964     21.7333     25.1336     60.0314    143.3936
  1215.5000    178.6424     22.9721     27.0790     64.5136    127.2606
  1215.7500    179.1136     24.2132     29.0809     58.1593    108.6790
  1216.0000    179.6770     26.2253     30.9390     56.0527    103.9883
  1216.2500    180.3882     29.2131     34.0557     58.5909     96.5921
  1216.5000    181.4173     31.2016     38.4724     66.2721     95.3114
  1216.7500    182.6953     33.6260     43.2551     82.7167     72.9616
  1217.0000    184.2853     36.2087     52.3167    103.8781     76.7201
  1217.2500    185.9448     36.6701     61.3521    136.4832    100.2744
  1217.5000    187.4168     35.4609     68.5705    198.2341    101.6810
  1217.7500    188.8854     32.7730     68.7360    281.5209     88.4060
  1218.0000    190.5588     31.4116     71.8006    316.8850     75.0825
  1218.2500    192.1435     27.7916     68.0750    258.9067     63.0892
  1218.5000    193.8261     25.1380     52.5798    240.9858     46.4774
  1218.7500    195.7897     22.9214     40.3811    247.5945     39.3771
  1219.0000    197.8417     21.2572     32.1399    184.4418     53.5198
  1219.2500    200.0763     20.1053     25.7038     91.7589     49.9546
  1219.5000    202.3891     19.0464     20.2961     34.9859     76.1363
  1219.7500    204.7267     18.3551     16.8026     15.2873     75.1279
  1220.0000    206.5070     17.4079     14.8266     10.6961     91.9713
  1220.2500    207.6364     16.5057     13.7741      9.8500    100.6021
  1220.5000    208.2986     15.9026     13.5823     10.4841    113.9688
  1220.7500    208.7665     15.2129     13.6480     12.8197    109.9963
  1221.0000    209.2656     14.4298     13.6886     17.3395    116.3242
  1221.2500    209.7409     13.7655     13.5588     21.9040    122.4712
  1221.5000    210.2811     13.1971     13.2138     22.7271    115.6708
  1221.7500    210.6816     12.6936     12.8279     19.3970    112.4230
  1222.0000    210.7787     12.5987     12.2582     17.2046    125.1166
  1222.2500    210.6744     12.8319     12.0656     16.0964    118.0781
  1222.5000    210.4971     13.0654     12.0901     15.0235    118.7800
  1222.7500    210.2814     13.4705     12.2218     14.7422    115.7245
  1223.0000    209.8808     14.0327     12.6078     15.5109    128.6434
  1223.2500    209.4250     14.3662     12.9408     16.3137    149.0527
  1223.5000    208.9421     14.6652     13.5857     17.3589    147.5812
  1223.7500    208.3738     15.1792     14.0115     19.6207    129.5666
  1224.0000    207.6355     15.4272     14.4680     20.6363    113.2686
  1224.2500    206.6654     16.0197     15.3565     19.8819     82.7446
  1224.5000    205.4112     16.2161     15.8556     20.5114    113.1070
  1224.7500    203.9525     16.6669     16.4593     22.8209    122.6234
  1225.0000    201.9816     17.0476     17.1594     24.1309    126.6749
  1225.2500    199.6657     17.8248     18.0547     25.2995    119.5752
  1225.5000    196.7592     18.0988     19.0117     26.4089    103.9729
  1225.7500    193.2596     19.0077     19.9391     25.7350    114.1637
  1226.0000    190.1392     19.5090     21.0674     24.7085     97.4709
  1226.2500    187.4399     20.3469     22.0535     25.4059    100.0641
  1226.5000    184.9366     21.3563     23.0489     28.3136    100.1646
  1226.7500    182.8573     22.0090     25.2705     34.4045    101.7405
  1227.0000    180.9135     22.6650     26.5674     41.6543     97.7442
  1227.2500    179.1329     23.1975     28.0168     46.7467    102.3568
  1227.5000    177.2267     23.7272     29.2610     54.9584    105.1995
  1227.7500    175.1999     25.0872     30.6350     63.4297     89.8991
  1228.0000    173.4502     26.0235     31.3107     63.4684     81.1863
  1228.2500    171.7079     26.8591     30.9820     55.1881     81.3986
  1228.5000    170.0407     28.6852     31.9619     46.3853     91.0047
  1228.7500    168.4393     29.8615     34.4533     42.8220     98.1298
  1229.0000    166.8190     31.7143     37.7583     44.3663     84.0546
  1229.2500    165.4743     33.6963     41.2543     52.1403     78.0640
  1229.5000    164.2908     35.0784     44.8212     64.8608     92.1262
  1229.7500    163.4700     34.5757     45.8063     72.3051     80.1466
  1230.0000    162.8842     36.2590     49.3551     75.5256     76.9843
  1230.2500    162.6227     37.2345     51.1091     79.5727     73.6458
  1230.5000    162.5242     38.5649     53.0630     88.7102     92.8944
  1230.7500    162.5141     39.4012     54.7639     93.8067     88.3168
  1231.0000    162.5890     39.7648     57.6886     86.3144     77.7800
  1231.2500    162.8212     41.4753     60.4287     81.7579     71.6738
  1231.5000    163.1978     41.5781     63.6555    102.6109     57.0332
  1231.7500    163.8571     43.0729     70.5291    155.4163     53.7606
  1232.0000    164.8164     43.6359     74.9190    181.0065     72.8204
  1232.2500    166.0771     42.5939     77.7324    167.2350     59.2795
  1232.5000    167.7223     43.2131     77.3907    143.7698     59.8739
  1232.7500    169.5783     43.1316     79.4550    126.3082     50.3086
  1233.0000    171.8194     40.9140     85.3388    108.1142     53.9037
  1233.2500    174.1850     38.0098     82.5930    103.1021     56.3567
  1233.5000    177.0051     34.4641     84.0422    108.7085     66.0258
  1233.7500    179.9436     31.0655     77.6091    108.4378     60.5528
  1234.0000    183.0663     27.2910     64.2628     99.8494     46.7660
  1234.2500    186.7192     23.9456     54.9870     90.9287     46.4572
  1234.5000    190.4277     20.9750     44.0025     86.4835     43.4681
  1234.7500    194.2392     18.6115     34.5381     78.8159     61.6669
  1235.0000    198.3918     16.0161     26.4968     58.5521     74.1670
  1235.2500    202.0108     14.3127     20.5594     32.5586     73.5830
  1235.5000    205.2410     13.2061     16.1798     16.2856     70.3651
  1235.7500    207.5545     12.2572     13.5588     11.4934     78.6033
