~Version Information
VERS.                      2.0: CWLS Log ASCII Standard - VERSION 2.0
WRAP.                       NO: One line per depth step
~Well Information Block
STRT.FT               -11.0000: 
STOP.FT              1523.2500: 
STEP.FT                 0.2500: 
NULL.                -999.2500: 
COMP.          Petrogulf Corporation: COMPANY
WELL.             State 16-43R: WELL
FLD.           Purgatorie River: FIELD
LOC.           2538' FSL & 716' FEL--: LOCATION
PROV.                       CO: PROVINCE
CNTY.               Las Animas: COUNTRY
SRVC.          Patterson Wireline: SERVICE COMPANY
DATE.          Fri Sep 09 13:13:52 2005: LOG DATE
UWI.           05 071 08338 00: UNIQUE WELL ID
~Curve Information Block
DEPT.FT            0 000 00 00: Depth
CCL.                          : Casing Collar Locator
TT3.usec                      : CBL 3' Travel Time
AMP3.mV                       : CBL 3' Amplitude
GR.GAPI                       : Gamma Ray
~Parameter Information Block
~A  Depth       CCL         TT3         AMP3         GR     
# ...
   290.5000      0.0000    375.0854     10.5109     78.9631
   290.7500      0.0000    375.2963     10.5131     79.5884
   291.0000      0.0000    375.4148     10.5061     80.9328
   291.2500      0.0000    375.5269     10.4949     82.2459
   291.5000      0.0000    375.6610     10.4966     83.1131
   291.7500      0.0000    375.8276     10.5292     83.8051
   292.0000      0.0000    376.0346     10.5988     84.9094
   292.2500      0.0000    376.2960     10.6951     86.7799
   292.5000      0.0000    376.6267     10.7991     89.2304
   292.7500      0.0000    377.0255     10.8954     91.4791
   293.0000      0.0000    377.4656     10.9784     92.3845
   293.2500      0.0000    377.9074     11.0491     90.9867
   293.5000      0.0000    378.3113     11.1169     87.0100
   293.7500      0.0000    378.6361     11.2098     81.0399
   294.0000      0.0000    378.8430     11.3789     74.4579
   294.2500      0.0000    379.1212     11.6652     69.2087
   294.5000      0.0000    380.6832     12.0407     67.0729
   294.7500      0.0000    387.0566     12.3921     68.5119
   295.0000      0.0000    404.3346     12.5758     72.0040
   295.2500      0.0000    438.0076     12.4812     74.8775
   295.5000      0.0000    488.0626     12.0634     75.2515
   295.7500      0.0000    549.6982     11.3708     73.2934
   296.0000      0.0000    621.3286     10.5523     70.6267
   296.2500      0.0000    707.5616      9.7904     68.7919
   296.5000      0.0000    808.3183      9.2068     68.4401
   296.7500     -2.0000    908.2992      8.8369     69.5915
   297.0000      2.0000    983.5259      8.6595     71.9996
   297.2500      0.0000   1017.0460      8.6120     75.0878
   297.5000      0.0000   1005.0923      8.6095     77.9645
   297.7500      0.0000    951.8541      8.6104     79.9039
   298.0000      0.0000    863.7693      8.6726     80.7919
   298.2500      0.0000    750.1419      8.9052     81.0516
   298.5000      0.0000    627.4947      9.3494     81.2449
   298.7500      0.0000    518.4411      9.9256     81.7384
   299.0000      0.0000    440.9610     10.4889     82.6079
   299.2500      0.0000    398.3057     10.9235     83.7658
   299.5000      0.0000    380.7718     11.1929     85.2027
   299.7500      0.0000    375.5791     11.3285     87.0580
   300.0000      0.0000    373.9507     11.3867     89.4099
   300.2500      0.0000    371.9004     11.4159     92.0599
   300.5000      0.0000    368.4001     11.4450     94.5320
   300.7500      0.0000    364.2489     11.4827     96.1165
   301.0000      0.0000    361.3399     11.5210     95.8986
   301.2500      0.0000    361.3557     11.5445     93.2239
   301.5000      0.0000    364.2776     11.5424     88.6282
   301.7500      0.0000    368.4224     11.5174     84.0257
   302.0000      0.0000    371.9772     11.4826     81.3477
   302.2500      0.0000    374.2878     11.4486     80.8664
   302.5000      0.0000    376.0571     11.4125     81.1636
   302.7500      0.0000    379.2967     11.3617     80.8373
   303.0000      0.0000    387.8758     11.2889     80.0426
   303.2500      0.0000    407.6987     11.2002     80.1697
   303.5000      0.0000    444.1707     11.1095     82.0501
   303.7500      0.0000    496.9575     11.0290     84.6750
   304.0000      0.0000    556.6689     10.9644     85.9124
   304.2500      0.0000    608.0103     10.9149     84.5366
   304.5000      0.0000    636.8231     10.8777     81.3548
   304.7500      0.0000    635.1080     10.8515     78.2533
   305.0000      0.0000    603.0756     10.8380     76.4738
   305.2500      0.0000    550.0672     10.8374     76.0177
   305.5000      0.0000    492.8014     10.8472     76.2685
   305.7500      0.0000    449.2285     10.8638     76.5796
   306.0000      0.0000    430.9931     10.8844     76.3422
   306.2500      0.0000    438.6151     10.9054     75.2287
   306.5000      0.0000    460.6945     10.9217     73.7427
   306.7500      0.0000    478.5709     10.9296     73.0648
   307.0000      0.0000    477.3780     10.9306     73.9648
   307.2500      0.0000    456.2649     10.9329     76.0760
   307.5000      0.0000    427.0363     10.9463     78.3280
   307.7500      0.0000    402.7245     10.9756     79.9258
   308.0000      0.0000    389.1118     11.0164     81.0385
   308.2500      0.0000    386.1895     11.0552     82.7365
   308.5000      0.0000    394.6862     11.0759     85.8673
   308.7500      0.0000    419.7156     11.0709     89.6820
   309.0000      0.0000    467.2316     11.0454     92.1218
   309.2500      0.0000    534.0827     11.0120     92.0103
   309.5000      0.0000    600.2802     10.9791     90.5508
   309.7500      0.0000    635.6401     10.9457     90.1018
   310.0000      0.0000    621.1832     10.9060     91.7444
   310.2500      0.0000    566.6708     10.8572     94.5007
   310.5000      0.0000    505.6257     10.8032     96.6588
   310.7500      0.0000    472.6049     10.7515     97.4029
   311.0000      0.0000    483.7452     10.7081     97.1770
   311.2500      0.0000    531.6895     10.6736     96.8698
   311.5000      0.0000    591.2725     10.6455     96.9534
   311.7500      0.0000    631.5969     10.6231     97.1742
   312.0000      0.0000    631.3194     10.6109     96.7193
   312.2500      0.0000    589.5627     10.6155     94.9489
   312.5000      0.0000    524.7733     10.6407     92.2426
   312.7500      0.0000    461.7213     10.6833     89.7195
   313.0000      0.0000    416.7221     10.7333     87.8546
   313.2500      0.0000    392.2158     10.7770     85.9933
   313.5000      0.0000    382.0036     10.8018     83.7028
   313.7500      0.0000    378.9380     10.7996     82.0505
   314.0000      0.0000    378.5682     10.7705     82.9160
   314.2500      0.0000    378.9576     10.7221     87.1133
   314.5000      0.0000    379.5715     10.6665     93.3498
   314.7500      0.0000    380.5797     10.6153     98.8886
   315.0000      0.0000    382.4240     10.5771    101.2372
   315.2500      0.0000    385.3384     10.5557     99.5585
   315.5000      0.0000    389.1523     10.5478     94.8642
   315.7500      0.0000    394.2051     10.5418     89.1397
   316.0000      0.0000    402.9980     10.5235     84.1946
   316.2500      0.0000    420.5412     10.4851     80.8004
   316.5000      0.0000    451.2646     10.4294     78.6150
   316.7500      0.0000    494.1461     10.3642     77.0910
   317.0000      0.0000    541.7961     10.2961     76.3954
   317.2500      0.0000    585.9282     10.2305     77.1182
   317.5000      0.0000    622.2642     10.1724     79.0924
   317.7500      0.0000    648.0138     10.1256     81.1175
   318.0000      0.0000    658.0566     10.0906     82.1822
   318.2500      0.0000    648.3381     10.0652     82.5816
   318.5000      0.0000    621.3293     10.0489     83.4694
   318.7500      0.0000    585.0319     10.0474     85.4091
   319.0000      0.0000    548.0110     10.0729     87.5608
   319.2500      0.0000    516.3753     10.1363     88.1829
   319.5000      0.0000    492.5244     10.2386     85.8473
   319.7500      0.0000    474.9294     10.3676     80.5174
   320.0000      0.0000    460.5843     10.5013     73.7804
   320.2500      0.0000    447.7367     10.6198     67.9314
   320.5000      0.0000    435.3828     10.7167     64.5620
   320.7500      0.0000    422.4489     10.7988     63.7735
   321.0000      0.0000    409.3369     10.8712     64.4303
   321.2500      0.0000    398.6592     10.9258     64.9750
   321.5000      0.0000    393.1699     10.9453     64.2650
   321.7500      0.0000    393.5146     10.9201     62.1908
   322.0000      0.0000    397.8400     10.8595     59.6744
   322.2500      0.0000    402.6534     10.7892     57.8523
   322.5000      0.0000    404.4078     10.7342     57.2259
   322.7500      0.0000    401.4892     10.6969     57.6720
   323.0000      0.0000    395.0958     10.6523     59.0295
   323.2500      0.0000    388.0287     10.5706     61.2182
   323.5000      0.0000    382.5569     10.4457     63.6058
   323.7500      0.0000    379.3206     10.3008     64.5802
