~Version Information
VERS.                      2.0: CWLS Log ASCII Standard - VERSION 2.0
WRAP.                       NO: One line per depth step
~Well Information Block
STRT.FT                -6.0000: 
STOP.FT              2490.5000: 
STEP.FT                 0.2500: 
NULL.                -999.2500: 
COMP.          Pioneer Natural Resources: COMPANY
WELL.          Aztec Federal 41-15: WELL
FLD.           Purgatorie River: FIELD
LOC.           706' FNL & 1253' FEL--: LOCATION
CNTY.               Las Animas: COUNTY
SRVC.          Superior Well Services: SERVICE COMPANY
DATE.          Wed May 28 14-18-16 2008: LOG DATE
UWI.           05 071 08342 00: UNIQUE WELL ID
STAT.                       CO: STATE
~Curve Information Block
DEPT.FT            0 000 00 00: Depth
GR.GAPI                       : Gamma Ray
CCL.                          : Casing Collar Locator
AMP3FT.mV                     : AMP3FT Amplitude
TT3FT.usec                    : 3FT Travel Time
AMP5FT.mV                     : AMP5FT Amplitude
~Parameter Information Block
~A  Depth        GR         CCL        AMP3FT      TT3FT       AMP5FT   
    -6.0000   -999.2500   -999.2500   -999.2500   -999.2500   -999.2500
    -5.7500   -999.2500   -999.2500   -999.2500   -999.2500   -999.2500
    -5.5000   -999.2500   -999.2500      2.0576    642.0000   -999.2500
    -5.2500   -999.2500   -999.2500      2.0507    642.0000   -999.2500
    -5.0000   -999.2500   -999.2500      2.0286    642.0000   -999.2500
    -4.7500   -999.2500   -999.2500      1.9978    642.0000   -999.2500
    -4.5000   -999.2500   -999.2500      1.9667    642.0000      1.9005
    -4.2500   -999.2500   -999.2500      1.9420    642.0000      1.8843
    -4.0000   -999.2500   -999.2500      1.9268    642.0000      1.8714
    -3.7500   -999.2500   -999.2500      1.9210    642.0000      1.8677
    -3.5000   -999.2500   -999.2500      1.9220    642.0000      1.8682
    -3.2500   -999.2500   -999.2500      1.9255    642.0000      1.8598
    -3.0000   -999.2500   -999.2500      1.9279    642.0000      1.8387
    -2.7500   -999.2500   -999.2500      1.9269    642.0000      1.8200
    -2.5000   -999.2500   -999.2500      1.9200    642.0000      1.8242
    -2.2500   -999.2500   -999.2500      1.9056    642.0000      1.8551
    -2.0000   -999.2500      0.0000      1.8849    642.0000      1.8966
    -1.7500   -999.2500      0.0000      1.8641    642.0000      1.9267
    -1.5000   -999.2500      0.0000      1.8526    642.0000      1.9336
    -1.2500   -999.2500      0.0000      1.8582    642.0000      1.9205
    -1.0000   -999.2500      0.0000      1.8796    642.0000      1.9005
    -0.7500   -999.2500      0.0000      1.9045    642.0000      1.8856
    -0.5000   -999.2500      0.0000      1.9188    642.0000      1.8825
    -0.2500   -999.2500      0.0000      1.9192    642.0000      1.8950
     0.0000   -999.2500      0.0000      1.9192    642.0000      1.8950
     0.2500   -999.2500      0.0000      1.9217    642.0000      1.9731
     0.5000   -999.2500      0.0000      1.9358    642.0000      2.0226
     0.7500   -999.2500      0.0000      1.9491    642.0000      2.0588
     1.0000   -999.2500      0.0000      1.9534    642.0000      2.0694
     1.2500   -999.2500      0.0000      1.9485    642.0000      2.0492
     1.5000   -999.2500      0.0000      1.9383    642.0000      2.0021
     1.7500   -999.2500      0.0000      1.9256    642.0000      1.9403
     2.0000   -999.2500      0.0000      1.9108    642.0000      1.8794
     2.2500   -999.2500      0.0000      1.8939    642.0000      1.8309
     2.5000   -999.2500      0.0000      1.8764    642.0000      1.7993
     2.7500   -999.2500      1.1377      1.8615    642.0000      1.7838
     3.0000   -999.2500     -3.2397      1.8528    642.0000      1.7822
     3.2500   -999.2500      4.0000      1.8520    642.0000      1.7909
     3.5000     50.8519     -4.0000      1.8578    642.0000      1.8041
     3.7500     49.2248      4.0000      1.8679    642.0000      1.8164
     4.0000     48.0629      4.0000      1.8797    642.0000      1.8279
     4.2500     47.1583      2.4829      1.8903    642.0000      1.8415
     4.5000     46.2960      4.0000      1.8976    642.0000      1.8542
     4.7500     45.0972     -3.3984      1.8998    642.0000      1.8571
     5.0000     43.1215      0.0000      1.8964    642.0000      1.8464
     5.2500     40.3279     -1.1401      1.8882    642.0000      1.8293
     5.5000     37.4246      1.3647      1.8788    642.0000      1.8175
     5.7500     35.5056      1.6089      1.8730    641.9837      1.8182
     6.0000     35.1118      3.1763      1.8750    641.8783      1.8298
     6.2500     35.6238     -4.0000      1.8932    641.3401      1.8466
     6.5000     35.7261     -4.0000      1.9566    639.2068      1.8621
     6.7500     34.5935      4.0000      2.1498    632.6046      1.8698
     7.0000     32.5670      0.0000      2.6539    616.6138      1.8649
     7.2500     30.6973      0.0000      3.7423    586.1919      1.8543
     7.5000     29.9016      0.0000      5.6873    540.4218      1.8717
     7.7500     30.6115      0.0000      8.6249    485.3181      1.9981
     8.0000     32.7542      0.0000     12.5159    431.1125      2.3882
     8.2500     35.7326      0.0000     17.2526    385.9416      3.2797
     8.5000     38.7018      0.0000     22.7478    352.2057      4.9389
     8.7500     41.1415      0.0000     28.9191    328.1104      7.5533
     9.0000     43.0857      0.0000     35.7096    311.1307     11.1813
     9.2500     44.7733      0.0000     43.1316    299.7173     15.8095
     9.5000     46.2252      0.0000     51.0226    292.8892     21.3852
     9.7500     47.2059      0.0000     58.6432    289.4767     27.7607
    10.0000     47.5688      0.0000     64.8266    288.1350     34.7416
    10.2500     47.5674      0.0000     68.7859    287.7738     42.2391
    10.5000     47.6780      0.0000     70.6851    287.7733     50.1080
    10.7500     48.1369      0.0000     71.3562    287.8601     57.6800
    11.0000     48.8563      0.0000     71.6005    287.9326     63.7860
    11.2500     49.7922      1.7017     71.7957    287.9599     67.5776
    11.5000     51.0775      0.0000     71.9705    287.9403     69.2474
    11.7500     52.6122      0.0000     72.0565    287.8862     69.7824
    12.0000     53.7621      0.0000     72.0446    287.8164     70.1136
    12.2500     53.7489      0.0000     71.9915    287.7571     70.5897
    12.5000     52.3300      0.0000     71.9604    287.7389     71.0864
    12.7500     50.1288      0.0000     71.9848    287.7832     71.3885
    13.0000     48.5011      0.0000     72.0692    287.8842     71.4416
    13.2500     48.9715      0.0000     72.1975    288.0031     71.3527
    13.5000     52.2940      0.0000     72.3373    288.0893     71.2560
    13.7500     57.7628      0.0000     72.4546    288.1122     71.2253
    14.0000     63.6925      0.0000     72.5411    288.0746     71.2871
    14.2500     68.9506      0.0000     72.6268    287.9999     71.4512
    14.5000     73.8517      0.0000     72.7528    287.9140     71.6991
    14.7500     79.2269      0.0000     72.9294    287.8404     71.9689
    15.0000     84.8418      0.0000     73.1258    287.8042     72.1938
    15.2500     89.1709      0.0000     73.2999    287.8270     72.3556
    15.5000     90.7042      0.0000     73.4280    287.9074     72.4903
    15.7500     89.2425      0.0000     73.5142    288.0098     72.6445
    16.0000     86.0172      0.0000     73.5851    288.0818     72.8410
    16.2500     82.6889      0.0000     73.6743    288.0902     73.0779
    16.5000     80.0484      0.0000     73.7976    288.0393     73.3370
    16.7500     77.6140      0.0000     73.9457    287.9596     73.5926
    17.0000     74.6436      0.0000     74.1025    287.8862     73.8292
    17.2500     71.5051      0.0000     74.2559    287.8464     74.0531
    17.5000     69.7652      0.0000     74.3871    287.8560     74.2751
    17.7500     70.8276      0.0000     74.4762    287.9127     74.4860
    18.0000     74.5793      0.0000     74.5294    287.9904     74.6551
    18.2500     79.3724      0.0000     74.5861    288.0500     74.7411
    18.5000     83.1189      0.0000     74.6817    288.0643     74.6644
    18.7500     84.4425      0.0000     74.8051    288.0316     74.2463
    19.0000     83.1336      0.0000     74.8935    287.9738     73.1574
    19.2500     79.8251      0.0000     74.8386    287.9321     70.9382
    19.5000     75.2677      0.0000     74.4620    287.9825     67.2284
    19.7500     69.8992      0.0000     73.4738    288.2509     62.2425
    20.0000     64.0094      0.0000     71.5402    288.8865     57.0406
    20.2500     58.0905      0.0000     68.5266    289.9658     53.0078
    20.5000     52.9631      0.0000     64.7162    291.3947     50.8737
    20.7500     49.5835      0.0000     60.7070    292.9146     50.3479
    21.0000     48.5509      0.0000     57.0716    294.2307     50.6539
    21.2500     49.6235      0.0000     54.1662    295.1557     51.1689
    21.5000     51.8238      0.0000     52.1551    295.6662     51.5912
    21.7500     54.1861      0.0000     51.0240    295.8640     51.8215
