~Version Information
VERS.                      2.0: CWLS Log ASCII Standard - VERSION 2.0
WRAP.                       NO: One line per depth step
~Well Information Block
STRT.FT               806.0000: 
STOP.FT              1812.2000: 
STEP.FT                 0.1000: 
NULL.                -999.2500: 
COMP.          Pioneer Natural Resources: COMPANY
WELL.            Hill 33-22 Tr: WELL
FLD.           Purgatoire River: FIELD
LOC.           1573' FSL & 1585' FEL: LOCATION
PROV.                 Colorado: PROVINCE
CNTY.               Las Animas: COUNTRY
SRVC.                Patterson: SERVICE COMPANY
DATE.          Thu Apr 14 12:25:33 2005: LOG DATE
UWI.           05 071 08316 00: UNIQUE WELL ID
~Curve Information Block
DEPT.FT            0 000 00 00: Depth
DCAL.in                       : CDL Caliper
RHOB.g/cc                     : CDL Bulk Density
RHOC.g/cc                     : CDL Density Correction
DPOR.pu                       : CDL Density Porosity
GR.GAPI                       : Gamma Ray
NPOR.pu                       : Neutron Porosity
~Parameter Information Block
~A  Depth       DCAL        RHOB        RHOC        DPOR         GR         NPOR    
# ...
  1065.2000      7.9558      2.2596      0.1877     23.6626    146.9933     20.7283
  1065.3000      7.9641      2.2239      0.1397     25.8221    148.3774     21.4228
  1065.4000      7.9641      2.2140      0.2104     26.4223    145.9545     22.4392
  1065.5000      8.0017      2.2371      0.1576     25.0252    138.6358     23.3634
  1065.6000      8.0017      2.2851      0.2022     22.1163    135.9902     24.0931
  1065.7000      8.0017      2.3319      0.2197     19.2774    143.4849     24.8563
  1065.8000      8.0241      2.3730      0.1708     16.7860    155.3964     25.4257
  1065.9000      8.0241      2.4227      0.2720     13.7752    165.9794     25.7096
  1066.0000      8.0536      2.4688      0.2637     10.9838    173.0517     26.0459
  1066.1000      8.0536      2.4931      0.1746      9.5105    177.1061     26.4744
  1066.2000      8.0536      2.4990      0.1210      9.1492    178.8448     26.9759
  1066.3000      8.0878      2.4998      0.0989      9.1053    176.3072     27.4065
  1066.4000      8.0878      2.5044      0.0641      8.8255    170.0474     27.4669
  1066.5000      8.0488      2.5132      0.0448      8.2910    166.6463     27.2920
  1066.6000      8.0488      2.5194      0.0501      7.9170    169.4934     27.3428
  1066.7000      8.0488      2.5133      0.0595      8.2833    176.2384     27.6615
  1066.8000      8.0384      2.4968      0.0268      9.2873    181.9617     27.8990
  1066.9000      8.0384      2.4834     -0.0228     10.0956    183.4075     27.9387
  1067.0000      8.0260      2.4831     -0.0221     10.1142    182.8814     27.6498
  1067.1000      8.0260      2.4931      0.0259      9.5066    182.7709     26.9713
  1067.2000      8.0260      2.5065     -0.0155      8.6978    179.9632     26.3430
  1067.3000      8.0281      2.5172      0.0481      8.0512    172.8282     26.1193
  1067.4000      8.0281      2.5150      0.0500      8.1792    168.2597     26.1467
  1067.5000      8.0240      2.5025      0.0338      8.9368    170.7717     26.1306
  1067.6000      8.0240      2.4901      0.0527      9.6889    176.6081     25.7669
  1067.7000      8.0240      2.4776      0.0337     10.4493    181.4772     25.0072
  1067.8000      8.0352      2.4608      0.0682     11.4691    183.7034     24.3720
  1067.9000      8.0352      2.4399      0.0503     12.7346    182.3361     24.2656
  1068.0000      8.0237      2.4134      0.0831     14.3364    177.7667     24.3442
  1068.1000      8.0237      2.3742      0.0237     16.7178    171.3617     24.2727
  1068.2000      8.0237      2.3228      0.0171     19.8295    162.4563     24.1793
  1068.3000      8.0275      2.2727     -0.0686     22.8659    152.5977     24.1708
  1068.4000      8.0275      2.2398     -0.0106     24.8616    143.6429     24.2859
  1068.5000      8.0122      2.2273     -0.0059     25.6153    133.5729     24.4780
  1068.6000      8.0122      2.2248      0.0674     25.7671    120.5228     24.4430
  1068.7000      8.0122      2.2230      0.0077     25.8781    107.4998     24.1580
  1068.8000      8.0106      2.2249      0.0420     25.7629     98.2675     24.2385
  1068.9000      8.0106      2.2289      0.0401     25.5195     90.4735     24.8145
  1069.0000      8.0062      2.2201      0.0893     26.0563     83.1659     25.1338
  1069.1000      8.0062      2.2001     -0.0251     27.2672     80.1462     24.8870
  1069.2000      8.0062      2.2066     -0.0719     26.8740     84.0867     24.3473
  1069.3000      7.9939      2.2682      0.0060     23.1369     91.7954     23.7776
  1069.4000      7.9939      2.3614      0.1081     17.4928     96.3463     23.5039
  1069.5000      7.9991      2.4326      0.1229     13.1745     95.7857     23.5273
  1069.6000      7.9991      2.4553      0.0654     11.8006     94.2606     23.6821
  1069.7000      7.9991      2.4456      0.0597     12.3858     96.5130     24.0297
  1069.8000      8.0057      2.4290      0.0831     13.3951     98.9655     24.4007
  1069.9000      8.0057      2.4104      0.0927     14.5235     97.3660     24.6938
  1070.0000      8.0052      2.3902      0.0634     15.7464     95.9976     25.2794
  1070.1000      8.0052      2.3809      0.0273     16.3071     98.3045     26.2800
  1070.2000      8.0052      2.3895      0.0654     15.7873    102.6208     27.3004
  1070.3000      7.9837      2.4123      0.0569     14.4031    105.3113     27.6806
  1070.4000      7.9837      2.4585      0.0602     11.6082    105.4758     27.3587
  1070.5000      7.9720      2.5309      0.1891      7.2185    102.0922     26.8759
  1070.6000      7.9720      2.6007      0.2600      2.9863     93.8027     26.5124
  1070.7000      7.9720      2.6440      0.2811      0.3663     83.3964     26.1930
  1070.8000      7.9813      2.6680      0.2796     -1.0902     75.8270     26.1030
  1070.9000      7.9813      2.6828      0.1584     -1.9893     71.9788     26.5382
  1071.0000      7.9677      2.6879      0.1043     -2.2964     67.6340     27.1252
  1071.1000      7.9677      2.6866      0.0560     -2.2194     63.0221     27.4512
  1071.2000      7.9677      2.6879      0.0203     -2.2947     60.8105     27.6735
  1071.3000      7.9740      2.6929      0.1042     -2.5980     59.2969     27.8939
  1071.4000      7.9740      2.6958      0.0581     -2.7735     58.6405     28.0661
  1071.5000      7.9342      2.7097      0.0286     -3.6172     59.9444     28.1580
  1071.6000      7.9342      2.7417      0.1227     -5.5602     60.8012     28.1072
  1071.7000      7.9342      2.7607      0.1218     -6.7070     62.1290     27.8895
  1071.8000      7.9398      2.7487      0.0581     -5.9847     66.1463     27.3741
  1071.9000      7.9398      2.7331      0.0333     -5.0342     68.6412     26.4529
  1072.0000      7.9250      2.7320      0.0472     -4.9724     68.1903     25.6753
  1072.1000      7.9250      2.7344      0.0338     -5.1179     68.6981     25.5225
  1072.2000      7.9250      2.7353      0.0110     -5.1717     69.9477     25.6373
  1072.3000      7.9411      2.7371      0.0252     -5.2800     70.8959     25.5787
  1072.4000      7.9411      2.7340      0.0167     -5.0924     71.2935     25.2156
  1072.5000      7.9418      2.7282     -0.0352     -4.7414     68.0212     24.9044
  1072.6000      7.9418      2.7293      0.0129     -4.8075     61.2347     25.0413
  1072.7000      7.9418      2.7294      0.0644     -4.8126     55.0515     25.3806
  1072.8000      7.9592      2.7173      0.0521     -4.0765     51.8019     25.4734
  1072.9000      7.9592      2.7109     -0.0580     -3.6881     53.7895     25.0938
  1073.0000      7.9671      2.7283      0.0125     -4.7437     60.5073     24.4642
  1073.1000      7.9671      2.7397      0.0860     -5.4367     67.1076     23.9983
  1073.2000      7.9671      2.7149      0.0463     -3.9329     70.3579     23.4795
  1073.3000      7.9499      2.6669      0.0264     -1.0253     70.1631     22.6710
  1073.4000      7.9499      2.6027      0.0359      2.8647     68.0443     22.2005
  1073.5000      7.9395      2.5146     -0.0214      8.2069     67.7556     22.2422
  1073.6000      7.9395      2.4235     -0.1321     13.7269     73.3457     22.0660
  1073.7000      7.9395      2.3612     -0.1327     17.5035     83.1387     21.5801
  1073.8000      7.9576      2.3375     -0.1356     18.9380     93.0585     21.3523
  1073.9000      7.9576      2.3485     -0.0847     18.2703    100.6117     21.3885
  1074.0000      7.9564      2.3761     -0.0128     16.5992    103.1731     21.2715
  1074.1000      7.9564      2.3894      0.0705     15.7924    101.9709     21.0774
  1074.2000      7.9564      2.3734      0.0750     16.7661    100.2937     21.1804
  1074.3000      7.9631      2.3376      0.1263     18.9340     97.8250     21.6003
  1074.4000      7.9631      2.2869      0.1114     22.0083     92.7468     22.2920
  1074.5000      7.9762      2.2265      0.0263     25.6643     84.8068     23.1599
  1074.6000      7.9762      2.1815     -0.0275     28.3936     77.3845     23.9616
  1074.7000      7.9762      2.1779     -0.0436     28.6124     72.9549     24.4895
