~Version Information
VERS.                      2.0: CWLS Log ASCII Standard - VERSION 2.0
WRAP.                       NO: One line per depth step
~Well Information Block
STRT.FT               440.0000: 
STOP.FT              1003.5000: 
STEP.FT                 0.2500: 
NULL.                -999.2500: 
COMP.          Pioneer Natural Resources: COMPANY
WELL.              Dylan 42-25: WELL
FLD.           Purgatoire River: FIELD
LOC.           2160' FNL & 855' FEL: LOCATION
PROV.                 Colorado: PROVINCE
CNTY.               Las Animas: COUNTRY
SRVC.                Patterson: SERVICE COMPANY
DATE.          Sat Apr 23 11:21:51 2005: LOG DATE
UWI.           05 071 08229 00: UNIQUE WELL ID
~Curve Information Block
DEPT.FT            0 000 00 00: Depth
SN.Ohm-m                      : IEL Short Normal
SP.mV                         : IEL Spontaneous Potential
DIR.Ohm-m                     : IEL Induction Resistivity
GR.GAPI                       : Gamma Ray
~Parameter Information Block
~A  Depth        SN          SP         DIR          GR     
# ...
   942.5000     25.2020     21.1635     20.7267     79.1317
   942.7500     25.7540     21.0839     20.3003     76.7404
   943.0000     26.1611     21.0444     19.8512     72.5478
   943.2500     26.2762     21.0286     19.4436     70.3824
   943.5000     26.0789     21.0128     19.1249     69.9441
   943.7500     25.6508     20.9755     18.9257     72.0729
   944.0000     25.0330     20.9055     18.8575     78.4272
   944.2500     24.2131     20.8036     18.9116     83.7751
   944.5000     23.2480     20.6753     19.0595     91.1892
   944.7500     22.2772     20.5202     19.2545     94.6199
   945.0000     21.4220     20.3312     19.4393     97.0084
   945.2500     20.7398     20.1008     19.5604     97.4207
   945.5000     20.2670     19.8287     19.5904     97.9035
   945.7500     20.0784     19.5220     19.5439     98.5353
   946.0000     20.2938     19.1910     19.4728     99.1883
   946.2500     20.9818     18.8477     19.4476     98.7179
   946.5000     22.0184     18.5059     19.5352     96.4397
   946.7500     23.1214     18.1805     19.7858     94.5209
   947.0000     24.0788     17.8824     20.2253     92.5885
   947.2500     24.8758     17.6145     20.8507     92.4702
   947.5000     25.6018     17.3731     21.6293     93.8784
   947.7500     26.3226     17.1519     22.5049     95.3000
   948.0000     27.0608     16.9413     23.4124     97.0540
   948.2500     27.8158     16.7238     24.2967     97.5098
   948.5000     28.5218     16.4747     25.1257     96.6222
   948.7500     29.0409     16.1730     25.8917     94.8852
   949.0000     29.3106     15.8176     26.6047     91.1203
   949.2500     29.4609     15.4341     27.2820     88.6028
   949.5000     29.7012     15.0640     27.9382     86.0436
   949.7500     30.1249     14.7427     28.5724     85.3440
   950.0000     30.6568     14.4813     29.1621     85.3055
   950.2500     31.1682     14.2632     29.6723     85.4988
   950.5000     31.6063     14.0543     30.0786     85.3691
   950.7500     31.9915     13.8228     30.3790     84.6544
   951.0000     32.3401     13.5558     30.5833     82.5090
   951.2500     32.6328     13.2676     30.6923     80.6778
   951.5000     32.8282     12.9940     30.6933     78.2088
   951.7500     32.9009     12.7783     30.5788     77.1809
   952.0000     32.8746     12.6535     30.3690     76.9353
   952.2500     32.7903     12.6305     30.1137     77.5930
   952.5000     32.6442     12.6949     29.8698     79.2206
   952.7500     32.3857     12.8125     29.6724     80.1765
   953.0000     31.9709     12.9419     29.5168     80.5680
   953.2500     31.4025     13.0516     29.3634     79.9742
   953.5000     30.7371     13.1314     29.1595     78.3759
   953.7500     30.0739     13.1883     28.8687     77.5760
   954.0000     29.5187     13.2295     28.4906     77.9682
   954.2500     29.1320     13.2510     28.0586     79.4966
   954.5000     28.8915     13.2420     27.6215     83.1485
   954.7500     28.7169     13.1996     27.2238     86.0049
   955.0000     28.5514     13.1384     26.8981     90.3881
   955.2500     28.4055     13.0866     26.6648     93.2680
   955.5000     28.3195     13.0707     26.5336     97.5333
   955.7500     28.3010     13.0986     26.5006    100.4245
   956.0000     28.3057     13.1529     26.5481    104.9216
   956.2500     28.2794     13.2041     26.6487    107.7794
   956.5000     28.2086     13.2328     26.7716    110.7437
   956.7500     28.1212     13.2411     26.8876    111.2085
   957.0000     28.0482     13.2419     26.9683    109.7012
   957.2500     27.9978     13.2379     26.9883    107.9810
   957.5000     27.9699     13.2089     26.9361    105.7819
   957.7500     27.9764     13.1163     26.8287    104.9319
   958.0000     28.0361     12.9198     26.7104    104.2615
   958.2500     28.1536     12.5981     26.6274    103.7116
   958.5000     28.3149     12.1622     26.5985    101.6418
   958.7500     28.5045     11.6563     26.6130     98.9535
   959.0000     28.7187     11.1439     26.6559     93.2747
   959.2500     28.9600     10.6861     26.7384     89.3405
   959.5000     29.2386     10.3234     26.9017     85.0677
   959.7500     29.5900     10.0673     27.1929     83.8195
   960.0000     30.0658      9.9049     27.6285     83.9860
   960.2500     30.6891      9.8135     28.1730     84.8524
   960.5000     31.4291      9.7755     28.7490     86.3014
   960.7500     32.2319      9.7854     29.2748     87.0462
   961.0000     33.0610      9.8451     29.7008     87.6684
   961.2500     33.8910      9.9551     30.0097     87.6703
   961.5000     34.6746     10.1061     30.1913     86.6805
   961.7500     35.3323     10.2793     30.2365     85.1795
   962.0000     35.7972     10.4557     30.1585     81.9837
   962.2500     36.0656     10.6317     30.0017     79.7954
   962.5000     36.1793     10.8232     29.8085     77.4020
   962.7500     36.1570     11.0527     29.5849     76.6786
   963.0000     35.9574     11.3303     29.3090     77.0789
   963.2500     35.5048     11.6454     28.9708     78.4604
   963.5000     34.7459     11.9738     28.5889     82.2982
   963.7500     33.6943     12.2935     28.1886     85.8704
   964.0000     32.4453     12.5950     27.7761     92.2915
   964.2500     31.1459     12.8816     27.3409     97.0200
   964.5000     29.9264     13.1589     26.8759    103.9911
   964.7500     28.8572     13.4266     26.3879    107.6950
   965.0000     27.9551     13.6750     25.8914    110.1358
   965.2500     27.1943     13.8901     25.3946    109.1463
   965.5000     26.5262     14.0630     24.8958    104.4413
   965.7500     25.9296     14.1990     24.3900    100.4724
   966.0000     25.4268     14.3207     23.8813     95.8467
   966.2500     25.0466     14.4567     23.3901     94.4741
   966.5000     24.7936     14.6236     22.9472     94.6847
   966.7500     24.6515     14.8170     22.5787     95.6131
   967.0000     24.5959     15.0188     22.2893     97.1794
   967.2500     24.5983     15.2108     22.0585     98.1810
   967.5000     24.6194     15.3827     21.8515     99.8639
   967.7500     24.6026     15.5284     21.6384    101.2545
   968.0000     24.4800     15.6393     21.4042    103.6742
   968.2500     24.2089     15.7040     21.1400    105.2876
   968.5000     23.8136     15.7185     20.8271    107.1932
   968.7500     23.3828     15.6928     20.4387    107.9230
   969.0000     22.9934     15.6460     19.9618    108.4627
   969.2500     22.6209     15.5991     19.4203    108.9531
   969.5000     22.1621     15.5711     18.8702    110.7185
   969.7500     21.5574     15.5689     18.3711    112.6996
   970.0000     20.8516     15.5784     17.9576    116.4442
   970.2500     20.1411     15.5733     17.6340    119.0340
   970.5000     19.5047     15.5354     17.3880    122.1033
   970.7500     18.9782     15.4661     17.2089    122.8946
   971.0000     18.5714     15.3844     17.0935    121.4908
   971.2500     18.2882     15.3176     17.0389    119.3255
   971.5000     18.1288     15.2898     17.0340    116.3690
   971.7500     18.0984     15.3104     17.0608    115.5349
   972.0000     18.2058     15.3692     17.1047    115.6482
   972.2500     18.4498     15.4457     17.1637    115.6489
   972.5000     18.8304     15.5256     17.2460    114.1603
   972.7500     19.3484     15.6133     17.3629    111.9554
   973.0000     19.9609     15.7288     17.5221    107.1422
   973.2500     20.5738     15.8924     17.7243    103.3323
   973.5000     21.1067     16.1114     17.9614     97.7364
   973.7500     21.5399     16.3774     18.2146     94.8049
   974.0000     21.8933     16.6692     18.4585     92.6481
   974.2500     22.1837     16.9602     18.6720     92.8859
   974.5000     22.3924     17.2271     18.8509     95.0156
   974.7500     22.4737     17.4608     19.0121     96.8262
   975.0000     22.4087     17.6710     19.1843     99.1982
   975.2500     22.2405     17.8784     19.3896    100.5538
   975.5000     22.0372     18.0999     19.6267    102.5878
   975.7500     21.8330     18.3387     19.8668    103.8605
