~Version Information
VERS.                      2.0: CWLS Log ASCII Standard - VERSION 2.0
WRAP.                       NO: One line per depth step
~Well Information Block
STRT.FT               270.0000: 
STOP.FT              1771.7000: 
STEP.FT                 0.1000: 
NULL.                -999.2500: 
COMP.          Pioneer Natural Resources: COMPANY
WELL.           Labrador 34-30: WELL
FLD.           Purgatoire River: FIELD
LOC.           926' FSL & 2080' FEL: LOCATION
PROV.                 Colorado: PROVINCE
CNTY.               Las Animas: COUNTRY
SRVC.                Patterson: SERVICE COMPANY
DATE.          Mon Dec 06 08:24:34 2004: LOG DATE
UWI.           05 071 08202 00: UNIQUE WELL ID
~Curve Information Block
DEPT.FT            0 000 00 00: Depth
DCAL.in                       : CDL Caliper
RHOB.g/cc                     : CDL Bulk Density
RHOC.g/cc                     : CDL Density Correction
DPOR.pu                       : CDL Density Porosity
NPOR.pu                       : Neutron Porosity
GR.GAPI                       : Gamma Ray
~Parameter Information Block
~A  Depth       DCAL        RHOB        RHOC        DPOR        NPOR         GR     
# ...
  1345.2000      8.0365      2.5666      0.0199      5.0542     17.9463    104.1274
  1345.3000      8.0364      2.5645      0.0777      5.1840     17.7554    104.4906
  1345.4000      8.0364      2.5396      0.0578      6.6891     17.6522     99.2512
  1345.5000      8.0408      2.5081     -0.0183      8.6029     17.7562     93.8910
  1345.6000      8.0408      2.4994      0.0080      9.1256     18.0213     97.8725
  1345.7000      8.0408      2.5138      0.0115      8.2552     18.1232    111.2932
  1345.8000      8.0477      2.5304      0.0518      7.2476     17.9003    120.0529
  1345.9000      8.0477      2.5324      0.0677      7.1255     17.6333    114.1522
  1346.0000      8.0538      2.5268      0.0406      7.4690     17.5257    100.3390
  1346.1000      8.0538      2.5389      0.0222      6.7335     17.5270     89.0415
  1346.2000      8.0538      2.5675      0.0729      4.9999     17.5253     84.7533
  1346.3000      8.0566      2.5795      0.0720      4.2738     17.3831     84.5078
  1346.4000      8.0566      2.5631      0.0720      5.2642     17.2579     83.3054
  1346.5000      8.0531      2.5451      0.0300      6.3555     17.5517     82.6571
  1346.6000      8.0531      2.5507      0.0141      6.0167     18.1713     84.0774
  1346.7000      8.0531      2.5703      0.0673      4.8309     18.5199     85.8168
  1346.8000      8.0443      2.5791      0.0688      4.2972     18.3378     87.0547
  1346.9000      8.0443      2.5720      0.0453      4.7264     18.0675     88.8036
  1347.0000      8.0383      2.5580      0.0657      5.5755     18.1687     93.5963
  1347.1000      8.0383      2.5468      0.0086      6.2535     18.5410    101.3056
  1347.2000      8.0383      2.5493      0.0348      6.1010     18.7112    106.0629
  1347.3000      8.0388      2.5683      0.0486      4.9506     18.6122    104.2704
  1347.4000      8.0388      2.5938      0.0720      3.4081     18.5843     99.2085
  1347.5000      8.0414      2.6125      0.0548      2.2698     18.7608     94.0016
  1347.6000      8.0414      2.6202      0.0940      1.8085     19.0059     89.5439
  1347.7000      8.0414      2.6149      0.0882      2.1297     19.2054     87.8314
  1347.8000      8.0420      2.5986      0.0405      3.1178     19.2047     89.2466
  1347.9000      8.0420      2.5825      0.0408      4.0902     18.9495     93.0367
  1348.0000      8.0409      2.5743      0.0073      4.5858     18.9491     98.7178
  1348.1000      8.0409      2.5730      0.0231      4.6643     19.5674    103.1229
  1348.2000      8.0409      2.5820      0.0347      4.1202     20.2173    104.8291
  1348.3000      8.0374      2.6024      0.0963      2.8875     20.2164    105.7848
  1348.4000      8.0374      2.6149      0.0793      2.1298     19.7562    103.9731
  1348.5000      8.0307      2.6013      0.0525      2.9498     19.5875     96.9151
  1348.6000      8.0307      2.5691      0.0497      4.9030     19.8543     90.2344
  1348.7000      8.0307      2.5439      0.0089      6.4286     20.0079     89.3182
  1348.8000      8.0210      2.5438      0.0469      6.4386     19.8525     89.8027
  1348.9000      8.0210      2.5504      0.0664      6.0359     19.6956     89.1764
  1349.0000      8.0159      2.5348      0.0787      6.9826     19.7379     92.3146
  1349.1000      8.0159      2.5048      0.0163      8.8005     19.8381     99.9503
  1349.2000      8.0159      2.4913      0.0110      9.6173     19.8215    106.7294
  1349.3000      8.0188      2.5010      0.0437      9.0301     19.6394    109.9600
  1349.4000      8.0188      2.5207      0.0301      7.8387     19.3250    110.1434
  1349.5000      8.0258      2.5426      0.0376      6.5078     18.8974    105.9755
  1349.6000      8.0258      2.5595      0.0611      5.4862     18.5364     97.7785
  1349.7000      8.0258      2.5629      0.0472      5.2812     18.5545     91.3360
  1349.8000      8.0303      2.5535      0.0583      5.8470     18.7147     91.1291
  1349.9000      8.0303      2.5440      0.0408      6.4216     18.5256     94.9966
  1350.0000      8.0251      2.5461      0.0353      6.2979     18.1934     96.9566
  1350.1000      8.0251      2.5597      0.0573      5.4727     18.0621     95.1576
  1350.2000      8.0251      2.5802      0.0827      4.2293     17.9429     95.6296
  1350.3000      8.0140      2.5972      0.1061      3.1989     17.8200     99.4811
  1350.4000      8.0140      2.5920      0.1020      3.5126     18.0512     99.1239
  1350.5000      8.0028      2.5663      0.0808      5.0746     18.5854     92.7321
  1350.6000      8.0028      2.5496      0.0249      6.0861     19.1921     85.3701
  1350.7000      8.0028      2.5562      0.0720      5.6829     19.9109     82.1260
  1350.8000      7.9924      2.5672      0.0147      5.0154     20.6672     84.4628
  1350.9000      7.9924      2.5665      0.0357      5.0586     21.3706     86.9934
  1351.0000      7.9882      2.5622     -0.0008      5.3194     22.0349     85.6934
  1351.1000      7.9882      2.5695      0.0169      4.8779     22.6275     83.6138
  1351.2000      7.9882      2.5833      0.0937      4.0403     23.0655     84.4987
  1351.3000      7.9912      2.5864      0.0692      3.8557     23.1033     89.3169
  1351.4000      7.9912      2.5760      0.0447      4.4848     22.4819     94.4519
  1351.5000      7.9926      2.5584      0.0687      5.5486     21.5618     92.1170
  1351.6000      7.9926      2.5370      0.0406      6.8509     21.0294     82.2112
  1351.7000      7.9926      2.5200      0.0472      7.8798     20.8273     73.3785
  1351.8000      7.9805      2.5198      0.0307      7.8881     20.5350     71.3558
  1351.9000      7.9805      2.5392      0.0620      6.7161     20.1817     75.8647
  1352.0000      7.9671      2.5585      0.1285      5.5452     20.0319     82.0501
  1352.1000      7.9671      2.5579      0.0816      5.5825     20.0562     85.1937
  1352.2000      7.9671      2.5509      0.0270      6.0065     20.0906     83.8821
  1352.3000      7.9679      2.5624      0.0586      5.3068     20.2410     79.5158
  1352.4000      7.9679      2.5877      0.1296      3.7771     20.4034     74.4577
  1352.5000      7.9755      2.6004      0.1467      3.0065     20.1862     70.9114
  1352.6000      7.9755      2.5903      0.0897      3.6198     19.6593     68.2909
  1352.7000      7.9755      2.5700      0.0519      4.8459     19.2749     67.0866
  1352.8000      7.9800      2.5571      0.0242      5.6288     19.2318     72.8810
  1352.9000      7.9800      2.5602      0.0506      5.4438     19.3335     85.5928
  1353.0000      7.9839      2.5725      0.0852      4.7000     19.3586     98.2458
  1353.1000      7.9839      2.5777      0.0440      4.3848     19.3981    104.9863
  1353.2000      7.9839      2.5651      0.0481      5.1449     19.5576    103.6010
  1353.3000      7.9866      2.5411      0.0349      6.6001     19.7712     99.5920
  1353.4000      7.9866      2.5277      0.0266      7.4096     19.8887    100.4531
  1353.5000      7.9864      2.5372      0.0233      6.8344     19.9248    104.5886
  1353.6000      7.9864      2.5602      0.0592      5.4429     20.0331    106.3712
  1353.7000      7.9864      2.5825      0.1054      4.0900     20.1329    108.1737
  1353.8000      7.9956      2.5945      0.0724      3.3613     20.0599    112.0949
  1353.9000      7.9956      2.5913      0.0710      3.5593     19.8882    113.3600
  1354.0000      8.0171      2.5766      0.0313      4.4466     19.8224    108.0749
  1354.1000      8.0171      2.5642      0.0309      5.1983     20.1099     97.6576
  1354.2000      8.0171      2.5657      0.0432      5.1117     20.6198     87.5221
  1354.3000      8.0235      2.5788      0.0429      4.3141     20.8891     82.9215
  1354.4000      8.0235      2.5872      0.0605      3.8048     20.8561     83.6800
  1354.5000      7.9965      2.5757      0.0849      4.5030     20.8561     87.3160
  1354.6000      7.9965      2.5545      0.0092      5.7875     21.0716     91.3780
  1354.7000      7.9965      2.5506      0.0366      6.0234     21.4442     92.5110
