~Version Information
 VERS.                                  2.0 : CWLS LAS VERSION
 WRAP.                                   NO : WRAPING MODE
 SWARE .                 MController 2.5.0I : SOFTWARE VERSION
~Well Information
 WELL.                      Anderson 18-43v : WELL
 COMP.                       Petrogulf Corp : COMPANY
 FLD.                      Purgatorie River : FIELD
 LOC.                NE/SE Sec 18 T33S R67W : LOCATION
 DATE.                              9/01/04 : DATE(S) LOGGED
 SRVC.       Blanco geological services LLC : SERVICE COMPANY
 STAT.                                   CO : STATE
 CNTY.                           Las Animas : COUNTY
 CTRY.                                  USA : COUNTRY
 API.                       05-071-08156-00 : API NUMBER
 STRT.FT                             158.00 : START DEPTH
 STOP.FT                            2300.00 : STOP DEPTH
 STEP.FT                               1.00 : DEPTH INCREMENT
 NULL.                                -9999 : NULL VALUE
~Curve information
 DEPTH.FT                                   :
 ROP.MIN/FT                                 :
 GAS.UNITS                                  :
~ASCII Log data
# ...
      1358.0          0.3          3.8 
      1359.0          0.3          0.6 
      1360.0          0.3         30.1 
      1361.0          0.3         39.6 
      1362.0          0.2         39.5 
      1363.0          0.2         38.2 
      1364.0          0.2         37.8 
      1365.0          0.2         38.6 
      1366.0          0.2         38.7 
      1367.0          0.2         36.6 
      1368.0          0.2         37.5 
      1369.0          0.2         37.7 
      1370.0          0.2         37.2 
      1371.0          0.2         36.7 
      1372.0          0.2         36.0 
      1373.0          0.2         35.1 
      1374.0          0.1         35.2 
      1375.0          0.2         35.2 
      1376.0          0.2         35.3 
      1377.0          0.2         33.8 
      1378.0          0.2         23.5 
      1379.0          0.2         13.0 
      1380.0          1.8        148.1 
      1381.0          0.4        141.1 
      1382.0          0.4        115.3 
      1383.0          0.3         86.5 
      1384.0          0.4         60.1 
      1385.0          0.3         38.0 
      1386.0          0.4         42.4 
      1387.0          0.3         47.3 
      1388.0          0.3         52.0 
      1389.0          0.5         52.2 
      1390.0          0.4         46.8 
      1391.0          0.3         44.6 
      1392.0          0.3         40.2 
      1393.0          0.3         37.0 
      1394.0          0.3         35.6 
      1395.0          0.3         35.0 
      1396.0          0.3         34.5 
      1397.0          0.3         34.4 
      1398.0          0.3         33.9 
      1399.0          0.3         33.9 
      1400.0          0.3         32.8 
      1401.0          0.3         33.3 
      1402.0          0.2         32.9 
      1403.0          0.2         32.2 
      1404.0          0.2         31.8 
      1405.0          0.2         32.3 
      1406.0          0.2         33.9 
      1407.0          0.2         35.4 
      1408.0          0.2         34.9 
      1409.0          0.4         22.2 
      1410.0          1.7        151.4 
      1411.0          0.7        151.0 
      1412.0          0.6         94.8 
      1413.0          0.4         63.7 
      1414.0          0.5         41.0 
      1415.0          0.3         41.8 
      1416.0          0.3         47.6 
      1417.0          0.4         49.3 
      1418.0          0.3         49.3 
      1419.0          0.2         48.1 
      1420.0          0.4         44.4 
      1421.0          0.3         36.9 
      1422.0          0.3         32.2 
      1423.0          0.2         30.8 
      1424.0          0.2         30.4 
      1425.0          0.3         30.1 
      1426.0          0.2         32.7 
      1427.0          0.2         37.0 
      1428.0          0.2         41.1 
      1429.0          0.3         41.9 
      1430.0          0.3         41.8 
      1431.0          0.3         39.1 
      1432.0          0.3         36.3 
      1433.0          0.3         35.6 
      1434.0          0.3         36.0 
      1435.0          0.3         33.2 
      1436.0          0.3         31.0 
      1437.0          0.3         31.1 
      1438.0          0.3         30.1 
      1439.0          0.3         22.5 
      1440.0          1.8        169.8 
      1441.0          0.4        171.1 
      1442.0          0.3        143.0 
      1443.0          0.2        110.8 
      1444.0          0.2         90.0 
      1445.0          0.2         68.6 
      1446.0          0.1         51.3 
      1447.0          0.2         45.7 
      1448.0          0.2         39.5 
      1449.0          0.3         37.1 
      1450.0          0.3         37.6 
      1451.0          0.3         38.3 
      1452.0          0.2         38.4 
      1453.0          0.3         40.1 
      1454.0          0.2         40.6 
      1455.0          0.2         40.5 
      1456.0          0.2         41.0 
      1457.0          0.2         41.4 
      1458.0          0.2         41.9 
      1459.0          0.2         44.0 
      1460.0          0.3         49.8 
      1461.0          0.2         50.6 
      1462.0          0.2         50.5 
      1463.0          0.2         49.2 
      1464.0          0.2         48.6 
      1465.0          0.3         48.8 
      1466.0          0.2         48.9 
      1467.0          0.2         47.6 
      1468.0          0.3         42.9 
      1469.0          0.2         21.3 
      1470.0          2.5        162.4 
      1471.0          0.3        162.4 
      1472.0          0.4        146.5 
      1473.0          0.3        111.6 
      1474.0          0.2         89.8 
      1475.0          0.3         72.7 
      1476.0          0.3         58.6 
      1477.0          0.3         50.0 
      1478.0          0.3         48.0 
      1479.0          0.3         52.0 
      1480.0          0.2         52.0 
      1481.0          0.2         50.4 
      1482.0          0.3         48.4 
      1483.0          0.3         46.9 
      1484.0          0.2         44.7 
      1485.0          0.3         41.4 
      1486.0          0.3         37.8 
      1487.0          0.3         32.4 
      1488.0          0.2         28.4 
      1489.0          0.2         28.9 
      1490.0          0.2         32.7 
      1491.0          0.3         35.4 
      1492.0          0.2         36.3 
      1493.0          0.2         37.2 
      1494.0          0.3         38.7 
      1495.0          0.3         41.6 
      1496.0          0.3         44.5 
      1497.0          0.3         44.5 
      1498.0          0.2         39.3 
      1499.0          0.2         25.7 
      1500.0          2.3        196.4 
      1501.0          0.6        123.1 
      1502.0          0.5         57.6 
      1503.0          0.4         35.8 
      1504.0          0.5         41.5 
      1505.0          0.4         41.6 
      1506.0          0.4         43.4 
      1507.0          0.5         43.6 
      1508.0          0.7         41.1 
      1509.0          0.6         35.5 
      1510.0          0.6         40.4 
      1511.0          0.3         41.8 
      1512.0          0.3         41.7 
      1513.0          0.3         39.0 
      1514.0          0.3         36.9 
      1515.0          0.3         36.2 
      1516.0          0.3         36.1 
      1517.0          0.3         35.7 
      1518.0          0.3         35.6 
      1519.0          0.3         34.3 
      1520.0          0.3         33.7 
      1521.0          0.3         34.4 
      1522.0          0.3         34.3 
      1523.0          0.3         32.9 
      1524.0          0.3         32.5 
      1525.0          0.3         31.6 
      1526.0          0.3         33.5 
      1527.0          0.3         34.1 
      1528.0          0.2         28.4 
      1529.0          0.3         13.9 
      1530.0          2.0        195.2 
      1531.0          0.2        163.6 
      1532.0          0.4        131.5 
      1533.0          0.3         89.4 
      1534.0          0.3         68.0 
      1535.0          0.3         55.6 
      1536.0          0.3         45.5 
      1537.0          0.3         39.6 
      1538.0          0.2         38.6 
      1539.0          0.2         38.1 
      1540.0          0.3         37.7 
      1541.0          0.3         36.4 
      1542.0          0.3         36.0 
      1543.0          0.3         36.4 
      1544.0          0.3         37.0 
      1545.0          0.3         38.8 
      1546.0          0.3         39.5 
      1547.0          0.3         38.7 
      1548.0          0.2         30.7 
      1549.0          0.2         28.2 
      1550.0          0.2         26.8 
      1551.0          0.2         25.3 
      1552.0          0.2         21.5 
      1553.0          0.2         21.3 
      1554.0          0.2         22.4 
      1555.0          0.2         25.9 
      1556.0          0.2         27.1 
      1557.0          0.3         26.9 
