~Version Information
VERS.                      2.0: CWLS Log ASCII Standard - VERSION 2.0
WRAP.                       NO: One line per depth step
~Well Information Block
STRT.FT                -9.2500: 
STOP.FT              2685.7500: 
STEP.FT                 0.2500: 
NULL.                -999.2500: 
COMP.          Pioneer Natural Resources: COMPANY
WELL.          Beacon 11-18 Tr: WELL
FLD.           Purgatorie River: FIELD
LOC.           409' FNL & 203' FWL--: LOCATION
PROV.                       CO: PROVINCE
CNTY.               Las Animas: COUNTRY
SRVC.                         : SERVICE COMPANY
DATE.          Fri Jan 21 09:45:44 2005: LOG DATE
UWI.        005 071 08251  : UNIQUE WELL ID
~Curve Information Block
DEPT.FT            0 000 00 00: Depth
CCL.                          : Casing Collar Locator
TT3.usec                      : CBL 3' Travel Time
AMP3.mV                       : CBL 3' Amplitude
GR.GAPI                       : Gamma Ray
~Parameter Information Block
~A  Depth       CCL         TT3         AMP3         GR     
# ...
   694.2500      0.0000    265.4209     61.7459     90.7028
   694.5000      0.0000    265.4419     61.7818     95.2980
   694.7500      0.0000    265.4615     61.8163     99.6852
   695.0000      0.0000    265.4761     61.7693    102.8692
   695.2500      0.0000    265.4839     61.5855    104.1223
   695.5000      0.0000    265.4848     61.2520    103.0811
   695.7500      0.0000    265.4816     60.7871     99.7451
   696.0000      0.0000    265.4779     60.2230     94.3287
   696.2500      0.0000    265.4773     59.6089     87.2890
   696.5000      0.0000    265.4813     59.0124     79.7688
   696.7500      0.0000    265.4916     58.4848     73.6146
   697.0000      0.0000    265.5101     58.0134     70.2531
   697.2500      0.0000    265.5373     57.5292     69.4625
   697.5000      0.0000    265.5704     56.9840     69.6885
   697.7500      0.0000    265.6031     56.4135     69.5538
   698.0000      0.0000    265.6293     55.9218     68.8275
   698.2500      0.0000    265.6438     55.6185     68.2091
   698.5000      0.0000    265.6430     55.5645     68.5414
   698.7500      0.0000    265.6265     55.7541     70.0149
   699.0000      0.0000    265.5992     56.1362     71.9486
   699.2500      0.0000    265.5677     56.6621     73.4060
   699.5000      0.0000    265.5356     57.3042     73.8865
   699.7500      0.0000    265.5032     58.0165     73.3162
   700.0000      0.0000    265.4735     58.7014     71.8155
   700.2500      0.0000    265.4536     59.2648     69.9774
   700.5000      0.0000    265.4485     59.7048     69.0926
   700.7500      0.0000    265.4567     60.1084     70.2546
   701.0000      0.0000    265.4723     60.5477     72.8722
   701.2500      0.0000    265.4898     61.0061     74.5581
   701.5000      0.0000    265.5049     61.4120     73.1464
   701.7500      0.0000    265.5137     61.7148     68.6956
   702.0000      0.0000    265.5144     61.9179     63.0285
   702.2500      0.0000    265.5074     62.0632     57.6080
   702.5000      0.0000    265.4925     62.1954     52.5941
   702.7500      0.0000    265.4696     62.3299     47.7967
   703.0000      0.0000    265.4410     62.4472     43.7417
   703.2500      0.0000    265.4120     62.5222     41.5197
   703.5000      0.0000    265.3871     62.5600     41.9207
   703.7500      0.0000    265.3671     62.5933     44.9684
   704.0000      0.0000    265.3515     62.6432     50.1333
   704.2500      0.0000    265.3406     62.6923     56.6594
   704.5000      0.0000    265.3352     62.7082     63.6058
   704.7500      0.0000    265.3337     62.6852     69.9435
   705.0000      0.0000    265.3339     62.6454     75.0722
   705.2500      0.0000    265.3350     62.5862     79.2140
   705.5000      0.0000    265.3402     62.3998     82.9520
   705.7500      0.0000    265.3643     61.8254     86.3694
   706.0000      0.0000    265.4529     60.5044     89.0153
   706.2500      0.0000    265.7072     58.2130     90.7723
   706.5000      0.0000    266.2785     55.1479     92.2325
   706.7500      0.0000    267.2889     51.9150     93.7861
   707.0000      0.0000    268.6943     49.0863     94.6529
   707.2500      0.0000    270.2173     46.8281     93.4463
   707.5000      0.0000    271.4740     45.0873     89.9147
   707.7500      0.0000    272.2235     43.9356     85.8881
   708.0000      0.0000    272.4993     43.4739     84.0427
   708.2500      0.0000    272.5096     43.5407     85.5632
   708.5000      2.0000    272.4571     43.7580     89.3054
   708.7500      2.0000    272.4617     43.8268     93.2453
   709.0000      0.0000    272.5695     43.7509     96.0623
   709.2500      0.0000    272.7230     43.8793     97.3075
   709.5000      0.0000    272.6974     44.7058     97.0331
   709.7500      0.0000    272.1671     46.4827     95.6541
   710.0000      0.0000    270.9558     49.0830     93.7308
   710.2500      0.0000    269.2354     52.3241     91.6446
   710.5000      0.0000    267.4332     56.1305     89.4767
   710.7500      0.0000    265.9470     60.1788     87.0872
   711.0000      0.0000    264.9514     63.7345     84.4915
   711.2500      0.0000    264.4036     66.1373     82.3951
   711.5000      0.0000    264.1576     67.2785     82.0807
   711.7500      0.0000    264.0688     67.4983     84.2987
   712.0000      0.0000    264.0424     67.1924     88.1731
   712.2500      0.0000    264.0340     66.5924     91.5420
   712.5000      0.0000    264.0318     65.7873     92.6720
   712.7500      0.0000    264.0394     64.8083     91.6330
   713.0000      0.0000    264.0632     63.6679     89.8640
   713.2500      0.0000    264.1032     62.3517     88.4922
   713.5000      0.0000    264.1528     60.8377     87.3391
   713.7500      0.0000    264.2043     59.1466     85.7339
   714.0000      0.0000    264.2559     57.3576     83.9096
   714.2500      0.0000    264.3129     55.5593     82.9732
   714.5000      0.0000    264.3833     53.7985     83.5138
   714.7500      0.0000    264.4702     52.0929     84.7088
   715.0000      0.0000    264.5668     50.4694     85.0682
   715.2500      0.0000    264.6612     48.9643     84.0110
   715.5000      0.0000    264.7442     47.6045     82.5102
   715.7500      0.0000    264.8120     46.4093     82.0090
   716.0000      0.0000    264.8638     45.3951     82.8755
   716.2500      0.0000    264.8990     44.5551     84.2066
   716.5000      0.0000    264.9175     43.8399     84.8486
   716.7500      0.0000    264.9221     43.1637     84.1854
   717.0000      0.0000    264.9229     42.4273     82.2463
   717.2500      0.0000    264.9364     41.5523     79.5273
   717.5000      0.0000    264.9781     40.5213     76.5181
   717.7500      0.0000    265.0547     39.3948     73.2502
   718.0000      0.0000    265.1633     38.2803     69.7434
   718.2500      0.0000    265.2930     37.2884     66.8738
   718.5000      0.0000    265.4312     36.5080     66.1173
   718.7500      0.0000    265.5669     35.9859     68.3462
   719.0000      0.0000    265.6898     35.6934     73.3108
   719.2500      0.0000    265.7926     35.5126     80.1408
   719.5000      0.0000    265.8763     35.2793     87.8221
   719.7500      0.0000    265.9529     34.8673     95.1551
   720.0000      0.0000    266.0379     34.2549    100.5732
   720.2500      0.0000    266.1411     33.5268    102.5609
   720.5000      0.0000    266.2640     32.8118    100.9801
   720.7500      0.0000    266.4024     32.2088     97.8796
   721.0000      0.0000    266.5469     31.7596     95.9395
   721.2500      0.0000    266.6840     31.4720     95.7917
   721.5000      0.0000    266.8019     31.3342     95.6504
   721.7500      0.0000    266.9005     31.2935     93.8031
   722.0000      0.0000    266.9962     31.2482     90.6540
   722.2500      0.0000    267.1142     31.0917     87.8320
   722.5000      0.0000    267.2742     30.7741     85.9973
   722.7500      0.0000    267.4812     30.3194     84.3358
   723.0000      0.0000    267.7267     29.7921     81.9715
   723.2500      0.0000    267.9938     29.2528     79.1352
   723.5000      0.0000    268.2623     28.7364     76.7894
   723.7500      0.0000    268.5153     28.2543     75.5361
   724.0000      0.0000    268.7447     27.8093     75.1523
   724.2500      0.0000    268.9517     27.4098     74.9986
   724.5000      0.0000    269.1379     27.0724     74.6650
   724.7500      0.0000    269.2984     26.8162     74.2334
   725.0000      0.0000    269.4217     26.6561     74.0102
   725.2500      0.0000    269.4966     26.5993     74.0754
   725.5000      0.0000    269.5195     26.6404     74.0220
   725.7500      0.0000    269.5002     26.7570     72.9288
   726.0000      0.0000    269.4603     26.9191     69.6475
   726.2500      0.0000    269.4185     27.1112     63.5995
   726.5000      0.0000    269.3755     27.3351     55.6207
   726.7500      0.0000    269.3193     27.5916     47.7646
   727.0000      0.0000    269.2413     27.8667     41.9143
   727.2500      0.0000    269.1439     28.1383     38.5189
   727.5000      0.0000    269.0348     28.3888     36.6488
