~Version Information
VERS.                      2.0: CWLS Log ASCII Standard - VERSION 2.0
WRAP.                       NO: One line per depth step
~Well Information Block
STRT.FT                -7.0000: 
STOP.FT              1863.5000: 
STEP.FT                 0.2500: 
NULL.                -999.2500: 
COMP.          Pioneer Natural Resources: COMPANY
WELL.            Formula 23-11: WELL
FLD.           Purgatorie River: FIELD
LOC.           1976' FSL & 1935' FWL--: LOCATION
PROV.                       CO: PROVINCE
CNTY.               Las Animas: COUNTRY
SRVC.          Patterson Wireline: SERVICE COMPANY
DATE.          Wed Jun 15 14:44:40 2005: LOG DATE
UWI.           05 071 08399 00: UNIQUE WELL ID
~Curve Information Block
DEPT.FT            0 000 00 00: Depth
CCL.                          : Casing Collar Locator
TT3.usec                      : CBL 3' Travel Time
AMP3.mV                       : CBL 3' Amplitude
GR.GAPI                       : Gamma Ray
~Parameter Information Block
~A  Depth       CCL         TT3         AMP3         GR     
# ...
  1333.0000      0.0000    680.3042      3.7745    117.0894
  1333.2500     -2.0000    692.1864      3.7803    117.9424
  1333.5000      0.0000    698.0533      3.7786    122.1807
  1333.7500      0.0000    696.7721      3.7749    127.5774
  1334.0000      0.0000    691.8966      3.8131    131.9179
  1334.2500      0.0000    687.0287      3.9560    134.0836
  1334.5000      0.0000    682.9949      4.2177    134.0354
  1334.7500      0.0000    679.1908      4.5223    132.2501
  1335.0000      0.0000    675.8768      4.7604    129.4469
  1335.2500      0.0000    674.3153      4.8792    126.4242
  1335.5000      0.0000    675.1824      4.9018    123.6614
  1335.7500      0.0000    677.4258      4.8707    121.1255
  1336.0000      0.0000    678.8206      4.8074    118.7151
  1336.2500      0.0000    677.0464      4.7230    116.7746
  1336.5000      0.0000    670.2785      4.6420    115.9087
  1336.7500      0.0000    658.0564      4.5959    116.3160
  1337.0000      0.0000    643.3687      4.5961    117.4524
  1337.2500      0.0000    633.7697      4.6266    118.2501
  1337.5000      0.0000    638.1476      4.6707    117.5920
  1337.7500      0.0000    660.1367      4.7291    114.9161
  1338.0000      0.0000    694.7258      4.8034    110.6977
  1338.2500      0.0000    732.4023      4.8748    106.3020
  1338.5000      0.0000    766.2275      4.9149    103.2008
  1338.7500      0.0000    793.9088      4.9147    102.2057
  1339.0000      0.0000    814.1802      4.8961    103.3337
  1339.2500      0.0000    823.9502      4.8942    106.2922
  1339.5000      0.0000    820.2892      4.9270    110.8824
  1339.7500      0.0000    804.7420      4.9794    116.7355
  1340.0000      0.0000    784.7097      5.0123    122.7879
  1340.2500      0.0000    769.0928      4.9898    127.4741
  1340.5000      0.0000    761.2298      4.9108    129.6181
  1340.7500      0.0000    756.4359      4.8194    128.8852
  1341.0000      0.0000    747.6931      4.7731    125.3546
  1341.2500      0.0000    733.4406      4.7876    119.1809
  1341.5000      0.0000    718.7849      4.8211    110.9171
  1341.7500      0.0000    709.9515      4.8114    101.7447
  1342.0000      0.0000    709.2980      4.7276     93.0592
  1342.2500      0.0000    715.5055      4.5868     85.9821
  1342.5000      0.0000    726.9260      4.4345     81.1945
  1342.7500      0.0000    743.6453      4.3081     78.7391
  1343.0000      0.0000    766.1223      4.2124     77.9098
  1343.2500      0.0000    792.4279      4.1220     77.7517
  1343.5000      0.0000    817.8343      4.0107     77.7005
  1343.7500      0.0000    837.6176      3.8817     77.6384
  1344.0000      0.0000    849.8906      3.7664     77.7576
  1344.2500      0.0000    855.7128      3.6917     78.6418
  1344.5000      0.0000    857.2466      3.6514     80.7387
  1344.7500      0.0000    856.2802      3.6154     83.2263
  1345.0000      0.0000    854.0657      3.5648     84.1132
  1345.2500      0.0000    851.7747      3.5151     82.1317
  1345.5000      0.0000    850.4549      3.5030     78.2142
  1345.7500      0.0000    850.2371      3.5546     74.7311
  1346.0000      0.0000    849.8284      3.6623     73.4842
  1346.2500      0.0000    847.2725      3.7898     74.7361
  1346.5000      0.0000    841.4956      3.8946     77.9077
  1346.7500      0.0000    833.2675      3.9505     82.3463
  1347.0000      0.0000    824.9577      3.9587     86.9964
  1347.2500      0.0000    819.4338      3.9440     90.1268
  1347.5000      0.0000    818.7634      3.9420     90.3873
  1347.7500      0.0000    823.2164      3.9831     88.1231
  1348.0000      0.0000    830.9124      4.0798     85.2307
  1348.2500      0.0000    838.3039      4.2209     83.7496
  1348.5000      0.0000    841.6649      4.3780     84.5087
  1348.7500      0.0000    839.2819      4.5208     86.6545
  1349.0000      0.0000    832.4834      4.6288     88.3343
  1349.2500      0.0000    823.9327      4.6901     88.2534
  1349.5000      0.0000    815.2289      4.7008     86.7902
  1349.7500      0.0000    806.9296      4.6703     85.4221
  1350.0000      0.0000    799.8690      4.6256     85.1161
  1350.2500      0.0000    794.8436      4.6006     85.6146
  1350.5000      0.0000    791.4963      4.6114     86.2898
  1350.7500      0.0000    788.7523      4.6439     87.2485
  1351.0000      0.0000    786.1777      4.6700     89.3390
  1351.2500      0.0000    784.0347      4.6773     93.3883
  1351.5000      0.0000    781.9123      4.6770     99.7456
  1351.7500      0.0000    777.7192      4.6843    108.0961
  1352.0000      0.0000    768.7147      4.6972    117.0866
  1352.2500      0.0000    754.0747      4.6941    124.4293
  1352.5000      0.0000    736.1084      4.6553    128.2740
  1352.7500      0.0000    718.6065      4.5894    128.8404
  1353.0000      0.0000    704.5116      4.5380    128.2718
  1353.2500      0.0000    695.2178      4.5461    128.4794
  1353.5000      0.0000    690.9269      4.6221    129.2803
  1353.7500      0.0000    690.8223      4.7257    129.0366
  1354.0000      0.0000    693.0790      4.7970    127.0465
  1354.2500      0.0000    695.3022      4.7999    124.8475
  1354.5000      0.0000    695.5080      4.7414    124.8981
  1354.7500      0.0000    693.1311      4.6546    128.0681
  1355.0000      0.0000    689.4532      4.5714    132.5731
  1355.2500      0.0000    687.0648      4.5124    135.3538
  1355.5000      0.0000    688.4969      4.4839    134.4131
  1355.7500      0.0000    694.8576      4.4703    129.7850
  1356.0000      0.0000    705.5531      4.4459    122.7522
  1356.2500      0.0000    719.2356      4.4077    115.0294
  1356.5000      0.0000    734.7811      4.3834    108.7332
  1356.7500      0.0000    751.2426      4.3984    105.7505
  1357.0000      0.0000    767.2419      4.4473    106.1137
  1357.2500      0.0000    780.9818      4.5022    107.5412
  1357.5000      0.0000    791.0453      4.5392    107.3833
  1357.7500      0.0000    797.1452      4.5491    104.9368
  1358.0000      0.0000    800.0819      4.5359    101.6825
  1358.2500      0.0000    801.0648      4.5141     99.7930
  1358.5000      0.0000    801.0551      4.4958    100.6501
  1358.7500      0.0000    800.3755      4.4775    104.0583
  1359.0000      0.0000    798.3616      4.4553    108.1410
  1359.2500      0.0000    792.8160      4.4453    110.3427
  1359.5000      0.0000    780.0370      4.4717    109.3662
  1359.7500      0.0000    756.9178      4.5297    106.2154
  1360.0000      0.0000    725.1501      4.5773    103.1438
  1360.2500      0.0000    693.5530      4.5743    101.8227
  1360.5000      0.0000    673.7772      4.5256    102.5679
  1360.7500      0.0000    671.5966      4.4768    104.6639
  1361.0000      0.0000    683.0933      4.4669    106.9558
  1361.2500      0.0000    700.3151      4.4915    108.3839
  1361.5000      0.0000    719.0255      4.5169    108.4047
  1361.7500      0.0000    739.3674      4.5193    107.0779
  1362.0000      0.0000    761.1097      4.5073    104.8717
  1362.2500      0.0000    781.3418      4.5035    102.5315
  1362.5000      0.0000    796.3679      4.5167    100.9979
  1362.7500      0.0000    803.4690      4.5396    101.1166
  1363.0000      0.0000    800.7539      4.5618    103.3668
  1363.2500      0.0000    787.0345      4.5762    107.9238
  1363.5000      0.0000    762.6951      4.5796    114.6122
  1363.7500      0.0000    730.9727      4.5722    122.4303
  1364.0000      0.0000    699.1872      4.5576    129.4854
  1364.2500      0.0000    677.8078      4.5395    133.7826
  1364.5000      0.0000    675.3010      4.5199    133.9674
  1364.7500      0.0000    692.2059      4.5077    129.5627
  1365.0000      0.0000    720.9825      4.5276    121.1779
  1365.2500      0.0000    751.8351      4.6059    110.4998
  1365.5000      0.0000    778.1486      4.7392     99.5724
  1365.7500      0.0000    797.4717      4.8919     89.9035
  1366.0000      0.0000    809.5800      5.0309     82.1880
  1366.2500      0.0000    814.6854      5.1433     76.6218
