~Version Information
VERS.                      2.0: CWLS Log ASCII Standard - VERSION 2.0
WRAP.                       NO: One line per depth step
~Well Information Block
STRT.FT               910.3000: 
STOP.FT              1932.5000: 
STEP.FT                 0.1000: 
NULL.                -999.2500: 
COMP.          Petrogulf Corporation: COMPANY
WELL.             State 16-34R: WELL
FLD.           Purgatorie River: FIELD
LOC.           1095' FSL & 1498' FEL: LOCATION
CNTY.               Las Animas: COUNTY
SRVC.                         : SERVICE COMPANY
DATE.          Thu May 06 14:28:18 2004: LOG DATE
UWI.           05 071 08032 00: UNIQUE WELL ID
STAT.                 Colorado: STATE
~Curve Information Block
DEPT.FT            0 000 00 00: Depth
DCAL.in                       : CDL Caliper
RHOB.g/cc                     : CDL Bulk Density
RHOC.g/cc                     : CDL Density Correction
DPOR.pu                       : CDL Density Porosity
NPOR.pu                       : Neutron Porosity
GR.GAPI                       : Gamma Ray
~Parameter Information Block
~A  Depth       DCAL        RHOB        RHOC        DPOR        NPOR         GR     
# ...
  1179.1000      7.9664      2.5133      0.0227      8.2820     25.3316    122.3844
  1179.2000      7.9664      2.5052     -0.0040      8.7756     25.7482    117.9298
  1179.3000      7.9658      2.5168      0.0153      8.0717     25.9435    114.6540
  1179.4000      7.9658      2.5422      0.0766      6.5354     25.9806    115.4346
  1179.5000      7.9649      2.5615      0.0919      5.3628     26.2706    120.9440
  1179.6000      7.9649      2.5727      0.0600      4.6845     26.7939    127.1545
  1179.7000      7.9649      2.5897      0.0546      3.6561     27.1694    128.5346
  1179.8000      7.9638      2.6147      0.0820      2.1399     27.2936    125.9424
  1179.9000      7.9638      2.6381      0.0946      0.7211     27.3430    122.8419
  1180.0000      7.9611      2.6574      0.1147     -0.4461     27.5096    118.4824
  1180.1000      7.9611      2.6729      0.0953     -1.3860     27.7794    114.6070
  1180.2000      7.9611      2.6783      0.1069     -1.7135     28.1571    113.9663
  1180.3000      7.9597      2.6681      0.0954     -1.0954     28.6182    114.6490
  1180.4000      7.9597      2.6457      0.0720      0.2621     28.5474    115.7322
  1180.5000      7.9568      2.6190      0.0538      1.8765     27.6925    116.9021
  1180.6000      7.9568      2.5948      0.0569      3.3482     26.8700    118.1072
  1180.7000      7.9568      2.5730      0.0651      4.6669     26.3479    119.8096
  1180.8000      7.9596      2.5475      0.0488      6.2107     25.4364    120.5493
  1180.9000      7.9596      2.5148      0.0378      8.1962     24.2360    119.5335
  1181.0000      7.9638      2.4821     -0.0136     10.1783     23.5479    117.6467
  1181.1000      7.9638      2.4624      0.0360     11.3675     23.6080    115.9664
  1181.2000      7.9638      2.4680      0.0204     11.0298     24.0597    118.1187
  1181.3000      7.9853      2.5096      0.0473      8.5066     24.2377    121.0869
  1181.4000      7.9853      2.5846      0.1071      3.9641     23.9153    118.1793
  1181.5000      7.9373      2.6719      0.1120     -1.3281     23.6030    112.5730
  1181.6000      7.9373      2.7413      0.1684     -5.5340     23.9598    109.3679
  1181.7000      7.9373      2.7698      0.1818     -7.2586     25.0784    105.8544
  1181.8000      7.9101      2.7600      0.1545     -6.6692     26.4758    100.2524
  1181.9000      7.9101      2.7305      0.0909     -4.8794     27.7238     94.9942
  1182.0000      7.8927      2.6962      0.0332     -2.8007     28.7957     90.8300
  1182.1000      7.8927      2.6658     -0.0426     -0.9547     29.5802     88.6848
  1182.2000      7.8927      2.6459     -0.0853      0.2512     29.9617     88.6746
  1182.3000      7.8861      2.6405     -0.0763      0.5743     29.8416     87.1529
  1182.4000      7.8861      2.6493     -0.0745      0.0418     29.1139     82.1105
  1182.5000      7.8904      2.6567     -0.0069     -0.4052     27.8959     76.2647
  1182.6000      7.8904      2.6289      0.0428      1.2815     26.4691     73.8884
  1182.7000      7.8904      2.5668      0.0287      5.0428     25.1069     75.4399
  1182.8000      7.8707      2.5222      0.0279      7.7447     24.0178     79.3978
  1182.9000      7.8707      2.5263      0.0289      7.4955     23.3521     83.7236
  1183.0000      7.8525      2.5613      0.0865      5.3735     23.1010     84.3866
  1183.1000      7.8525      2.6055      0.0557      2.6954     23.2572     81.0505
  1183.2000      7.8525      2.6476      0.1031      0.1478     23.5719     75.9285
  1183.3000      7.8530      2.6671      0.1336     -1.0342     23.4674     70.9398
  1183.4000      7.8530      2.6607      0.0783     -0.6491     22.9870     68.2102
  1183.5000      7.8543      2.6508      0.0723     -0.0495     22.6006     66.8528
  1183.6000      7.8543      2.6395      0.1253      0.6355     22.5717     64.9147
  1183.7000      7.8543      2.6171      0.0893      1.9930     23.0398     63.1308
  1183.8000      7.8620      2.5973      0.0306      3.1954     23.7382     64.5835
  1183.9000      7.8620      2.5865      0.0559      3.8468     24.0358     71.4023
  1184.0000      7.9039      2.5678      0.0021      4.9814     23.4858     81.2236
  1184.1000      7.9039      2.5468     -0.0170      6.2516     22.5420     89.0804
  1184.2000      7.9039      2.5538     -0.0126      5.8309     22.0434     91.4587
  1184.3000      7.9043      2.5982      0.0776      3.1372     22.0216     87.9231
  1184.4000      7.9043      2.6588      0.0826     -0.5309     22.1591     82.7558
  1184.5000      7.8990      2.7029      0.1649     -3.2038     22.6532     81.0030
  1184.6000      7.8990      2.7119      0.1282     -3.7516     23.8094     82.0699
  1184.7000      7.8990      2.7067      0.0638     -3.4335     25.1584     83.4223
  1184.8000      7.8736      2.7176      0.1000     -4.0941     26.0906     83.7632
  1184.9000      7.8736      2.7414      0.1371     -5.5420     26.5405     84.1480
  1185.0000      7.8651      2.7657      0.1040     -7.0110     26.7627     87.5729
  1185.1000      7.8651      2.7848      0.0942     -8.1690     27.1103     92.0545
  1185.2000      7.8651      2.7816      0.1116     -7.9774     27.5638     92.6263
  1185.3000      7.8789      2.7536      0.0212     -6.2785     27.7548     90.2749
  1185.4000      7.8789      2.7211      0.0150     -4.3087     27.6828     86.7748
  1185.5000      7.9267      2.6891      0.0043     -2.3725     27.6150     81.4597
  1185.6000      7.9267      2.6527      0.0305     -0.1624     27.2661     78.5691
  1185.7000      7.9267      2.6171      0.0267      1.9964     26.3533     82.0767
  1185.8000      7.9271      2.5928     -0.0025      3.4659     25.3593     88.4001
  1185.9000      7.9271      2.5773     -0.0038      4.4063     24.7127     92.3297
  1186.0000      7.9247      2.5596      0.0234      5.4811     24.1853     93.8718
  1186.1000      7.9247      2.5445     -0.0243      6.3962     23.6313     95.1455
  1186.2000      7.9247      2.5389      0.0667      6.7316     23.3161     97.3870
  1186.3000      7.9249      2.5339      0.0142      7.0341     23.1736    103.1476
  1186.4000      7.9249      2.5308      0.0340      7.2250     22.8524    112.9642
  1186.5000      7.9102      2.5356      0.0529      6.9361     22.4562    121.0876
  1186.6000      7.9102      2.5438      0.0399      6.4371     22.3767    122.6321
  1186.7000      7.9102      2.5485      0.0881      6.1485     22.8780    119.2847
  1186.8000      7.8789      2.5475      0.0896      6.2098     23.6464    114.7897
  1186.9000      7.8789      2.5470      0.0958      6.2413     23.8935    110.6826
  1187.0000      7.8728      2.5520      0.1071      5.9384     23.6208    107.8959
  1187.1000      7.8728      2.5590      0.1118      5.5146     23.5820    108.3497
  1187.2000      7.8728      2.5664      0.1026      5.0645     23.9553    110.4820
  1187.3000      7.8771      2.5780      0.1177      4.3646     24.1784    108.6302
  1187.4000      7.8771      2.5897      0.1100      3.6557     23.8845    101.6118
  1187.5000      7.8909      2.5924      0.0763      3.4888     23.4907     95.4510
  1187.6000      7.8909      2.5859      0.0684      3.8849     23.4395     95.9183
  1187.7000      7.8909      2.5775      0.0695      4.3956     23.4803    101.3763
  1187.8000      7.9105      2.5663      0.0570      5.0704     23.4634    107.7944
  1187.9000      7.9105      2.5458      0.0170      6.3154     23.5759    114.8117
  1188.0000      7.9148      2.5264     -0.0231      7.4929     23.8272    121.4218
  1188.1000      7.9148      2.5299      0.0005      7.2760     24.0979    124.8750
  1188.2000      7.9148      2.5581      0.0068      5.5701     24.4844    125.2885
  1188.3000      7.9195      2.5858      0.0518      3.8896     25.0805    125.6292
  1188.4000      7.9195      2.5872      0.0560      3.8071     25.5434    127.0566
  1188.5000      7.9204      2.5601      0.0630      5.4502     25.6925    127.9323
  1188.6000      7.9204      2.5249     -0.0156      7.5795     25.7231    125.5584
