~Version Information
VERS.                      2.0: CWLS Log ASCII Standard - VERSION 2.0
WRAP.                       NO: One line per depth step
~Well Information Block
STRT.FT               548.0000: 
STOP.FT              1916.0000: 
STEP.FT                 0.2500: 
NULL.                -999.2500: 
COMP.          Pioneer Natural Resources: COMPANY
WELL.          Blackjack 32-11 Tr: WELL
FLD.           Purgatorie River: FIELD
LOC.           2066' FNL & 1453' FEL: LOCATION
PROV.                 Colorado: PROVINCE
CNTY.               Las Animas: COUNTRY
SRVC.                Patterson: SERVICE COMPANY
DATE.          Tue Aug 16 12:08:23 2005: LOG DATE
UWI.                          : UNIQUE WELL ID
~Curve Information Block
DEPT.FT            0 000 00 00: Depth
SN.Ohm-m                      : IEL Short Normal
SP.mV                         : IEL Spontaneous Potential
DIR.Ohm-m                     : IEL Induction Resistivity
GR.GAPI                       : Gamma Ray
~Parameter Information Block
~A  Depth        SN          SP         DIR          GR     
# ...
   916.5000   2000.0000   2000.0000     17.4555     85.9483
   916.7500   2000.0000   2000.0000     16.7442     98.7937
   917.0000   2000.0000   2000.0000     16.0301    113.2806
   917.2500   2000.0000   2000.0000     15.9777    134.5827
   917.5000   2000.0000   2000.0000     15.9691    151.1600
   917.7500   2000.0000   2000.0000     14.5781    146.9263
   918.0000   2000.0000   2000.0000     14.7181    149.6559
   918.2500   2000.0000   2000.0000     14.4885    160.5983
   918.5000   2000.0000   2000.0000     13.9480    152.8368
   918.7500   2000.0000   2000.0000     14.2341    157.4078
   919.0000   2000.0000   2000.0000     14.1028    161.9296
   919.2500   2000.0000   2000.0000     13.4520    164.0431
   919.5000   2000.0000   2000.0000     13.3811    155.9005
   919.7500   2000.0000   2000.0000     13.5646    152.6846
   920.0000   2000.0000   2000.0000     14.1438    156.6143
   920.2500   2000.0000   2000.0000     14.7487    150.7747
   920.5000   2000.0000   2000.0000     14.1641    148.9725
   920.7500   2000.0000   2000.0000     14.0397    140.6107
   921.0000   2000.0000   2000.0000     14.9552    129.7193
   921.2500   2000.0000   2000.0000     15.0853    130.0784
   921.5000   2000.0000   2000.0000     14.8816    126.6851
   921.7500   2000.0000   2000.0000     15.5893    125.5872
   922.0000   2000.0000   2000.0000     16.2418    128.8927
   922.2500   2000.0000   2000.0000     16.3038    133.6046
   922.5000   2000.0000   2000.0000     16.8183    146.9777
   922.7500   2000.0000   2000.0000     18.4368    153.6702
   923.0000   2000.0000   2000.0000     19.8377    144.1543
   923.2500   2000.0000   2000.0000     21.5542    142.4295
   923.5000   2000.0000   2000.0000     22.5635    144.0085
   923.7500   2000.0000   2000.0000     21.2000    137.0065
   924.0000   2000.0000   2000.0000     20.6788    124.7926
   924.2500   2000.0000   2000.0000     21.9487    121.3461
   924.5000   2000.0000   2000.0000     21.4702    118.6016
   924.7500   2000.0000   2000.0000     21.5403    113.2542
   925.0000   2000.0000   2000.0000     22.3776    112.9731
   925.2500   2000.0000   2000.0000     22.2858    108.2917
   925.5000   2000.0000   2000.0000     23.4671    111.3899
   925.7500   2000.0000   2000.0000     25.2378    118.0796
   926.0000   2000.0000   2000.0000     26.4651    125.5037
   926.2500   2000.0000   2000.0000     26.7740    123.9549
   926.5000   2000.0000   2000.0000     28.2902    126.0710
   926.7500   2000.0000   2000.0000     26.3345    133.1371
   927.0000   2000.0000   2000.0000     26.2624    130.2451
   927.2500   2000.0000   2000.0000     27.6176    132.0932
   927.5000   2000.0000   2000.0000     25.1184    126.0462
   927.7500   2000.0000   2000.0000     24.2146    120.0856
   928.0000   2000.0000   2000.0000     22.3219    122.5535
   928.2500   2000.0000   2000.0000     21.3319    131.9062
   928.5000   2000.0000   2000.0000     21.2385    139.3754
   928.7500   2000.0000   2000.0000     18.8105    128.3034
   929.0000   2000.0000   2000.0000     15.6582    130.8774
   929.2500   2000.0000   2000.0000     20.1302    136.3521
   929.5000   2000.0000   2000.0000     19.6213    142.6432
   929.7500   2000.0000   2000.0000     17.0149    151.9413
   930.0000   2000.0000   2000.0000     18.6969    151.0058
   930.2500   2000.0000   2000.0000     18.1926    150.2065
   930.5000   2000.0000   2000.0000     18.3237    145.8914
   930.7500   2000.0000   2000.0000     17.8066    142.4856
   931.0000   2000.0000   2000.0000     17.1672    147.5677
   931.2500   2000.0000   2000.0000     15.6580    151.0433
   931.5000   2000.0000   2000.0000     14.9730    154.1008
   931.7500   2000.0000   2000.0000     15.6833    155.6058
   932.0000   2000.0000   2000.0000     15.3536    157.6316
   932.2500   2000.0000   2000.0000     15.1858    157.2924
   932.5000   2000.0000   2000.0000     15.6199    163.4460
   932.7500   2000.0000   2000.0000     15.2226    162.8755
   933.0000   2000.0000   2000.0000     15.8062    159.4054
   933.2500   2000.0000   2000.0000     16.5429    156.0141
   933.5000   2000.0000   2000.0000     16.4002    164.7236
   933.7500   2000.0000   2000.0000     16.2966    161.4865
   934.0000   2000.0000   2000.0000     16.2400    146.1617
   934.2500   2000.0000   2000.0000     17.0475    136.2336
   934.5000   2000.0000   2000.0000     16.4533    131.7698
   934.7500   2000.0000   2000.0000     19.6352    134.6816
   935.0000   2000.0000   2000.0000     20.1129    115.6872
   935.2500   2000.0000   2000.0000     21.7023    116.4573
   935.5000   2000.0000   2000.0000     23.1046    121.0486
   935.7500   2000.0000   2000.0000     20.9456    118.6795
   936.0000   2000.0000   2000.0000     25.8911    119.1391
   936.2500   2000.0000   2000.0000     31.2129    110.8488
   936.5000   2000.0000   2000.0000     31.4076    102.3326
   936.7500   2000.0000   2000.0000     31.0352    104.6165
   937.0000   2000.0000   2000.0000     33.2710     98.1813
   937.2500   2000.0000   2000.0000     28.9837     99.6180
   937.5000   2000.0000   2000.0000     34.8839     99.2162
   937.7500   2000.0000   2000.0000     36.6907     97.0726
   938.0000   2000.0000   2000.0000     38.2623     95.4204
   938.2500   2000.0000   2000.0000     36.6092     89.0761
   938.5000   2000.0000   2000.0000     35.2186     92.1712
   938.7500   2000.0000   2000.0000     30.2423     94.8465
   939.0000   2000.0000   2000.0000     32.7860     98.3440
   939.2500   2000.0000   2000.0000     32.4671     98.0255
   939.5000   2000.0000   2000.0000     26.2354    102.8118
   939.7500   2000.0000   2000.0000     29.6487    111.8561
   940.0000   2000.0000   2000.0000     29.7349    116.9731
   940.2500   2000.0000   2000.0000     27.4336    122.1424
   940.5000   2000.0000   2000.0000     23.9696    135.5373
   940.7500   2000.0000   2000.0000     24.9138    134.7405
   941.0000   2000.0000   2000.0000     21.7433    126.9893
   941.2500   2000.0000   2000.0000     17.4923    125.4697
   941.5000   2000.0000   2000.0000     19.8433    112.8191
   941.7500   2000.0000   2000.0000     18.6212    118.3052
   942.0000   2000.0000   2000.0000     17.7950    129.8746
   942.2500   2000.0000   2000.0000     16.8333    133.9454
   942.5000   2000.0000   2000.0000     15.3480    143.4620
   942.7500   2000.0000   2000.0000     15.0198    143.9725
   943.0000   2000.0000   2000.0000     13.5627    150.8579
   943.2500   2000.0000   2000.0000     14.5048    145.0419
   943.5000   2000.0000   2000.0000     14.4886    138.8858
   943.7500   2000.0000   2000.0000     14.8835    139.1491
   944.0000   2000.0000   2000.0000     14.8348    143.7135
   944.2500   2000.0000   2000.0000     15.1024    144.6990
   944.5000   2000.0000   2000.0000     15.3848    154.2783
   944.7500   2000.0000   2000.0000     14.9502    157.1868
   945.0000   2000.0000   2000.0000     13.4569    155.8178
   945.2500   2000.0000   2000.0000     13.3003    150.8538
   945.5000   2000.0000   2000.0000     13.7593    147.0130
   945.7500   2000.0000   2000.0000     15.6093    141.6533
   946.0000   2000.0000   2000.0000     16.7550    136.5126
   946.2500   2000.0000   2000.0000     16.1764    128.4214
   946.5000   2000.0000   2000.0000     17.5802    132.7282
   946.7500   2000.0000   2000.0000     17.7312    134.5680
   947.0000   2000.0000   2000.0000     17.0928    130.9993
   947.2500   2000.0000   2000.0000     16.2108    128.7087
   947.5000   2000.0000   2000.0000     17.2654    126.5873
   947.7500   2000.0000   2000.0000     18.6100    123.0786
   948.0000   2000.0000   2000.0000     17.7253    133.8575
   948.2500   2000.0000   2000.0000     15.6461    140.6633
   948.5000   2000.0000   2000.0000     15.8543    149.4281
   948.7500   2000.0000   2000.0000     15.6874    161.3946
   949.0000   2000.0000   2000.0000     16.0302    172.2919
   949.2500   2000.0000   2000.0000     15.8585    176.0496
   949.5000   2000.0000   2000.0000     14.0724    163.1096
   949.7500   2000.0000   2000.0000     13.4365    163.1081
