~Version Information
VERS.                      2.0: CWLS Log ASCII Standard - VERSION 2.0
WRAP.                       NO: One line per depth step
~Well Information Block
STRT.FT               375.0000: 
STOP.FT              2637.0000: 
STEP.FT                 0.1000: 
NULL.                -999.2500: 
COMP.          Pioneer Natural Resources: COMPANY
WELL.            Cortina 23-25: WELL
FLD.           Purgatoire River: FIELD
LOC.           2344' FWL & 2526' FSL----: LOCATION
PROV.                 Colorado: PROVINCE
CNTY.               Las Animas: COUNTRY
SRVC.                Patterson: SERVICE COMPANY
DATE.          Thu Mar 24 07:44:45 2005: LOG DATE
UWI.           05 071 08340 00: UNIQUE WELL ID
~Curve Information Block
DEPT.FT            0 000 00 00: Depth
DCAL.in                       : CDL Caliper
DPOR.pu                       : CDL Density Porosity
NPOR.pu                       : Neutron Porosity
RHOB.g/cc                     : CDL Bulk Density
RHOC.g/cc                     : CDL Density Correction
GR.GAPI                       : Gamma Ray
~Parameter Information Block
~A  Depth       DCAL        DPOR        NPOR        RHOB        RHOC         GR     
# ...
  1719.0000      0.0000      0.0000     36.9420      0.0000      0.0000    111.7110
  1719.1000      0.0000      0.0000     36.3134      0.0000      0.0000    118.1745
  1719.2000      0.0000      0.0000     35.7375      0.0000      0.0000    121.0299
  1719.3000      0.0000      0.0000     35.4802      0.0000      0.0000    122.1485
  1719.4000      0.0000      0.0000     35.3084      0.0000      0.0000    119.6901
  1719.5000      0.0000      0.0000     34.5958      0.0000      0.0000    109.2222
  1719.6000      0.0000      0.0000     33.3257      0.0000      0.0000     93.7463
  1719.7000      0.0000      0.0000     32.3051      0.0000      0.0000     83.7659
  1719.8000      0.0000      0.0000     31.6339      0.0000      0.0000     84.5365
  1719.9000      0.0000      0.0000     30.7620      0.0000     -0.0732     87.4344
  1720.0000      0.0000      0.0000     30.0563      0.0000     -0.0551     85.6832
  1720.1000      0.0000      0.0000     30.1329      0.0000     -0.0379     85.4166
  1720.2000      0.0000      0.0000     30.3923      0.0000     -0.0977     89.9003
  1720.3000      0.0000      0.0000     29.8526      0.0000     -0.0548     89.7176
  1720.4000      0.0000     38.0026     28.8192      2.0230     -0.0112     81.8751
  1720.5000      1.2405     36.9731     28.2273      2.0399     -0.0598     76.5308
  1720.6000      1.2405     35.9046     27.9924      2.0576     -0.0315     75.3201
  1720.7000      1.2405     35.1536     27.8670      2.0700      0.0095     71.7508
  1720.8000      1.2468     35.2464     28.0357      2.0684     -0.0115     65.6603
  1720.9000      1.2468     35.7271     28.2489      2.0605     -0.0252     60.6309
  1721.0000      1.2363     35.7882     28.4342      2.0595     -0.0172     59.2028
  1721.1000      1.2363     35.1652     28.6856      2.0698     -0.0092     62.7827
  1721.2000      1.2363     34.2752     28.7298      2.0845      0.0148     72.9825
  1721.3000      1.2268     33.8725     28.7560      2.0911      0.0229     86.6613
  1721.4000      1.2268     34.0187     29.1300      2.0887     -0.0099     93.7417
  1721.5000      1.2345     34.2769     29.6727      2.0844      0.0161     88.6505
  1721.6000      1.2345     34.8094     30.0817      2.0756      0.0036     84.3581
  1721.7000      1.2345     35.6950     30.5153      2.0610     -0.0034     90.9618
  1721.8000      1.2418     36.2898     31.1233      2.0512     -0.0374     95.4518
  1721.9000      1.2418     36.4296     31.3802      2.0489      0.0152     94.1892
  1722.0000      1.2353     36.8341     31.0575      2.0422     -0.0034    101.0260
  1722.1000      1.2353     37.5924     30.5618      2.0297     -0.0148    111.1366
  1722.2000      1.2353     37.9011     30.1579      2.0246     -0.0686    112.0079
  1722.3000      1.2219     37.4763     30.0305      2.0316     -0.0218    106.4594
  1722.4000      1.2219     37.0904     30.0520      2.0380     -0.0166     98.4659
  1722.5000      1.2165     37.4168     29.9334      2.0326      0.0109     92.8150
  1722.6000      1.2165     38.3205     29.8065      2.0177     -0.0509     88.1603
  1722.7000      1.2165     39.4644     29.8596      1.9988     -0.0385     77.7422
  1722.8000      1.2243     40.8015     29.8046      1.9768     -0.0664     68.5439
  1722.9000      1.2243     42.0049     29.8033      1.9569     -0.0902     68.7417
  1723.0000      1.2281     42.5764     30.1495      1.9475     -0.0697     77.5415
  1723.1000      1.2281     42.3107     30.2448      1.9519     -0.0944     91.8942
  1723.2000      1.2281     41.6220     29.7426      1.9632     -0.0450    101.6918
  1723.3000      1.2234     41.6601     29.4212      1.9626     -0.0273     98.1267
  1723.4000      1.2234     42.8289     29.6848      1.9433     -0.0711     91.8759
  1723.5000      1.2225     44.4557     30.1603      1.9165     -0.0670     96.2398
  1723.6000      1.2225     46.5604     30.9719      1.8818     -0.0530    104.1965
  1723.7000      1.2225     49.8836     31.9812      1.8269     -0.0972    102.3729
  1723.8000      1.2213     54.3062     32.3698      1.7539     -0.1020     92.5771
  1723.9000      1.2213     58.7435     31.9599      1.6807     -0.1239     86.5121
  1724.0000      1.2260     61.9142     31.3631      1.6284     -0.1417     85.7799
  1724.1000      1.2260     62.7327     30.9141      1.6149     -0.2013     84.1552
  1724.2000      1.2260     60.6701     30.6956      1.6489     -0.1342     83.7429
  1724.3000      1.2303     56.5520     30.9049      1.7169     -0.0011     89.5263
  1724.4000      1.2303     52.2524     31.5510      1.7878      0.0880     99.1841
  1724.5000      1.2257     49.1421     32.1662      1.8392      0.1337    105.9025
  1724.6000      1.2257     47.3596     32.4735      1.8686      0.1491    103.4379
  1724.7000      1.2257     46.3608     32.7651      1.8850      0.1400     93.2729
  1724.8000      1.2280     45.6056     32.8059      1.8975      0.1678     86.5082
  1724.9000      1.2280     44.7376     32.3428      1.9118      0.1525     94.9696
  1725.0000      1.2292     43.6848     32.0821      1.9292      0.1775    112.0925
  1725.1000      1.2292     42.5325     32.4889      1.9482      0.1776    118.8754
  1725.2000      1.2292     41.0151     32.9837      1.9733      0.1757    114.4617
  1725.3000      1.2269     39.0262     32.7056      2.0061      0.1894    109.7015
  1725.4000      1.2269     36.9625     31.8009      2.0401      0.2055    108.3618
  1725.5000      1.2226     34.9936     31.0961      2.0726      0.2217    109.2543
  1725.6000      1.2226     32.6221     30.7877      2.1117      0.2112    108.1878
  1725.7000      1.2226     28.9315     30.5074      2.1726      0.2141    100.9184
  1725.8000      1.2190     23.7711     29.8670      2.2578      0.2196     91.5989
  1725.9000      1.2190     18.3233     28.8100      2.3477      0.2747     87.9056
  1726.0000      1.2141     13.6351     27.6758      2.4250      0.2641     87.9054
  1726.1000      1.2141      9.6556     27.2709      2.4907      0.2716     83.2693
  1726.2000      1.2141      6.5524     28.0283      2.5419      0.2556     73.8981
  1726.3000      1.2192      5.5339     29.1079      2.5587      0.2403     67.7481
  1726.4000      1.2192      6.8885     29.7051      2.5363      0.1270     68.5599
  1726.5000      1.2619      8.9377     30.1058      2.5025      0.0537     71.5257
  1726.6000      1.2619     10.4957     31.0860      2.4768      0.0165     75.9033
  1726.7000      1.2619     11.9844     32.6900      2.4523      0.0026     86.4412
  1726.8000      1.3096     13.8257     33.7468      2.4219     -0.0100     98.4550
  1726.9000      1.3096     16.3030     33.6684      2.3810      0.0798    103.2143
  1727.0000      1.2957     20.5377     33.4165      2.3111      0.0934    102.7077
  1727.1000      1.2957     26.7055     33.7120      2.2094      0.0639    101.1694
  1727.2000      1.2957     32.2604     34.2752      2.1177     -0.0172     95.8011
  1727.3000      1.2495     34.7359     34.8963      2.0769      0.0537     89.9058
  1727.4000      1.2495     34.6371     35.5221      2.0785      0.0538     91.8550
  1727.5000      1.2158     33.7474     35.4752      2.0932      0.0688    101.4725
  1727.6000      1.2158     33.1701     34.4689      2.1027      0.0736    112.3529
  1727.7000      1.2158     33.1875     33.4257      2.1024      0.0906    118.1445
  1727.8000      1.2025     33.4797     33.1084      2.0976      0.0889    118.9279
  1727.9000      1.2025     33.8552     33.4427      2.0914      0.1010    116.9846
  1728.0000      1.1996     34.6733     34.0614      2.0779      0.0558    111.1590
  1728.1000      1.1996     36.1050     34.4208      2.0543      0.0811    103.1989
  1728.2000      1.1996     37.7399     34.0448      2.0273      0.0579    101.1616
  1728.3000      1.2038     38.9713     33.2254      2.0070      0.0729    109.3517
  1728.4000      1.2038     39.4195     32.6554      1.9996      0.0525    114.0280
  1728.5000      1.1954     38.5715     32.6330      2.0136      0.0483    102.0742
