~Version Information
VERS.                      2.0: CWLS Log ASCII Standard - VERSION 2.0
WRAP.                       NO: One line per depth step
~Well Information Block
STRT.FT               845.0000: 
STOP.FT              2308.2000: 
STEP.FT                 0.1000: 
NULL.                -999.2500: 
COMP.          Pioneer Natural Resources: COMPANY
WELL.             Vector 33-23: WELL
FLD.           Purgatoire River: FIELD
LOC.           1560' FEL & 1988' FSL----: LOCATION
PROV.                 Colorado: PROVINCE
CNTY.               Las Animas: COUNTRY
SRVC.                Patterson: SERVICE COMPANY
DATE.          Mon Mar 28 08:17:25 2005: LOG DATE
UWI.           05 071 08336 00: UNIQUE WELL ID
~Curve Information Block
DEPT.FT            0 000 00 00: Depth
DCAL.in                       : CDL Caliper
RHOB.g/cc                     : CDL Bulk Density
RHOC.g/cc                     : CDL Density Correction
DPOR.pu                       : CDL Density Porosity
NPOR.pu                       : Neutron Porosity
GR.GAPI                       : Gamma Ray
~Parameter Information Block
~A  Depth       DCAL        RHOB        RHOC        DPOR        NPOR         GR     
# ...
  1891.4000      8.0366      2.4099     -0.0335     14.5491     14.2351     82.6084
  1891.5000      8.0366      2.4021     -0.0059     15.0253     13.9043     81.5531
  1891.6000      8.0366      2.3961      0.0464     15.3887     13.4503     81.1995
  1891.7000      8.0366      2.3854     -0.0166     16.0353     13.3795     82.7112
  1891.8000      8.0366      2.3779     -0.0238     16.4906     13.6301     84.0158
  1891.9000      8.0366      2.3778     -0.0008     16.4999     13.8422     82.5056
  1892.0000      8.0360      2.3799     -0.0374     16.3694     13.7241     77.4328
  1892.1000      8.0360      2.3814      0.0154     16.2762     13.3687     69.3788
  1892.2000      8.0360      2.3926     -0.0454     15.5973     13.4460     60.8144
  1892.3000      8.0362      2.4231      0.0317     13.7494     13.9748     57.0149
  1892.4000      8.0362      2.4469      0.0970     12.3076     14.2337     59.6078
  1892.5000      8.0365      2.4425      0.0206     12.5746     14.0761     63.6406
  1892.6000      8.0365      2.4342      0.0318     13.0808     13.9956     66.1293
  1892.7000      8.0365      2.4459      0.0370     12.3720     14.2319     68.0911
  1892.8000      8.0377      2.4710      0.0669     10.8458     14.3732     68.8946
  1892.9000      8.0377      2.4850      0.0861     10.0010     14.2233     68.7990
  1893.0000      8.0395      2.4687      0.0709     10.9885     14.2597     70.3431
  1893.1000      8.0395      2.4334      0.0319     13.1245     14.6930     74.0758
  1893.2000      8.0395      2.4053      0.0138     14.8330     15.3219     77.0337
  1893.3000      8.0398      2.3937      0.0030     15.5310     15.9056     77.2411
  1893.4000      8.0398      2.3942      0.0364     15.5034     16.1336     76.2774
  1893.5000      8.0383      2.3986      0.0258     15.2355     15.9993     77.3281
  1893.6000      8.0383      2.4011      0.0044     15.0859     15.8689     80.6348
  1893.7000      8.0383      2.4033      0.0004     14.9499     15.8993     85.4276
  1893.8000      8.0381      2.4130      0.0228     14.3653     15.9682     92.4874
  1893.9000      8.0381      2.4362      0.0051     12.9591     16.0160     96.9925
  1894.0000      8.0387      2.4717      0.0595     10.8045     16.1293     91.3955
  1894.1000      8.0387      2.5047      0.0664      8.8088     16.2529     80.3054
  1894.2000      8.0387      2.5151      0.0951      8.1731     16.3222     74.3527
  1894.3000      8.0384      2.4946      0.0660      9.4194     16.4076     74.3032
  1894.4000      8.0384      2.4605      0.0258     11.4875     16.3636     74.6096
  1894.5000      8.0356      2.4379      0.0216     12.8549     16.2190     74.3097
  1894.6000      8.0356      2.4298      0.0332     13.3483     16.2925     76.0026
  1894.7000      8.0356      2.4344     -0.0051     13.0674     16.3762     79.9151
  1894.8000      8.0308      2.4543      0.0519     11.8591     16.1339     81.7892
  1894.9000      8.0308      2.4759      0.0594     10.5539     15.8199     79.8264
  1895.0000      8.0276      2.4834      0.0406     10.0944     15.8871     78.3176
  1895.1000      8.0276      2.4752      0.0337     10.5928     16.5616     78.5787
  1895.2000      8.0276      2.4548      0.0445     11.8285     17.5193     79.3067
  1895.3000      8.0279      2.4382     -0.0384     12.8361     17.8882     81.2010
  1895.4000      8.0279      2.4405      0.0284     12.6992     17.2668     84.3690
  1895.5000      8.0283      2.4489      0.0522     12.1859     16.2666     85.1269
  1895.6000      8.0283      2.4486      0.0136     12.2076     15.5059     83.9124
  1895.7000      8.0283      2.4410      0.0427     12.6667     15.2353     85.3721
  1895.8000      8.0272      2.4272      0.0270     13.5007     15.2192     85.8878
  1895.9000      8.0272      2.4062      0.0238     14.7744     14.8180     79.9392
  1896.0000      8.0263      2.3823     -0.0010     16.2251     13.9739     69.0075
  1896.1000      8.0263      2.3624      0.0053     17.4284     13.2332     59.3719
  1896.2000      8.0263      2.3468     -0.0197     18.3787     12.9033     56.8415
  1896.3000      8.0268      2.3351     -0.0464     19.0861     12.8924     61.2400
  1896.4000      8.0268      2.3291     -0.0033     19.4506     13.1868     65.5208
  1896.5000      8.0265      2.3263     -0.0203     19.6154     13.6556     64.3872
  1896.6000      8.0265      2.3264     -0.0087     19.6134     13.8930     60.6486
  1896.7000      8.0265      2.3337     -0.0109     19.1703     14.0124     57.6404
  1896.8000      8.0254      2.3538     -0.0072     17.9545     14.3263     56.6986
  1896.9000      8.0254      2.3806      0.0467     16.3278     14.5167     60.8717
  1897.0000      8.0267      2.3987      0.0143     15.2300     14.3927     69.0417
  1897.1000      8.0267      2.4029      0.0327     14.9779     14.3381     73.6271
  1897.2000      8.0267      2.4016      0.0321     15.0522     14.8536     71.7212
  1897.3000      8.0292      2.4064      0.0213     14.7662     16.0774     70.5471
  1897.4000      8.0292      2.4165      0.0241     14.1527     17.4324     76.1829
  1897.5000      8.0305      2.4182      0.0291     14.0474     17.8457     84.6825
  1897.6000      8.0305      2.4081      0.0060     14.6620     17.1207     87.5485
  1897.7000      8.0305      2.3995     -0.0115     15.1827     16.3941     82.6011
  1897.8000      8.0292      2.3954      0.0177     15.4315     16.3986     75.6630
  1897.9000      8.0292      2.3840      0.0227     16.1218     16.6335     69.8189
  1898.0000      8.0281      2.3664      0.0165     17.1858     16.4396     65.3442
  1898.1000      8.0281      2.3616     -0.0094     17.4788     15.8187     65.4810
  1898.2000      8.0281      2.3732      0.0539     16.7746     15.3756     69.3817
  1898.3000      8.0282      2.3813      0.0542     16.2851     15.4201     72.7261
  1898.4000      8.0282      2.3736      0.0317     16.7518     15.3946     73.7155
  1898.5000      8.0275      2.3594      0.0450     17.6138     15.0950     72.2535
  1898.6000      8.0275      2.3487     -0.0013     18.2611     15.1443     68.9009
  1898.7000      8.0275      2.3394      0.0381     18.8233     15.6037     64.6937
  1898.8000      8.0279      2.3307     -0.0185     19.3525     15.7603     59.0166
  1898.9000      8.0279      2.3291      0.0307     19.4482     15.5003     53.1074
  1899.0000      8.0278      2.3318      0.0211     19.2865     15.4059     50.8780
  1899.1000      8.0278      2.3294      0.0249     19.4323     15.7216     49.6834
  1899.2000      8.0278      2.3250      0.0028     19.6957     16.1152     46.2254
  1899.3000      8.0257      2.3320     -0.0028     19.2721     16.1644     44.9445
  1899.4000      8.0257      2.3490      0.0576     18.2425     15.7769     47.3482
  1899.5000      8.0246      2.3585      0.0455     17.6669     15.0536     49.7481
  1899.6000      8.0246      2.3558     -0.0092     17.8313     14.3887     51.6528
  1899.7000      8.0246      2.3513      0.0355     18.1050     14.3397     54.7687
  1899.8000      8.0251      2.3494      0.0438     18.2202     14.7491     58.8398
  1899.9000      8.0251      2.3503      0.0363     18.1636     14.9266     61.1277
  1900.0000      8.0258      2.3533      0.0188     17.9840     14.8432     60.2212
  1900.1000      8.0258      2.3550      0.0433     17.8784     14.9675     58.6425
  1900.2000      8.0258      2.3564      0.0242     17.7928     15.1295     59.0998
  1900.3000      8.0257      2.3642      0.0032     17.3242     14.9311     59.1372
  1900.4000      8.0257      2.3748      0.0673     16.6800     14.7075     55.1152
  1900.5000      8.0262      2.3757      0.0495     16.6270     14.8057     50.2694
  1900.6000      8.0262      2.3651      0.0171     17.2661     15.2716     49.8458
  1900.7000      8.0262      2.3475      0.0453     18.3349     15.8711     51.3925
  1900.8000      8.0263      2.3330     -0.0249     19.2143     16.1245     50.3641
  1900.9000      8.0263      2.3405     -0.0402     18.7604     16.1031     48.7080
