~Version Information
VERS.                      2.0: CWLS Log ASCII Standard - VERSION 2.0
WRAP.                       NO: One line per depth step
~Well Information Block
STRT.FT               238.0000: 
STOP.FT              1377.0000: 
STEP.FT                 0.1000: 
NULL.                -999.2500: 
COMP.          Pioneer Natural Resources: COMPANY
WELL.             Raptor 44-26: WELL
FLD.           Purgatoire River: FIELD
LOC.           180' FSL & 812' FEL: LOCATION
PROV.                 Colorado: PROVINCE
CNTY.               Las Animas: COUNTRY
SRVC.                Patterson: SERVICE COMPANY
DATE.          Tue Mar 22 15:28:33 2005: LOG DATE
UWI.           05 071 08187 00: UNIQUE WELL ID
~Curve Information Block
DEPT.FT            0 000 00 00: Depth
DCAL.in                       : CDL Caliper
RHOB.g/cc                     : CDL Bulk Density
RHOC.g/cc                     : CDL Density Correction
DPOR.pu                       : CDL Density Porosity
GR.GAPI                       : Gamma Ray
NPOR.pu                       : Neutron Porosity
~Parameter Information Block
~A  Depth       DCAL        RHOB        RHOC        DPOR         GR         NPOR    
# ...
  1140.4000      7.7502      2.4887      0.0928      9.7737     46.8464     13.1586
  1140.5000      7.7495      2.4900      0.0154      9.6981     46.6931     12.4962
  1140.6000      7.7495      2.4953      0.0841      9.3756     46.9970     12.0999
  1140.7000      7.7495      2.4994      0.0849      9.1303     49.2803     12.3167
  1140.8000      7.7629      2.4946      0.0436      9.4153     51.5998     13.0177
  1140.9000      7.7629      2.4948      0.0532      9.4077     51.5203     13.6732
  1141.0000      7.7641      2.5087      0.0497      8.5624     50.2467     13.8526
  1141.1000      7.7641      2.5275      0.0926      7.4227     50.3692     13.8011
  1141.2000      7.7641      2.5361      0.1115      6.9035     52.4714     14.1641
  1141.3000      7.7576      2.5278      0.0664      7.4043     56.8067     14.9633
  1141.4000      7.7576      2.5186      0.0636      7.9648     61.6228     15.6137
  1141.5000      7.7372      2.5292      0.0510      7.3222     63.6904     15.8216
  1141.6000      7.7372      2.5527      0.0823      5.8979     63.8016     15.6370
  1141.7000      7.7372      2.5648      0.0609      5.1629     63.5656     15.0639
  1141.8000      7.7392      2.5641      0.0828      5.2070     62.2214     14.3426
  1141.9000      7.7392      2.5609      0.0922      5.3984     60.6677     13.7847
  1142.0000      7.7541      2.5522      0.0789      5.9267     61.9494     13.3782
  1142.1000      7.7541      2.5365      0.0867      6.8762     65.1579     13.2473
  1142.2000      7.7541      2.5260      0.0536      7.5174     63.9241     13.7604
  1142.3000      7.7659      2.5284      0.0213      7.3724     56.9932     14.6157
  1142.4000      7.7659      2.5346      0.0556      6.9911     51.0806     15.0714
  1142.5000      7.7868      2.5335      0.0513      7.0593     49.6412     15.1455
  1142.6000      7.7868      2.5227      0.0211      7.7159     49.0881     15.0543
  1142.7000      7.7868      2.4995      0.0752      9.1196     47.7415     14.9961
  1142.8000      7.8126      2.4702      0.0036     10.8999     48.0758     15.1675
  1142.9000      7.8126      2.4567      0.0155     11.7174     50.2566     14.9309
  1143.0000      7.8283      2.4650      0.0272     11.2116     52.6710     14.1661
  1143.1000      7.8283      2.4779      0.0212     10.4310     54.5626     13.5759
  1143.2000      7.8283      2.4792      0.1012     10.3512     56.0560     13.2976
  1143.3000      7.8215      2.4738     -0.0033     10.6797     57.4724     13.2903
  1143.4000      7.8215      2.4790      0.0410     10.3607     57.8651     13.8009
  1143.5000      7.8224      2.4930      0.0415      9.5174     58.2573     14.2979
  1143.6000      7.8224      2.5002      0.0403      9.0799     60.9186     14.1385
  1143.7000      7.8224      2.4941      0.0249      9.4483     62.0358     13.6721
  1143.8000      7.8396      2.4889      0.0141      9.7637     58.6411     13.4215
  1143.9000      7.8396      2.5009      0.0522      9.0355     54.2465     13.8966
  1144.0000      7.8581      2.5214      0.0694      7.7921     52.9039     15.0807
  1144.1000      7.8581      2.5360      0.0682      6.9094     55.4948     15.5843
  1144.2000      7.8581      2.5375      0.0866      6.8163     59.0665     14.4850
  1144.3000      7.8564      2.5234      0.0493      7.6714     60.0956     12.9116
  1144.4000      7.8564      2.5037      0.0473      8.8642     58.1955     12.3806
  1144.5000      7.8450      2.4947      0.0144      9.4100     55.4136     12.9681
  1144.6000      7.8450      2.5017      0.0387      8.9889     54.3843     13.7293
  1144.7000      7.8450      2.5196     -0.0023      7.9055     57.0411     14.2526
  1144.8000      7.8509      2.5414      0.0548      6.5831     62.8714     14.7120
  1144.9000      7.8509      2.5545      0.1016      5.7849     67.8960     14.6356
  1145.0000      7.8557      2.5540      0.0539      5.8181     69.9564     13.5974
  1145.1000      7.8557      2.5552     -0.0025      5.7476     69.8331     12.4315
  1145.2000      7.8557      2.5631      0.0983      5.2654     67.7061     12.2509
  1145.3000      7.8673      2.5601      0.1197      5.4467     65.5876     13.0272
  1145.4000      7.8673      2.5493      0.0031      6.1041     65.5228     13.5833
  1145.5000      7.8739      2.5533      0.0294      5.8582     65.0139     13.3094
  1145.6000      7.8739      2.5629      0.0888      5.2765     63.5671     13.1683
  1145.7000      7.8739      2.5552      0.0440      5.7443     66.3698     13.7340
  1145.8000      7.8791      2.5316      0.0805      7.1764     73.5132     14.4506
  1145.9000      7.8791      2.5040      0.0255      8.8507     76.8275     14.9280
  1146.0000      7.8687      2.4872      0.0089      9.8648     72.8060     14.9709
  1146.1000      7.8687      2.4927      0.0052      9.5314     68.7736     14.6996
  1146.2000      7.8687      2.5098      0.0439      8.4959     67.6337     14.6471
  1146.3000      7.8732      2.5119      0.0374      8.3686     64.2698     14.9498
  1146.4000      7.8732      2.4947     -0.0182      9.4097     59.9685     15.3196
  1146.5000      7.8754      2.4790      0.0232     10.3645     58.9775     15.4751
  1146.6000      7.8754      2.4814     -0.0153     10.2165     61.0986     15.6764
  1146.7000      7.8754      2.5075      0.0061      8.6383     62.5493     16.4799
  1146.8000      7.8690      2.5407      0.0899      6.6240     60.6365     17.7259
  1146.9000      7.8690      2.5583      0.0157      5.5551     58.1673     18.1274
  1147.0000      7.8694      2.5629      0.0668      5.2771     57.7917     16.9103
  1147.1000      7.8694      2.5632      0.1048      5.2577     58.4399     15.4903
  1147.2000      7.8694      2.5546      0.0685      5.7826     57.5654     15.2032
  1147.3000      7.8804      2.5327      0.0806      7.1103     54.7989     15.2173
  1147.4000      7.8804      2.5052      0.0114      8.7770     53.1565     14.8458
  1147.5000      7.8636      2.4836      0.0367     10.0864     52.2412     14.8283
  1147.6000      7.8636      2.4714      0.0178     10.8265     49.0746     15.5748
  1147.7000      7.8636      2.4690      0.0240     10.9676     46.8190     16.3794
  1147.8000      7.8579      2.4761      0.0218     10.5364     48.2540     16.5362
  1147.9000      7.8579      2.4859      0.0619      9.9459     49.9806     16.1890
  1148.0000      7.8742      2.4923      0.0609      9.5597     48.7494     15.4271
  1148.1000      7.8742      2.5043      0.0022      8.8282     46.9535     14.2181
  1148.2000      7.8742      2.5235      0.0663      7.6686     47.7520     13.1227
  1148.3000      7.8680      2.5197      0.0797      7.8987     48.9143     12.5714
  1148.4000      7.8680      2.4803      0.0356     10.2855     49.1875     12.5164
  1148.5000      7.8645      2.4416     -0.0374     12.6307     50.2304     12.7414
  1148.6000      7.8645      2.4344      0.0010     13.0642     51.8555     12.9016
  1148.7000      7.8645      2.4473      0.0123     12.2862     53.9014     12.7193
  1148.8000      7.8502      2.4635      0.0226     11.3031     56.8537     12.9464
  1148.9000      7.8502      2.4897      0.0466      9.7181     58.9025     14.4901
  1149.0000      7.8428      2.5291      0.1116      7.3298     58.1324     16.3854
  1149.1000      7.8428      2.5619      0.1174      5.3418     55.9158     16.8662
  1149.2000      7.8428      2.5698      0.1000      4.8625     53.7485     16.2328
  1149.3000      7.8412      2.5536      0.0675      5.8446     51.3848     16.0688
  1149.4000      7.8412      2.5200      0.0823      7.8814     49.5519     16.5536
  1149.5000      7.8522      2.4829      0.0258     10.1277     49.8662     16.4156
  1149.6000      7.8522      2.4649     -0.0362     11.2175     54.7991     15.7891
  1149.7000      7.8522      2.4729      0.0259     10.7363     62.8816     15.8505
  1149.8000      7.8549      2.4866      0.0559      9.9011     67.9815     16.4462
  1149.9000      7.8549      2.4853      0.0563      9.9819     67.4380     16.9278
