~Version Information
 VERS.                                  2.0 : CWLS LAS VERSION
 WRAP.                                   NO : WRAPING MODE
 SWARE .                 MController 2.5.0E : SOFTWARE VERSION
~Well Information
 WELL.                          Lynch 43-30 : WELL
 COMP.        Pioneer Natural Resources Inc : COMPANY
 FLD.                      Purgatoire River : FIELD
 LOC.                NE/SE Sec 30 T32S R67W : LOCATION
 DATE.                             10/25/04 : DATE(S) LOGGED
 SRVC.       Blanco Geological services LLc : SERVICE COMPANY
 STAT.                                   CO : STATE
 CNTY.                           Las Animas : COUNTY
 CTRY.                                  USA : COUNTRY
 API.                       05-071-08170-00 : API NUMBER
 STRT.FT                             410.00 : START DEPTH
 STOP.FT                            2845.00 : STOP DEPTH
 STEP.FT                               1.00 : DEPTH INCREMENT
 NULL.                                -9999 : NULL VALUE
~Curve information
 DEPTH.FT                                   :
 ROP.MIN/FT                                 :
 GAS.UNITS                                  :
~ASCII Log data
# ...
      610.00        0.233          3.2 
      611.00        0.200          3.2 
      612.00        0.167          2.7 
      613.00        0.200          3.0 
      614.00        0.200          3.4 
      615.00        0.200          3.2 
      616.00        0.167          3.1 
      617.00        0.200          2.7 
      618.00        0.167          3.1 
      619.00        0.200          2.9 
      620.00        0.167          2.9 
      621.00        0.167          3.3 
      622.00        0.167          3.3 
      623.00        0.200          3.3 
      624.00        0.200          3.6 
      625.00        0.167          3.5 
      626.00        1.783          3.6 
      627.00        0.367          3.2 
      628.00        0.300          3.7 
      629.00        0.333          3.3 
      630.00        0.333          4.0 
      631.00        0.333          3.8 
      632.00        0.350          3.6 
      633.00        0.367          3.9 
      634.00        0.467          3.9 
      635.00        0.400          4.0 
      636.00        0.400          3.8 
      637.00        0.333          3.2 
      638.00        0.567          3.6 
      639.00        0.333          3.3 
      640.00        0.450          3.8 
      641.00        0.367          3.6 
      642.00        0.333          3.2 
      643.00        0.333          3.6 
      644.00        0.333          3.8 
      645.00        0.367          3.7 
      646.00        0.333          3.2 
      647.00        0.333          3.9 
      648.00        0.433          4.0 
      649.00        0.317          3.3 
      650.00        0.300          3.4 
      651.00        0.300          3.9 
      652.00        0.300          3.8 
      653.00        0.200          3.9 
      654.00        0.167          3.1 
      655.00        0.200          3.8 
      656.00        2.050          4.4 
      657.00        0.133          3.4 
      658.00        0.267          4.2 
      659.00        0.200          3.6 
      660.00        0.167          4.0 
      661.00        0.200          3.6 
      662.00        0.167          3.9 
      663.00        0.167          3.8 
      664.00        0.167          3.4 
      665.00        0.167          2.9 
      666.00        0.167          3.1 
      667.00        0.167          3.6 
      668.00        0.200          3.5 
      669.00        0.167          3.1 
      670.00        0.167          3.4 
      671.00        0.167          3.4 
      672.00        0.167          3.2 
      673.00        0.200          3.5 
      674.00        0.217          3.2 
      675.00        0.200          3.4 
      676.00        0.133          3.2 
      677.00        0.200          3.3 
      678.00        0.167          3.6 
      679.00        0.167          3.6 
      680.00        0.167          3.5 
      681.00        0.167          2.9 
      682.00        0.200          3.2 
      683.00        0.167          3.4 
      684.00        0.167          3.0 
      685.00        0.200          3.4 
      686.00        2.250          4.3 
      687.00        0.200          4.0 
      688.00        0.200          4.1 
      689.00        0.200          3.8 
      690.00        0.300          9.1 
      691.00        0.200         28.6 
      692.00        0.167         37.8 
      693.00        0.167         42.3 
      694.00        0.167         42.9 
      695.00        0.167         40.3 
      696.00        0.167         37.0 
      697.00        0.167         32.3 
      698.00        0.183         27.8 
      699.00        0.200         23.1 
      700.00        0.133         18.9 
      701.00        0.200         16.9 
      702.00        0.167         13.8 
      703.00        0.167         11.7 
      704.00        0.233          8.9 
      705.00        0.200          6.5 
      706.00        0.167          5.2 
      707.00        0.200          5.3 
      708.00        0.167          4.2 
      709.00        0.200          3.6 
      710.00        0.167          3.1 
      711.00        0.200          2.6 
      712.00        0.167          2.4 
      713.00        0.200          2.7 
      714.00        0.200          2.5 
      715.00        0.200          1.9 
      716.00        2.950          3.1 
      717.00        0.233          2.8 
      718.00        0.200          2.8 
      719.00        0.217          3.0 
      720.00        0.167          3.2 
      721.00        0.233          2.7 
      722.00        0.200          2.7 
      723.00        0.233          3.6 
      724.00        0.200          3.5 
      725.00        0.200          2.8 
      726.00        0.267          3.5 
      727.00        0.233          3.6 
      728.00        0.167          3.6 
      729.00        0.233          3.2 
      730.00        0.233          3.4 
      731.00        0.233          3.6 
      732.00        0.233          3.5 
      733.00        0.267          3.7 
      734.00        0.250          3.2 
      735.00        0.233          3.0 
      736.00        0.167          3.6 
      737.00        0.200          3.2 
      738.00        0.167          3.4 
      739.00        0.233          3.4 
      740.00        0.167          3.9 
      741.00        0.133          3.8 
      742.00        0.133          3.1 
      743.00        0.133          3.3 
      744.00        0.167          3.6 
      745.00        0.167          4.0 
      746.00        2.017          5.0 
      747.00        0.233          5.2 
      748.00        0.200          5.0 
      749.00        0.233          4.8 
      750.00        0.167          4.8 
      751.00        0.200          4.6 
      752.00        0.400          4.8 
      753.00        0.233          4.6 
      754.00        0.233          4.2 
      755.00        0.267          4.8 
      756.00        0.217          4.4 
      757.00        0.200          3.8 
      758.00        0.167          4.3 
      759.00        0.200          3.8 
      760.00        0.200          4.3 
      761.00        0.233          4.0 
      762.00        0.300          4.0 
      763.00        0.300          4.7 
      764.00        0.200          4.7 
      765.00        0.200          4.3 
      766.00        0.200          4.5 
      767.00        0.167          4.4 
      768.00        0.200          4.7 
      769.00        0.167          4.7 
      770.00        0.200          4.7 
      771.00        0.167          4.5 
      772.00        0.217          4.5 
      773.00        0.200          3.8 
      774.00        0.200          1.5 
      775.00        0.200          1.7 
      776.00        4.383          2.2 
      777.00        0.300          1.8 
      778.00        0.200          2.1 
      779.00        0.200          1.8 
      780.00        0.133          2.0 
      781.00        0.167          1.5 
      782.00        0.167          2.0 
      783.00        0.133          1.5 
      784.00        0.167          2.2 
      785.00        0.250          2.0 
      786.00        0.200          2.2 
      787.00        0.167          2.1 
      788.00        0.167          2.2 
      789.00        0.167          2.1 
      790.00        0.167          2.3 
      791.00        0.200          1.8 
      792.00        0.200          2.2 
      793.00        0.200          2.1 
      794.00        0.200          2.0 
      795.00        0.167          2.1 
      796.00        0.200          1.6 
      797.00        0.200          1.5 
      798.00        0.167          2.4 
      799.00        0.200          2.2 
      800.00        0.200          1.7 
      801.00        0.200          1.7 
      802.00        0.217          2.3 
      803.00        0.233          2.3 
      804.00        0.233          1.9 
      805.00        0.200          1.6 
      806.00        3.950          2.5 
      807.00        0.167          2.4 
      808.00        0.200          2.5 
      809.00        0.200          2.3 
