~Version Information
 VERS.                      2.0: CWLS Log ASCII Standard - VERSION 2.0
 WRAP.                       NO: One line per depth step
 ~Well Information Block
 STRT.FT               887.5000: 
 STOP.FT              2605.5000: 
 STEP.FT                 0.2500: 
 NULL.                -999.2500: 
 COMP.          Petrogulf Corporation: COMPANY
 WELL.               YWAM 7-23V: WELL
 FLD.           Purgatorie River: FIELD
 LOC.           230' FSL & 225' FWL: LOCATION
 CNTY.               Las Animas: COUNTY
 SRVC.                         : SERVICE COMPANY
 DATE.          Sat Oct 30 08:34:45 2004: LOG DATE
 UWI.           05 071 08227 00: UNIQUE WELL ID
 STAT.                 Colorado: STATE
 PROV.                         :Province
 ~Curve Information Block
 DEPT.FT            0 000 00 00: Depth
 SP.mV                         : DIL Spontaneous Potential
 RILD.Ohm-m                    : DIL Deep Resistivity
 RILM.Ohm-m                    : DIL Medium Resistivity
 RLL3.Ohm-m                    : DIL Shallow Resistivity
 GR.GAPI                       : Gamma Ray
 ~Parameter Information Block
 ~A  Depth        SP         RILD        RILM        RLL3         GR     
# ...
  2455.5000     -0.2708     17.5741     20.0216     20.2328     55.7762
  2455.7500     -0.3057     17.6026     20.1420     20.5578     55.1254
  2456.0000     -0.2945     17.6307     20.2607     20.8611     54.0449
  2456.2500     -0.2344     17.6586     20.3718     21.0848     53.2605
  2456.5000     -0.1270     17.6878     20.4713     21.1796     52.2887
  2456.7500      0.0208     17.7202     20.5581     21.1205     52.0201
  2457.0000      0.1972     17.7584     20.6344     20.9174     52.4273
  2457.2500      0.3875     17.8044     20.7048     20.6163     53.2055
  2457.5000      0.5752     17.8598     20.7756     20.2906     54.8621
  2457.7500      0.7447     17.9254     20.8535     20.0228     56.1222
  2458.0000      0.8822     18.0005     20.9444     19.8845     58.0577
  2458.2500      0.9768     18.0837     21.0526     19.9183     59.2207
  2458.5000      1.0213     18.1725     21.1800     20.1302     60.2101
  2458.7500      1.0118     18.2635     21.3263     20.4924     60.0830
  2459.0000      0.9487     18.3524     21.4889     20.9545     59.0098
  2459.2500      0.8362     18.4341     21.6635     21.4571     58.2756
  2459.5000      0.6831     18.5025     21.8436     21.9453     57.7849
  2459.7500      0.5018     18.5511     22.0210     22.3772     57.6890
  2460.0000      0.3079     18.5724     22.1849     22.7295     57.1315
  2460.2500      0.1189     18.5596     22.3217     22.9972     56.2647
  2460.5000     -0.0482     18.5067     22.4150     23.1906     54.5926
  2460.7500     -0.1775     18.4101     22.4461     23.3279     53.7271
  2461.0000     -0.2563     18.2692     22.3958     23.4252     53.5476
  2461.2500     -0.2752     18.0874     22.2473     23.4860     54.2354
  2461.5000     -0.2289     17.8712     21.9902     23.4931     55.6811
  2461.7500     -0.1164     17.6297     21.6240     23.4074     56.1956
  2462.0000      0.0591     17.3733     21.1604     23.1748     55.6624
  2462.2500      0.2898     17.1114     20.6226     22.7441     54.7167
  2462.5000      0.5636     16.8512     20.0415     22.0908     53.3848
  2462.7500      0.8653     16.5964     19.4511     21.2407     52.9503
  2463.0000      1.1783     16.3469     18.8824     20.2823     53.3941
  2463.2500      1.4868     16.0990     18.3589     19.3577     54.7365
  2463.5000      1.7783     15.8465     17.8938     18.6283     58.7773
  2463.7500      2.0462     15.5822     17.4895     18.2236     62.6588
  2464.0000      2.2900     15.2995     17.1375     18.1932     68.8282
  2464.2500      2.5157     14.9944     16.8207     18.4821     71.8470
  2464.5000      2.7333     14.6662     16.5164     18.9461     72.8362
  2464.7500      2.9545     14.3183     16.1996     19.4030     70.9999
  2465.0000      3.1893     13.9577     15.8483     19.6960     66.1404
  2465.2500      3.4439     13.5936     15.4470     19.7402     62.8312
  2465.5000      3.7192     13.2363     14.9908     19.5308     59.3635
  2465.7500      4.0112     12.8953     14.4858     19.1133     58.4483
  2466.0000      4.3113     12.5784     13.9486     18.5397     59.1994
  2466.2500      4.6080     12.2909     13.4023     17.8382     60.7643
  2466.5000      4.8885     12.0352     12.8728     17.0147     63.8238
  2466.7500      5.1404     11.8108     12.3843     16.0838     66.1854
  2467.0000      5.3529     11.6151     11.9571     15.1063     70.9641
  2467.2500      5.5182     11.4435     11.6055     14.2049     75.3863
  2467.5000      5.6326     11.2908     11.3372     13.5435     83.0193
  2467.7500      5.6970     11.1516     11.1540     13.2754     87.3863
  2468.0000      5.7174     11.0213     11.0518     13.4812     90.5832
  2468.2500      5.7039     10.8968     11.0214     14.1260     90.0169
  2468.5000      5.6693     10.7767     11.0494     15.0583     85.9224
  2468.7500      5.6277     10.6608     11.1185     16.0526     82.0219
  2469.0000      5.5918     10.5505     11.2090     16.8817     76.3182
  2469.2500      5.5721     10.4477     11.3004     17.3889     73.5549
  2469.5000      5.5753     10.3545     11.3728     17.5287     71.7350
  2469.7500      5.6039     10.2729     11.4096     17.3603     71.8696
  2470.0000      5.6569     10.2049     11.3984     17.0007     72.9786
  2470.2500      5.7300     10.1519     11.3336     16.5623     73.6452
  2470.5000      5.8163     10.1154     11.2167     16.1066     73.8522
  2470.7500      5.9070     10.0971     11.0569     15.6333     73.3722
  2471.0000      5.9920     10.0983     10.8701     15.1062     72.0891
  2471.2500      6.0610     10.1201     10.6768     14.4982     71.3443
  2471.5000      6.1045     10.1634     10.4999     13.8312     71.2582
  2471.7500      6.1154     10.2280     10.3616     13.1913     72.0775
  2472.0000      6.0897     10.3135     10.2815     12.7139     74.3836
  2472.2500      6.0281     10.4187     10.2756     12.5455     76.3922
  2472.5000      5.9361     10.5422     10.3556     12.8007     79.5090
  2472.7500      5.8233     10.6832     10.5294     13.5289     81.0957
  2473.0000      5.7024     10.8413     10.8008     14.7030     81.6973
  2473.2500      5.5879     11.0171     11.1698     16.2307     80.6322
  2473.5000      5.4934     11.2121     11.6329     17.9789     77.3064
  2473.7500      5.4305     11.4276     12.1820     19.8010     74.5836
  2474.0000      5.4070     11.6643     12.8041     21.5565     70.6362
  2474.2500      5.4254     11.9208     13.4804     23.1224     68.2028
  2474.5000      5.4831     12.1923     14.1852     24.3980     64.6393
  2474.7500      5.5722     12.4703     14.8851     25.3057     62.3136
  2475.0000      5.6807     12.7416     15.5400     25.7906     59.2668
  2475.2500      5.7940     12.9891     16.1054     25.8225     57.8123
  2475.5000      5.8973     13.1930     16.5383     25.3987     56.7516
  2475.7500      5.9775     13.3333     16.8040     24.5502     56.7327
  2476.0000      6.0254     13.3926     16.8835     23.3476     57.3977
  2476.2500      6.0367     13.3590     16.7769     21.9035     58.1287
  2476.5000      6.0128     13.2281     16.5021     20.3676     59.6342
  2476.7500      5.9600     13.0043     16.0889     18.9080     60.9801
  2477.0000      5.8887     12.6997     15.5715     17.6830     63.4444
  2477.2500      5.8112     12.3323     14.9821     16.8047     65.2318
  2477.5000      5.7402     11.9235     14.3476     16.3080     67.9942
  2477.7500      5.6866     11.4954     13.6893     16.1348     69.8951
  2478.0000      5.6579     11.0679     13.0243     16.1449     72.6477
  2478.2500      5.6574     10.6581     12.3675     16.1533     74.2180
  2478.5000      5.6840     10.2787     11.7328     15.9852     76.2692
  2478.7500      5.7325      9.9382     11.1337     15.5279     77.8892
  2479.0000      5.7953      9.6416     10.5828     14.7604     81.5282
  2479.2500      5.8634      9.3903     10.0904     13.7511     84.7708
  2479.5000      5.9284      9.1835      9.6647     12.6276     90.0244
  2479.7500      5.9838      9.0187      9.3105     11.5353     93.3482
  2480.0000      6.0261      8.8926      9.0296     10.6028     98.2037
  2480.2500      6.0549      8.8017      8.8216      9.9207    101.6375
  2480.5000      6.0728      8.7428      8.6838      9.5350    106.5194
  2480.7500      6.0844      8.7143      8.6122      9.4487    108.4920
  2481.0000      6.0956      8.7156      8.6023      9.6266    107.7899
  2481.2500      6.1120      8.7477      8.6492     10.0021    104.8404
  2481.5000      6.1382      8.8132      8.7486     10.4878     98.2039
  2481.7500      6.1765      8.9156      8.8978     10.9941     93.3452
  2482.0000      6.2269      9.0588      9.0958     11.4545     86.6553
  2482.2500      6.2866      9.2468      9.3442     11.8498     83.2147
  2482.5000      6.3505      9.4827      9.6472     12.2230     80.6671
  2482.7500      6.4111      9.7688     10.0112     12.6737     80.9048
  2483.0000      6.4601     10.1056     10.4445     13.3319     82.9444
  2483.2500      6.4880     10.4917     10.9562     14.3169     84.1295
