~Version Information
VERS.                      2.0: CWLS Log ASCII Standard - VERSION 2.0
WRAP.                       NO: One line per depth step
~Well Information Block
STRT.FT               292.0000: 
STOP.FT               801.0000: 
STEP.FT                 0.1000: 
NULL.                -999.2500: 
COMP.          Pioneer Natural Resources: COMPANY
WELL.          HG Duran 34-27 Tr: WELL
FLD.           Purgatoire River: FIELD
LOC.           1076' FSL & 1465' FEL: LOCATION
PROV.                 Colorado: PROVINCE
CNTY.               Las Animas: COUNTRY
SRVC.                Patterson: SERVICE COMPANY
DATE.          Wed Apr 13 08:36:06 2005: LOG DATE
UWI.           05 071 08218 00: UNIQUE WELL ID
~Curve Information Block
DEPT.FT            0 000 00 00: Depth
DCAL.in                       : CDL Caliper
RHOB.g/cc                     : CDL Bulk Density
RHOC.g/cc                     : CDL Density Correction
DPOR.pu                       : CDL Density Porosity
GR.GAPI                       : Gamma Ray
NPOR.pu                       : Neutron Porosity
~Parameter Information Block
~A  Depth       DCAL        RHOB        RHOC        DPOR         GR         NPOR    
# ...
   320.8000      7.7795      2.5529      0.0942      5.8856    109.2503     24.2288
   320.9000      7.7795      2.5364      0.0983      6.8830    108.0214     24.2492
   321.0000      7.8438      2.5202      0.0828      7.8664    106.8095     23.7692
   321.1000      7.8438      2.4977      0.0477      9.2300    105.3767     23.2173
   321.2000      7.8438      2.4784      0.0216     10.4006    102.9916     23.2330
   321.3000      7.8534      2.4710      0.0638     10.8457    101.7019     23.7859
   321.4000      7.8534      2.4788      0.0800     10.3759    103.0572     24.3261
   321.5000      7.8353      2.4944      0.0306      9.4310    105.6935     24.4448
   321.6000      7.8353      2.4995      0.0485      9.1204    107.5859     24.3186
   321.7000      7.8353      2.4891      0.0181      9.7511    108.5421     24.1833
   321.8000      7.8493      2.4840      0.0537     10.0620    111.7286     23.9941
   321.9000      7.8493      2.4944      0.0702      9.4291    116.3606     23.8204
   322.0000      7.8738      2.5091      0.0551      8.5393    117.6023     23.7819
   322.1000      7.8738      2.5150      0.0864      8.1814    115.8458     23.8567
   322.2000      7.8738      2.5054      0.0674      8.7644    112.5291     23.9735
   322.3000      7.8775      2.4879      0.0052      9.8259    108.5912     24.1197
   322.4000      7.8775      2.4791      0.0292     10.3591    107.2075     24.3184
   322.5000      7.8692      2.4826      0.1105     10.1474    108.4140     24.2278
   322.6000      7.8692      2.4945      0.0587      9.4249    108.6430     23.5823
   322.7000      7.8692      2.5097      0.1122      8.5044    105.9296     23.1323
   322.8000      7.8750      2.5107      0.1004      8.4416    103.1974     23.5233
   322.9000      7.8750      2.4890      0.0759      9.7600    103.8426     24.3263
   323.0000      7.8620      2.4532      0.0307     11.9296    105.9673     24.9563
   323.1000      7.8620      2.4162     -0.0298     14.1674    106.8267     25.3095
   323.2000      7.8620      2.3880     -0.0281     15.8782    107.4130     25.4965
   323.3000      7.8460      2.3724     -0.0370     16.8243    107.1896     25.6599
   323.4000      7.8460      2.3780     -0.0000     16.4829    107.1622     25.8138
   323.5000      7.8472      2.4171      0.0136     14.1170    111.0478     25.9772
   323.6000      7.8472      2.4836      0.1049     10.0859    115.7970     26.0589
   323.7000      7.8472      2.5421      0.1923      6.5368    115.0273     25.8917
   323.8000      7.8491      2.5571      0.1783      5.6288    110.8962     25.7063
   323.9000      7.8491      2.5327      0.1259      7.1074    109.9164     25.8314
   324.0000      7.8141      2.4999      0.1452      9.0957    111.1520     26.1629
   324.1000      7.8141      2.4776      0.1273     10.4489    111.4509     26.4705
   324.2000      7.8141      2.4639      0.1553     11.2805    115.0172     26.6061
   324.3000      7.7532      2.4511      0.1101     12.0534    123.2160     26.5025
   324.4000      7.7532      2.4422      0.0522     12.5949    128.3951     26.2306
   324.5000      7.7246      2.4446      0.0859     12.4476    126.5950     26.0238
   324.6000      7.7246      2.4560      0.1602     11.7601    123.0111     26.0845
   324.7000      7.7246      2.4695      0.1601     10.9416    124.5087     26.3196
   324.8000      7.7250      2.4801      0.1598     10.2975    131.9637     26.5478
   324.9000      7.7250      2.4903      0.1430      9.6796    139.5149     26.9309
   325.0000      7.7360      2.5098      0.1326      8.4999    140.3224     27.3549
   325.1000      7.7360      2.5268      0.2043      7.4643    134.4681     27.1164
   325.2000      7.7360      2.5203      0.1398      7.8595    126.8923     26.3042
   325.3000      7.7398      2.4994      0.0983      9.1284    119.9810     25.8614
   325.4000      7.7398      2.4794      0.1087     10.3420    116.9712     25.8932
   325.5000      7.7345      2.4522      0.0979     11.9891    122.0302     25.6981
   325.6000      7.7345      2.4146      0.0190     14.2688    132.2016     25.0143
   325.7000      7.7345      2.3962     -0.0061     15.3832    139.1652     24.1095
   325.8000      7.7646      2.4176      0.0454     14.0874    138.6460     23.2281
   325.9000      7.7646      2.4541      0.0120     11.8718    134.7673     22.3483
   326.0000      7.9397      2.4796      0.0107     10.3257    130.1797     21.3969
   326.1000      7.9397      2.4991      0.0273      9.1475    123.8698     20.4075
   326.2000      7.9397      2.5179      0.0643      8.0054    119.7925     19.3737
   326.3000      8.2045      2.5172      0.0869      8.0489    119.3396     18.3392
   326.4000      8.2045      2.4895      0.0125      9.7264    118.3694     17.6263
   326.5000      8.5900      2.4589      0.0100     11.5837    118.2765     17.2971
   326.6000      8.5900      2.4435      0.0070     12.5133    122.4442     16.9225
   326.7000      8.5900      2.4326      0.0702     13.1765    126.8625     16.3295
   326.8000      9.0087      2.4171      0.0244     14.1182    127.4083     15.5444
   326.9000      9.0087      2.4057      0.0345     14.8048    127.0814     15.0148
   327.0000      9.1912      2.3940      0.0324     15.5153    130.7590     15.3141
   327.1000      9.1912      2.3655      0.0513     17.2411    137.3877     16.1560
   327.2000      9.1912      2.3276     -0.0390     19.5383    140.9308     16.9395
   327.3000      9.5561      2.3141     -0.0644     20.3594    141.0887     17.8768
   327.4000      9.5561      2.3387     -0.0095     18.8644    142.0900     19.6277
   327.5000     10.2460      2.3733      0.0508     16.7696    142.8495     22.0733
   327.6000     10.2460      2.3899      0.0100     15.7630    140.9219     24.1054
   327.7000     10.2460      2.3919      0.0588     15.6454    138.0250     25.1849
   327.8000     11.0982      2.3845      0.1286     16.0898    136.7384     25.9100
   327.9000     11.0982      2.3751      0.0757     16.6598    139.6585     26.6966
   328.0000     11.8294      2.3770      0.0658     16.5452    147.4955     27.2258
   328.1000     11.8294      2.3887      0.1030     15.8341    156.3130     27.2049
   328.2000     11.8294      2.4010      0.1515     15.0919    161.9117     26.6644
   328.3000     11.7160      2.4073      0.0907     14.7095    161.4282     25.7689
   328.4000     11.7160      2.4004      0.1046     15.1257    156.5717     24.7613
   328.5000      9.2189      2.3720      0.0678     16.8513    153.2904     23.7318
   328.6000      9.2189      2.3227      0.0785     19.8357    153.4794     22.5914
   328.7000      9.2189      2.2508      0.1261     24.1953    153.4308     21.2936
   328.8000      8.1027      2.1479      0.0789     30.4299    148.9601     19.6112
   328.9000      8.1027      2.0249      0.0374     37.8855    141.6910     17.6467
   329.0000      8.0406      1.9052     -0.0538     45.1390    135.7686     16.0849
   329.1000      8.0406      1.7920     -0.0585     51.9975    130.9301     14.7818
   329.2000      8.0406      1.6783     -0.1235     58.8929    124.4569     13.1970
   329.3000      8.1411      1.5693     -0.0837     65.4962    117.3925     11.6537
   329.4000      8.1411      1.4694     -0.0936     71.5541    110.9334     10.5261
   329.5000      8.3142      1.3859     -0.0197     76.6129    104.9634      9.8241
   329.6000      8.3142      1.3352      0.0648     79.6827     99.2818      9.5496
   329.7000      8.3142      1.3136      0.1798     80.9922     90.9219      9.6138
   329.8000      8.4151      1.2981      0.1460     81.9342     80.5442      9.9258
   329.9000      8.4151      1.2941      0.1146     82.1761     74.0505     10.3269
   330.0000      8.4751      1.3357      0.1840     79.6527     70.7756     10.6003
   330.1000      8.4751      1.4385      0.2454     73.4214     67.8335     10.7615
   330.2000      8.4751      1.5752      0.3416     65.1378     67.0294     11.0801
   330.3000      8.5437      1.6936      0.4317     57.9663     67.5717     11.8144
