~Version Information
VERS.                      2.0: CWLS Log ASCII Standard - VERSION 2.0
WRAP.                       NO: One line per depth step
~Well Information Block
STRT.FT               650.0000: 
STOP.FT              2085.0000: 
STEP.FT                 0.1000: 
NULL.                -999.2500: 
COMP.          Pioneer Natural Resources: COMPANY
WELL.           Galloway 32-13: WELL
FLD.           Purgatoire River: FIELD
LOC.           1809' FNL & 2004' FEL: LOCATION
PROV.                 Colorado: PROVINCE
CNTY.               Las Animas: COUNTRY
SRVC.                Patterson: SERVICE COMPANY
DATE.          Sat Jul 09 02:17:51 2005: LOG DATE
UWI.           05 071 08423 00: UNIQUE WELL ID
~Curve Information Block
DEPT.FT            0 000 00 00: Depth
DCAL.in                       : CDL Caliper
RHOB.g/cc                     : CDL Bulk Density
RHOC.g/cc                     : CDL Density Correction
DPOR.pu                       : CDL Density Porosity
GR.GAPI                       : Gamma Ray
NPOR.pu                       : Neutron Porosity
~Parameter Information Block
~A  Depth       DCAL        RHOB        RHOC        DPOR         GR         NPOR    
# ...
  1024.4000      8.0281      2.4111      0.0398     14.4786    111.4086     24.4406
  1024.5000      8.0455      2.3244     -0.0615     19.7353    113.6151     24.7329
  1024.6000      8.0455      2.2434     -0.0424     24.6453    116.2293     25.7162
  1024.7000      8.0455      2.1750     -0.0315     28.7868    116.4605     26.4217
  1024.8000      8.0630      2.1269     -0.0665     31.7023    113.3581     26.3927
  1024.9000      8.0630      2.1082     -0.0309     32.8386    109.3619     26.2610
  1025.0000      8.0792      2.1122     -0.0156     32.5963    105.5376     26.7585
  1025.1000      8.0792      2.1357      0.0707     31.1693    101.1180     27.5412
  1025.2000      8.0792      2.1747      0.2150     28.8039     97.5664     27.7465
  1025.3000      8.0851      2.2109      0.2910     26.6133     97.1516     27.2405
  1025.4000      8.0851      2.2359      0.2666     25.0957    100.5913     26.8080
  1025.5000      8.0599      2.2574      0.2615     23.7969    106.5328     27.1037
  1025.6000      8.0599      2.2825      0.1615     22.2746    111.8846     27.4873
  1025.7000      8.0599      2.3198      0.1474     20.0102    114.0071     27.4107
  1025.8000      8.0033      2.3759      0.0712     16.6150    117.4172     27.1807
  1025.9000      8.0033      2.4446      0.1023     12.4478    127.3590     26.8223
  1026.0000      7.9588      2.5060      0.1429      8.7277    137.0454     26.5063
  1026.1000      7.9588      2.5484      0.1395      6.1578    140.6707     26.4925
  1026.2000      7.9588      2.5757      0.1544      4.5001    143.8835     26.4193
  1026.3000      7.9557      2.5877      0.1725      3.7776    146.8896     26.1799
  1026.4000      7.9557      2.5852      0.1606      3.9288    144.2692     26.2162
  1026.5000      7.9748      2.5760      0.1526      4.4840    139.5378     26.3066
  1026.6000      7.9748      2.5683      0.0945      4.9503    138.4538     25.8991
  1026.7000      7.9748      2.5638      0.0980      5.2247    139.5789     25.4296
  1026.8000      7.9869      2.5539      0.1515      5.8248    139.5971     25.6703
  1026.9000      7.9869      2.5380      0.0996      6.7887    140.1823     26.3785
  1027.0000      7.9861      2.5291      0.0418      7.3295    142.4181     26.4220
  1027.1000      7.9861      2.5287      0.0699      7.3515    141.4972     25.3652
  1027.2000      7.9861      2.5241      0.0551      7.6311    136.3412     24.2219
  1027.3000      7.9860      2.5098      0.0393      8.4959    131.0939     24.3444
  1027.4000      7.9860      2.4914      0.0264      9.6130    128.3259     25.5485
  1027.5000      7.9973      2.4786      0.0307     10.3858    127.7784     26.7606
  1027.6000      7.9973      2.4839      0.0017     10.0694    130.1971     27.8906
  1027.7000      7.9973      2.5143      0.0124      8.2239    135.8483     28.9973
  1027.8000      8.0259      2.5501      0.0911      6.0560    141.7681     29.6324
  1027.9000      8.0259      2.5569      0.0938      5.6396    142.7942     29.4640
  1028.0000      8.0619      2.5376      0.0401      6.8101    136.5545     28.7697
  1028.1000      8.0619      2.5200      0.0500      7.8798    128.9584     28.0546
  1028.2000      8.0619      2.5060      0.0803      8.7256    128.2572     27.5158
  1028.3000      8.0763      2.4874      0.0402      9.8555    131.3725     27.1957
  1028.4000      8.0763      2.4726      0.0359     10.7488    128.7079     26.8931
  1028.5000      8.0507      2.4698      0.0419     10.9198    123.6605     26.6062
  1028.6000      8.0507      2.4733      0.0674     10.7099    125.4690     25.8564
  1028.7000      8.0507      2.4854     -0.0290      9.9754    133.6158     24.7934
  1028.8000      8.0081      2.5202      0.0335      7.8668    142.0142     24.7094
  1028.9000      8.0081      2.5589      0.0983      5.5230    146.5012     25.5013
  1029.0000      7.9754      2.5625      0.1312      5.3052    150.5992     25.7472
  1029.1000      7.9754      2.5250      0.1282      7.5774    155.9038     25.5482
  1029.2000      7.9754      2.4701      0.0791     10.9021    154.9517     26.0150
  1029.3000      7.9565      2.4183      0.0691     14.0400    143.0910     26.9097
  1029.4000      7.9565      2.3812      0.0256     16.2903    123.5916     27.4172
  1029.5000      7.9529      2.3682      0.0506     17.0807    104.5290     28.0194
  1029.6000      7.9529      2.3830      0.0271     16.1793     94.7070     29.2848
  1029.7000      7.9529      2.4247      0.0564     13.6530     94.7555     30.1351
  1029.8000      7.9876      2.4948      0.1199      9.4036     95.8353     29.6713
  1029.9000      7.9876      2.5910      0.2021      3.5743     93.2088     28.3929
  1030.0000      8.0756      2.6795      0.3860     -1.7909     90.2833     26.6618
  1030.1000      8.0756      2.7109      0.3675     -3.6897     88.3643     24.6568
  1030.2000      8.0756      2.6631      0.3070     -0.7944     84.3728     23.0219
  1030.3000      8.1719      2.5551      0.1362      5.7487     78.6702     22.4140
  1030.4000      8.1719      2.4435      0.0174     12.5146     76.8366     22.8068
  1030.5000      8.2304      2.3725     -0.0030     16.8167     80.9153     23.4941
  1030.6000      8.2304      2.3345      0.0004     19.1222     86.1980     23.8144
  1030.7000      8.2304      2.3068     -0.0316     20.7986     87.9971     23.7705
  1030.8000      8.2463      2.2837      0.0164     22.1982     85.9629     23.5364
  1030.9000      8.2463      2.2666      0.0201     23.2364     83.1528     23.3001
  1031.0000      8.2516      2.2600      0.0467     23.6369     83.4253     23.5796
  1031.1000      8.2516      2.2680      0.1150     23.1501     86.0442     24.5129
  1031.2000      8.2516      2.2874      0.1735     21.9750     88.9391     25.3862
  1031.3000      8.3179      2.3096      0.2486     20.6332     90.2666     25.5905
  1031.4000      8.3179      2.3201      0.2755     19.9925     87.3622     25.0022
  1031.5000      8.5025      2.3082      0.2986     20.7139     82.1659     23.9677
  1031.6000      8.5025      2.2833      0.2815     22.2222     81.7025     23.7788
  1031.7000      8.5025      2.2567      0.3539     23.8357     87.1135     25.2632
  1031.8000      8.7940      2.2180      0.3129     26.1805     91.0403     27.3970
  1031.9000      8.7940      2.1617      0.3138     29.5964     90.6222     28.9218
  1032.0000      9.0779      2.1118      0.2518     32.6210     88.5736     29.5451
  1032.1000      9.0779      2.1040      0.2814     33.0920     86.3810     29.2611
  1032.2000      9.0779      2.1464      0.2842     30.5185     83.4908     28.6262
  1032.3000      9.2192      2.2099      0.3676     26.6702     79.4221     28.4919
  1032.4000      9.2192      2.2623      0.3325     23.4984     73.4525     28.9646
  1032.5000      9.3017      2.3009      0.3427     21.1579     64.6968     29.3692
  1032.6000      9.3017      2.3347      0.3606     19.1065     57.5130     29.5368
  1032.7000      9.3017      2.3585      0.3436     17.6682     56.7557     29.9409
  1032.8000      9.3488      2.3610      0.2920     17.5129     59.6544     30.6845
  1032.9000      9.3488      2.3408      0.2846     18.7386     61.4213     31.4716
  1033.0000      9.1879      2.3131      0.2319     20.4167     61.7956     31.8937
  1033.1000      9.1879      2.3005      0.2594     21.1816     62.7805     31.8419
  1033.2000      9.1879      2.3141      0.2922     20.3553     65.2281     31.7175
  1033.3000      8.8703      2.3559      0.3369     17.8215     68.0802     31.8099
  1033.4000      8.8703      2.4162      0.3865     14.1693     69.8671     31.6921
  1033.5000      8.5963      2.4710      0.3681     10.8478     68.6777     30.7534
  1033.6000      8.5963      2.5027      0.3546      8.9299     63.4565     29.3110
  1033.7000      8.5963      2.5113      0.3724      8.4064     60.0731     28.7969
  1033.8000      8.4362      2.4975      0.3783      9.2396     63.7370     29.8055
  1033.9000      8.4362      2.4601      0.3521     11.5112     69.2961     30.7709
