~Version Information
VERS.                      2.0: CWLS Log ASCII Standard - VERSION 2.0
WRAP.                       NO: One line per depth step
~Well Information Block
STRT.FT               298.0000: 
STOP.FT              1302.0000: 
STEP.FT                 0.1000: 
NULL.                -999.2500: 
COMP.          Pioneer Natural Resources: COMPANY
WELL.          Bouncer 41-27 Tr: WELL
FLD.           Purgatoire River: FIELD
LOC.           292' FNL & 222' FEL: LOCATION
PROV.                 Colorado: PROVINCE
CNTY.               Las Animas: COUNTRY
SRVC.                Patterson: SERVICE COMPANY
DATE.          Mon Feb 07 12:55:19 2005: LOG DATE
UWI.           05 071 08291 00: UNIQUE WELL ID
~Curve Information Block
DEPT.FT            0 000 00 00: Depth
DCAL.in                       : CDL Caliper
RHOB.g/cc                     : CDL Bulk Density
RHOC.g/cc                     : CDL Density Correction
DPOR.pu                       : CDL Density Porosity
GR.GAPI                       : Gamma Ray
NPOR.pu                       : Neutron Porosity
~Parameter Information Block
~A  Depth       DCAL        RHOB        RHOC        DPOR         GR         NPOR    
   298.0000      8.1637      2.2581     -0.3781     23.7499    121.3068     26.2332
   298.1000      8.1637      2.2679     -0.4066     23.1593    122.7520     26.5030
   298.2000      8.1637      2.2818     -0.3469     22.3171    125.7124     26.4296
   298.3000      8.1634      2.2847     -0.3888     22.1377    127.7722     25.7766
   298.4000      8.1634      2.2949     -0.4195     21.5184    126.4839     24.7384
   298.5000      8.1470      2.3116     -0.3590     20.5072    122.5664     23.7522
   298.6000      8.1470      2.3021     -0.3077     21.0873    118.1919     23.1296
   298.7000      8.1470      2.2679     -0.4552     23.1570    113.9304     23.0603
   298.8000      8.1620      2.2485     -0.4371     24.3344    109.7386     23.3520
   298.9000      8.1620      2.2652     -0.3907     23.3217    107.1604     23.8485
   299.0000      8.1640      2.2897     -0.3110     21.8350    106.1875     24.7121
   299.1000      8.1640      2.2838     -0.4266     22.1910    107.9906     25.5797
   299.2000      8.1640      2.2539     -0.4088     24.0044    114.7694     25.8062
   299.3000      8.1640      2.2152     -0.3662     26.3543    122.8570     25.5980
   299.4000      8.1640      2.1735     -0.4931     28.8767    125.3635     25.3874
   299.5000      8.1644      2.1561     -0.4914     29.9357    119.4960     25.3052
   299.6000      8.1644      2.1778     -0.4513     28.6171    111.7327     25.5146
   299.7000      8.1644      2.2117     -0.3907     26.5654    111.2449     25.8861
   299.8000      8.1648      2.2333     -0.3837     25.2543    114.3535     25.9752
   299.9000      8.1648      2.2439     -0.4074     24.6108    111.8675     25.7996
   300.0000      8.1666      2.2307     -0.3119     25.4098    104.5573     25.7578
   300.1000      8.1666      2.1963     -0.4589     27.4951     98.9340     25.8743
   300.2000      8.1666      2.1867     -0.4343     28.0809     99.3576     25.8759
   300.3000      8.1627      2.2073     -0.3617     26.8332    105.2123     25.5058
   300.4000      8.1627      2.2091     -0.3733     26.7201    110.7846     24.8446
   300.5000      8.1619      2.1786     -0.4639     28.5714    112.5640     24.2574
   300.6000      8.1619      2.1520     -0.4616     30.1833    111.3677     24.1710
   300.7000      8.1619      2.1536     -0.5290     30.0821    108.3965     24.5958
   300.8000      8.1607      2.1657     -0.3882     29.3507    107.5924     24.8885
   300.9000      8.1607      2.1630     -0.4643     29.5181    109.4400     24.7412
   301.0000      8.1615      2.1538     -0.4110     30.0709    112.3315     24.7883
   301.1000      8.1615      2.1437     -0.4253     30.6839    115.0991     25.3620
   301.2000      8.1615      2.1251     -0.4433     31.8108    116.9471     25.7382
   301.3000      8.1586      2.1136     -0.4310     32.5090    119.1070     25.5275
   301.4000      8.1586      2.1234     -0.3836     31.9179    119.8229     25.2114
   301.5000      8.1599      2.1259     -0.3789     31.7632    115.8185     25.0653
   301.6000      8.1599      2.0921     -0.4118     33.8112    108.3290     24.9278
   301.7000      8.1599      2.0432     -0.5493     36.7773    102.3779     24.6936
   301.8000      8.1620      2.0078     -0.5029     38.9185    101.6838     24.5302
   301.9000      8.1620      1.9792     -0.5181     40.6539    104.4873     24.4228
   302.0000      8.1588      1.9603     -0.5305     41.7988    105.3952     24.3286
   302.1000      8.1588      1.9697     -0.4863     41.2284    101.7629     24.4706
   302.2000      8.1588      2.0079     -0.4605     38.9166     99.6697     24.8023
   302.3000      8.1568      2.0603     -0.3936     35.7379    105.8360     24.9917
   302.4000      8.1568      2.1060     -0.3817     32.9693    114.7042     25.0195
   302.5000      8.1591      2.1165     -0.3443     32.3346    118.8084     25.1428
   302.6000      8.1591      2.0761     -0.4207     34.7815    119.3176     25.2521
   302.7000      8.1591      2.0139     -0.4463     38.5545    117.0195     25.0335
   302.8000      8.1574      1.9808     -0.4984     40.5564    112.4584     24.4608
   302.9000      8.1574      1.9890     -0.4453     40.0625    108.3011     23.8094
   303.0000      8.1596      2.0073     -0.4054     38.9506    106.0479     23.6310
   303.1000      8.1596      2.0099     -0.4745     38.7921    104.2973     24.2583
   303.2000      8.1596      2.0011     -0.5167     39.3274    101.8230     25.1877
   303.3000      8.1600      1.9935     -0.4787     39.7869    100.9948     25.6388
   303.4000      8.1600      1.9814     -0.5051     40.5199    104.8574     25.4134
   303.5000      8.1542      1.9638     -0.5315     41.5851    111.3348     24.8489
   303.6000      8.1542      1.9613     -0.5175     41.7419    112.2017     24.3923
   303.7000      8.1542      1.9717     -0.4585     41.1115    104.7404     24.3706
   303.8000      8.1539      1.9690     -0.4739     41.2709     96.4294     24.7766
   303.9000      8.1539      1.9593     -0.4869     41.8587     94.8778     25.1247
   304.0000      8.1520      1.9702     -0.4750     41.2017    100.6419     24.8008
   304.1000      8.1520      1.9994     -0.3847     39.4319    106.7003     23.8791
   304.2000      8.1520      2.0150     -0.3864     38.4878    105.9192     23.1245
   304.3000      8.1563      2.0006     -0.4545     39.3561    101.5485     23.2539
   304.4000      8.1563      1.9767     -0.4425     40.8057     98.9695     24.0683
   304.5000      8.1499      1.9705     -0.4738     41.1822     97.8234     24.7854
   304.6000      8.1499      1.9852     -0.4066     40.2884     97.3559     25.2012
   304.7000      8.1499      2.0089     -0.4349     38.8527     96.7861     25.3775
   304.8000      8.1480      2.0350     -0.4260     37.2750     94.0809     25.2498
   304.9000      8.1480      2.0543     -0.3905     36.1043     89.1006     24.9974
   305.0000      8.1472      2.0544     -0.4140     36.0940     86.2578     24.7252
   305.1000      8.1472      2.0345     -0.3985     37.3045     89.4935     24.4293
   305.2000      8.1472      2.0084     -0.4736     38.8847     98.0659     24.4220
   305.3000      8.1454      1.9847     -0.5059     40.3183    107.2834     24.7806
   305.4000      8.1454      1.9587     -0.5267     41.8949    110.7234     25.0985
   305.5000      8.1426      1.9396     -0.5273     43.0565    107.0516     25.3347
   305.6000      8.1426      1.9422     -0.4940     42.8974    100.5796     25.7149
   305.7000      8.1426      1.9565     -0.4641     42.0323     95.8993     26.2047
   305.8000      8.1434      1.9694     -0.5079     41.2473    100.0701     26.5330
   305.9000      8.1434      1.9814     -0.4319     40.5191    113.5868     26.4266
   306.0000      8.1426      1.9809     -0.4227     40.5505    121.0165     25.8973
   306.1000      8.1426      1.9646     -0.4785     41.5397    112.8305     25.3104
   306.2000      8.1426      1.9474     -0.4624     42.5802     99.5928     25.1885
   306.3000      8.1446      1.9355     -0.5127     43.3046     92.9045     25.6936
   306.4000      8.1446      1.9296     -0.4842     43.6634     92.2711     26.3278
   306.5000      8.1407      1.9328     -0.4369     43.4657     94.6754     26.5992
   306.6000      8.1407      1.9487     -0.5201     42.5052    100.1219     26.4517
   306.7000      8.1407      1.9760     -0.5067     40.8474    105.0980     26.0723
   306.8000      8.1393      1.9973     -0.4189     39.5569    107.2373     25.8897
   306.9000      8.1393      1.9958     -0.4602     39.6506    114.1653     26.1783
   307.0000      8.1399      1.9858     -0.4618     40.2574    128.1560     26.7388
   307.1000      8.1399      1.9922     -0.4684     39.8637    139.7264     27.2371
   307.2000      8.1399      2.0218     -0.4683     38.0742    142.1419     27.3856
   307.3000      8.1383      2.0633     -0.4147     35.5579    135.7498     27.2700
   307.4000      8.1383      2.1002     -0.3590     33.3197    124.4924     27.2105
   307.5000      8.1385      2.1256     -0.3464     31.7830    114.1531     27.2214
