~Version Information
 VERS.                                  2.0 : CWLS LAS VERSION
 WRAP.                                   NO : WRAPING MODE
 SWARE .                 MController 2.5.0J : SOFTWARE VERSION
~Well Information
 WELL.                                  N/A : WELL
 COMP.                                  N/A : COMPANY
 FLD.                                   N/A : FIELD
 LOC.                                   N/A : LOCATION
 DATE.                                  N/A : DATE(S) LOGGED
 SRVC.                                  N/A : SERVICE COMPANY
 STAT.                                  N/A : STATE
 CNTY.                                  N/A : COUNTY
 CTRY.                                  N/A : COUNTRY
 API.                                   N/A : API NUMBER
 STRT.FT                             986.00 : START DEPTH
 STOP.FT                            2126.00 : STOP DEPTH
 STEP.FT                               1.00 : DEPTH INCREMENT
 NULL.                                -9999 : NULL VALUE
~Curve information
 DEPTH.FT                                   :
 ROP.MIN/FT                                 :
 GAS.UNITS                                  :
~ASCII Log data
# ...
      1586.0         2.38        195.5 
      1587.0         0.47        105.7 
      1588.0         0.33         53.5 
      1589.0         0.33         39.4 
      1590.0         0.32         33.9 
      1591.0         0.30         32.6 
      1592.0         0.37         32.6 
      1593.0         0.33         31.5 
      1594.0         0.27         30.7 
      1595.0         0.33         29.8 
      1596.0         0.30         29.3 
      1597.0         0.30         28.2 
      1598.0         0.33         27.5 
      1599.0         0.37         27.5 
      1600.0         0.38         28.0 
      1601.0         0.33         28.1 
      1602.0         0.37         28.1 
      1603.0         0.37         27.6 
      1604.0         0.40         27.4 
      1605.0         0.33         27.0 
      1606.0         0.30         27.2 
      1607.0         0.27         27.0 
      1608.0         0.27         27.1 
      1609.0         0.27         27.3 
      1610.0         0.32         27.4 
      1611.0         0.27         27.1 
      1612.0         0.30         27.0 
      1613.0         0.33         26.6 
      1614.0         0.37         25.9 
      1615.0         0.33         25.3 
      1616.0         1.65        215.4 
      1617.0         0.33        217.0 
      1618.0         0.37        194.5 
      1619.0         0.77        132.6 
      1620.0         0.50         44.6 
      1621.0         0.50         32.1 
      1622.0         0.53         31.8 
      1623.0         0.52         31.8 
      1624.0         0.50         29.6 
      1625.0         0.53         28.0 
      1626.0         0.47         27.8 
      1627.0         0.50         30.7 
      1628.0         0.47         31.5 
      1629.0         0.52         32.3 
      1630.0         0.57         33.5 
      1631.0         0.50         32.4 
      1632.0         0.37         29.3 
      1633.0         0.33         28.7 
      1634.0         0.30         28.1 
      1635.0         0.37         27.4 
      1636.0         0.37         27.1 
      1637.0         0.38         27.0 
      1638.0         0.33         26.8 
      1639.0         0.33         26.8 
      1640.0         0.37         26.8 
      1641.0         0.33         27.0 
      1642.0         0.40         26.9 
      1643.0         0.40         26.6 
      1644.0         0.37         27.7 
      1645.0         0.37         29.3 
      1646.0         2.95        149.2 
      1647.0         0.43         94.1 
      1648.0         0.38         71.3 
      1649.0         0.30         60.4 
      1650.0         0.30         53.7 
      1651.0         0.33         58.8 
      1652.0         0.53         63.1 
      1653.0         0.50         55.6 
      1654.0         0.30         41.4 
      1655.0         0.27         35.0 
      1656.0         0.27         32.5 
      1657.0         0.22         31.4 
      1658.0         0.30         30.6 
      1659.0         0.23         29.5 
      1660.0         0.27         29.1 
      1661.0         0.20         28.4 
      1662.0         0.23         28.3 
      1663.0         0.23         28.4 
      1664.0         0.23         28.6 
      1665.0         0.23         28.8 
      1666.0         0.23         29.2 
      1667.0         0.20         29.5 
      1668.0         0.23         29.4 
      1669.0         0.27         29.4 
      1670.0         0.42         31.2 
      1671.0         0.30         32.2 
      1672.0         0.37         31.5 
      1673.0         0.37         30.5 
      1674.0         0.43         29.4 
      1675.0         0.27         33.6 
      1676.0         2.62        199.4 
      1677.0         0.27        109.6 
      1678.0         0.27         80.6 
      1679.0         0.33         55.9 
      1680.0         0.30         44.2 
      1681.0         0.40         47.0 
      1682.0         0.38         41.9 
      1683.0         0.30         34.2 
      1684.0         0.27         38.7 
      1685.0         0.27         39.6 
      1686.0         0.23         38.2 
      1687.0         0.23         38.5 
      1688.0         0.27         48.7 
      1689.0         0.23         59.0 
      1690.0         0.20         68.1 
      1691.0         0.17         77.7 
      1692.0         0.17         88.5 
      1693.0         0.17         97.4 
      1694.0         0.17         99.2 
      1695.0         0.20         98.0 
      1696.0         0.18         90.0 
      1697.0         0.23         86.2 
      1698.0         0.20         96.3 
      1699.0         0.20         97.5 
      1700.0         0.17         92.3 
      1701.0         0.23         80.8 
      1702.0         0.27         67.1 
      1703.0         0.23         52.7 
      1704.0         0.23         45.1 
      1705.0         0.27         40.4 
      1706.0         2.12        244.3 
      1707.0         0.43        226.3 
      1708.0         0.53        162.4 
      1709.0         0.37         95.4 
      1710.0         0.37         63.0 
      1711.0         0.30         47.8 
      1712.0         0.23         46.5 
      1713.0         0.28         46.9 
      1714.0         0.37         45.2 
      1715.0         0.30         40.8 
      1716.0         0.33         54.7 
      1717.0         0.30         71.9 
      1718.0         0.17         75.8 
      1719.0         0.20         77.0 
      1720.0         0.20         76.8 
      1721.0         0.27         75.6 
      1722.0         0.23         73.5 
      1723.0         0.33         71.1 
      1724.0         0.33         67.4 
      1725.0         0.38         64.6 
      1726.0         0.37         62.2 
      1727.0         0.27         61.0 
      1728.0         0.30         60.6 
      1729.0         0.30         59.9 
      1730.0         0.30         58.8 
      1731.0         0.37         58.2 
      1732.0         0.30         56.6 
      1733.0         0.27         54.2 
      1734.0         0.30         48.9 
      1735.0         0.28         42.7 
      1736.0         2.47        360.8 
      1737.0         0.50        242.2 
      1738.0         0.45        138.0 
      1739.0         0.33         90.7 
      1740.0         0.23         83.0 
      1741.0         0.17         84.0 
      1742.0         0.30         84.0 
      1743.0         0.30         79.5 
      1744.0         0.30         71.4 
      1745.0         0.20         66.4 
      1746.0         0.27         64.5 
      1747.0         0.30         62.3 
      1748.0         0.27         59.4 
      1749.0         0.32         56.9 
      1750.0         0.27         54.4 
      1751.0         0.27         55.4 
      1752.0         0.23         55.4 
      1753.0         0.33         54.5 
      1754.0         0.27         52.2 
      1755.0         0.27         51.0 
      1756.0         0.27         51.7 
      1757.0         0.27         51.7 
      1758.0         0.27         51.3 
      1759.0         0.27         49.9 
      1760.0         0.27         48.7 
      1761.0         0.28         48.4 
      1762.0         0.23         48.3 
      1763.0         0.27         46.6 
      1764.0         0.30         42.9 
      1765.0         0.33         39.6 
      1766.0         2.35        265.0 
      1767.0         0.60        201.6 
      1768.0         0.53        105.0 
      1769.0         0.53         73.6 
      1770.0         0.43         69.6 
      1771.0         0.27         69.5 
      1772.0         0.17         68.5 
      1773.0         0.23         67.0 
      1774.0         0.27         64.7 
      1775.0         0.25         62.8 
      1776.0         0.27         62.9 
      1777.0         0.33         62.9 
      1778.0         0.23         61.8 
      1779.0         0.20         60.9 
      1780.0         0.20         59.6 
      1781.0         0.20         58.6 
      1782.0         0.33         58.2 
      1783.0         0.20         58.2 
      1784.0         0.23         58.2 
      1785.0         0.23         58.4 
