~Version Information
 VERS.                                  2.0 : CWLS LAS VERSION
 WRAP.                                   NO : WRAPING MODE
 SWARE .                 MController 2.5.0E : SOFTWARE VERSION
~Well Information
 WELL.                      Robinson 15-11v : WELL
 COMP.                       Petrogulf Corp : COMPANY
 FLD.                      Purgatoire River : FIELD
 LOC.                NW/NW Sec 15 T33S R67W : LOCATION
 DATE.                               8/3/04 : DATE(S) LOGGED
 SRVC.       Blanco Geological Services LLC : SERVICE COMPANY
 STAT.                                   CO : STATE
 CNTY.                           Las Animas : COUNTY
 CTRY.                                  USA : COUNTRY
 API.                       05-071-08027-00 : API NUMBER
 STRT.FT                             588.00 : START DEPTH
 STOP.FT                            2101.00 : STOP DEPTH
 STEP.FT                               1.00 : DEPTH INCREMENT
 NULL.                                -9999 : NULL VALUE
~Curve information
 DEPTH.FT                                   :
 ROP.MIN/FT                                 :
 GAS.UNITS                                  :
~ASCII Log data
# ...
     1188.00        0.133         15.7 
     1189.00        0.167         15.2 
     1190.00        0.233         15.7 
     1191.00        0.200         14.4 
     1192.00        0.167         14.1 
     1193.00        0.133         12.1 
     1194.00        0.150         10.8 
     1195.00        0.167          9.2 
     1196.00        0.133          7.4 
     1197.00        0.133          7.3 
     1198.00        2.000         80.6 
     1199.00        0.533         67.9 
     1200.00        0.200         44.2 
     1201.00        0.217         38.3 
     1202.00        0.167         31.8 
     1203.00        0.100         28.4 
     1204.00        0.133         27.7 
     1205.00        0.167         25.8 
     1206.00        0.100         24.4 
     1207.00        0.133         23.6 
     1208.00        0.100         22.2 
     1209.00        0.100         20.1 
     1210.00        0.167         20.3 
     1211.00        0.167         19.7 
     1212.00        0.167         18.1 
     1213.00        0.200         17.5 
     1214.00        0.167         16.8 
     1215.00        0.133         16.3 
     1216.00        0.133         15.1 
     1217.00        0.100         15.1 
     1218.00        0.167         15.5 
     1219.00        0.200         15.1 
     1220.00        0.167         14.1 
     1221.00        0.200         14.0 
     1222.00        0.233         12.5 
     1223.00        0.217         10.6 
     1224.00        0.133          8.6 
     1225.00        0.133          7.1 
     1226.00        0.167          7.9 
     1227.00        0.200          9.9 
     1228.00        2.233         64.7 
     1229.00        0.483         40.0 
     1230.00        0.267         27.4 
     1231.00        0.300         22.3 
     1232.00        0.200         18.9 
     1233.00        0.133         16.5 
     1234.00        0.133         15.3 
     1235.00        0.167         15.5 
     1236.00        0.300         14.5 
     1237.00        0.167         13.7 
     1238.00        0.167         14.0 
     1239.00        0.200         13.4 
     1240.00        0.200         13.3 
     1241.00        0.167         13.7 
     1242.00        0.167         13.2 
     1243.00        0.167         12.7 
     1244.00        0.167         13.7 
     1245.00        0.167         12.9 
     1246.00        0.183         13.3 
     1247.00        0.200         12.6 
     1248.00        0.200         13.2 
     1249.00        0.200         13.3 
     1250.00        0.233         12.6 
     1251.00        0.200         12.4 
     1252.00        0.200         11.4 
     1253.00        0.167          8.7 
     1254.00        0.167          6.7 
     1255.00        0.167          6.1 
     1256.00        0.133          6.0 
     1257.00        0.167          6.1 
     1258.00        1.950         74.7 
     1259.00        0.467         64.6 
     1260.00        0.433         45.4 
     1261.00        0.333         33.3 
     1262.00        0.167         25.8 
     1263.00        0.167         23.7 
     1264.00        0.167         20.0 
     1265.00        0.167         18.2 
     1266.00        0.133         16.5 
     1267.00        0.167         15.0 
     1268.00        0.167         15.0 
     1269.00        0.167         13.3 
     1270.00        0.150         13.6 
     1271.00        0.133         13.4 
     1272.00        0.167         13.0 
     1273.00        0.200         12.9 
     1274.00        0.167         12.3 
     1275.00        0.167         11.7 
     1276.00        0.133         12.6 
     1277.00        0.200         12.5 
     1278.00        0.267         12.5 
     1279.00        0.233         12.5 
     1280.00        0.133         12.5 
     1281.00        0.167         12.7 
     1282.00        0.167         12.2 
     1283.00        0.167         12.1 
     1284.00        0.167         10.4 
     1285.00        0.167          8.4 
     1286.00        0.100          7.0 
     1287.00        0.167          5.6 
     1288.00        2.450         99.6 
     1289.00        0.933         89.0 
     1290.00        0.233         38.4 
     1291.00        0.183         30.8 
     1292.00        0.167         24.7 
     1293.00        0.167         23.0 
     1294.00        0.167         20.2 
     1295.00        0.200         17.5 
     1296.00        0.167         15.9 
     1297.00        0.167         15.3 
     1298.00        0.167         14.5 
     1299.00        0.200         14.9 
     1300.00        0.167         14.3 
     1301.00        0.167         13.7 
     1302.00        0.167         12.3 
     1303.00        0.167         12.3 
     1304.00        0.167         11.2 
     1305.00        0.167         10.5 
     1306.00        0.167         10.6 
     1307.00        0.167         11.0 
     1308.00        0.133         11.4 
     1309.00        0.167         10.4 
     1310.00        0.317         11.0 
     1311.00        0.200         12.0 
     1312.00        0.200         10.7 
     1313.00        0.233         11.7 
     1314.00        0.367         10.3 
     1315.00        0.267          6.7 
     1316.00        0.133          5.4 
     1317.00        0.133          5.4 
     1318.00        0.200          6.7 
     1319.00        0.233          9.0 
     1320.00        1.917         69.6 
     1321.00        0.800         51.3 
     1322.00        0.400         27.8 
     1323.00        0.267         20.1 
     1324.00        0.300         17.3 
     1325.00        0.167         14.9 
     1326.00        0.233         14.6 
     1327.00        0.167         13.2 
     1328.00        0.167         12.1 
     1329.00        0.217         12.3 
     1330.00        0.267         12.3 
     1331.00        0.267         12.1 
     1332.00        0.233         11.5 
     1333.00        0.133         11.3 
     1334.00        0.167         11.5 
     1335.00        0.133         10.9 
     1336.00        0.167         10.0 
     1337.00        0.133          9.5 
     1338.00        0.167         10.0 
     1339.00        0.133         10.1 
     1340.00        0.167         10.4 
     1341.00        0.167         10.4 
     1342.00        0.133         10.2 
     1343.00        0.167         10.0 
     1344.00        0.133          9.3 
     1345.00        0.167          8.1 
     1346.00        0.133          5.9 
     1347.00        0.167          5.5 
     1348.00        0.167          5.0 
     1349.00        0.183          5.6 
     1350.00        2.967        111.4 
     1351.00        0.167         49.7 
     1352.00        0.100         41.9 
     1353.00        0.217         39.5 
     1354.00        0.133         32.0 
     1355.00        0.233         29.9 
     1356.00        0.167         24.8 
     1357.00        0.133         21.7 
     1358.00        0.167         19.4 
     1359.00        0.200         18.2 
     1360.00        0.233         16.2 
     1361.00        0.267         15.2 
     1362.00        0.267         13.4 
     1363.00        0.167         12.2 
     1364.00        0.100         12.0 
     1365.00        0.133         12.6 
     1366.00        0.167         12.2 
     1367.00        0.267         11.7 
     1368.00        0.267         11.3 
     1369.00        0.233         10.7 
     1370.00        0.217         10.1 
     1371.00        0.267         10.4 
     1372.00        0.267         10.6 
     1373.00        0.167         10.0 
     1374.00        0.167          9.4 
     1375.00        0.167          8.2 
     1376.00        0.100          7.2 
     1377.00        0.133          6.3 
     1378.00        0.133          5.3 
     1379.00        0.133          4.3 
     1380.00        2.483         40.6 
     1381.00        0.267         35.8 
     1382.00        0.167         31.6 
     1383.00        0.233         30.3 
     1384.00        0.233         25.6 
     1385.00        0.267         21.6 
     1386.00        0.167         19.0 
     1387.00        0.267         18.2 
