~Version Information
VERS.                      2.0: CWLS Log ASCII Standard - VERSION 2.0
WRAP.                       NO: One line per depth step
~Well Information Block
STRT.FT               665.0000: 
STOP.FT              1972.0000: 
STEP.FT                 0.2500: 
NULL.                -999.2500: 
COMP.          Petrogulf Corporation: COMPANY
WELL.          Great Plains 22-21V: WELL
FLD.           Purgatorie River: FIELD
LOC.           63' FNL & 1895' FWL: LOCATION
PROV.                 Colorado: PROVINCE
CNTY.               Las Animas: COUNTRY
SRVC.                Patterson: SERVICE COMPANY
DATE.          Thu Sep 01 07:36:33 2005: LOG DATE
UWI.                          : UNIQUE WELL ID
~Curve Information Block
DEPT.FT            0 000 00 00: Depth
SP.mV                         : DIL Spontaneous Potential
RILD.Ohm-m                    : DIL Deep Resistivity
RILM.Ohm-m                    : DIL Medium Resistivity
RLL3.Ohm-m                    : DIL Shallow Resistivity
GR.GAPI                       : Gamma Ray
~Parameter Information Block
~A  Depth        SP         RILD        RILM        RLL3         GR     
# ...
  1449.0000    183.1919      6.0429      5.5190      7.1444    134.8487
  1449.2500    182.5289      6.2044      5.8806      7.9695    128.1241
  1449.5000    181.9637      6.3297      6.4784     10.0084    100.9882
  1449.7500    181.4300      6.6414      7.0916     14.3899    102.0073
  1450.0000    181.0165      6.8926      7.7499     21.0386     81.8866
  1450.2500    180.6959      7.0180      8.3543     26.1474     77.9452
  1450.5000    180.3378      7.1258      8.8128     25.2695     92.5577
  1450.7500    179.6524      7.3969      9.1119     19.9514     79.7464
  1451.0000    179.6291      7.5612      9.2082     16.8996     85.2589
  1451.2500    179.5672      7.6375      9.3452     15.0356    114.0216
  1451.5000    178.9339      7.7554      9.2667     13.5708    125.9508
  1451.7500    177.6549      7.8034      9.1901     12.1298    113.2279
  1452.0000    176.5560      7.7866      8.7524     10.9282    120.2854
  1452.2500    176.1130      7.6632      8.4452     10.3631    126.2057
  1452.5000    175.8334      7.5025      8.1999      9.2693    137.1889
  1452.7500    175.7110      7.3436      7.7548      8.4504    163.9832
  1453.0000    175.4447      7.1673      7.3335      7.9553    160.6958
  1453.2500    174.4557      6.9600      7.1947      7.9199    167.6222
  1453.5000    173.5269      6.7166      6.9562      8.0888    169.0888
  1453.7500    173.1773      6.5108      6.8389      8.2982    153.8754
  1454.0000    172.9221      6.3183      6.7880      8.6765    126.0414
  1454.2500    172.7028      6.1240      6.6659      9.1935    139.7247
  1454.5000    172.5594      5.9833      6.4157      9.4368    151.3936
  1454.7500    172.4312      5.8791      6.2058      9.1090    155.4360
  1455.0000    172.3137      5.9668      6.0356      8.5819    159.9677
  1455.2500    172.2168      5.9465      5.8661      8.1835    179.3957
  1455.5000    171.9382      6.0885      5.8150      7.8554    156.2215
  1455.7500    171.2857      6.2807      5.7995      7.8744    152.5595
  1456.0000    170.8228      6.4452      5.8581      7.7828    149.0962
  1456.2500    170.3605      6.6595      6.0416      7.8524    150.0270
  1456.5000    169.7818      6.8802      6.2701      8.0277    143.4991
  1456.7500    169.1153      7.1704      6.5467      8.7782    131.2606
  1457.0000    168.8722      7.4474      6.9498      9.4755    146.6285
  1457.2500    168.6482      7.7417      7.4532     10.2296    147.9744
  1457.5000    168.2167      8.1202      7.9691     10.9103    127.5380
  1457.7500    168.4595      8.5998      8.6637     13.1072    123.9931
  1458.0000    168.9015      9.1005      9.5938     17.3695    113.8538
  1458.2500    169.3588      9.5495     10.9377     20.2584     92.0130
  1458.5000    169.9111      9.9605     12.6755     24.3951    105.7317
  1458.7500    170.6205     10.6233     14.1703     40.6531     92.0966
  1459.0000    171.3888     10.7520     16.2429     70.7825     54.0606
  1459.2500    172.3064     11.1213     17.8761     94.4738     51.8152
  1459.5000    173.1721     11.3419     18.5617    103.0318     64.4843
  1459.7500    173.6573     11.2328     18.2426    100.4930     67.1974
  1460.0000    174.4239     11.1040     17.2536     90.4787     64.5550
  1460.2500    175.0874     10.8112     16.1855     71.3602     65.1915
  1460.5000    175.7310     10.8267     14.4270     42.3734     94.0505
  1460.7500    176.2561     10.5860     12.3288     22.7823     98.3587
  1461.0000    176.5884     10.1354     11.1052     13.2320    127.7278
  1461.2500    176.6497      9.6935     10.1851      9.1360    128.4381
  1461.5000    176.7198      9.0725      9.6300      7.9848    113.2723
  1461.7500    176.6773      8.6320      9.0639      9.3520    119.8165
  1462.0000    176.5013      8.1785      8.7269     12.3662    139.1167
  1462.2500    176.5068      7.6952      8.2800     13.2905    110.0681
  1462.5000    176.7078      7.3556      7.6695     11.2739    109.4144
  1462.7500    176.9123      7.0746      7.1460      9.7480    116.9091
  1463.0000    177.0452      6.8636      6.6764      8.7495    144.9816
  1463.2500    177.2243      6.7365      6.3937      8.2272    141.7985
  1463.5000    177.5093      6.6727      6.3320      8.4100    139.6954
  1463.7500    178.0697      6.7823      6.2108      8.6392    137.1779
  1464.0000    178.5528      6.8509      6.2655      9.0163    132.4115
  1464.2500    178.5001      7.0452      6.2924      8.9399    140.0060
  1464.5000    178.0481      7.1657      6.4663      8.7783    171.3951
  1464.7500    177.3263      7.4397      6.7289      8.5886    159.1946
  1465.0000    177.0763      7.7285      7.0298      9.3019    148.6630
  1465.2500    176.9781      8.0285      7.5177     10.3544    149.2309
  1465.5000    176.8002      8.5611      8.1463     11.4759    119.0814
  1465.7500    176.5466      8.9941      8.7979     13.2006    101.4838
  1466.0000    176.0530      9.5018      9.7187     15.2976     92.4248
  1466.2500    174.6226     10.1296     10.7208     16.9432    101.6221
  1466.5000    172.7428     10.6281     12.0128     19.2414     89.6817
  1466.7500    170.9030     11.4521     13.6090     24.5678     64.9161
  1467.0000    168.7444     12.4960     14.9159     34.6686     79.4799
  1467.2500    167.1865     13.6588     16.6031     42.9967     72.8943
  1467.5000    166.2820     14.4144     18.0923     42.9878     81.1594
  1467.7500    165.7920     15.8868     19.1618     36.1859     67.4652
  1468.0000    165.3685     16.8686     20.8176     32.7206     77.5727
  1468.2500    164.9865     18.4462     23.0405     32.5255     79.0624
  1468.5000    164.6048     19.9359     24.3604     32.9749     74.3655
  1468.7500    164.3444     20.6458     25.3657     31.2583     71.8475
  1469.0000    163.6665     20.6518     26.2807     27.9269     66.9626
  1469.2500    162.2578     22.6299     26.9466     26.1614     72.8102
  1469.5000    160.6595     23.1418     28.4337     32.5805     85.5852
  1469.7500    159.2584     24.0897     30.8533     47.7009     60.5813
  1470.0000    158.3926     24.3848     33.1126     59.4816     45.9150
  1470.2500    158.1575     24.3870     36.4297     64.6337     48.4645
  1470.5000    158.2747     24.9499     36.3417     65.9533     51.7880
  1470.7500    158.7376     25.7891     38.3954     66.7870     54.6957
  1471.0000    159.7041     24.9809     40.0405     71.5625     67.2314
  1471.2500    161.1132     25.0785     41.9896     79.2038     48.7513
  1471.5000    163.1675     23.9570     40.1677     93.4071     55.7684
  1471.7500    165.4489     23.4422     39.9049    117.8703     59.2785
  1472.0000    167.0776     21.7613     35.9313    137.1647     48.1665
  1472.2500    168.4882     20.2348     32.0872    125.2712     46.0523
  1472.5000    169.9921     18.9273     26.9563     85.2484     55.9687
  1472.7500    171.9800     17.5105     23.9344     45.1951     68.8653
  1473.0000    174.0304     16.3355     18.7499     25.0455     98.0643
  1473.2500    175.6850     15.1842     16.3416     17.1057    140.9003
  1473.5000    177.2110     14.1900     14.0420     14.5703    166.8167
  1473.7500    178.3708     13.2398     12.6724     13.6537    159.9458
  1474.0000    179.0710     12.3358     11.7709     13.0926    131.5032
  1474.2500    179.8633     11.9523     10.8281     12.4676    141.9002
  1474.5000    180.7990     11.4318     10.0231     11.7039    162.9498
  1474.7500    181.6986     10.8525      9.5645     11.0792    174.6938
  1475.0000    182.1632     10.4819      9.2190     10.6851    152.9323
  1475.2500    182.5197     10.1283      9.0084     11.3411    137.9594
  1475.5000    182.8998      9.9700      8.9207     12.4387    124.0148
  1475.7500    182.8874      9.7319      9.0099     13.8563    125.2750
  1476.0000    183.1213      9.4300      9.0836     14.8962     97.7831
  1476.2500    183.9047      9.3673      9.0953     15.2571    105.3251
  1476.5000    184.7437      9.4022      9.2098     13.7459     90.0984
  1476.7500    185.5065      9.4233      9.1794     12.6264    114.2921
