~Version Information
VERS.                      2.0: CWLS Log ASCII Standard - VERSION 2.0
WRAP.                       NO: One line per depth step
~Well Information Block
STRT.FT               546.2500: 
STOP.FT              2488.5000: 
STEP.FT                 0.2500: 
NULL.                -999.2500: 
COMP.          Petrogulf Corporation: COMPANY
WELL.               Egan 9-11V: WELL
FLD.           Purgatorie River: FIELD
LOC.           724' FNL & 1379' FWL: LOCATION
PROV.                 Colorado: PROVINCE
CNTY.               Las Animas: COUNTRY
SRVC.          Patterson Wireline: SERVICE COMPANY
DATE.          Fri Jul 11 23:16:48 2003: LOG DATE
UWI.           05 071 07875 00: UNIQUE WELL ID
~Curve Information Block
DEPT.FT            0 000 00 00: Depth
DCAL.in                       : CDL Caliper
RHOB.g/cc                     : CDL Bulk Density
RHOC.g/cc                     : CDL Density Correction
DPOR.pu                       : CDL Density Porosity
GR.GAPI                       : Gamma Ray
NPOR.pu                       : Neutron Porosity
~Parameter Information Block
~A  Depth       DCAL        RHOB        RHOC        DPOR         GR         NPOR    
# ...
   954.2500      8.2709      2.5935      0.0747      3.4242     38.4743     16.5046
   954.5000      8.2654      2.5819      0.0546      4.1280     36.5957     16.6209
   954.7500      8.2694      2.5736      0.0424      4.6274     35.6551     16.6373
   955.0000      8.2904      2.5625      0.0284      5.3047     34.2264     16.4663
   955.2500      8.3041      2.5563      0.0228      5.6814     33.2411     16.2256
   955.5000      8.3016      2.5483      0.0207      6.1627     32.1184     15.7656
   955.7500      8.2923      2.5434      0.0230      6.4631     31.6950     15.4747
   956.0000      8.2835      2.5359      0.0285      6.9129     31.1171     15.2077
   956.2500      8.2775      2.5314      0.0316      7.1881     30.4804     15.2066
   956.5000      8.2824      2.5270      0.0344      7.4564     29.1376     15.5010
   956.7500      8.2949      2.5269      0.0361      7.4633     28.2136     15.8569
   957.0000      8.3057      2.5324      0.0401      7.1248     27.2433     16.5104
   957.2500      8.3112      2.5401      0.0434      6.6613     27.1151     16.9694
   957.5000      8.3124      2.5561      0.0464      5.6925     28.0382     17.6721
   957.7500      8.3121      2.5682      0.0448      4.9550     29.4387     18.1583
   958.0000      8.3120      2.5857      0.0356      3.8976     32.3738     18.8749
   958.2500      8.3120      2.5951      0.0264      3.3245     34.5737     19.2803
   958.5000      8.3135      2.6042      0.0121      2.7735     37.8601     19.6761
   958.7500      8.3173      2.6067      0.0047      2.6263     39.9181     19.7823
   959.0000      8.3225      2.6059     -0.0006      2.6746     42.5617     19.7431
   959.2500      8.3269      2.6035      0.0002      2.8168     43.9480     19.6177
   959.5000      8.3300      2.5994      0.0070      3.0652     45.8315     19.3459
   959.7500      8.3314      2.5973      0.0141      3.1931     47.5220     19.1812
   960.0000      8.3313      2.5962      0.0259      3.2598     52.0271     19.1912
   960.2500      8.3302      2.5973      0.0332      3.1949     57.1330     19.5459
   960.5000      8.3315      2.6022      0.0425      2.8985     68.7747     20.8245
   960.7500      8.3402      2.6078      0.0479      2.5564     78.8998     22.1642
   961.0000      8.3575      2.6195      0.0554      1.8494     95.3950     24.5741
   961.2500      8.3801      2.6285      0.0597      1.3053    105.5116     26.1405
   961.5000      8.4055      2.6408      0.0633      0.5594    117.5143     27.9782
   961.7500      8.4285      2.6460      0.0624      0.2410    123.4812     28.7595
   962.0000      8.4454      2.6463      0.0560      0.2268    130.5276     29.3799
   962.2500      8.4526      2.6405      0.0492      0.5753    134.4019     29.5728
   962.5000      8.4562      2.6243      0.0387      1.5603    138.8934     29.7453
   962.7500      8.4668      2.6104      0.0330      2.4014    140.7464     29.8419
   963.0000      8.4863      2.5894      0.0271      3.6723    141.7542     29.9627
   963.2500      8.5086      2.5776      0.0248      4.3905    141.6222     30.0029
   963.5000      8.5272      2.5652      0.0236      5.1417    141.2025     29.9868
   963.7500      8.5406      2.5608      0.0244      5.4075    141.1752     29.9548
   964.0000      8.5559      2.5594      0.0285      5.4893    141.6894     29.9729
   964.2500      8.5669      2.5614      0.0330      5.3709    142.3413     30.0753
   964.5000      8.5728      2.5672      0.0410      5.0190    143.5487     30.3520
   964.7500      8.5780      2.5718      0.0453      4.7369    144.2277     30.5450
   965.0000      8.5818      2.5774      0.0465      4.3994    144.4991     30.6594
   965.2500      8.5849      2.5785      0.0420      4.3335    144.1174     30.5274
   965.5000      8.5884      2.5739      0.0287      4.6150    143.1834     29.9620
   965.7500      8.5942      2.5659      0.0189      5.0974    142.4615     29.3664
   966.0000      8.6074      2.5468      0.0094      6.2543    140.4960     28.2463
   966.2500      8.6258      2.5299      0.0087      7.2774    138.0113     27.4157
   966.5000      8.6384      2.4998      0.0147      9.1007    132.5847     26.1500
   966.7500      8.6482      2.4777      0.0218     10.4441    128.5711     25.3556
   967.0000      8.6622      2.4437      0.0338     12.5011    123.2713     24.3656
   967.2500      8.6791      2.4226      0.0416     13.7844    120.4519     23.9157
   967.5000      8.6926      2.3966      0.0528     15.3556    116.8307     23.6119
   967.7500      8.7000      2.3850      0.0600     16.0629    114.5742     23.6095
   968.0000      8.7040      2.3768      0.0695     16.5584    111.7639     23.7027
   968.2500      8.7107      2.3765      0.0736     16.5768    110.7051     23.6945
   968.5000      8.7205      2.3796      0.0734     16.3904    110.5617     23.4410
   968.7500      8.7290      2.3810      0.0685     16.3035    111.0854     23.1176
   969.0000      8.7340      2.3784      0.0557     16.4624    111.7946     22.5232
   969.2500      8.7403      2.3729      0.0464     16.7942    111.7311     22.1549
   969.5000      8.7520      2.3616      0.0381     17.4807    110.7036     21.8352
   969.7500      8.7661      2.3548      0.0396     17.8913    109.7684     21.8846
   970.0000      8.7778      2.3509      0.0525     18.1274    108.7258     22.4509
   970.2500      8.7837      2.3544      0.0641     17.9148    108.4404     23.1205
   970.5000      8.7865      2.3692      0.0762     17.0187    108.7553     24.3354
   970.7500      8.7949      2.3840      0.0768     16.1186    109.7716     25.1066
   971.0000      8.8056      2.4100      0.0665     14.5427    113.3073     25.9690
   971.2500      8.8108      2.4277      0.0551     13.4730    117.1614     26.3215
   971.5000      8.8163      2.4523      0.0379     11.9845    124.4143     26.6724
   971.7500      8.8149      2.4670      0.0297     11.0885    129.4293     26.9270
   972.0000      8.8117      2.4879      0.0245      9.8264    136.2027     27.5145
   972.2500      8.8148      2.5019      0.0248      8.9775    140.0025     28.0696
   972.5000      8.8213      2.5244      0.0280      7.6111    144.3762     29.0401
   972.7500      8.8250      2.5405      0.0301      6.6342    146.0749     29.6384
   973.0000      8.8253      2.5648      0.0310      5.1658    146.2207     30.2060
   973.2500      8.8249      2.5792      0.0290      4.2939    144.7340     30.2965
   973.5000      8.8281      2.5943      0.0212      3.3730    141.0193     30.0824
   973.7500      8.8353      2.5984      0.0138      3.1273    138.3792     29.8078
   974.0000      8.8414      2.5942      0.0043      3.3829    135.5381     29.3071
   974.2500      8.8462      2.5853      0.0016      3.9220    134.9860     28.9220
   974.5000      8.8545      2.5662      0.0037      5.0759    136.7899     28.2898
   974.7500      8.8648      2.5523      0.0073      5.9231    139.8126     27.8992
   975.0000      8.8713      2.5331      0.0130      7.0863    146.4934     27.5160
   975.2500      8.8737      2.5227      0.0161      7.7132    151.6669     27.4430
   975.5000      8.8742      2.5114      0.0195      8.4012    159.0281     27.5538
   975.7500      8.8784      2.5062      0.0208      8.7158    162.9164     27.6829
   976.0000      8.8879      2.5009      0.0223      9.0344    166.3880     27.7695
   976.2500      8.8994      2.4986      0.0243      9.1743    166.9819     27.6728
   976.5000      8.9100      2.4965      0.0303      9.3005    165.7707     27.2755
   976.7500      8.9168      2.4960      0.0366      9.3316    164.2112     26.9113
   977.0000      8.9209      2.4966      0.0475      9.2948    161.8773     26.4251
   977.2500      8.9248      2.4980      0.0543      9.2150    160.7189     26.2566
   977.5000      8.9293      2.5009      0.0619      9.0335    159.8098     26.2932
   977.7500      8.9357      2.5031      0.0650      8.9035    159.5718     26.4391
   978.0000      8.9444      2.5051      0.0656      8.7792    158.6076     26.6689
