~Version Information
 VERS.                                  2.0 : CWLS LAS VERSION
 WRAP.                                   NO : WRAPING MODE
 SWARE .                 MController 2.5.0E : SOFTWARE VERSION
~Well Information
 WELL.                       Montoya 12 44v : WELL
 COMP.                       Petrogulf Corp : COMPANY
 FLD.                      Purgatorie River : FIELD
 LOC.               SE/SE Sec 12 T33S R66W  : LOCATION
 DATE.                             8/7 8/04 : DATE(S) LOGGED
 SRVC.       Blanco Geological Services LLC : SERVICE COMPANY
 STAT.                                   CO : STATE
 CNTY.                           Las Animas : COUNTY
 CTRY.                                  USA : COUNTRY
 API.                       05 071 08094 00 : API NUMBER
 STRT.FT                             804.00 : START DEPTH
 STOP.FT                            2469.00 : STOP DEPTH
 STEP.FT                               1.00 : DEPTH INCREMENT
 NULL.                                 9999 : NULL VALUE
~Curve information
 DEPTH.FT                                   :
 ROP.MIN/FT                                 :
 GAS.UNITS                                  :
~ASCII Log data
# ...
     2004.00        0.317          1.8 
     2005.00        0.333          1.8 
     2006.00        0.300          2.0 
     2007.00        0.267          2.0 
     2008.00        0.300          2.0 
     2009.00        0.300          2.2 
     2010.00        0.167          2.3 
     2011.00        0.167          2.2 
     2012.00        3.783          3.3 
     2013.00        0.300          3.7 
     2014.00        0.400          4.2 
     2015.00        0.383          3.7 
     2016.00        0.333          3.6 
     2017.00        0.267          3.8 
     2018.00        0.267          4.5 
     2019.00        0.300          5.2 
     2020.00        0.367          5.8 
     2021.00        0.300          5.9 
     2022.00        0.333          5.7 
     2023.00        0.367          5.3 
     2024.00        0.333          4.4 
     2025.00        0.350          3.7 
     2026.00        0.267          3.9 
     2027.00        0.300          3.5 
     2028.00        0.367          2.6 
     2029.00        0.267          2.7 
     2030.00        0.200          2.3 
     2031.00        0.267          2.3 
     2032.00        0.267          2.2 
     2033.00        0.267          2.4 
     2034.00        0.233          1.9 
     2035.00        0.167          1.6 
     2036.00        0.167          2.2 
     2037.00        0.267          2.3 
     2038.00        0.283          2.6 
     2039.00        0.267          2.5 
     2040.00        0.300          2.6 
     2041.00        0.233          2.2 
     2042.00        4.283          5.1 
     2043.00        0.433          5.0 
     2044.00        0.367          4.7 
     2045.00        0.400          4.0 
     2046.00        0.383          4.0 
     2047.00        0.367          3.9 
     2048.00        0.300          3.6 
     2049.00        0.267          4.2 
     2050.00        0.300          4.3 
     2051.00        0.367          3.9 
     2052.00        0.300          3.3 
     2053.00        0.300          3.2 
     2054.00        0.267          2.9 
     2055.00        0.200          2.5 
     2056.00        0.200          2.9 
     2057.00        0.233          2.7 
     2058.00        0.317          2.3 
     2059.00        0.200          2.5 
     2060.00        0.267          2.4 
     2061.00        0.267          2.4 
     2062.00        0.233          2.6 
     2063.00        0.267          2.1 
     2064.00        0.233          2.2 
     2065.00        0.200          2.6 
     2066.00        0.233          2.4 
     2067.00        0.233          2.6 
     2068.00        0.267          2.2 
     2069.00        0.167          2.4 
     2070.00        0.200          2.4 
     2071.00        0.200          2.7 
     2072.00        4.567          8.8 
     2073.00        0.367          7.9 
     2074.00        0.400          7.4 
     2075.00        0.367          5.1 
     2076.00        0.400          4.6 
     2077.00        0.367          4.4 
     2078.00        0.350          4.8 
     2079.00        0.400          4.5 
     2080.00        0.567          4.7 
     2081.00        0.500          4.1 
     2082.00        0.433          3.5 
     2083.00        0.367          4.8 
     2084.00        0.333          7.3 
     2085.00        0.333          7.6 
     2086.00        0.417          8.3 
     2087.00        0.367          6.7 
     2088.00        0.367          0.6 
     2089.00        0.367          0.3 
     2090.00        0.400          0.3 
     2091.00        0.333          0.1 
     2092.00        0.267          0.7 
     2093.00        0.233          0.7 
     2094.00        0.233          0.6 
     2095.00        0.267          0.8 
     2096.00        0.267          0.8 
     2097.00        0.317          0.8 
     2098.00        0.367          0.8 
     2099.00        0.300          0.7 
     2100.00        0.267          0.9 
     2101.00        0.300          0.6 
     2102.00        5.217         18.8 
     2103.00        0.550         17.9 
     2104.00        0.200         15.0 
     2105.00        0.333         12.9 
     2106.00        0.333          8.6 
     2107.00        0.300          5.7 
     2108.00        0.333          4.1 
     2109.00        0.267          3.3 
     2110.00        0.300          3.9 
     2111.00        0.333          3.5 
     2112.00        0.233          4.0 
     2113.00        0.250          3.4 
     2114.00        0.367          4.6 
     2115.00        0.400          5.3 
     2116.00        0.367          4.4 
     2117.00        0.333          0.3 
     2118.00        0.333          0.8 
     2119.00        0.267          0.9 
     2120.00        0.267          1.5 
     2121.00        0.333          2.9 
     2122.00        0.233          5.5 
     2123.00        0.300          7.5 
     2124.00        0.350          9.1 
     2125.00        0.333          9.5 
     2126.00        0.367         10.0 
     2127.00        0.333         10.3 
     2128.00        0.267         10.2 
     2129.00        0.267         10.6 
     2130.00        0.300         10.4 
     2131.00        0.200         10.3 
     2132.00        5.167         13.0 
     2133.00        0.433          9.9 
     2134.00        0.433          9.3 
     2135.00        0.533          8.8 
     2136.00        0.467          9.4 
     2137.00        0.400          9.3 
     2138.00        0.283          9.0 
     2139.00        0.167          8.3 
     2140.00        0.367          8.0 
     2141.00        0.700          7.4 
     2142.00        0.600          7.4 
     2143.00        0.600          7.8 
     2144.00        0.367          8.2 
     2145.00        0.400          8.1 
     2146.00        0.450          7.9 
     2147.00        0.433          7.4 
     2148.00        0.367          6.9 
     2149.00        0.367          7.2 
     2150.00        0.400          7.0 
     2151.00        0.367          6.7 
     2152.00        0.333          6.6 
     2153.00        0.367          6.8 
     2154.00        0.417          6.6 
     2155.00        0.400          6.5 
     2156.00        0.367          6.4 
     2157.00        0.367          6.5 
     2158.00        0.500          6.2 
     2159.00        0.467          6.4 
     2160.00        0.500          6.3 
     2161.00        0.167          6.4 
     2162.00        4.733         11.4 
     2163.00        0.600         12.7 
     2164.00        0.667         11.7 
     2165.00        0.367         10.0 
     2166.00        0.200          9.7 
     2167.00        0.300          9.7 
     2168.00        0.450          9.9 
     2169.00        0.467          9.3 
     2170.00        0.633          8.5 
     2171.00        0.600          7.9 
     2172.00        0.567          8.1 
     2173.00        0.533          8.0 
     2174.00        0.417          7.3 
     2175.00        0.367          7.0 
     2176.00        0.367          6.5 
     2177.00        0.433          6.3 
     2178.00        0.333          5.8 
     2179.00        0.367          5.9 
     2180.00        0.367          5.9 
     2181.00        0.400          6.2 
     2182.00        0.400          6.2 
     2183.00        0.383          6.3 
     2184.00        0.367          6.2 
     2185.00        0.333          6.4 
     2186.00        0.333          5.8 
     2187.00        0.300          5.8 
     2188.00        0.333          6.1 
     2189.00        0.333          6.1 
     2190.00        0.300          5.9 
     2191.00        0.367          5.9 
     2192.00        4.167          7.5 
     2193.00        0.633         10.5 
     2194.00        0.633         11.4 
     2195.00        0.600         10.2 
     2196.00        0.567          9.1 
     2197.00        0.533          9.3 
     2198.00        0.550          9.7 
     2199.00        0.667          8.4 
     2200.00        0.667          7.4 
     2201.00        0.600          6.7 
     2202.00        0.600          5.9 
     2203.00        0.167          5.6 
