~Version Information
 VERS.                                  2.0 : CWLS LAS VERSION
 WRAP.                                   NO : WRAPING MODE
 SWARE .                 MController 2.5.0J : SOFTWARE VERSION
~Well Information
 WELL.                         McLeod 9-42V: WELL
 COMP.                       Petrogulf Corp : COMPANY
 FLD.                       Purgatoire River: FIELD
 LOC.                  SE/NE Sec 9 T33S R67W: LOCATION
 DATE.                             11/11/04 : DATE(S) LOGGED
 SRVC.        Blanco Geological Services LLC: SERVICE COMPANY
 STAT.                                    CO: STATE
 CNTY.                            Las Animas: COUNTY
 CTRY.                                   USA: COUNTRY
 API.                           05-071-08071: API NUMBER
 STRT.FT                             424.00 : START DEPTH
 STOP.FT                            2270.00 : STOP DEPTH
 STEP.FT                               1.00 : DEPTH INCREMENT
 NULL.                                -9999 : NULL VALUE
~Curve information
 DEPTH.FT                                   :
 ROP.MIN/FT                                 :
 GAS.UNITS                                  :
~ASCII Log data
# ...
      1824.0         0.20        101.5 
      1825.0         0.27        107.2 
      1826.0         0.27         99.5 
      1827.0         0.27         84.5 
      1828.0         0.27         72.0 
      1829.0         0.20         68.6 
      1830.0         0.13         68.8 
      1831.0         0.10         68.7 
      1832.0         0.23         69.9 
      1833.0         0.23         69.6 
      1834.0         0.23         66.3 
      1835.0         0.23         61.3 
      1836.0         0.27         55.9 
      1837.0         0.28         52.2 
      1838.0         0.33         55.3 
      1839.0         0.33         60.5 
      1840.0         0.33         62.7 
      1841.0         0.27         62.7 
      1842.0         0.27         61.8 
      1843.0         0.23         60.0 
      1844.0         0.27         56.9 
      1845.0         0.23         54.0 
      1846.0         0.20         52.2 
      1847.0         0.30         50.3 
      1848.0         0.20        100.9 
      1849.0         0.33        116.5 
      1850.0         0.30        109.6 
      1851.0         0.30         91.4 
      1852.0         0.17         69.4 
      1853.0         0.17         68.5 
      1854.0         0.20         67.0 
      1855.0         0.17         65.0 
      1856.0         0.17         62.7 
      1857.0         0.17         62.8 
      1858.0         0.13         66.3 
      1859.0         0.17         73.0 
      1860.0         0.20         81.2 
      1861.0         0.17         85.4 
      1862.0         0.17         84.1 
      1863.0         0.13         80.2 
      1864.0         0.17         72.5 
      1865.0         0.17         64.5 
      1866.0         0.17         58.0 
      1867.0         0.13         53.9 
      1868.0         0.13         51.2 
      1869.0         0.13         49.1 
      1870.0         0.13         48.0 
      1871.0         0.13         46.4 
      1872.0         0.15         46.2 
      1873.0         0.17         44.6 
      1874.0         0.13         42.8 
      1875.0         0.20         40.7 
      1876.0         0.20         38.0 
      1877.0         0.23         36.0 
      1878.0         0.27        130.2 
      1879.0         0.27        125.1 
      1880.0         0.27        107.7 
      1881.0         0.37         83.2 
      1882.0         0.48         74.8 
      1883.0         0.23         74.4 
      1884.0         0.30         72.4 
      1885.0         0.30         70.9 
      1886.0         0.30         69.1 
      1887.0         0.30         64.0 
      1888.0         0.27         57.7 
      1889.0         0.23         53.2 
      1890.0         0.23         50.9 
      1891.0         0.20         50.8 
      1892.0         0.17         49.3 
      1893.0         0.23         46.3 
      1894.0         0.30         43.0 
      1895.0         0.32         42.4 
      1896.0         0.27         41.6 
      1897.0         0.27         41.0 
      1898.0         0.27         41.0 
      1899.0         0.23         40.5 
      1900.0         0.20         39.6 
      1901.0         0.17         40.4 
      1902.0         0.17         39.8 
      1903.0         0.17         38.5 
      1904.0         0.20         39.4 
      1905.0         0.23         39.6 
      1906.0         0.27         39.0 
      1907.0         0.27         39.2 
      1908.0         0.33         50.5 
      1909.0         0.37         60.8 
      1910.0         0.30         62.1 
      1911.0         0.33         57.7 
      1912.0         0.37         55.0 
      1913.0         0.37         58.4 
      1914.0         0.27         61.1 
      1915.0         0.27         61.2 
      1916.0         0.13         60.5 
      1917.0         0.20         57.4 
      1918.0         0.20         54.0 
      1919.0         0.23         51.8 
      1920.0         0.18         52.1 
      1921.0         0.20         50.4 
      1922.0         0.13         50.2 
      1923.0         0.17         48.8 
      1924.0         0.20         46.3 
      1925.0         0.20         45.5 
      1926.0         0.17         44.9 
      1927.0         0.20         45.2 
      1928.0         0.23         45.3 
      1929.0         0.23         44.7 
      1930.0         0.27         43.4 
      1931.0         0.23         43.8 
      1932.0         0.23         43.7 
      1933.0         0.27         42.7 
      1934.0         0.23         41.6 
      1935.0         0.20         41.7 
      1936.0         0.25         40.2 
      1937.0         0.27         39.7 
      1938.0         0.07         49.7 
      1939.0         0.37         61.4 
      1940.0         0.37         62.5 
      1941.0         0.37         56.6 
      1942.0         0.33         54.0 
      1943.0         0.40         58.8 
      1944.0         0.30         59.8 
      1945.0         0.30         57.5 
      1946.0         0.32         52.9 
      1947.0         0.30         48.6 
      1948.0         0.30         45.6 
      1949.0         0.33         43.3 
      1950.0         0.37         42.2 
      1951.0         0.33         41.8 
      1952.0         0.33         38.5 
      1953.0         0.37         37.4 
      1954.0         0.30         36.0 
      1955.0         0.30         36.2 
      1956.0         0.37         34.7 
      1957.0         0.38         33.5 
      1958.0         0.37         31.8 
      1959.0         0.33         31.0 
      1960.0         0.23         30.2 
      1961.0         0.23         30.9 
      1962.0         0.27         31.0 
      1963.0         0.23         31.3 
      1964.0         0.23         31.6 
      1965.0         0.20         31.2 
      1966.0         0.27         30.8 
      1967.0         0.27         28.8 
      1968.0         0.40         49.2 
      1969.0         0.42         65.0 
      1970.0         0.33         66.4 
      1971.0         0.33         60.0 
      1972.0         0.27         57.8 
      1973.0         0.37         59.0 
      1974.0         0.37         58.7 
      1975.0         0.33         55.0 
      1976.0         0.30         50.5 
      1977.0         0.40         43.8 
      1978.0         0.20         42.7 
      1979.0         0.25         40.9 
      1980.0         0.33         39.6 
      1981.0         0.33         38.9 
      1982.0         0.30         37.3 
      1983.0         0.33         35.2 
      1984.0         0.33         33.4 
      1985.0         0.37         35.8 
      1986.0         0.33         38.4 
      1987.0         0.37         38.4 
      1988.0         0.40         36.6 
      1989.0         0.35         34.7 
      1990.0         0.33         32.8 
      1991.0         0.33         31.8 
      1992.0         0.17         31.4 
      1993.0         0.17         30.7 
      1994.0         0.17         31.0 
      1995.0         0.20         29.4 
      1996.0         0.23         28.4 
      1997.0         0.27         28.2 
      1998.0         0.27         50.4 
      1999.0         0.37         62.8 
      2000.0         0.30         64.3 
      2001.0         0.35         57.6 
      2002.0         0.20         53.0 
      2003.0         0.20         50.8 
      2004.0         0.27         52.4 
      2005.0         0.30         54.6 
      2006.0         0.30         54.4 
      2007.0         0.33         51.6 
      2008.0         0.33         47.3 
      2009.0         0.33         41.9 
      2010.0         0.23         39.4 
      2011.0         0.13         38.8 
      2012.0         0.20         37.9 
      2013.0         0.17         38.9 
      2014.0         0.22         38.5 
      2015.0         0.20         37.6 
      2016.0         0.20         37.7 
      2017.0         0.30         36.5 
      2018.0         0.27         35.0 
      2019.0         0.23         36.0 
      2020.0         0.23         36.7 
      2021.0         0.23         38.5 
      2022.0         0.23         37.9 
      2023.0         0.20         37.9 
