~Version Information
 VERS.                                  2.0 : CWLS LAS VERSION
 WRAP.                                   NO : WRAPING MODE
 SWARE .                 MController 2.5.0J : SOFTWARE VERSION
~Well Information
 WELL.                          Silva 6-22V : WELL
 COMP.                       Petrogulf Corp : COMPANY
 FLD.                      Purgatoire River : FIELD
 LOC.                 SE/NW Sec 6 T33S R67W : LOCATION
 DATE.                            11/7-9/04 : DATE(S) LOGGED
 SRVC.       Blanco Geological Services LLC : SERVICE COMPANY
 STAT.                                   CO : STATE
 CNTY.                           Las Animas : COUNTY
 CTRY.                                  USA : COUNTRY
 API.                       05-071-08143-00 : API NUMBER
 STRT.FT                              35.00 : START DEPTH
 STOP.FT                            2732.00 : STOP DEPTH
 STEP.FT                               1.00 : DEPTH INCREMENT
 NULL.                                -9999 : NULL VALUE
~Curve information
 DEPTH.FT                                   :
 ROP.MIN/FT                                 :
 GAS.UNITS                                  :
~ASCII Log data
# ...
       235.0         0.23         10.3 
       236.0         0.23         10.1 
       237.0         0.20          9.7 
       238.0         0.23         10.1 
       239.0         0.25         10.5 
       240.0         0.23         10.1 
       241.0         0.23         10.1 
       242.0         0.20         10.1 
       243.0         0.23         10.0 
       244.0         0.20          9.8 
       245.0         0.27          9.5 
       246.0         0.23         66.5 
       247.0         0.20        137.9 
       248.0         0.23        175.4 
       249.0         0.23        175.4 
       250.0         0.23        114.6 
       251.0         0.23         58.7 
       252.0         0.20          6.4 
       253.0         0.25          5.5 
       254.0         0.27          5.1 
       255.0         0.23          4.7 
       256.0         0.23          5.4 
       257.0         0.20          5.4 
       258.0         0.27          6.1 
       259.0         0.27          7.1 
       260.0         0.33          6.6 
       261.0         0.38          6.4 
       262.0         0.23          7.3 
       263.0         0.23          7.1 
       264.0         0.23          6.9 
       265.0         0.23          6.9 
       266.0         0.27          7.3 
       267.0         0.27          7.5 
       268.0         0.27          7.4 
       269.0         0.23          7.5 
       270.0         0.23          7.8 
       271.0         0.23          8.0 
       272.0         0.23          8.1 
       273.0         0.23          8.2 
       274.0         0.23          7.9 
       275.0         0.25          7.9 
       276.0         0.27          7.8 
       277.0         0.23          7.6 
       278.0         0.23          7.3 
       279.0         0.27          7.6 
       280.0         0.23          9.3 
       281.0         0.23          8.9 
       282.0         0.23          8.7 
       283.0         0.20          9.0 
       284.0         0.23          9.9 
       285.0         0.23         10.4 
       286.0         0.23         10.6 
       287.0         0.23          9.9 
       288.0         0.20          9.6 
       289.0         0.23          9.0 
       290.0         0.28         10.3 
       291.0         0.27         10.5 
       292.0         0.23         10.0 
       293.0         0.20         10.0 
       294.0         0.20         10.0 
       295.0         0.20          9.7 
       296.0         0.20          9.4 
       297.0         0.23          9.7 
       298.0         0.23         10.4 
       299.0         0.23         10.7 
       300.0         0.25         10.7 
       301.0         0.20         10.4 
       302.0         0.20         10.2 
       303.0         0.23          9.7 
       304.0         0.20          9.9 
       305.0         0.33         10.5 
       306.0         0.23         10.8 
       307.0         0.20         10.5 
       308.0         0.23         10.5 
       309.0         0.20         10.7 
       310.0         0.23         11.1 
       311.0         0.23         10.8 
       312.0         0.23         10.9 
       313.0         0.27         10.9 
       314.0         0.22         10.5 
       315.0         0.23         10.3 
       316.0         0.20         10.4 
       317.0         0.23         10.3 
       318.0         0.30         10.2 
       319.0         0.23         10.4 
       320.0         0.17         10.9 
       321.0         0.20         10.7 
       322.0         0.17         10.3 
       323.0         0.27         10.0 
       324.0         0.23         10.0 
       325.0         0.25         10.7 
       326.0         0.20         11.2 
       327.0         0.23         11.4 
       328.0         0.20         10.9 
       329.0         0.20         10.7 
       330.0         0.20         10.8 
       331.0         0.23         10.6 
       332.0         0.23         10.5 
       333.0         0.20         10.7 
       334.0         0.23         10.8 
       335.0         0.20         10.8 
       336.0         0.27         10.9 
       337.0         0.23         10.7 
       338.0         0.23         11.6 
       339.0         0.25         10.8 
       340.0         0.23         11.2 
       341.0         0.23         10.7 
       342.0         0.23         10.7 
       343.0         0.27         10.8 
       344.0         0.27         10.2 
       345.0         0.27         10.5 
       346.0         0.27         10.8 
       347.0         0.23         11.0 
       348.0         0.23         10.6 
       349.0         0.23         10.9 
       350.0         0.27         10.6 
       351.0         0.17         10.5 
       352.0         0.23         10.6 
       353.0         0.27         10.5 
       354.0         0.27         10.4 
       355.0         0.20         10.5 
       356.0         0.23         11.0 
       357.0         0.23         11.0 
       358.0         0.23         10.9 
       359.0         0.20         10.8 
       360.0         0.23         11.1 
       361.0         0.28         11.4 
       362.0         0.23         11.2 
       363.0         0.23         10.9 
       364.0         0.27         11.1 
       365.0         0.23         10.5 
       366.0         0.27         10.1 
       367.0         0.27         10.7 
       368.0         0.30         10.8 
       369.0         0.23         11.3 
       370.0         0.27         10.3 
       371.0         0.23         10.1 
       372.0         0.23         10.7 
       373.0         0.23         11.2 
       374.0         0.28         11.8 
       375.0         0.23         11.9 
       376.0         0.20         10.9 
       377.0         0.23         10.5 
       378.0         0.23         10.4 
       379.0         0.23         10.4 
       380.0         0.17         10.5 
       381.0         0.10         10.5 
       382.0         0.17         10.9 
       383.0         0.27         11.5 
       384.0         0.22         11.4 
       385.0         0.23         11.2 
       386.0         0.23         11.3 
       387.0         0.23         11.3 
       388.0         0.23         11.0 
       389.0         0.27         10.6 
       390.0         0.27         10.3 
       391.0         0.23         10.7 
       392.0         0.23         11.2 
       393.0         0.23         11.1 
       394.0         0.20         11.1 
       395.0         0.23         10.7 
       396.0         0.20         10.8 
       397.0         0.23         10.7 
       398.0         0.22         10.5 
       399.0         0.20         11.6 
       400.0         0.20         10.5 
       401.0         0.20         10.5 
       402.0         0.17         10.2 
       403.0         0.23         10.1 
       404.0         0.20         10.3 
       405.0         0.23         11.1 
       406.0         0.20         11.6 
       407.0         0.27         11.3 
       408.0         0.27         11.6 
       409.0         0.30         11.0 
       410.0         0.23         10.3 
       411.0         0.13         10.1 
       412.0         0.23         10.9 
       413.0         0.27         11.2 
       414.0         0.27         11.2 
       415.0         0.30         11.2 
       416.0         0.27         11.6 
       417.0         0.23         11.4 
       418.0         0.23         10.7 
       419.0         0.20         10.7 
       420.0         0.23         10.5 
       421.0         0.20         10.5 
       422.0         0.25         10.8 
       423.0         0.23         11.6 
       424.0         0.23         11.4 
       425.0         0.20         11.1 
       426.0         0.23         11.1 
       427.0         0.20         11.0 
       428.0         0.20         10.9 
       429.0         0.23         11.2 
       430.0         0.27         11.8 
       431.0         0.27         10.6 
       432.0         0.33         10.7 
       433.0         0.27         11.2 
       434.0         0.17         11.5 
