~Version Information
VERS.                      2.0: CWLS Log ASCII Standard - VERSION 2.0
WRAP.                       NO: One line per depth step
~Well Information Block
STRT.FT               675.0000: 
STOP.FT              2371.5000: 
STEP.FT                 0.1000: 
NULL.                -999.2500: 
COMP.          Pioneer Natural Resources: COMPANY
WELL.            Harrier 44-33: WELL
FLD.           Purgatoire River: FIELD
LOC.           456' FSL & 930' FEL: LOCATION
PROV.                 Colorado: PROVINCE
CNTY.               Las Animas: COUNTRY
SRVC.                Patterson: SERVICE COMPANY
DATE.          Mon Jun 20 10:36:59 2005: LOG DATE
UWI.           05 071 08398 00: UNIQUE WELL ID
~Curve Information Block
DEPT.FT            0 000 00 00: Depth
DCAL.in                       : CDL Caliper
RHOB.g/cc                     : CDL Bulk Density
RHOC.g/cc                     : CDL Density Correction
DPOR.pu                       : CDL Density Porosity
GR.GAPI                       : Gamma Ray
NPOR.pu                       : Neutron Porosity
~Parameter Information Block
~A  Depth       DCAL        RHOB        RHOC        DPOR         GR         NPOR    
# ...
  1231.8000      7.9747      2.5945      0.1215      3.3630     89.0208     23.9454
  1231.9000      7.9747      2.6020      0.0677      2.9082     89.7235     24.2169
  1232.0000      7.9734      2.6159      0.0557      2.0687     92.4613     24.3301
  1232.1000      7.9734      2.6319      0.1130      1.0986     96.8348     24.4901
  1232.2000      7.9734      2.6472      0.0993      0.1710    100.3486     24.8101
  1232.3000      7.9638      2.6635      0.1054     -0.8153    101.2225     25.4051
  1232.4000      7.9638      2.6805      0.1134     -1.8461    101.2343     25.9814
  1232.5000      7.9627      2.6897      0.1185     -2.4059    102.0575     26.0474
  1232.6000      7.9627      2.6867      0.1346     -2.2216    104.2864     25.6741
  1232.7000      7.9627      2.6788      0.1160     -1.7479    106.6391     25.4571
  1232.8000      7.9684      2.6697      0.1033     -1.1942    106.0865     25.7109
  1232.9000      7.9684      2.6494      0.1034      0.0374    103.8866     26.0690
  1233.0000      7.9568      2.6102      0.0734      2.4151    103.7291     26.0729
  1233.1000      7.9568      2.5621      0.0244      5.3272    105.2796     25.7862
  1233.2000      7.9568      2.5247      0.0097      7.5951    106.8364     25.4879
  1233.3000      7.9550      2.5037      0.0110      8.8678    109.3649     25.2125
  1233.4000      7.9550      2.4909     -0.0325      9.6446    113.3958     25.0692
  1233.5000      7.9537      2.4936     -0.0390      9.4771    113.9331     25.0979
  1233.6000      7.9537      2.5271      0.0100      7.4505    107.1076     25.0550
  1233.7000      7.9537      2.5723      0.1024      4.7076    100.0368     24.9410
  1233.8000      7.9754      2.5899      0.1602      3.6430     99.9772     25.0266
  1233.9000      7.9754      2.5810      0.0775      4.1810    103.2381     25.4172
  1234.0000      7.9871      2.5831      0.1496      4.0562    103.2871     25.5126
  1234.1000      7.9871      2.6032      0.1893      2.8357     97.8949     24.6554
  1234.2000      7.9871      2.6164      0.2235      2.0389     90.8190     23.6117
  1234.3000      7.9866      2.6079      0.1802      2.5518     88.3870     23.3391
  1234.4000      7.9866      2.5888      0.1079      3.7090     91.6616     23.4635
  1234.5000      7.9515      2.5768      0.0944      4.4383     95.5787     23.3378
  1234.6000      7.9515      2.5686      0.1295      4.9308     96.0898     23.0673
  1234.7000      7.9515      2.5604      0.0870      5.4313     93.1067     23.0891
  1234.8000      7.9516      2.5731      0.0295      4.6577     88.3463     23.2791
  1234.9000      7.9516      2.6012      0.1386      2.9555     85.1478     22.9397
  1235.0000      7.9637      2.5956      0.0974      3.2994     82.8764     21.8835
  1235.1000      7.9637      2.5463      0.0070      6.2867     77.7326     20.7003
  1235.2000      7.9637      2.4993     -0.0352      9.1329     70.4570     19.9874
  1235.3000      7.9792      2.4860      0.0000      9.9390     63.5624     19.8431
  1235.4000      7.9792      2.4942      0.0329      9.4411     58.6169     19.9873
  1235.5000      7.9655      2.5015      0.0142      8.9997     56.2471     20.0579
  1235.6000      7.9655      2.5011      0.0225      9.0255     54.9520     19.6718
  1235.7000      7.9655      2.4944      0.0773      9.4311     53.0511     19.0179
  1235.8000      7.9620      2.4845      0.0441     10.0326     50.9112     18.6314
  1235.9000      7.9620      2.4840      0.0075     10.0624     48.3693     18.4728
  1236.0000      7.9545      2.5025      0.0174      8.9396     43.3020     18.2677
  1236.1000      7.9545      2.5204      0.0855      7.8558     38.7428     17.9029
  1236.2000      7.9545      2.5129      0.0304      8.3086     40.4441     17.4453
  1236.3000      7.9749      2.4927      0.0179      9.5345     46.0729     17.1071
  1236.4000      7.9749      2.4810      0.0787     10.2421     49.9294     17.0176
  1236.5000      7.9841      2.4746      0.0387     10.6327     49.6423     17.0632
  1236.6000      7.9841      2.4632      0.0476     11.3196     46.1878     16.8603
  1236.7000      7.9841      2.4485      0.0052     12.2125     42.5507     16.2613
  1236.8000      7.9927      2.4412     -0.0042     12.6550     40.6852     15.7756
  1236.9000      7.9927      2.4343      0.0722     13.0705     41.2004     15.8830
  1237.0000      7.9920      2.4169     -0.0234     14.1266     41.9894     16.2661
  1237.1000      7.9920      2.3966      0.0328     15.3571     41.0187     16.4063
  1237.2000      7.9920      2.3743      0.0595     16.7112     39.9803     16.3194
  1237.3000      8.0060      2.3586      0.0137     17.6591     41.5940     16.3205
  1237.4000      8.0060      2.3678      0.0467     17.1016     44.8769     16.6762
  1237.5000      7.9843      2.3837      0.0691     16.1381     46.5395     17.2646
  1237.6000      7.9843      2.3729      0.0718     16.7970     46.3889     17.7119
  1237.7000      7.9843      2.3365      0.0597     18.9973     46.6368     18.2014
  1237.8000      7.9784      2.2993      0.0915     21.2550     48.2225     18.8906
  1237.9000      7.9784      2.2752      0.0847     22.7167     50.9343     19.4008
  1238.0000      7.9640      2.2720      0.0606     22.9086     52.9876     19.6293
  1238.1000      7.9640      2.2898      0.1150     21.8330     53.1598     19.7148
  1238.2000      7.9640      2.3049      0.0861     20.9131     53.0617     19.7285
  1238.3000      7.9314      2.2966      0.0719     21.4193     53.9951     20.0076
  1238.4000      7.9314      2.2678      0.0882     23.1652     56.8940     20.8282
  1238.5000      7.9541      2.2417      0.0362     24.7447     61.4950     21.7796
  1238.6000      7.9541      2.2503      0.0609     24.2223     68.0930     22.2106
  1238.7000      7.9541      2.3032      0.1582     21.0180     78.0090     22.0651
  1238.8000      7.9443      2.3808      0.2245     16.3158     85.1366     21.7836
  1238.9000      7.9443      2.4598      0.2457     11.5279     82.9461     21.6618
  1239.0000      7.8780      2.5177      0.3143      8.0153     77.8871     21.8164
  1239.1000      7.8780      2.5374      0.2464      6.8223     77.1561     22.2785
  1239.2000      7.8780      2.5265      0.2377      7.4831     79.5187     22.8307
  1239.3000      7.8710      2.5005      0.2458      9.0594     81.0250     23.2235
  1239.4000      7.8710      2.4674      0.1579     11.0670     79.6049     23.3607
  1239.5000      7.8912      2.4421      0.0864     12.6014     77.1202     23.1515
  1239.6000      7.8912      2.4375      0.0314     12.8758     76.5111     22.7830
  1239.7000      7.8912      2.4422      0.0782     12.5911     78.8708     22.8391
  1239.8000      7.9212      2.4431     -0.0086     12.5373     83.0040     23.4065
  1239.9000      7.9212      2.4549     -0.0166     11.8246     85.4646     23.7975
  1240.0000      7.9841      2.4913      0.0785      9.6196     86.4947     23.8432
  1240.1000      7.9841      2.5348      0.1081      6.9820     88.0797     24.1700
  1240.2000      7.9841      2.5620      0.1085      5.3319     88.3736     24.8586
  1240.3000      8.0982      2.5660      0.1675      5.0931     89.4683     25.3795
  1240.4000      8.0982      2.5571      0.1329      5.6327     96.3697     25.5640
  1240.5000      8.1003      2.5621      0.0770      5.3252    107.5666     25.7763
  1240.6000      8.1003      2.5876      0.1634      3.7814    116.9096     26.0300
  1240.7000      8.1003      2.5966      0.1752      3.2360    121.3754     26.0031
  1240.8000      8.1022      2.5627      0.0936      5.2885    121.1169     25.8795
  1240.9000      8.1022      2.5094      0.0254      8.5199    118.2107     25.8914
  1241.0000      8.1480      2.4795      0.0242     10.3323    117.7849     25.9118
  1241.1000      8.1480      2.4953      0.0127      9.3774    122.6652     25.8707
  1241.2000      8.1480      2.5444      0.0197      6.3984    128.1147     25.7921
  1241.3000      8.2071      2.5956      0.0622      3.2967    128.6189     25.8089
