~Version Information
VERS.                      2.0: CWLS Log ASCII Standard - VERSION 2.0
WRAP.                       NO: One line per depth step
~Well Information Block
STRT.FT               433.5000: 
STOP.FT              1880.2500: 
STEP.FT                 0.2500: 
NULL.                -999.2500: 
COMP.          Pioneer Natural Resources: COMPANY
WELL.           Buckhorn 12-21: WELL
FLD.           Purgatorie River: FIELD
LOC.           2450' FNL & 608' FWL--: LOCATION
PROV.                       CO: PROVINCE
CNTY.               Las Animas: COUNTRY
SRVC.                         : SERVICE COMPANY
DATE.          Fri Dec 03 14:13:08 2004: LOG DATE
UWI.          005 071 08129 : UNIQUE WELL ID
~Curve Information Block
DEPT.FT            0 000 00 00: Depth
NPOR.pu                       : Neutron Porosity
CCL.                          : Casing Collar Locator
TT3.usec                      : CBL 3' Travel Time
AMP3.mV                       : CBL 3' Amplitude
GR.GAPI                       : Gamma Ray
~Parameter Information Block
~A  Depth       NPOR        CCL         TT3         AMP3         GR     
# ...
   825.5000     22.9190      0.0000    756.6412      7.7895     86.8964
   825.7500     22.6276      0.0000    760.6317      7.8625     86.4960
   826.0000     22.6736      0.0000    764.8867      7.8954     89.3355
   826.2500     23.0031      0.0000    770.4827      7.8930     95.5868
   826.5000     23.4950      0.0000    777.3616      7.8702    104.5118
   826.7500     24.0187      0.0000    783.6120      7.8394    114.5463
   827.0000     24.4960      0.0000    786.7380      7.8089    123.6949
   827.2500     24.8921      0.0000    785.5887      7.7914    130.2675
   827.5000     25.1658      0.0000    781.0015      7.8083    133.6230
   827.7500     25.2930      0.0000    774.8732      7.8804    134.1890
   828.0000     25.3440      0.0000    769.1068      8.0126    132.7825
   828.2500     25.4622      0.0000    765.4604      8.1868    130.1876
   828.5000     25.7229      0.0000    765.4357      8.3702    127.3285
   828.7500     26.0354      0.0000    769.1262      8.5318    125.3045
   829.0000     26.2253      0.0000    774.2558      8.6428    124.7799
   829.2500     26.2258      0.0000    777.5155      8.6728    125.3196
   829.5000     26.1676      0.0000    777.5126      8.6158    125.5881
   829.7500     26.2562      0.0000    775.6515      8.5284    124.6248
   830.0000     26.5935      0.0000    773.2401      8.5160    123.1443
   830.2500     27.1684      0.0000    767.8046      8.6582    123.3013
   830.5000     27.9613      0.0000    753.9622      8.9445    126.8286
   830.7500     28.9456      0.0000    730.0125      9.2813    133.5440
   831.0000     30.0126      0.0000    703.5251      9.5636    141.8112
   831.2500     30.9976      0.0000    687.1768      9.7463    149.9567
   831.5000     31.7801      0.0000    686.7329      9.8614    156.7260
   831.7500     32.3118      0.0000    695.0767      9.9703    160.9537
   832.0000     32.5929      0.0000    698.8574     10.1072    161.7677
   832.2500     32.6735      0.0000    688.1816     10.2714    159.2172
   832.5000     32.6340      0.0000    660.1614     10.4617    154.4153
   832.7500     32.5160      0.0000    618.5142     10.6856    149.0657
   833.0000     32.3084      0.0000    573.0118     10.9230    144.5450
   833.2500     32.0255      0.0000    538.0292     11.1037    140.9462
   833.5000     31.7500      0.0000    528.3155     11.1511    137.0910
   833.7500     31.5704      0.0000    550.6509     11.0519    131.9211
   834.0000     31.5176      0.0000    595.1813     10.8747    126.0366
   834.2500     31.5763      0.0000    637.8429     10.7141    121.6271
   834.5000     31.7119      0.0000    657.7139     10.6196    120.5865
   834.7500     31.8675      0.0000    653.0426     10.5772    122.7869
   835.0000     31.9729      0.0000    638.7377     10.5476    126.4565
   835.2500     31.9853      0.0000    630.4894     10.5043    130.0528
   835.5000     31.9006      0.0000    635.0211     10.4296    133.3880
   835.7500     31.7117      0.0000    652.2938     10.2882    137.2349
   836.0000     31.3866      0.0000    678.5674     10.0322    142.4267
   836.2500     30.9248      0.0000    706.4623      9.6464    149.2381
   836.5000     30.4230      0.0000    728.0684      9.1831    156.9376
   836.7500     30.0408      0.0000    740.1143      8.7425    163.6224
   837.0000     29.8806      0.0000    744.5082      8.4174    166.9200
   837.2500     29.9078      0.0000    744.6900      8.2473    165.5816
   837.5000     29.9801      0.0000    743.0518      8.2130    160.6994
   837.7500     29.9532      0.0000    740.9457      8.2661    155.0434
   838.0000     29.7894      0.0000    739.0245      8.3733    150.7506
   838.2500     29.5769      0.0000    736.5668      8.5452    147.7303
   838.5000     29.4358      0.0000    730.5717      8.8261    144.4643
   838.7500     29.4128      0.0000    715.4661      9.2565    139.9575
   839.0000     29.4641      0.0000    683.9556      9.8482    134.5244
   839.2500     29.5209      0.0000    630.2572     10.5983    128.9966
   839.5000     29.5559      0.0000    556.0892     11.5239    123.7285
   839.7500     29.5806      0.0000    474.1687     12.6707    118.6046
   840.0000     29.5969      0.0000    402.5706     14.0690    113.8786
   840.2500     29.5934      0.0000    353.3116     15.6689    110.6025
   840.5000     29.6094      0.0000    326.6081     17.3302    109.8577
   840.7500     29.7556      0.0000    315.0539     18.8781    111.6606
   841.0000     30.1225      0.0000    310.8590     20.1612    114.9097
   841.2500     30.6723      0.0000    309.3827     21.0546    118.3260
   841.5000     31.2631      0.0000    308.7841     21.4487    121.2791
   841.7500     31.7826      0.0000    308.5746     21.2820    124.1591
   842.0000     32.2253      0.0000    308.6848     20.5964    128.2512
   842.2500     32.6256      0.0000    309.2139     19.5385    134.6954
   842.5000     32.9500      0.0000    310.8711     18.2856    142.9138
   842.7500     33.0891      0.0000    316.0857     16.9615    150.3925
   843.0000     32.9421      0.0000    330.5028     15.6121    154.7509
   843.2500     32.4916      0.0000    362.9094     14.2551    155.7580
   843.5000     31.7998      0.0000    420.6414     12.9460    154.7155
   843.7500     30.9509      0.0000    501.2941     11.7933    152.4429
   844.0000     30.0189      0.0000    588.9198     10.9067    148.6866
   844.2500     29.1025      0.0000    662.1922     10.3323    143.1320
   844.5000     28.3707      0.0000    708.5963     10.0341    136.2486
   844.7500     28.0119      0.0000    730.0975      9.9257    129.1014
   845.0000     28.0933      0.0000    736.2488      9.9152    122.6978
   845.2500     28.4806      0.0000    735.0530      9.9316    117.6143
   845.5000     28.8988      0.0000    730.5160      9.9337    113.9080
   845.7500     29.0617      0.0000    725.1317      9.9047    111.0124
   846.0000     28.7908      0.0000    721.5387      9.8392    107.8049
   846.2500     28.0877      0.0000    721.6664      9.7395    103.3899
   846.5000     27.1219      0.0000    725.4013      9.6237     98.0395
   846.7500     26.1427      0.0000    730.6619      9.5258     93.0052
   847.0000     25.3898      0.0000    735.0597      9.4731     89.2843
   847.2500     25.0320      0.0000    737.7144      9.4670     86.9263
   847.5000     25.1180      0.0000    739.4574      9.4936     85.6277
   847.7500     25.5777      0.0000    741.2619      9.5541     85.5434
   848.0000     26.2844      0.0000    742.7656      9.6740     87.1244
   848.2500     27.1136      0.0000    742.4488      9.8727     90.3218
   848.5000     27.9667      0.0000    739.0296     10.1244     94.3540
   848.7500     28.7649      0.0000    732.6724     10.3598     98.2898
   849.0000     29.4167      0.0000    725.1051     10.5070    101.5478
   849.2500     29.8027      0.0000    718.5955     10.5268    103.8737
   849.5000     29.8236      0.0000    714.6970     10.4168    105.2340
   849.7500     29.4729      0.0000    714.0050     10.2002    105.7938
   850.0000     28.8421      0.0000    716.8973      9.9179    105.8277
   850.2500     28.0608      0.0000    723.8334      9.6254    105.6402
   850.5000     27.2441      0.0000    734.1813      9.3813    105.2978
   850.7500     26.4788      0.0000    744.7686      9.2214    104.3351
   851.0000     25.8245      0.0000    750.7707      9.1352    102.3253
   851.2500     25.3017      0.0000    749.4560      9.0758     99.8906
   851.5000     24.8770      0.0000    743.2419      8.9982     98.2338
   851.7500     24.4875      0.0000    737.8162      8.8902     97.5660
   852.0000     24.1158      0.0000    736.3249      8.7748     97.0367
   852.2500     23.8213      0.0000    735.3619      8.6932     96.1277
   852.5000     23.6533      0.0000    727.6427      8.6865     95.0776
   852.7500     23.5445      0.0000    710.3406      8.7748     94.1506
   853.0000     23.3474      0.0000    691.3298      8.9421     93.4653
   853.2500     22.9844      0.0000    684.7386      9.1400     93.2353
