~Version Information
VERS.                      2.0: CWLS Log ASCII Standard - VERSION 2.0
WRAP.                       NO: One line per depth step
~Well Information Block
STRT.FT                 0.5000: 
STOP.FT              2744.2500: 
STEP.FT                 0.2500: 
NULL.                -999.2500: 
COMP.          Petrogulf Corporation: COMPANY
WELL.              Silva 1-43V: WELL
FLD.           Purgatoire River: FIELD
LOC.           2010' FSL & 614' FEL--: LOCATION
PROV.                 Colorado: PROVINCE
CNTY.               Las Animas: COUNTRY
SRVC.                Patterson: SERVICE COMPANY
DATE.          Mon Sep 12 10:37:12 2005: LOG DATE
UWI.           05 071 08371 00: UNIQUE WELL ID
~Curve Information Block
DEPT.FT            0 000 00 00: Depth
CCL.                          : Casing Collar Locator
TT3.usec                      : CBL 3' Travel Time
AMP3.mV                       : CBL 3' Amplitude
GR.GAPI                       : Gamma Ray
~Parameter Information Block
~A  Depth       CCL         TT3         AMP3         GR     
# ...
   168.0000      0.0000    372.7624     11.4725     47.5784
   168.2500      0.0000    375.5787     11.4242     48.9663
   168.5000      0.0000    378.3590     11.3842     50.5254
   168.7500      0.0000    382.7594     11.3409     51.6563
   169.0000      0.0000    391.5264     11.2900     51.7658
   169.2500      0.0000    406.8527     11.2341     50.5926
   169.5000      0.0000    427.8025     11.1759     48.4109
   169.7500      0.0000    449.3286     11.1140     46.0065
   170.0000      0.0000    465.1358     11.0441     44.2636
   170.2500      0.0000    472.3398     10.9655     43.5518
   170.5000      0.0000    473.3663     10.8834     43.5580
   170.7500      0.0000    474.2826     10.8026     43.8041
   171.0000      0.0000    482.2320     10.7216     44.1472
   171.2500      0.0000    502.6974     10.6355     44.6126
   171.5000      0.0000    535.8881     10.5423     44.9570
   171.7500      0.0000    574.9873     10.4425     44.7273
   172.0000      0.0000    609.9168     10.3350     43.8926
   172.2500      0.0000    634.0683     10.2194     43.3130
   172.5000      0.0000    647.6011     10.1021     44.2653
   172.7500      0.0000    655.6505      9.9955     47.2205
   173.0000      0.0000    665.3431      9.9082     51.0977
   173.2500      0.0000    683.5858      9.8407     53.9145
   173.5000      0.0000    713.6241      9.7880     54.2999
   173.7500      0.0000    750.6151      9.7449     52.5102
   174.0000      0.0000    782.1591      9.7090     50.0750
   174.2500      0.0000    796.9715      9.6822     48.4032
   174.5000      0.0000    793.7372      9.6690     47.6052
   174.7500      0.0000    780.2944      9.6712     46.7457
   175.0000      0.0000    765.2408      9.6853     45.2848
   175.2500      0.0000    751.9250      9.7068     43.9315
   175.5000      0.0000    739.3401      9.7377     43.8220
   175.7500      0.0000    726.6602      9.7881     45.2680
   176.0000      0.0000    716.2126      9.8666     47.6966
   176.2500      0.0000    712.1853      9.9691     50.3470
   176.5000      0.0000    716.6462     10.0773     52.4729
   176.7500      0.0000    727.2293     10.1711     53.3079
   177.0000      0.0000    739.0775     10.2415     52.5514
   177.2500      0.0000    748.7566     10.2941     50.8709
   177.5000      0.0000    756.1924     10.3415     49.5354
   177.7500      0.0000    763.3683     10.3924     49.4646
   178.0000      0.0000    771.7545     10.4456     50.5888
   178.2500      0.0000    781.0438     10.4915     52.0105
   178.5000      0.0000    790.1491     10.5200     52.9313
   178.7500      0.0000    799.3347     10.5276     53.7625
   179.0000      0.0000    811.2084     10.5186     56.2624
   179.2500      0.0000    829.1321     10.4998     62.1749
   179.5000      0.0000    853.9151     10.4743     71.6181
   179.7500      0.0000    881.9260     10.4427     82.8703
   180.0000      0.0000    906.6959     10.4081     93.5524
   180.2500      0.0000    921.8096     10.3776    101.8838
   180.5000      0.0000    920.6317     10.3593    107.2288
   180.7500      0.0000    893.7101     10.3581    110.0427
   181.0000      0.0000    831.2048     10.3726    111.4269
   181.2500      0.0000    733.3781     10.3963    112.5279
   181.5000      0.0000    618.4528     10.4264    114.0237
   181.7500      0.0000    514.6863     10.4739    115.7442
   182.0000      0.0000    441.8568     10.5579    116.4826
   182.2500      0.0000    401.2981     10.6859    114.5033
   182.5000      0.0000    381.8776     10.8420    108.9866
   182.7500      0.0000    371.4617     10.9958    101.2447
   183.0000      0.0000    363.1200     11.1240     94.2274
   183.2500      0.0000    355.1719     11.2245     90.5904
   183.5000      0.0000    348.7124     11.3110     91.1230
   183.7500      0.0000    345.4002     11.3921     94.6460
   184.0000      0.0000    346.5555     11.4431     98.9462
   184.2500      0.0000    353.2079     11.3883    101.7674
   184.5000      0.0000    365.5787     11.1276    101.4905
   184.7500      0.0000    381.6240     10.6222     97.5307
   185.0000      0.0000    396.3988      9.9744     90.4227
   185.2500      0.0000    404.3802      9.3870     81.6005
   185.5000      0.0000    403.5814      9.0116     73.0797
   185.7500     -2.0000    397.0619      8.8517     67.1227
   186.0000      2.0000    389.9551      8.8157     65.5843
   186.2500      2.0000    385.8119      8.8295     68.8504
   186.5000      0.0000    386.1724      8.8864     75.1145
   186.7500      0.0000    392.4304      9.0319     80.9757
   187.0000      0.0000    406.0607      9.3262     83.4536
   187.2500      0.0000    425.5262      9.7929     82.0203
   187.5000      0.0000    443.4200     10.3571     78.7760
   187.7500      0.0000    449.7966     10.8501     76.4411
   188.0000      0.0000    440.9498     11.1231     76.1345
   188.2500      0.0000    424.0002     11.1624     76.9562
   188.5000      0.0000    411.6017     11.0683     77.2533
   188.7500      0.0000    413.3427     10.9419     76.0754
   189.0000      0.0000    431.7254     10.8188     73.8401
   189.2500      0.0000    462.5473     10.6893     72.0378
   189.5000      0.0000    497.1898     10.5441     72.1039
   189.7500      0.0000    526.7144     10.3976     74.1866
   190.0000      0.0000    546.2089     10.2803     76.9864
   190.2500      0.0000    555.9177     10.2187     78.9339
   190.5000      0.0000    558.8162     10.2170     79.5153
   190.7500      0.0000    558.0115     10.2534     79.3842
   191.0000      0.0000    555.9732     10.2940     79.4289
   191.2500      0.0000    554.5977     10.3140     80.1424
   191.5000      0.0000    554.7916     10.3121     81.7893
   191.7500      0.0000    556.1414     10.3060     84.4818
   192.0000      0.0000    557.5701     10.3159     87.7560
   192.2500      0.0000    558.3925     10.3495     90.3971
   192.5000      0.0000    558.6938     10.3985     91.1072
   192.7500      0.0000    558.9408     10.4450     89.4789
   193.0000      0.0000    559.5771     10.4692     86.2729
   193.2500      0.0000    561.1188     10.4555     82.6721
   193.5000      0.0000    564.8199     10.3978     79.2978
   193.7500      0.0000    573.2903     10.3039     76.0489
   194.0000      0.0000    589.6925     10.1939     72.6867
   194.2500      0.0000    614.8770     10.0895     69.2255
   194.5000      0.0000    644.8998     10.0022     65.8631
   194.7500      0.0000    672.5698      9.9305     62.9154
   195.0000      0.0000    692.3217      9.8690     60.8667
   195.2500      0.0000    703.3282      9.8173     60.1815
   195.5000      0.0000    708.3325      9.7814     60.8510
   195.7500      0.0000    710.8721      9.7691     62.2022
   196.0000      0.0000    713.9918      9.7840     63.2767
   196.2500      0.0000    720.3334      9.8234     63.3221
   196.5000      0.0000    731.7226      9.8783     62.0053
   196.7500      0.0000    747.4326      9.9362     59.5242
   197.0000      0.0000    762.5862      9.9863     56.6296
   197.2500      0.0000    768.7245     10.0228     54.2079
   197.5000      0.0000    756.9531     10.0428     52.7589
   197.7500      0.0000    722.4847     10.0443     52.4110
   198.0000      0.0000    668.6432     10.0269     53.1494
   198.2500      0.0000    607.0368      9.9962     54.6345
   198.5000      0.0000    551.6607      9.9619     56.0088
   198.7500      0.0000    510.7015      9.9308     56.3392
   199.0000      0.0000    483.3536      9.9023     55.3177
   199.2500      0.0000    463.6877      9.8725     53.4020
   199.5000      0.0000    446.5424      9.8399     51.4033
   199.7500      0.0000    430.2995      9.8071     50.1036
   200.0000      0.0000    416.0258      9.7771     50.0236
   200.2500      0.0000    405.2627      9.7491     51.1166
   200.5000      0.0000    398.5213      9.7172     52.6663
   200.7500      0.0000    395.2194      9.6711     53.8156
   201.0000      0.0000    394.8350      9.6032     54.2884
   201.2500      0.0000    398.5013      9.5181     54.4010
