~Version Information
VERS.                      2.0: CWLS Log ASCII Standard - VERSION 2.0
WRAP.                       NO: One line per depth step
~Well Information Block
STRT.FT               500.0000: 
STOP.FT              2732.5000: 
STEP.FT                 0.2500: 
NULL.                -999.2500: 
COMP.          Pioneer Natural Resources: COMPANY
WELL.          Dude Canyon 22-32: WELL
FLD.           Purgatoire River: FIELD
LOC.           1662' FNL & 2446' FWL----: LOCATION
PROV.                 Colorado: PROVINCE
CNTY.               Las Animas: COUNTRY
SRVC.                Patterson: SERVICE COMPANY
DATE.          Thu Mar 10 07:15:42 2005: LOG DATE
UWI.           05 071 08257 00: UNIQUE WELL ID
~Curve Information Block
DEPT.FT            0 000 00 00: Depth
DIR.Ohm-m                     : IEL Induction Resistivity
GR.GAPI                       : Gamma Ray
SN.Ohm-m                      : IEL Short Normal
SP.mV                         : IEL Spontaneous Potential
~Parameter Information Block
~A  Depth       DIR          GR          SN          SP     
# ...
  1237.0000     18.8185    148.0903     21.0973     35.2373
  1237.2500     18.7825    147.0530     20.9973     35.3962
  1237.5000     18.8944    143.8503     21.0358     35.4857
  1237.7500     19.1532    141.1988     21.1786     35.5067
  1238.0000     19.5329    137.2983     21.3783     35.4668
  1238.2500     19.9963    134.7695     21.6001     35.3774
  1238.5000     20.5081    130.7054     21.8330     35.2500
  1238.7500     21.0434    127.7462     22.0872     35.0930
  1239.0000     21.5866    123.3345     22.3858     34.9107
  1239.2500     22.1299    120.8824     22.7562     34.7037
  1239.5000     22.6765    118.9965     23.2213     34.4721
  1239.7500     23.2446    119.4459     23.7928     34.2187
  1240.0000     23.8635    122.5595     24.4649     33.9506
  1240.2500     24.5576    125.3374     25.2080     33.6783
  1240.5000     25.3240    128.1684     25.9639     33.4118
  1240.7500     26.1190    128.1421     26.6539     33.1553
  1241.0000     26.8654    125.2578     27.2169     32.9029
  1241.2500     27.4861    122.3412     27.6538     32.6387
  1241.5000     27.9511    118.3104     28.0380     32.3422
  1241.7500     28.3040    116.4674     28.4707     31.9985
  1242.0000     28.6417    114.7414     29.0136     31.6067
  1242.2500     29.0587    113.5232     29.6416     31.1829
  1242.5000     29.5909    110.2187     30.2416     30.7546
  1242.7500     30.1935    106.7739     30.6568     30.3507
  1243.0000     30.7621    100.5560     30.7647     29.9927
  1243.2500     31.1890     96.7110     30.5539     29.6931
  1243.5000     31.4165     93.4692     30.1456     29.4599
  1243.7500     31.4459     93.9945     29.7250     29.3035
  1244.0000     31.2928     99.2124     29.4186     29.2393
  1244.2500     30.9321    104.8121     29.2084     29.2818
  1244.5000     30.2852    113.6822     28.9467     29.4356
  1244.7500     29.2729    118.4697     28.4579     29.6855
  1245.0000     27.8953    123.3960     27.6595     29.9935
  1245.2500     26.2681    125.9934     26.6222     30.3046
  1245.5000     24.5819    130.5123     25.5293     30.5593
  1245.7500     23.0256    134.1642     24.5701     30.7104
  1246.0000     21.7314    139.6329     23.8478     30.7382
  1246.2500     20.7617    142.4468     23.3581     30.6621
  1246.5000     20.1216    144.4193     23.0278     30.5391
  1246.7500     19.7796    144.1734     22.7682     30.4481
  1247.0000     19.6856    142.3762     22.5136     30.4580
  1247.2500     19.7875    141.0003     22.2361     30.5967
  1247.5000     20.0441    139.1094     21.9467     30.8365
  1247.7500     20.4351    137.3477     21.6847     31.1111
  1248.0000     20.9600    132.4935     21.4952     31.3538
  1248.2500     21.6220    127.7698     21.4038     31.5365
  1248.5000     22.4011    120.4924     21.4077     31.6841
  1248.7500     23.2302    117.0826     21.4875     31.8589
  1249.0000     23.9904    115.6049     21.6209     32.1284
  1249.2500     24.5317    117.0143     21.7814     32.5353
  1249.5000     24.7165    121.9314     21.9308     33.0846
  1249.7500     24.4666    126.3896     22.0216     33.7465
  1250.0000     23.7961    133.1915     22.0106     34.4699
  1250.2500     22.8125    136.8366     21.8753     35.1963
  1250.5000     21.6808    140.3614     21.6218     35.8718
  1250.7500     20.5702    141.8644     21.2868     36.4570
  1251.0000     19.6102    144.0947     20.9309     36.9322
  1251.2500     18.8732    145.9182     20.6176     37.2999
  1251.5000     18.3770    148.5799     20.3828     37.5806
  1251.7500     18.0980    149.4251     20.2156     37.8037
  1252.0000     17.9847    147.7796     20.0700     37.9965
  1252.2500     17.9726    144.5536     19.9014     38.1752
  1252.5000     18.0020    138.0056     19.7001     38.3426
  1252.7500     18.0347    133.9268     19.5001     38.4917
  1253.0000     18.0623    130.0989     19.3575     38.6130
  1253.2500     18.0983    129.4331     19.3173     38.6995
  1253.5000     18.1608    130.8221     19.3897     38.7474
  1253.7500     18.2575    132.6091     19.5500     38.7534
  1254.0000     18.3844    134.8943     19.7586     38.7105
  1254.2500     18.5357    135.4153     19.9899     38.6081
  1254.5000     18.7139    134.5832     20.2479     38.4354
  1254.7500     18.9330    133.2930     20.5615     38.1880
  1255.0000     19.2143    130.6051     20.9659     37.8717
  1255.2500     19.5824    128.3799     21.4861     37.5014
  1255.5000     20.0643    124.7268     22.1300     37.0966
  1255.7500     20.6876    122.2806     22.8952     36.6746
  1256.0000     21.4762    118.6098     23.7872     36.2493
  1256.2500     22.4439    116.1706     24.8346     35.8337
  1256.5000     23.5929    112.9021     26.0890     35.4450
  1256.7500     24.9182    111.1646     27.6056     35.1066
  1257.0000     26.4141    108.7493     29.4097     34.8433
  1257.2500     28.0752    106.5952     31.4643     34.6705
  1257.5000     29.8873    101.6284     33.6670     34.5850
  1257.7500     31.8127     97.1381     35.8919     34.5606
  1258.0000     33.7838     89.3865     38.0499     34.5545
  1258.2500     35.7166     84.1962     40.1100     34.5190
  1258.5000     37.5424     77.6002     42.0738     34.4163
  1258.7500     39.2328     74.6296     43.9459     34.2280
  1259.0000     40.7998     72.7705     45.7266     33.9585
  1259.2500     42.2736     72.9187     47.4194     33.6298
  1259.5000     43.6883     73.8081     49.0328     33.2730
  1259.7500     45.0837     73.9866     50.5732     32.9186
  1260.0000     46.5069     72.8620     52.0371     32.5904
  1260.2500     47.9962     71.2356     53.4151     32.3043
  1260.5000     49.5544     68.2178     54.7073     32.0700
  1260.7500     51.1429     66.3925     55.9347     31.8931
  1261.0000     52.7096     64.5254     57.1374     31.7759
  1261.2500     54.2332     63.7551     58.3559     31.7168
  1261.5000     55.7409     62.6825     59.6066     31.7088
  1261.7500     57.2814     61.7551     60.8777     31.7405
  1262.0000     58.8724     59.9584     62.1536     31.7985
  1262.2500     60.4688     58.4758     63.4340     31.8695
  1262.5000     61.9814     55.6835     64.7312     31.9413
  1262.7500     63.3336     53.4737     66.0729     32.0012
  1263.0000     64.5006     50.2467     67.5136     32.0343
  1263.2500     65.5105     48.6885     69.1206     32.0242
  1263.5000     66.4225     47.6774     70.9250     31.9572
  1263.7500     67.3082     47.6030     72.8854     31.8294
  1264.0000     68.2314     47.3771     74.9029     31.6525
  1264.2500     69.2200     46.7319     76.8740     31.4528
  1264.5000     70.2643     45.0950     78.7407     31.2637
  1264.7500     71.3556     43.9214     80.5077     31.1121
  1265.0000     72.5300     42.6478     82.2129     31.0063
  1265.2500     73.8556     42.2987     83.8681     30.9319
  1265.5000     75.3591     42.3720     85.4299     30.8583
  1265.7500     76.9652     42.4515     86.8324     30.7539
  1266.0000     78.5075     41.9112     88.0296     30.6016
  1266.2500     79.8007     41.0692     88.9801     30.4093
  1266.5000     80.6944     39.8054     89.5930     30.2118
  1266.7500     81.0561     39.4308     89.7094     30.0648
  1267.0000     80.7182     39.7329     89.1318     30.0363
  1267.2500     79.4792     40.3040     87.6568     30.1942
  1267.5000     77.1975     41.4053     85.0962     30.5924
  1267.7500     73.8882     42.2671     81.3356     31.2573
  1268.0000     69.7193     43.8117     76.4392     32.1782
  1268.2500     64.9295     45.0998     70.7153     33.3073
  1268.5000     59.7609     47.8693     64.6481     34.5719
  1268.7500     54.4503     50.7592     58.7138     35.8946
  1269.0000     49.2246     57.6267     53.2102     37.2111
  1269.2500     44.2720     64.2407     48.2109     38.4786
  1269.5000     39.7144     76.7684     43.6499     39.6734
  1269.7500     35.6167     85.8417     39.4513     40.7815
  1270.0000     32.0177     98.2814     35.6109     41.7914
  1270.2500     28.9479    104.9974     32.1932     42.6920
