~Version Information
 VERS.                2.0:  CWLS LOG ASCII STANDARD -VERSION 2.0
 WRAP.                 NO:  ONE LINE PER DEPTH STEP
~WELL INFORMATION BLOCK
#MNEM.UNIT       DATA		            DESCRIPTION OF MNEMONIC
#---------    -------------            ------------------------
 STRT.FT  0.500                          :START DEPTH
 STOP.FT  1812.700                       :STOP DEPTH
 STEP.FT  0.100                          :STEP    UP_HOLE  
 NULL.    -999.25                        :NULL VALUE
 COMP.              EL PASO PRODUCTIONS  :COMPANY
 WELL.                     COREHOLE #38  :WELL
 FLD .                 PURGATOIRE RIVER  :FIELD
 LOC .      15   35S   65W               :LOCATION
 CNTY.                           COLFAX  :COUNTY
 STAT.                     NM            :STATE
 CTRY.                                   :
 SRVC.     O'DRISCOLL                    :SERVICE COMPANY
 DATE.   04/28/05                        :LOG DATE
 API .                                   :API NUMBER
 LIC .                                   :LICENSE NUMBER
~Curve Information Block
#MNEM.UNIT      API CODE     Curve Description
#---------    -------------  ------------------------
 DEPT     .FT        00 001 00 00          :  1  DEPTH   
 GAMMA    .API-GR    00 310 00 00          :  2                GAMMA
 TEMP     .DEG F     00 660 00 00          :  3                 TEMP
 RES(16N) .OHM-M     00 040 00 00          :  4             RES(16N)
 RES(64N) .OHM-M     00 060 00 00          :  5             RES(64N)
 RES      .OHM       00 000 00 00          :  6                  RES
 LATERAL  .OHM-M     00 070 00 00          :  7              LATERAL
 NEUTRON  .API-N     00 000 00 00          :  8              NEUTRON
 POR(NEU) .PERCENT   00 330 00 00          :  9             POR(NEU)
 SANGB    .DEG       00 631 00 00          : 10                SANGB
 DEL_TEMP .DEG F     00 000 00 00          : 11             DEL_TEMP
 SANG     .DEG       00 620 00 00          : 12                 SANG
 SP       .MV        00 010 00 00          : 13                   SP
 TIME     .MINUTES   00 000 00 00          : 14                 TIME
~Parameter Information Block
#MNEM.UNIT   Information     Description
#---------- ---------------  ------------------------
 FILE.      ORIGINAL           :File Type
 FIID.      9057A              :File Type Identifier
 VERS.      3.58G              :System Version
 SER .      1                  :System Serial Number
 TRUK.      .498775            :Truck Calibration Number
 TOOL.        1061             :Tool Serial Number
 TIME.      1335               :Time    HrHrMinMin
 LAT .       36 59'            :Latitude
 LON .       104 39'           :Longitude
 LMF .            GL           :Log Measured From
 DMF .            GL           :Driller Measured From
 PD  .            GL           :Permanent Data
 PDEV.                         :Elevation Permanent Data
 EKB .M                        :Elevation Kelly Bushing
 ELEV.DF                       :Elevation DF
 EGL .M        7777            :Elevation Ground Level
 DRDP.          1825           :Driller's Depth
 CASD.       10.               :Casing Diameter
 CASB.           300           :Casing Bottom
 CASX.         STEEL           :Casing Type
 CAST.                         :Casing Thickness
 TNOC.                         :Time Circulation Stopped
 LOGU.        108              :Logging Unit
 RECB.           R.SIPES       :Recorded By
 OSR1.          9139           :Other Services
 OSR2.                         :Other Services
 OSR3.                         :Other Services
 BS  .MM         3.5           :Bit Size
 MST .                         :Mean Surface Temperature
 TGRD.                         :Temperature Gradiant
 MAGN.            12           :Magnetic Declination
 MDEN.       2.7               :Density Matrix
 MATR.      SANDSTONE          :Neutron Matrix
 DTMT.            54           :Delta T Matrix
 DTFL.                         :Delta T Fluid
 MUDS.                         :Mud Sample Source
 MRS .                         :Mud Resistivity
 MTP .                         :Mud Temperature
 MFRS.                         :Resistivity Mud Filtrate
 MFTP.                         :Temperature Mud Filtrate
 MCRS.                         :Resistivity Mud Cake
 MCTP.                         :Temperature Mud Cake
 FTYP.                         :Fluid Type
 FD  .K/M3                     :Fluid Density
 DFV .S                        :Fluid Viscosity
 FPH .                         :Fuild PH
 ELCO.       50000             :Electron Cutoff
~Other Information
#MNEM.UNIT  Information      Description
#---------- ---------------  ------------------------
# -------------------------- 
~A DEPTH  GAMMA    TEMP  RES(16N) RES(64N) RES      LATERAL  NEUTRON  POR(NEU) SANGB  DEL_TEMP SANG   SP    TIME    
# ...
 842.300    124.4  71.0      0.5      7.9      8.2     -4.0    786.6  41.5  45.82  -0.03  1.65  -1317.9 0.20000 
 842.400    126.0  71.0      3.9      8.0      8.4      1.9    772.5  41.2  46.11  -0.04  1.71  -1317.9 0.20000 
 842.500    128.6  71.0      2.5      7.9      8.2      1.4    767.8  41.1  57.62  -0.02  1.49  -1317.9 0.20000 
 842.600    135.5  71.0      1.0      7.7      8.2     -1.1    761.6  40.8  57.62  0.07  1.49  -1317.9 0.20000 
 842.700    131.8  71.0      0.8      7.9      8.4     -1.3    752.2  40.6  57.21  -0.10  1.49  -1317.9 0.20000 
 842.800    128.6  71.0      3.7      7.9      8.2      2.7    741.2  40.7  58.21  0.17  1.54  -1317.9 0.20000 
 842.900    127.0  71.0      3.6      7.7      8.2      2.8    769.4  40.8  69.02  -0.13  1.40  -1317.9 0.20000 
 843.000    124.4  71.0      1.5      7.7      8.1      1.1    770.9  41.1  69.02  0.02  1.40  -1317.9 0.20000 
 843.100    115.9  71.0     -0.7      7.5      8.4     -4.2    774.1  41.2  68.39  -0.04  1.40  -1317.9 0.20000 
 843.200    114.3  71.0      2.1      7.5      8.6      0.1    774.1  41.6  68.53  0.04  1.43  -1317.9 0.20000 
 843.300    115.9  71.0      4.6      7.6      8.0      3.8    783.4  41.7  75.14  -0.02  1.39  -1317.9 0.20000 
 843.400    118.6  71.0      2.7      8.0      8.6      0.0    761.6  42.1  75.14  0.04  1.39  -1317.8 0.20000 
 843.500    117.5  71.0     -0.5      8.3      8.9     -2.4    756.9  42.4  69.07  -0.05  1.39  -1317.8 0.20000 
 843.600    121.8  71.0      1.8      8.7      8.8      1.1    741.2  42.8  61.36  0.02  1.39  -1317.8 0.20000 
 843.700    120.2  71.0      2.5      9.0      9.2     -0.1    745.9  42.7  64.58  0.02  1.36  -1317.8 0.20000 
 843.800    120.2  71.1      2.1      9.7      8.6     -1.2    727.1  43.3  64.58  -0.08  1.36  -1317.8 0.20000 
 843.900    121.8  71.1     -1.0      9.8      9.1     -4.3    711.5  44.3  64.33  0.02  1.36  -1317.9 0.20000 
 844.000    126.0  71.1     -0.8      9.8      9.2     -3.7    691.2  44.6  79.56  -0.01  1.36  -1317.9 0.20000 
 844.100    129.7  71.1      0.2     10.0      8.9     -4.1    688.1  44.5  82.55  0.02  1.35  -1317.9 0.20000 
 844.200    132.9  71.1      1.3     10.0      9.0     -2.5    659.9  44.7  85.37  0.01  1.33  -1317.9 0.10000 
 844.300    131.3  71.1     -0.1     10.6      9.1     -3.9    678.7  45.0  85.40  0.07  1.33  -1317.9 0.20000 
 844.400    128.1  71.1      0.6     11.2      8.7     -3.0    677.1  45.3  59.36  -0.14  1.33  -1317.9 0.20000 
 844.500    130.2  71.1      1.1     11.6      8.5     -2.9    652.1  45.2  65.67  0.04  1.32  -1317.9 0.20000 
 844.600    136.0  71.1      0.2     12.0      8.5     -3.4    655.2  45.6  66.95  -0.02  1.31  -1317.9 0.20000 
 844.700    138.2  71.1     -2.1     12.4      8.4     -5.4    680.2  45.1  66.87  -0.01  1.31  -1317.9 0.20000 
 844.800    135.0  71.1     -0.9     12.6      8.6     -4.5    669.3  44.7  48.95  0.03  1.31  -1317.9 0.20000 
 844.900    131.3  71.1     -0.6     12.8      9.3     -4.6    670.9  44.1  37.80  0.00  1.26  -1317.9 0.20000 
 845.000    129.7  71.1     -0.9     13.1      8.5     -5.9    699.0  43.9  34.19  -0.01  1.29  -1317.8 0.20000 
 845.100    127.0  71.1     -1.6     13.3      8.5     -6.7    703.7  43.4  34.18  -0.06  1.29  -1317.8 0.20000 
 845.200    123.3  71.1     -0.5     13.3      8.2     -6.2    684.9  43.7  71.51  0.09  1.29  -1317.8 0.20000 
 845.300    119.6  71.1      0.2     13.2      8.2     -5.9    703.7  43.7  63.68  -0.03  1.25  -1317.8 0.20000 
 845.400    115.4  71.1      1.1     13.1      8.3     -3.0    727.1  42.6  59.42  -0.03  1.32  -1317.9 0.20000 
 845.500    113.3  71.1     -2.2     13.2      8.0     -6.9    763.1  42.5  59.51  0.02  1.32  -1318.1 0.20000 
 845.600    112.8  71.1     -1.7     12.9      7.8     -7.3    766.2  42.4  27.81  -0.02  1.32  -1318.1 0.20000 
 845.700    110.6  71.1      1.6     12.6      8.1     -3.9    786.6  42.2  17.99  -0.01  1.35  -1318.1 0.20000 
 845.800    108.0  71.1      1.9     12.2      7.7     -2.0    763.1  41.7  13.71  -0.04  1.47  -1318.1 0.20000 
 845.900    109.6  71.1     -0.5     11.8      7.7     -4.6    739.7  41.3  13.71  0.03  1.47  -1318.1 0.20000 
 846.000    104.3  71.1      1.8     11.3      8.2     -1.5    730.3  40.7  121.94 0.01  1.47  -1318.1 0.20000 
 846.100    103.2  71.1      3.1     10.9      7.7      1.2    728.7  40.0  148.27 -0.02  1.46  -1318.1 0.20000 
 846.200    110.1  71.2      2.3     10.7      7.8      0.2    728.7  39.6  145.77 0.01  1.55  -1318.1 0.20000 
 846.300    111.2  71.2     -0.4     10.7      8.2     -2.5    750.6  39.3  145.83 -0.07  1.55  -1318.1 0.20000 
 846.400    104.8  71.2      1.2     10.5      8.1     -0.9    781.9  39.0  342.69 0.07  1.55  -1318.1 0.20000 
 846.500    103.2  71.2      2.4     10.0      8.0      0.7    777.2  38.5  357.66 0.00  1.57  -1318.1 0.20000 
 846.600    108.5  71.2      1.5     10.0      7.8     -0.5    819.4  38.3  356.21 0.00  1.68  -1318.1 0.20000 
 846.700    112.8  71.2     -1.0      9.8      8.2     -4.5    844.4  37.7  356.19 -0.04  1.68  -1318.0 0.20000 
 846.800    112.2  71.2      2.1      9.5      8.1     -1.0    877.3  36.8  15.37  0.00  1.68  -1318.0 0.20000 
 846.900    114.3  71.2      3.1      9.4      8.3      0.5    892.9  36.6   4.29  0.04  1.73  -1318.0 0.20000 
 847.000    113.3  71.2      2.0      9.6      7.8     -1.4    932.0  36.3   3.65  -0.05  1.84  -1318.0 0.20000 
 847.100    121.2  71.2     -0.8      9.9      7.9     -4.8    930.4  36.0   3.66  0.02  1.84  -1318.0 0.20000 
 847.200    126.0  71.2      1.5      9.9      7.9     -1.5    921.1  35.6  26.65  0.03  1.84  -1318.0 0.20000 
 847.300    127.6  71.2      3.5      9.8      8.3     -0.1    903.9  35.4  19.51  -0.04  1.89  -1318.0 0.20000 
 847.400    132.3  71.2      1.6      9.5      7.3     -1.0    921.1  35.3  19.39  0.01  1.96  -1317.9 0.20000 
 847.500    136.6  71.2     -0.4      9.1      8.1     -2.6    907.0  35.2  19.40  0.00  1.96  -1317.9 0.20000 
 847.600    137.1  71.2      2.6      8.7      8.0      0.7    885.1  35.0  355.15 0.01  1.96  -1317.9 0.20000 
 847.700    136.6  71.2      3.0      8.3      7.9      0.4    888.2  35.1  350.53 0.05  2.04  -1317.9 0.20000 
 847.800    138.7  71.2      1.7      8.2      8.4     -1.0    905.4  35.2  350.71 -0.09  2.09  -1317.9 0.20000 
 847.900    142.9  71.2     -0.6      8.4      8.0     -3.4    886.7  35.6  350.67 0.01  2.09  -1317.9 0.20000 
 848.000    135.5  71.2      2.4      8.7      8.3      1.1    871.0  35.8   8.94  -0.05  2.09  -1317.9 0.20000 
 848.100    132.3  71.2      4.5      8.2      8.1      4.7    902.3  36.2   4.56  0.07  2.16  -1317.9 0.20000 
 848.200    135.0  71.2      3.0      8.1      8.1      2.9    925.7  36.4   4.72  0.02  2.19  -1317.9 0.20000 
 848.300    130.2  71.2      0.2      7.9      8.2     -1.5    921.1  37.1   4.73  -0.04  2.19  -1317.9 0.20000 
 848.400    127.0  71.2      0.2      8.2      8.4     -1.5    916.4  38.2  28.53  0.04  2.19  -1317.9 0.20000 
 848.500    123.9  71.2      3.3      8.2      7.9      1.0    911.7  38.7  23.71  -0.02  2.31  -1317.9 0.20000 
 848.600    119.1  71.2      2.2      8.2      7.6     -1.6    883.5  39.2  23.92  -0.04  2.34  -1317.9 0.20000 
 848.700    117.5  71.2      0.5      8.8      8.0     -4.2    830.4  39.9  23.92  0.01  2.34  -1318.0 0.20000 
 848.800    111.2  71.2     -0.5      9.4      8.1     -3.1    802.2  40.6  353.15 0.04  2.34  -1318.0 0.20000 
 848.900    106.9  71.2      1.4      9.9      8.1     -0.4    774.1  40.9  348.52 -0.03  2.42  -1318.0 0.20000 
 849.000    106.4  71.2      2.9      9.7      8.3      2.8    727.1  41.9  348.45 -0.05  2.41  -1318.0 0.20000 
 849.100    109.0  71.2      0.8      9.9      8.4     -3.4    694.3  42.7  348.45 0.04  2.41  -1318.1 0.20000 
 849.200    110.6  71.2      0.3     10.1      8.3     -3.2    692.7  43.5  338.78 -0.02  2.41  -1318.1 0.20000 
 849.300    107.5  71.2      3.0     10.1      8.2      0.7    672.4  44.2  328.32 0.05  2.44  -1318.1 0.20000 
 849.400    110.1  71.2      2.0      9.6      7.9     -2.8    661.5  44.5  327.15 -0.07  2.48  -1318.1 0.10000 
