~Version Information
VERS.                      2.0: CWLS Log ASCII Standard - VERSION 2.0
WRAP.                       NO: One line per depth step
~Well Information Block
STRT.FT               825.0000: 
STOP.FT              2446.5000: 
STEP.FT                 0.2500: 
NULL.                -999.2500: 
COMP.          Petrogulf Corporation: COMPANY
WELL.            Kraft 17-23 V: WELL
FLD.           Purgatorie River: FIELD
LOC.           1500' FSL & 1773' FWL: LOCATION
CNTY.               Las Animas: COUNTY
SRVC.                         : SERVICE COMPANY
DATE.          Thu Nov 20 06:35:41 2003: LOG DATE
UWI.                          : UNIQUE WELL ID
STAT.                 Colorado: STATE
~Curve Information Block
DEPT.FT            0 000 00 00: Depth
SN.Ohm-m                      : IEL Short Normal
SP.mV                         : IEL Spontaneous Potential
DIR.Ohm-m                     : IEL Induction Resistivity
GR.GAPI                       : Gamma Ray
~Parameter Information Block
~A  Depth        SN          SP         DIR          GR     
   825.0000   -999.2500   -999.2500   -999.2500   -999.2500
   825.2500   -999.2500   -999.2500   -999.2500     70.0371
   825.5000   -999.2500   -999.2500   -999.2500     70.0854
   825.7500   -999.2500   -999.2500   -999.2500     70.9172
   826.0000   -999.2500   -999.2500   -999.2500     73.8826
   826.2500   -999.2500   -999.2500   -999.2500     76.9578
   826.5000   -999.2500   -999.2500   -999.2500     82.0560
   826.7500   -999.2500   -999.2500   -999.2500     84.7213
   827.0000   -999.2500   -999.2500   -999.2500     86.4886
   827.2500   -999.2500   -999.2500   -999.2500     86.3409
   827.5000   -999.2500   -999.2500   -999.2500     85.2506
   827.7500   -999.2500   -999.2500   -999.2500     84.5517
   828.0000   -999.2500   -999.2500   -999.2500     84.1399
   828.2500   -999.2500   -999.2500   -999.2500     84.3448
   828.5000   -999.2500   -999.2500   -999.2500     84.8114
   828.7500   -999.2500   -999.2500   -999.2500     84.6414
   829.0000   -999.2500   -999.2500   -999.2500     83.0215
   829.2500   -999.2500   -999.2500   -999.2500     81.1922
   829.5000   -999.2500   -999.2500   -999.2500     78.1630
   829.7500   -999.2500   -999.2500   -999.2500     76.3540
   830.0000   -999.2500   -999.2500   -999.2500     74.2680
   830.2500   -999.2500   -999.2500   -999.2500     73.4568
   830.5000   -999.2500   -999.2500   -999.2500     73.4611
   830.7500   -999.2500   -999.2500   -999.2500     74.2981
   831.0000   -999.2500   -999.2500   -999.2500     76.2051
   831.2500   -999.2500   -999.2500   -999.2500     77.3799
   831.5000   -999.2500   -999.2500   -999.2500     78.3654
   831.7500   -999.2500   -999.2500   -999.2500     78.3780
   832.0000   -999.2500   -999.2500   -999.2500     77.4525
   832.2500   -999.2500   -999.2500   -999.2500     76.3887
   832.5000   -999.2500   -999.2500   -999.2500     74.8707
   832.7500   -999.2500   -999.2500   -999.2500     74.4277
   833.0000   -999.2500   -999.2500   -999.2500     74.8947
   833.2500   -999.2500   -999.2500   -999.2500     75.5568
   833.5000   -999.2500   -999.2500   -999.2500     75.9348
   833.7500   -999.2500   -999.2500   -999.2500     75.3685
   834.0000   -999.2500   -999.2500   -999.2500     73.3773
   834.2500   -999.2500   -999.2500   -999.2500     71.5440
   834.5000   -999.2500   -999.2500   -999.2500     68.3542
   834.7500   -999.2500   -999.2500   -999.2500     66.0973
   835.0000   -999.2500   -999.2500   -999.2500     63.0667
   835.2500   -999.2500   -999.2500   -999.2500     61.7816
   835.5000   -999.2500   -999.2500   -999.2500     61.7279
   835.7500   -999.2500   -999.2500   -999.2500     63.0634
   836.0000   -999.2500   -999.2500   -999.2500     66.5607
   836.2500   -999.2500   -999.2500   -999.2500     69.2081
   836.5000   -999.2500   -999.2500   -999.2500     72.3602
   836.7500   -999.2500   -999.2500   -999.2500     73.4984
   837.0000   -999.2500   -999.2500   -999.2500     74.1621
   837.2500   -999.2500   -999.2500   -999.2500     74.5400
   837.5000   -999.2500   -999.2500   -999.2500     75.6984
   837.7500   -999.2500   -999.2500   -999.2500     76.8281
   838.0000   -999.2500   -999.2500   -999.2500     78.7334
   838.2500   -999.2500   -999.2500   -999.2500     80.0009
   838.5000   -999.2500   -999.2500   -999.2500     81.7512
   838.7500   -999.2500   -999.2500   -999.2500     82.7846
   839.0000   -999.2500   -999.2500   -999.2500     83.9286
   839.2500   -999.2500   -999.2500   -999.2500     84.0069
   839.5000   -999.2500   -999.2500   -999.2500     82.2660
   839.7500   -999.2500   -999.2500   -999.2500     79.9089
   840.0000   -999.2500   -999.2500   -999.2500     75.9567
   840.2500   -999.2500   -999.2500   -999.2500     74.0588
   840.5000   2000.0000   2000.0000   -999.2500     73.1237
   840.7500   2000.0000   2000.0000   -999.2500     73.4917
   841.0000   2000.0000   2000.0000   -999.2500     74.2629
   841.2500   2000.0000   2000.0000   -999.2500     74.1500
   841.5000   2000.0000   2000.0000   -999.2500     72.3179
   841.7500   2000.0000   2000.0000   -999.2500     70.1591
   842.0000   2000.0000   2000.0000   -999.2500     66.7962
   842.2500   2000.0000   2000.0000   -999.2500     65.3919
   842.5000   2000.0000   2000.0000      8.4454     65.2720
   842.7500   2000.0000   2000.0000      8.6171     66.1275
   843.0000   2000.0000   2000.0000      8.7945     67.3248
   843.2500   2000.0000   2000.0000      8.9408     67.3687
   843.5000   2000.0000   2000.0000      9.0329     66.1809
   843.7500   2000.0000   2000.0000      9.0676     65.0540
   844.0000   2000.0000   2000.0000      9.0588     63.9525
   844.2500   2000.0000   2000.0000      9.0290     63.9308
   844.5000   2000.0000   2000.0000      8.9994     64.6142
   844.7500   2000.0000   2000.0000      8.9845     65.0311
   845.0000   2000.0000   2000.0000      8.9903     64.9930
   845.2500   2000.0000   2000.0000      9.0138     64.5918
   845.5000   2000.0000   2000.0000      9.0452     64.0210
   845.7500   2000.0000   2000.0000      9.0705     64.0026
   846.0000   2000.0000   2000.0000      9.0788     64.8504
   846.2500   2000.0000   2000.0000      9.0674     66.0373
   846.5000   2000.0000   2000.0000      9.0458     68.5218
   846.7500   2000.0000   2000.0000      9.0340     70.3108
   847.0000   2000.0000   2000.0000      9.0564     72.3419
   847.2500   2000.0000   2000.0000      9.1330     72.7804
   847.5000   2000.0000   2000.0000      9.2694     71.9172
   847.7500   2000.0000   2000.0000      9.4476     70.8985
   848.0000   2000.0000   2000.0000      9.6232     70.3183
   848.2500   2000.0000   2000.0000      9.7365     71.2196
   848.5000   2000.0000   2000.0000      9.7391     74.5125
   848.7500   2000.0000   2000.0000      9.6204     77.5542
   849.0000   2000.0000   2000.0000      9.4132     82.3713
   849.2500   2000.0000   2000.0000      9.1741     85.0941
   849.5000   2000.0000   2000.0000      8.9598     87.5222
   849.7500   2000.0000   2000.0000      8.8110     87.9934
   850.0000   2000.0000   2000.0000      8.7495     87.9378
   850.2500   2000.0000   2000.0000      8.7807     88.0771
   850.5000   2000.0000   2000.0000      8.8975     88.9104
   850.7500   2000.0000   2000.0000      9.0840     89.5857
   851.0000   2000.0000   2000.0000      9.3177     90.1792
   851.2500   2000.0000   2000.0000      9.5688     90.2411
   851.5000   2000.0000   2000.0000      9.8004     90.1329
   851.7500   2000.0000   2000.0000      9.9732     90.0282
   852.0000   2000.0000   2000.0000     10.0577     89.6939
   852.2500   2000.0000   2000.0000     10.0488     89.3148
   852.5000   2000.0000   2000.0000      9.9668     88.7785
   852.7500   2000.0000   2000.0000      9.8422     88.6501
   853.0000   2000.0000   2000.0000      9.6963     88.8990
   853.2500   2000.0000   2000.0000      9.5349     89.2293
   853.5000   2000.0000   2000.0000      9.3570     89.5527
   853.7500   2000.0000   2000.0000      9.1685     89.3790
   854.0000   2000.0000   2000.0000      8.9890     88.1479
   854.2500   2000.0000   2000.0000      8.8447     86.4705
   854.5000   2000.0000   2000.0000      8.7558     82.1579
   854.7500   2000.0000   2000.0000      8.7268     77.7755
   855.0000   2000.0000   2000.0000      8.7474     69.0142
   855.2500   2000.0000   2000.0000      8.7999     62.4027
   855.5000   2000.0000   2000.0000      8.8683     53.3441
   855.7500   2000.0000   2000.0000      8.9424     48.9066
   856.0000   2000.0000   2000.0000      9.0144     44.9520
   856.2500   2000.0000   2000.0000      9.0705     43.3834
   856.5000   2000.0000   2000.0000      9.0868     41.0809
   856.7500   2000.0000   2000.0000      9.0353     39.2854
   857.0000   2000.0000   2000.0000      8.9038     36.9048
   857.2500   2000.0000   2000.0000      8.7134     36.0556
   857.5000   2000.0000   2000.0000      8.5211     35.9416
   857.7500   2000.0000   2000.0000      8.4019     36.1925
   858.0000   2000.0000   2000.0000      8.4266     36.3476
   858.2500   2000.0000   2000.0000      8.6443     36.2230
