~Version Information
VERS.                      2.0: CWLS Log ASCII Standard - VERSION 2.0
WRAP.                       NO: One line per depth step
~Well Information Block
STRT.FT               650.0000: 
STOP.FT              1080.5000: 
STEP.FT                 0.1000: 
NULL.                -999.2500: 
COMP.          Pioneer Natural Resources: COMPANY
WELL.            Galileo 21-11: WELL
FLD.           Purgatoire River: FIELD
LOC.           407' FNL & 2394' FWL: LOCATION
PROV.                 Colorado: PROVINCE
CNTY.               Las Animas: COUNTRY
SRVC.                Patterson: SERVICE COMPANY
DATE.          Mon Apr 11 16:20:08 2005: LOG DATE
UWI.           05 071 08353 00: UNIQUE WELL ID
~Curve Information Block
DEPT.FT            0 000 00 00: Depth
DCAL.in                       : CDL Caliper
RHOB.g/cc                     : CDL Bulk Density
RHOC.g/cc                     : CDL Density Correction
DPOR.pu                       : CDL Density Porosity
GR.GAPI                       : Gamma Ray
NPOR.pu                       : Neutron Porosity
~Parameter Information Block
~A  Depth       DCAL        RHOB        RHOC        DPOR         GR         NPOR    
# ...
  1062.8000      7.8601      2.5621      0.1203      5.3281    141.4873     26.8759
  1062.9000      7.8601      2.5300      0.0723      7.2721    141.0771     27.4226
  1063.0000      7.8616      2.5260      0.0854      7.5156    143.6589     27.7162
  1063.1000      7.8616      2.5485      0.1125      6.1524    149.9757     27.7520
  1063.2000      7.8616      2.5792      0.1166      4.2918    153.7179     27.6248
  1063.3000      7.8556      2.6052      0.1600      2.7160    153.0736     27.4401
  1063.4000      7.8556      2.6224      0.1555      1.6699    151.8922     27.3757
  1063.5000      7.8017      2.6273      0.1645      1.3759    154.1962     27.1238
  1063.6000      7.8017      2.6145      0.1382      2.1486    160.5150     26.4628
  1063.7000      7.8017      2.5876      0.1407      3.7819    167.2341     25.9012
  1063.8000      7.7965      2.5556      0.1438      5.7191    171.5639     25.4233
  1063.9000      7.7965      2.5271      0.0838      7.4502    176.9618     24.7400
  1064.0000      7.7982      2.5088      0.0882      8.5593    187.9469     24.1650
  1064.1000      7.7982      2.4990      0.0354      9.1523    198.8613     23.9911
  1064.2000      7.7982      2.4920      0.0585      9.5783    204.5746     24.2605
  1064.3000      7.7997      2.4863      0.0542      9.9190    212.0428     24.6461
  1064.4000      7.7997      2.4846      0.0508     10.0252    226.7722     24.7437
  1064.5000      7.7974      2.4774      0.0882     10.4590    238.8080     24.6063
  1064.6000      7.7974      2.4495      0.0837     12.1489    238.6965     24.2997
  1064.7000      7.7974      2.4123      0.0499     14.4050    232.0133     23.6197
  1064.8000      7.7974      2.3914      0.0530     15.6734    224.9337     22.4428
  1064.9000      7.7974      2.3934      0.1040     15.5533    212.4283     20.8099
  1065.0000      7.7993      2.4122      0.0900     14.4092    192.8715     18.9174
  1065.1000      7.7993      2.4535      0.1021     11.9101    177.5086     17.7241
  1065.2000      7.7993      2.5187      0.2334      7.9588    170.4174     20.5048
  1065.3000      7.7992      2.5857      0.2293      3.8952    163.8589     33.3972
  1065.4000      7.7992      2.6347      0.2627      0.9259    155.8280     52.8664
  1065.5000      7.8020      2.6643      0.2313     -0.8651    147.6503     62.3420
  1065.6000      7.8020      2.6804      0.2011     -1.8445    138.9544     63.8415
  1065.7000      7.8020      2.6801      0.2285     -1.8249    133.2865     63.9607
  1065.8000      7.8029      2.6508      0.1907     -0.0512    129.9814     63.9695
  1065.9000      7.8029      2.6006      0.0869      2.9943    123.3112     63.9699
  1066.0000      7.8011      2.5571      0.0861      5.6303    114.8799   -999.2500
  1066.1000      7.8011      2.5304      0.0773      7.2469    110.7272   -999.2500
  1066.2000      7.8011      2.5156      0.0648      8.1437    108.8972   -999.2500
  1066.3000      7.8009      2.5132      0.0355      8.2931    104.1213   -999.2500
  1066.4000      7.8009      2.5216      0.0501      7.7839    100.2379   -999.2500
  1066.5000      7.7987      2.5278      0.1045      7.4040    100.1885   -999.2500
  1066.6000      7.7987      2.5255      0.0554      7.5432     99.4325   -999.2500
  1066.7000      7.7987      2.5253      0.0466      7.5554     97.4419   -999.2500
  1066.8000      7.8003      2.5312      0.0622      7.1988     96.7673   -999.2500
  1066.9000      7.8003      2.5335      0.0841      7.0621     96.9380   -999.2500
  1067.0000      7.7997      2.5288      0.0664      7.3466     96.0702   -999.2500
  1067.1000      7.7997      2.5283      0.0489      7.3742     92.6445   -999.2500
  1067.2000      7.7997      2.5363      0.1106      6.8888     88.6105   -999.2500
  1067.3000      7.8015      2.5452      0.0898      6.3542     86.3103   -999.2500
  1067.4000      7.8015      2.5608      0.0539      5.4072     84.5123   -999.2500
  1067.5000      7.7992      2.5900      0.1142      3.6380     82.8715   -999.2500
  1067.6000      7.7992      2.6198      0.1545      1.8300     81.2973   -999.2500
  1067.7000      7.7992      2.6372      0.1479      0.7735     79.9867   -999.2500
  1067.8000      7.8030      2.6427      0.1547      0.4435     79.7779   -999.2500
  1067.9000      7.8030      2.6432      0.1410      0.4110     79.8690   -999.2500
  1068.0000      7.8019      2.6457      0.1739      0.2615     81.0076   -999.2500
  1068.1000      7.8019      2.6496      0.1659      0.0229     84.0322   -999.2500
  1068.2000      7.8019      2.6426      0.1909      0.4459     87.2122   -999.2500
  1068.3000      7.7986      2.6173      0.1100      1.9847     89.4024   -999.2500
  1068.4000      7.7986      2.5890      0.0698      3.6972     89.6275   -999.2500
  1068.5000      7.8015      2.5735      0.0744      4.6350     87.1470   -999.2500
  1068.6000      7.8015      2.5673      0.0564      5.0130     84.7666   -999.2500
  1068.7000      7.8015      2.5607      0.0822      5.4122     85.1780   -999.2500
  1068.8000      7.8036      2.5498      0.0626      6.0716     86.3136   -999.2500
  1068.9000      7.8036      2.5370      0.0587      6.8479     84.1461   -999.2500
  1069.0000      7.8039      2.5251      0.0458      7.5682     79.7984   -999.2500
  1069.1000      7.8039      2.5158      0.0430      8.1307     77.9208   -999.2500
  1069.2000      7.8039      2.5113      0.0141      8.4033     77.5632   -999.2500
  1069.3000      7.8042      2.5140      0.0246      8.2442     74.9554   -999.2500
  1069.4000      7.8042      2.5243      0.0092      7.6170     71.9908   -999.2500
  1069.5000      7.8048      2.5409      0.0499      6.6139     72.0379   -999.2500
  1069.6000      7.8048      2.5602      0.0589      5.4439     75.0447   -999.2500
  1069.7000      7.8048      2.5788      0.0830      4.3165     79.3106   -999.2500
  1069.8000      7.8110      2.5893      0.1210      3.6781     82.6527   -999.2500
  1069.9000      7.8110      2.5870      0.0996      3.8191     84.5483   -999.2500
  1070.0000      7.7867      2.5783      0.1005      4.3465     85.7127   -999.2500
  1070.1000      7.7867      2.5711      0.0641      4.7844     84.8341   -999.2500
  1070.2000      7.7867      2.5684      0.0556      4.9431     81.1912   -999.2500
  1070.3000      7.7995      2.5703      0.0606      4.8275     78.0641   -999.2500
  1070.4000      7.7995      2.5742      0.0878      4.5923     79.7237   -999.2500
  1070.5000      7.8018      2.5736      0.0580      4.6323     83.4969   -999.2500
  1070.6000      7.8018      2.5683      0.0508      4.9537     78.7403   -999.2500
  1070.7000      7.8018      2.5701      0.0935      4.8428     58.0455   -999.2500
  1070.8000      7.8024      2.5859      0.0886      3.8863     29.4286   -999.2500
  1070.9000      7.8024      2.6073      0.1268      2.5868      9.2492   -999.2500
  1071.0000      7.8035      2.6183      0.1097      1.9241      1.6794   -999.2500
  1071.1000      7.8035      2.6127      0.0758      2.2598      0.1687   -999.2500
  1071.2000      7.8035      2.6050      0.0802      2.7260      0.0089   -999.2500
  1071.3000      7.8030      2.6077      0.1252      2.5646      0.0000   -999.2500
  1071.4000      7.8030      2.6138      0.1021      2.1952   -999.2500   -999.2500
  1071.5000      7.8036      2.6167      0.0682      2.0164   -999.2500   -999.2500
  1071.6000      7.8036      2.6236      0.0657      1.5992   -999.2500   -999.2500
  1071.7000      7.8036      2.6362      0.1028      0.8368   -999.2500   -999.2500
  1071.8000      7.8030      2.6434      0.0813      0.4012   -999.2500   -999.2500
  1071.9000      7.8030      2.6341      0.1083      0.9644   -999.2500   -999.2500
  1072.0000      7.8031      2.6069      0.0686      2.6099   -999.2500   -999.2500
  1072.1000      7.8031      2.5768      0.0457      4.4362   -999.2500   -999.2500
  1072.2000      7.8031      2.5570      0.0702      5.6351   -999.2500   -999.2500
  1072.3000      7.8024      2.5439      0.0298      6.4316   -999.2500   -999.2500
