~Version Information
VERS.                      2.0: CWLS Log ASCII Standard - VERSION 2.0
WRAP.                       NO: One line per depth step
~Well Information Block
STRT.FT               652.0000: 
STOP.FT              1880.0000: 
STEP.FT                 0.1000: 
NULL.                -999.2500: 
COMP.          Pioneer Natural Resources: COMPANY
WELL.          Corkscrew 33-12 Tr: WELL
FLD.           Purgatoire River: FIELD
LOC.           1870' FSL & 1706' FEL: LOCATION
PROV.                 Colorado: PROVINCE
CNTY.               Las Animas: COUNTRY
SRVC.                Patterson: SERVICE COMPANY
DATE.          Tue Mar 29 09:18:51 2005: LOG DATE
UWI.           05 071 08295 00: UNIQUE WELL ID
~Curve Information Block
DEPT.FT            0 000 00 00: Depth
DCAL.in                       : CDL Caliper
RHOB.g/cc                     : CDL Bulk Density
RHOC.g/cc                     : CDL Density Correction
DPOR.pu                       : CDL Density Porosity
GR.GAPI                       : Gamma Ray
NPOR.pu                       : Neutron Porosity
~Parameter Information Block
~A  Depth       DCAL        RHOB        RHOC        DPOR         GR         NPOR    
# ...
  1458.4000      7.7531      2.5286     -0.0056      7.3562     75.1326     19.4185
  1458.5000      7.7422      2.4814     -0.0672     10.2198     73.9775     20.1340
  1458.6000      7.7422      2.4616     -0.0566     11.4208     74.2508     21.0945
  1458.7000      7.7422      2.4687     -0.0281     10.9890     79.9487     22.1655
  1458.8000      7.7337      2.4844      0.0074     10.0340     88.7356     22.8544
  1458.9000      7.7337      2.4969     -0.0012      9.2814     96.1750     23.4043
  1459.0000      7.7306      2.5056     -0.0054      8.7517    102.1012     24.0379
  1459.1000      7.7306      2.5147      0.0158      8.2001    107.1572     24.3674
  1459.2000      7.7306      2.5280      0.0387      7.3931    112.3001     24.3997
  1459.3000      7.7295      2.5451      0.0986      6.3594    122.9081     24.9151
  1459.4000      7.7295      2.5669      0.0609      5.0390    138.1089     26.0996
  1459.5000      7.7286      2.5961      0.1490      3.2671    149.5368     27.3321
  1459.6000      7.7286      2.6150      0.1759      2.1194    152.9249     27.9159
  1459.7000      7.7286      2.6020      0.1578      2.9117    152.7816     27.8969
  1459.8000      7.6741      2.5652      0.0969      5.1402    152.2414     28.1313
  1459.9000      7.6741      2.5285      0.0736      7.3633    149.4531     28.7133
  1460.0000      7.7472      2.5040      0.0484      8.8467    145.1883     29.1650
  1460.1000      7.7472      2.4855      0.0634      9.9692    141.8540     29.4638
  1460.2000      7.7472      2.4606      0.0488     11.4765    140.6725     30.0662
  1460.3000      7.8297      2.4303     -0.0008     13.3163    142.5846     31.1341
  1460.4000      7.8297      2.4080     -0.0283     14.6686    146.3860     31.7640
  1460.5000      7.8373      2.3992      0.0217     15.2027    147.1292     31.7385
  1460.6000      7.8373      2.3944      0.0064     15.4939    145.8183     31.5929
  1460.7000      7.8373      2.3902     -0.0066     15.7463    147.9575     30.9173
  1460.8000      7.8394      2.3915      0.0338     15.6691    149.6514     29.5714
  1460.9000      7.8394      2.3976      0.0274     15.2996    146.2967     28.2870
  1461.0000      7.8494      2.4132     -0.0100     14.3527    141.8820     27.7850
  1461.1000      7.8494      2.4380      0.0869     12.8502    137.8126     27.7120
  1461.2000      7.8494      2.4555      0.0513     11.7868    129.2947     26.8014
  1461.3000      7.8539      2.4646      0.0637     11.2361    118.6189     25.3454
  1461.4000      7.8539      2.4773      0.0382     10.4651    112.8679     24.6134
  1461.5000      7.9105      2.4956     -0.0062      9.3574    112.3127     24.5118
  1461.6000      7.9105      2.5095      0.0625      8.5138    111.7451     24.0753
  1461.7000      7.9105      2.5133      0.0345      8.2876    107.4552     23.0603
  1461.8000      7.8801      2.5199      0.0542      7.8852    100.2995     22.5221
  1461.9000      7.8801      2.5355      0.0780      6.9365     95.7220     22.8948
  1462.0000      7.8211      2.5359      0.1072      6.9129     99.0389     23.0124
  1462.1000      7.8211      2.5054      0.0361      8.7627    106.2163     22.3638
  1462.2000      7.8211      2.4673      0.0185     11.0714    107.7390     21.6813
  1462.3000      7.8128      2.4450      0.0262     12.4270    102.1412     21.1157
  1462.4000      7.8128      2.4436     -0.0243     12.5105     95.1123     20.7619
  1462.5000      7.7795      2.4565      0.0224     11.7261     88.7639     21.1063
  1462.6000      7.7795      2.4669      0.0328     11.0965     83.1086     21.6311
  1462.7000      7.7795      2.4703      0.0142     10.8915     79.0330     21.5619
  1462.8000      7.7766      2.4817     -0.0059     10.2023     76.5285     21.0496
  1462.9000      7.7766      2.5018      0.0445      8.9817     73.5217     20.7329
  1463.0000      7.7763      2.5103      0.0412      8.4681     69.0566     21.0366
  1463.1000      7.7763      2.5012      0.0887      9.0159     65.2359     21.7989
  1463.2000      7.7763      2.4856      0.0462      9.9622     62.7615     22.2832
  1463.3000      7.7789      2.4675      0.0507     11.0621     60.6002     22.0732
  1463.4000      7.7789      2.4440      0.0348     12.4839     59.0692     21.8203
  1463.5000      7.7815      2.4198     -0.0185     13.9529     60.5176     21.9119
  1463.6000      7.7815      2.4027      0.0025     14.9907     65.1830     21.9285
  1463.7000      7.7815      2.3965     -0.0217     15.3635     69.5252     21.8195
  1463.8000      7.7809      2.4059     -0.0438     14.7930     70.7694     21.6206
  1463.9000      7.7809      2.4269      0.0084     13.5191     68.2649     20.9427
  1464.0000      7.7805      2.4414      0.0327     12.6406     64.1098     20.3786
  1464.1000      7.7805      2.4430      0.0206     12.5439     62.7907     20.3016
  1464.2000      7.7805      2.4458      0.0161     12.3767     63.8100     19.4949
  1464.3000      7.7709      2.4606      0.0304     11.4798     62.4081     18.2603
  1464.4000      7.7709      2.4810      0.0794     10.2449     58.8150     18.2547
  1464.5000      7.7628      2.4911      0.0519      9.6330     57.2023     19.3713
  1464.6000      7.7628      2.4832      0.0380     10.1064     59.2519     20.0547
  1464.7000      7.7628      2.4772     -0.0323     10.4718     62.2431     19.1565
  1464.8000      7.7460      2.4983      0.0383      9.1969     63.9366     17.3274
  1464.9000      7.7460      2.5310      0.0533      7.2147     65.8236     16.0979
  1465.0000      7.7355      2.5413      0.0655      6.5896     70.7057     16.0784
  1465.1000      7.7355      2.5253      0.0180      7.5588     77.9571     16.7105
  1465.2000      7.7355      2.5038      0.0037      8.8613     79.6405     17.2005
  1465.3000      7.7380      2.4850     -0.0207     10.0022     71.1606     17.3346
  1465.4000      7.7380      2.4617      0.0202     11.4103     61.9476     17.5068
  1465.5000      7.7379      2.4427     -0.0347     12.5626     59.3294     17.8775
  1465.6000      7.7379      2.4499     -0.0217     12.1294     56.3397     17.8281
  1465.7000      7.7379      2.4735      0.0396     10.6990     49.7052     17.5196
  1465.8000      7.7668      2.4833      0.0304     10.1034     46.5472     17.8610
  1465.9000      7.7668      2.4790     -0.0190     10.3655     48.9088     18.3125
  1466.0000      7.7860      2.4798      0.0304     10.3174     51.4833     18.1002
  1466.1000      7.7860      2.4891      0.0470      9.7500     51.9111     17.8386
  1466.2000      7.7860      2.4932      0.0771      9.5003     52.9192     17.9359
  1466.3000      7.7876      2.4826      0.0039     10.1447     53.5729     17.9490
  1466.4000      7.7876      2.4660      0.0126     11.1538     51.0366     17.6478
  1466.5000      7.7809      2.4595      0.0053     11.5453     48.6020     17.4624
  1466.6000      7.7809      2.4652      0.0113     11.1978     48.7471     17.5740
  1466.7000      7.7809      2.4654      0.0171     11.1891     48.9717     17.8330
  1466.8000      7.7788      2.4469      0.0213     12.3117     49.6682     18.5274
  1466.9000      7.7788      2.4199      0.0059     13.9447     52.0785     19.5242
  1467.0000      7.7772      2.4071     -0.0116     14.7204     53.8325     20.0639
  1467.1000      7.7772      2.4192      0.0184     13.9857     54.2919     19.7321
  1467.2000      7.7772      2.4403      0.1001     12.7063     53.8890     19.0298
  1467.3000      7.7766      2.4507      0.0347     12.0770     51.3493     18.5308
  1467.4000      7.7766      2.4547      0.0020     11.8335     48.1745     18.1329
  1467.5000      7.7743      2.4640      0.0373     11.2753     47.8051     17.6348
  1467.6000      7.7743      2.4754      0.0525     10.5798     47.7233     17.1199
  1467.7000      7.7743      2.4792      0.0457     10.3541     46.1879     16.6792
  1467.8000      7.7782      2.4753      0.0345     10.5899     46.8754     16.6170
  1467.9000      7.7782      2.4702      0.0540     10.8949     49.0958     17.2878
