~Version Information
VERS.                      2.0: CWLS Log ASCII Standard - VERSION 2.0
WRAP.                       NO: One line per depth step
~Well Information Block
STRT.FT               675.0000: 
STOP.FT              2373.5000: 
STEP.FT                 0.2500: 
NULL.                -999.2500: 
COMP.          Pioneer Natural Resources: COMPANY
WELL.            Harrier 44-33: WELL
FLD.           Purgatoire River: FIELD
LOC.           456' FSL & 930' FEL: LOCATION
PROV.                 Colorado: PROVINCE
CNTY.               Las Animas: COUNTRY
SRVC.                Patterson: SERVICE COMPANY
DATE.          Mon Jun 20 07:40:56 2005: LOG DATE
UWI.           05 071 08398 00: UNIQUE WELL ID
~Curve Information Block
DEPT.FT            0 000 00 00: Depth
SN.Ohm-m                      : IEL Short Normal
SP.mV                         : IEL Spontaneous Potential
DIR.Ohm-m                     : IEL Induction Resistivity
GR.GAPI                       : Gamma Ray
~Parameter Information Block
~A  Depth        SN          SP         DIR          GR     
# ...
  1914.5000     31.0725    210.8780     27.6689     55.9547
  1914.7500     31.2767    210.3055     27.4804     56.1261
  1915.0000     31.5063    209.7201     27.2382     55.6174
  1915.2500     31.8479    209.1440     27.0311     54.4415
  1915.5000     32.2642    208.6010     26.9503     51.6928
  1915.7500     32.6672    208.1160     27.0642     49.8681
  1916.0000     33.0775    207.7166     27.3921     48.2255
  1916.2500     33.5686    207.4320     27.8977     47.9635
  1916.5000     34.1097    207.2878     28.5056     48.1895
  1916.7500     34.6014    207.2981     29.1251     48.3781
  1917.0000     34.9884    207.4582     29.6690     48.5781
  1917.2500     35.2824    207.7408     30.0689     48.7349
  1917.5000     35.5288    208.1005     30.2930     48.9906
  1917.7500     35.7684    208.4863     30.3570     49.0437
  1918.0000     36.0235    208.8536     30.3146     48.7119
  1918.2500     36.2765    209.1709     30.2323     48.1946
  1918.5000     36.4318    209.4202     30.1624     47.1924
  1918.7500     36.3895    209.5973     30.1321     46.5401
  1919.0000     36.1900    209.7150     30.1436     45.7273
  1919.2500     35.9903    209.7973     30.1829     45.3629
  1919.5000     35.8865    209.8618     30.2232     45.4069
  1919.7500     35.8211    209.9092     30.2243     46.0223
  1920.0000     35.6764    209.9373     30.1358     47.5891
  1920.2500     35.3835    209.9557     29.9158     48.5815
  1920.5000     34.8934    209.9807     29.5578     49.4294
  1920.7500     34.1754    210.0208     29.1071     49.7821
  1921.0000     33.3155    210.0765     28.6492     50.8869
  1921.2500     32.5248    210.1515     28.2739     52.3124
  1921.5000     32.0150    210.2576     28.0321     55.3585
  1921.7500     31.8520    210.4089     27.9090     57.7858
  1922.0000     31.9151    210.6154     27.8302     61.7993
  1922.2500     31.9947    210.8790     27.7027     64.6778
  1922.5000     31.8976    211.1940     27.4687     69.2831
  1922.7500     31.5407    211.5504     27.1287     72.4032
  1923.0000     31.0205    211.9404     26.7257     76.2199
  1923.2500     30.5378    212.3589     26.3143     77.3243
  1923.5000     30.2564    212.7980     25.9426     75.9223
  1923.7500     30.2294    213.2370     25.6466     73.2714
  1924.0000     30.3926    213.6416     25.4441     68.3021
  1924.2500     30.6057    213.9788     25.3270     65.1516
  1924.5000     30.7428    214.2336     25.2594     61.2481
  1924.7500     30.7565    214.4124     25.1896     59.2129
  1925.0000     30.6374    214.5270     25.0703     56.9246
  1925.2500     30.3765    214.5848     24.8736     55.7944
  1925.5000     30.0111    214.5972     24.5924     54.3728
  1925.7500     29.6218    214.5906     24.2355     53.4946
  1926.0000     29.2503    214.5993     23.8276     52.4366
  1926.2500     28.8718    214.6425     23.4128     52.1989
  1926.5000     28.4364    214.7075     23.0465     53.4299
  1926.7500     27.9085    214.7597     22.7724     56.0146
  1927.0000     27.2899    214.7698     22.6015     63.3568
  1927.2500     26.6241    214.7305     22.5149     70.1436
  1927.5000     26.0466    214.6435     22.4921     80.4156
  1927.7500     25.8264    214.4995     22.5389     85.2096
  1928.0000     26.2284    214.2795     22.6896     87.0872
  1928.2500     27.3039    213.9763     22.9838     84.9845
  1928.5000     28.9230    213.6103     23.4411     78.6658
  1928.7500     31.0914    213.2275     24.0596     73.3033
  1929.0000     34.0680    212.8900     24.8360     64.3446
  1929.2500     37.9892    212.6642     25.7900     58.1753
  1929.5000     42.5516    212.6041     26.9689     49.7866
  1929.7500     47.2974    212.7321     28.4167     45.5281
  1930.0000     52.0530    213.0306     30.1293     41.9620
  1930.2500     56.8446    213.4565     32.0326     41.4898
  1930.5000     61.5982    213.9654     34.0188     42.9394
  1930.7500     66.1488    214.5249     36.0227     44.7339
  1931.0000     70.3454    215.1150     38.0494     47.7989
  1931.2500     74.0343    215.7245     40.1002     49.7557
  1931.5000     77.1055    216.3504     42.0725     52.1055
  1931.7500     79.5823    217.0020     43.7730     53.1595
  1932.0000     81.5556    217.7044     45.0763     54.3361
  1932.2500     83.0054    218.4929     46.0771     55.2377
  1932.5000     83.7181    219.3918     47.0711     56.7831
  1932.7500     83.3837    220.3898     48.3973     57.3596
  1933.0000     81.7497    221.4326     50.2728     56.4275
  1933.2500     78.7161    222.4410     52.6640     54.6134
  1933.5000     74.3407    223.3448     55.1732     51.6475
  1933.7500     68.7911    224.1111     57.0056     50.8600
  1934.0000     62.4389    224.7515     57.1837     53.2835
  1934.2500     55.9705    225.3095     55.0591     57.5316
  1934.5000     50.0842    225.8341     50.7436     66.4763
  1934.7500     45.0049    226.3562     45.0463     72.6701
  1935.0000     40.5060    226.8814     38.9908     80.1656
  1935.2500     36.3347    227.3978     33.3773     83.7207
  1935.5000     32.4023    227.8872     28.6278     88.1109
  1935.7500     28.7388    228.3295     24.8432     91.2835
  1936.0000     25.4218    228.7036     21.9265     97.0139
  1936.2500     22.4733    228.9936     19.6879    101.4576
  1936.5000     19.8420    229.1988     17.9180    109.1608
  1936.7500     17.5020    229.3386     16.4403    115.0107
  1937.0000     15.5063    229.4435     15.1424    124.0220
  1937.2500     13.9170    229.5356     13.9769    129.3275
  1937.5000     12.7038    229.6168     12.9349    135.4338
  1937.7500     11.7631    229.6739     12.0174    138.4958
  1938.0000     11.0247    229.6987     11.2209    142.3101
  1938.2500     10.4551    229.7045     10.5378    144.4630
  1938.5000     10.0009    229.7250      9.9589    146.7193
  1938.7500      9.6276    229.7938      9.4741    147.2248
  1939.0000      9.3666    229.9250      9.0734    146.1226
  1939.2500      9.2536    230.1077      8.7478    144.2868
  1939.5000      9.2346    230.3124      8.4899    140.9448
  1939.7500      9.1903    230.4997      8.2937    139.2851
  1940.0000      9.0810    230.6343      8.1541    139.0693
  1940.2500      8.9629    230.7003      8.0660    140.6869
  1940.5000      8.8495    230.7069      8.0241    145.1443
  1940.7500      8.6918    230.6767      8.0217    148.9132
  1941.0000      8.5057    230.6255      8.0509    154.8612
  1941.2500      8.4196    230.5536      8.1038    158.4035
  1941.5000      8.5247    230.4523      8.1747    161.9684
  1941.7500      8.7339    230.3212      8.2600    162.9933
  1942.0000      8.8834    230.1732      8.3569    163.3260
  1942.2500      8.9127    230.0242      8.4615    163.3131
  1942.5000      8.8638    229.8804      8.5681    162.9304
  1942.7500      8.7761    229.7387      8.6700    161.9420
  1943.0000      8.6897    229.5970      8.7609    158.6075
  1943.2500      8.6899    229.4618      8.8365    155.1367
  1943.5000      8.8443    229.3525      8.8966    149.1358
  1943.7500      9.1039    229.2975      8.9454    145.7848
  1944.0000      9.3117    229.3210      8.9901    143.6248
  1944.2500      9.3469    229.4243      9.0369    144.4281
  1944.5000      9.2358    229.5796      9.0881    147.9842
  1944.7500      9.0830    229.7462      9.1419    151.0184
  1945.0000      8.9562    229.8958      9.1958    155.9612
  1945.2500      8.8741    230.0251      9.2505    159.7989
  1945.5000      8.8611    230.1497      9.3111    166.4946
  1945.7500      8.9738    230.2863      9.3845    170.8264
  1946.0000      9.2543    230.4371      9.4750    175.1280
  1946.2500      9.6743    230.5842      9.5824    175.8044
  1946.5000     10.1295    230.6969      9.7030    173.6181
  1946.7500     10.4743    230.7463      9.8325    170.6483
  1947.0000     10.6114    230.7207      9.9693    165.4717
  1947.2500     10.5744    230.6308     10.1165    162.4230
  1947.5000     10.4751    230.4976     10.2811    159.1837
  1947.7500     10.4042    230.3268     10.4725    157.5819
