~Version Information
VERS.                      2.0: CWLS Log ASCII Standard - VERSION 2.0
WRAP.                       NO: One line per depth step
~Well Information Block
STRT.FT                37.7500: 
STOP.FT              1898.5000: 
STEP.FT                 0.2500: 
NULL.                -999.2500: 
COMP.          Petrogulf Corporation: COMPANY
WELL.           Montoya 12-41R: WELL
FLD.           Purgatorie River: FIELD
LOC.           1086' FNL & 610' FEL--: LOCATION
PROV.                       CO: PROVINCE
CNTY.               Las Animas: COUNTRY
SRVC.                         : SERVICE COMPANY
DATE.          Wed Feb 09 11:45:45 2005: LOG DATE
UWI.         005 071 08241 : UNIQUE WELL ID
~Curve Information Block
DEPT.FT            0 000 00 00: Depth
CCL.                          : Casing Collar Locator
TT3.usec                      : CBL 3' Travel Time
AMP3.mV                       : CBL 3' Amplitude
GR.GAPI                       : Gamma Ray
~Parameter Information Block
~A  Depth       CCL         TT3         AMP3         GR     
# ...
  1645.7500      0.0000    701.2653      5.5960    148.7227
  1646.0000      0.0000    707.7340      5.5210    151.6247
  1646.2500      0.0000    714.8280      5.5502    156.3974
  1646.5000      0.0000    722.2642      5.6610    162.7106
  1646.7500      0.0000    729.6556      5.7218    169.0402
  1647.0000      0.0000    736.6112      5.6358    173.7043
  1647.2500      0.0000    742.7524      5.4509    176.0104
  1647.5000      0.0000    747.4656      5.3169    176.3740
  1647.7500      0.0000    749.6093      5.3480    175.5655
  1648.0000      0.0000    747.8557      5.5246    174.0994
  1648.2500      0.0000    742.0155      5.7111    172.2906
  1648.5000      0.0000    734.0932      5.7654    170.6004
  1648.7500      0.0000    727.3020      5.6371    169.8034
  1649.0000      0.0000    723.6116      5.3667    170.7047
  1649.2500      0.0000    722.5532      5.0208    173.4002
  1649.5000      0.0000    722.3451      4.6513    176.8941
  1649.7500      0.0000    721.4619      4.2958    179.7712
  1650.0000      0.0000    718.9631      3.9751    181.0280
  1650.2500      0.0000    714.2302      3.6947    180.0083
  1650.5000      0.0000    707.2651      3.4673    176.1738
  1650.7500      0.0000    699.1931      3.3304    169.6815
  1651.0000      0.0000    691.8600      3.3195    161.9736
  1651.2500      0.0000    686.6393      3.4219    155.2504
  1651.5000      0.0000    683.6215      3.5692    151.2447
  1651.7500      0.0000    681.7419      3.6795    150.6458
  1652.0000      0.0000    679.2546      3.7069    153.3091
  1652.2500      0.0000    674.1396      3.6631    158.2002
  1652.5000      0.0000    664.8406      3.6003    163.0654
  1652.7500      0.0000    651.7491      3.5679    165.2375
  1653.0000      0.0000    638.1821      3.5872    163.4190
  1653.2500      0.0000    628.8286      3.6595    158.5007
  1653.5000      0.0000    626.2173      3.7764    152.8380
  1653.7500      0.0000    628.7444      3.9133    148.8426
  1654.0000      0.0000    632.2365      4.0256    147.4207
  1654.2500      0.0000    633.2332      4.0677    147.2817
  1654.5000      0.0000    631.5807      4.0242    146.2583
  1654.7500      0.0000    630.8577      3.9221    143.5313
  1655.0000      0.0000    635.2224      3.8054    140.2881
  1655.2500      0.0000    644.4188      3.7028    138.3799
  1655.5000      0.0000    651.8632      3.6314    138.7531
  1655.7500      0.0000    647.7868      3.6165    141.1179
  1656.0000      0.0000    624.7723      3.6818    144.7780
  1656.2500      0.0000    582.8374      3.8178    149.4524
  1656.5000      0.0000    531.1976      3.9677    154.9615
  1656.7500      0.0000    484.1503      4.0523    160.2721
  1657.0000      0.0000    453.6553      4.0299    163.7268
  1657.2500      0.0000    445.3364      3.9546    164.7714
  1657.5000      0.0000    459.4437      3.9543    165.0083
  1657.7500      0.0000    492.3964      4.1236    166.8344
  1658.0000      0.0000    536.7645      4.4447    170.9077
  1658.2500      0.0000    582.2102      4.8247    175.1066
  1658.5000      0.0000    618.4442      5.1884    176.0415
  1658.7500      0.0000    637.8271      5.5177    171.8070
  1659.0000      0.0000    636.5713      5.8220    163.6401
  1659.2500      0.0000    616.6921      6.0859    155.0729
  1659.5000      0.0000    588.2229      6.2432    149.2209
  1659.7500      2.0000    567.0593      6.2178    146.3851
  1660.0000      0.0000    566.2687      6.0052    143.8338
  1660.2500      0.0000    586.8613      5.6844    137.9514
  1660.5000      0.0000    617.4245      5.3399    127.2515
  1660.7500      0.0000    644.2399      5.0100    113.9451
  1661.0000      0.0000    661.7049      4.7264    102.6219
  1661.2500      0.0000    672.8412      4.5480     97.0060
  1661.5000      0.0000    682.2885      4.5046     97.5579
  1661.7500      0.0000    691.3273      4.5371    101.8434
  1662.0000      0.0000    698.2699      4.5405    106.8484
  1662.2500      0.0000    700.6251      4.4646    110.9382
  1662.5000      0.0000    696.5123      4.3517    114.1956
  1662.7500      0.0000    686.1600      4.2860    117.5102
  1663.0000      0.0000    673.4029      4.3257    121.5209
  1663.2500      0.0000    664.6386      4.4724    126.3492
  1663.5000      0.0000    664.3276      4.6811    131.8049
  1663.7500      0.0000    671.3361      4.8906    137.2256
  1664.0000      0.0000    680.1746      5.0539    141.4911
  1664.2500      0.0000    685.0294      5.1528    144.0737
  1664.5000      0.0000    681.7290      5.1995    145.9933
  1664.7500      0.0000    667.1957      5.2273    149.0355
  1665.0000      0.0000    640.3464      5.2642    153.9327
  1665.2500      0.0000    605.8478      5.3046    159.5271
  1665.5000      0.0000    574.4346      5.3188    163.6444
  1665.7500      0.0000    554.1844      5.3008    164.7330
  1666.0000      0.0000    541.2502      5.2942    162.8645
  1666.2500      0.0000    524.1780      5.3493    159.4823
  1666.5000      0.0000    498.0677      5.4520    156.2124
  1666.7500      0.0000    469.9113      5.5201    153.6288
  1667.0000      0.0000    449.6864      5.4963    151.0781
  1667.2500      0.0000    440.5304      5.4296    147.9585
  1667.5000      0.0000    438.3164      5.4383    145.1164
  1667.7500      0.0000    437.4067      5.5853    144.4354
  1668.0000      0.0000    435.2064      5.7992    146.9576
  1668.2500      0.0000    432.5012      5.9310    151.8988
  1668.5000      0.0000    430.8772      5.8931    157.6080
  1668.7500      0.0000    430.5491      5.7368    162.9149
  1669.0000      0.0000    431.1380      5.5829    167.2163
  1669.2500      0.0000    433.9300      5.4846    169.8375
  1669.5000      0.0000    441.7322      5.3823    170.2208
  1669.7500      0.0000    455.8532      5.1975    168.7999
  1670.0000      0.0000    474.0326      4.9433    167.0005
  1670.2500      0.0000    491.5819      4.7257    166.0208
  1670.5000      0.0000    503.5098      4.6442    165.7486
  1670.7500      0.0000    506.1843      4.7096    165.0755
  1671.0000      0.0000    499.5127      4.8439    163.2447
  1671.2500      0.0000    488.1313      4.9354    160.5467
  1671.5000      0.0000    478.7209      4.9046    157.4019
  1671.7500      0.0000    476.3265      4.7541    153.1516
  1672.0000      0.0000    484.2440      4.5608    146.4913
  1672.2500      0.0000    504.4782      4.4064    137.1273
  1672.5000      0.0000    533.6580      4.3141    126.7009
  1672.7500      0.0000    559.0944      4.2431    117.9491
  1673.0000      0.0000    564.4302      4.1284    112.9290
  1673.2500      0.0000    543.1990      3.9321    112.0640
  1673.5000      0.0000    506.9172      3.6819    115.0003
  1673.7500      0.0000    478.4651      3.4577    121.8938
  1674.0000      0.0000    476.4795      3.3367    132.9357
  1674.2500      0.0000    503.8198      3.3623    146.6356
  1674.5000      0.0000    547.2866      3.5574    159.4427
  1674.7500      0.0000    586.1487      3.9218    167.4243
  1675.0000      0.0000    602.4754      4.3918    168.3278
  1675.2500      0.0000    588.2564      4.8294    162.5858
  1675.5000      0.0000    548.2526      5.0832    152.7813
  1675.7500      0.0000    498.1454      5.0751    141.9514
  1676.0000      0.0000    457.3481      4.8454    132.2657
  1676.2500      0.0000    439.7400      4.5340    125.2209
  1676.5000      0.0000    447.9989      4.3010    122.0727
  1676.7500      0.0000    473.7464      4.2286    122.8905
  1677.0000      0.0000    502.6979      4.2731    125.4659
  1677.2500      0.0000    523.6154      4.3152    126.3010
  1677.5000      0.0000    536.2621      4.2682    123.3182
  1677.7500      0.0000    550.5190      4.1481    117.5140
  1678.0000      0.0000    575.9024      4.0458    111.8715
  1678.2500      0.0000    611.8004      4.0365    108.7059
  1678.5000      0.0000    648.3181      4.1175    107.9489
  1678.7500      0.0000    675.2073      4.2249    107.5708
  1679.0000      0.0000    688.8341      4.2931    105.4925
