~Version Information
 VERS.                                  2.0 : CWLS LAS VERSION
 WRAP.                                   NO : WRAPING MODE
 SWARE .                 MController 2.5.0J : SOFTWARE VERSION
~Well Information
 WELL.                          Silva 1-43R : WELL
 COMP.                Petrogulf Corporation : COMPANY
 FLD.                       Purgatory River : FIELD
 LOC.                  NE/SE sec1 T33S R68W : LOCATION
 DATE.                    6/16/06 - 6/17/06 : DATE(S) LOGGED
 SRVC.      Blanco Geological Services, LLC : SERVICE COMPANY
 STAT.                             Colorado : STATE
 CNTY.                           Las Animas : COUNTY
 CTRY.                                  USA : COUNTRY
 API.                       05-071-08372-00 : API NUMBER
 STRT.FT                              12.00 : START DEPTH
 STOP.FT                            2210.00 : STOP DEPTH
 STEP.FT                               1.00 : DEPTH INCREMENT
 NULL.                                -9999 : NULL VALUE
~Curve information
 DEPTH.FT                                   :
 ROP.MIN/FT                                 :
 GAS.UNITS                                  :
~ASCII Log data
# ...
       412.0         0.33          1.5 
       413.0         0.47          2.0 
       414.0         0.40          2.5 
       415.0         0.43          1.9 
       416.0         0.42          1.9 
       417.0         0.33          2.8 
       418.0         0.37          2.4 
       419.0         0.40          2.2 
       420.0         0.43          1.8 
       421.0         0.43          1.3 
       422.0         0.43          0.7 
       423.0         0.43          0.8 
       424.0         0.48          0.5 
       425.0         0.47          0.6 
       426.0         0.43          0.5 
       427.0         0.40          0.0 
       428.0         0.37          2.1 
       429.0         0.40          1.7 
       430.0         0.40          2.0 
       431.0         0.40          2.1 
       432.0         0.42          2.2 
       433.0         0.37          1.9 
       434.0         0.37          2.0 
       435.0         0.37          2.0 
       436.0         0.37          1.8 
       437.0         0.40          2.5 
       438.0         0.47          2.5 
       439.0         0.40          2.0 
       440.0         0.30          1.8 
       441.0         1.22          2.0 
       442.0         0.30          2.5 
       443.0         0.33          3.4 
       444.0         0.33          3.8 
       445.0         0.43          3.9 
       446.0         0.43          3.9 
       447.0         0.38          3.6 
       448.0         0.43          3.0 
       449.0         0.47          3.3 
       450.0         0.43          2.8 
       451.0         0.37          2.8 
       452.0         0.33          3.0 
       453.0         0.37          2.3 
       454.0         0.33          2.2 
       455.0         0.33          2.3 
       456.0         0.38          3.0 
       457.0         0.33          2.7 
       458.0         0.30          2.4 
       459.0         0.37          2.6 
       460.0         0.40          2.5 
       461.0         0.33          2.6 
       462.0         0.40          2.5 
       463.0         0.37          2.3 
       464.0         0.43          2.2 
       465.0         0.45          2.0 
       466.0         0.43          2.7 
       467.0         0.40          2.3 
       468.0         0.40          2.9 
       469.0         0.40          2.3 
       470.0         0.33          2.6 
       471.0         0.97          2.8 
       472.0         0.32          2.8 
       473.0         0.30          2.6 
       474.0         0.40          2.2 
       475.0         0.43          2.7 
       476.0         0.40          2.5 
       477.0         0.40          2.8 
       478.0         0.40          2.6 
       479.0         0.43          3.2 
       480.0         0.40          2.0 
       481.0         0.45          2.7 
       482.0         0.43          1.8 
       483.0         0.43          2.4 
       484.0         0.40          1.8 
       485.0         0.47          1.4 
       486.0         0.47          1.9 
       487.0         0.43          2.3 
       488.0         0.45          2.1 
       489.0         0.47          1.3 
       490.0         0.43          1.5 
       491.0         0.50          1.5 
       492.0         0.43          1.7 
       493.0         0.40          1.8 
       494.0         0.43          0.9 
       495.0         0.40          1.4 
       496.0         0.45          1.4 
       497.0         0.40          1.2 
       498.0         0.43          0.9 
       499.0         0.43          1.4 
       500.0         0.70          1.0 
       501.0         5.93          3.9 
       502.0         0.63          3.8 
       503.0         0.70          3.8 
       504.0         0.72          2.8 
       505.0         0.57          2.9 
       506.0         0.57          3.2 
       507.0         0.57          3.3 
       508.0         0.50          3.5 
       509.0         0.53          3.3 
       510.0         0.52          3.3 
       511.0         0.50          3.4 
       512.0         0.53          2.7 
       513.0         0.53          2.9 
       514.0         0.53          3.5 
       515.0         0.60          3.0 
       516.0       685.10          4.0 
       517.0         0.77          4.3 
       518.0         0.47          3.7 
       519.0         0.20          4.3 
       520.0         0.33          3.9 
       521.0         0.47          4.2 
       522.0         0.37          3.5 
       523.0         0.32          3.4 
       524.0         0.30          2.9 
       525.0         0.27          3.7 
       526.0         0.33          2.8 
       527.0         0.23          3.9 
       528.0         0.30          3.3 
       529.0         0.40          3.3 
       530.0         0.57          3.7 
       531.0         0.43          2.9 
       532.0         0.40          3.3 
       533.0         0.32          3.3 
       534.0         0.40          3.3 
       535.0         0.40          4.1 
       536.0         2.78          2.3 
       537.0         0.33          2.5 
       538.0         0.30          2.2 
       539.0         0.37          2.3 
       540.0         0.37          2.2 
       541.0         0.43          2.0 
       542.0         0.30          2.2 
       543.0         0.33          2.7 
       544.0         0.30          2.9 
       545.0         0.32          3.0 
       546.0         0.27          3.5 
       547.0         0.30          2.5 
       548.0         0.27          2.8 
       549.0         0.27          2.6 
       550.0         0.27          3.2 
       551.0         0.27          2.8 
       552.0         0.27          3.7 
       553.0         0.27          2.9 
       554.0         0.30          2.7 
       555.0         0.33          2.9 
       556.0         0.27          1.8 
       557.0         0.28          1.8 
       558.0         0.27          1.9 
       559.0         0.30          1.9 
       560.0         0.27          1.7 
       561.0         0.40          1.8 
       562.0         0.30          1.6 
       563.0         0.27          2.0 
       564.0         0.27          2.1 
       565.0         0.40          2.7 
       566.0         1.28          3.3 
       567.0         0.50          3.8 
       568.0         0.17          4.1 
       569.0         0.53          3.4 
       570.0         0.47          4.1 
       571.0         0.37          4.4 
       572.0         0.30          4.4 
       573.0         0.27          4.0 
       574.0         0.32          4.0 
       575.0         0.27          4.0 
       576.0         0.23          3.3 
       577.0         0.27          2.8 
       578.0         0.27          2.8 
       579.0         0.23          2.3 
       580.0         0.27          2.9 
       581.0         0.23          2.2 
       582.0         0.23          2.9 
       583.0         0.23          2.6 
       584.0         0.27          2.0 
       585.0         0.27          2.0 
       586.0         0.33          1.8 
       587.0         0.38          1.8 
       588.0         0.37          1.5 
       589.0         0.37          2.1 
       590.0         0.40          2.7 
       591.0         0.27          2.2 
       592.0         0.27          2.0 
       593.0         0.30          2.8 
       594.0         0.23          2.7 
       595.0         0.57          3.0 
       596.0         1.45          4.7 
       597.0         0.23          5.1 
       598.0         0.47          4.6 
       599.0         0.40          4.7 
       600.0         0.37          4.6 
       601.0         0.37          5.2 
       602.0         0.27          5.1 
       603.0         0.32          4.8 
       604.0         0.23          4.4 
       605.0         0.23          4.2 
       606.0         0.23          3.9 
       607.0         0.23          3.3 
       608.0         0.17          2.9 
       609.0         0.20          3.3 
       610.0         0.27          2.8 
       611.0         0.23          2.7 
