~Version Information
VERS.                      2.0: CWLS Log ASCII Standard - VERSION 2.0
WRAP.                       NO: One line per depth step
~Well Information Block
STRT.FT               575.0000: 
STOP.FT              2016.2000: 
STEP.FT                 0.1000: 
NULL.                -999.2500: 
COMP.          Pioneer Natural Resources: COMPANY
WELL.          Bucksnort 41-35: WELL
FLD.           Purgatoire River: FIELD
LOC.           117' FNL & 463' FEL--: LOCATION
PROV.                 Colorado: PROVINCE
CNTY.               Las Animas: COUNTRY
SRVC.                Patterson: SERVICE COMPANY
DATE.          Thu Jul 21 15:01:23 2005: LOG DATE
UWI.           05 071 08401 00: UNIQUE WELL ID
~Curve Information Block
DEPT.FT            0 000 00 00: Depth
DCAL.in                       : CDL Caliper
RHOB.g/cc                     : CDL Bulk Density
RHOC.g/cc                     : CDL Density Correction
DPOR.pu                       : CDL Density Porosity
NPOR.pu                       : Neutron Porosity
GR.GAPI                       : Gamma Ray
~Parameter Information Block
~A  Depth       DCAL        RHOB        RHOC        DPOR        NPOR         GR     
# ...
   949.4000      7.8128      2.6847      0.1011     -2.1023     18.6741     84.4481
   949.5000      7.8556      2.6634      0.0552     -0.8136     16.3092     79.9140
   949.6000      7.8556      2.6493      0.0661      0.0439     15.8253     79.6053
   949.7000      7.8556      2.6313      0.0652      1.1315     16.4681     81.2462
   949.8000      7.8839      2.6061      0.0211      2.6580     17.8527     82.3360
   949.9000      7.8839      2.5856      0.0167      3.9012     19.2694     79.7625
   950.0000      7.8968      2.5776      0.0297      4.3864     19.3681     71.0760
   950.1000      7.8968      2.5834      0.0596      4.0355     18.4535     59.9426
   950.2000      7.8968      2.6013      0.0674      2.9510     17.3870     53.6863
   950.3000      7.9005      2.6253      0.0698      1.4966     16.0140     54.5137
   950.4000      7.9005      2.6521      0.0436     -0.1259     15.7681     57.7640
   950.5000      7.8976      2.6785      0.0783     -1.7274     18.3373     59.3349
   950.6000      7.8976      2.6937      0.0658     -2.6457     21.8142     59.3497
   950.7000      7.8976      2.6890      0.0638     -2.3610     24.2467     58.6205
   950.8000      7.8868      2.6633      0.0184     -0.8082     26.0220     58.1701
   950.9000      7.8868      2.6284     -0.0155      1.3070     27.2357     59.8496
   951.0000      7.8738      2.6031     -0.0453      2.8424     27.4867     63.9419
   951.1000      7.8738      2.5910     -0.0210      3.5732     26.7920     68.3240
   951.2000      7.8738      2.5856     -0.0402      3.9032     25.4397     72.6250
   951.3000      7.8735      2.5820     -0.0030      4.1192     22.9548     77.4914
   951.4000      7.8735      2.5689      0.0308      4.9125     19.5748     79.5344
   951.5000      7.8872      2.5457     -0.0174      6.3242     18.2514     76.3856
   951.6000      7.8872      2.5345      0.0297      6.9978     20.0625     70.9195
   951.7000      7.8872      2.5453      0.0586      6.3450     22.1895     66.2981
   951.8000      7.8921      2.5643      0.0953      5.1925     22.5546     62.6356
   951.9000      7.8921      2.5829      0.1117      4.0665     21.2116     59.4691
   952.0000      7.8723      2.6086      0.1072      2.5068     19.4361     59.2512
   952.1000      7.8723      2.6490      0.1556      0.0581     18.8658     61.2260
   952.2000      7.8723      2.6925      0.1878     -2.5751     19.5336     60.2257
   952.3000      7.8512      2.7194      0.1711     -4.2077     20.7908     55.9750
   952.4000      7.8512      2.7272      0.1213     -4.6801     22.5939     51.0534
   952.5000      7.8451      2.7253      0.0854     -4.5634     23.7299     45.2137
   952.6000      7.8451      2.7117      0.1101     -3.7366     23.2923     39.6420
   952.7000      7.8451      2.6766      0.1016     -1.6123     23.3272     38.0225
   952.8000      7.8485      2.6277      0.0765      1.3534     25.5971     40.4230
   952.9000      7.8485      2.5801      0.0391      4.2379     28.0210     43.2606
   953.0000      7.8590      2.5383     -0.0010      6.7673     28.9614     44.9200
   953.1000      7.8590      2.5036     -0.0173      8.8751     29.1377     45.8201
   953.2000      7.8590      2.4812     -0.0251     10.2280     28.4228     46.0896
   953.3000      7.8761      2.4725     -0.0216     10.7566     26.7593     46.0570
   953.4000      7.8761      2.4646     -0.0031     11.2390     25.9617     45.7989
   953.5000      7.9004      2.4393      0.0331     12.7684     26.6926     45.4262
   953.6000      7.9004      2.3973     -0.0267     15.3156     26.6845     46.4814
   953.7000      7.9004      2.3581     -0.0142     17.6900     25.1120     49.8721
   953.8000      7.9266      2.3322     -0.0007     19.2624     24.3785     55.5128
   953.9000      7.9266      2.3195     -0.0228     20.0304     25.6795     61.5147
   954.0000      7.9375      2.3182     -0.0120     20.1067     27.1869     66.7516
   954.1000      7.9375      2.3279     -0.0358     19.5214     27.4457     71.7965
   954.2000      7.9375      2.3514      0.0249     18.0953     26.5783     75.5493
   954.3000      7.9309      2.3820      0.0852     16.2423     26.2424     78.6552
   954.4000      7.9309      2.4136      0.0971     14.3247     27.6044     85.1189
   954.5000      7.9217      2.4531      0.1388     11.9306     28.9128     98.5757
   954.6000      7.9217      2.4970      0.1733      9.2699     29.6717    117.2791
   954.7000      7.9217      2.5341      0.1238      7.0236     31.0515    130.3213
   954.8000      7.9283      2.5681      0.1146      4.9651     32.5866    132.2542
   954.9000      7.9283      2.6006      0.1447      2.9953     33.2136    133.7965
   955.0000      7.9462      2.6205      0.1062      1.7875     32.8168    139.4967
   955.1000      7.9462      2.6209      0.1056      1.7612     31.7901    143.5128
   955.2000      7.9462      2.6024      0.0796      2.8864     30.3637    145.9835
   955.3000      7.9590      2.5810      0.0047      4.1810     29.0188    147.6002
   955.4000      7.9590      2.5752      0.0413      4.5308     28.3360    145.5701
   955.5000      7.9595      2.5780      0.0478      4.3639     28.9227    143.7381
   955.6000      7.9595      2.5763      0.0325      4.4697     30.2429    146.4767
   955.7000      7.9595      2.5656      0.0639      5.1153     29.2510    151.9067
   955.8000      7.9531      2.5520     -0.0162      5.9391     25.5639    157.0583
   955.9000      7.9531      2.5520      0.0087      5.9414     24.1136    159.7698
   956.0000      7.9453      2.5623      0.0447      5.3154     27.3640    157.7954
   956.1000      7.9453      2.5685      0.0331      4.9381     31.2820    149.7094
   956.2000      7.9453      2.5742      0.0249      4.5957     32.7027    140.1333
   956.3000      7.9417      2.5855      0.0709      3.9067     32.6940    133.1333
   956.4000      7.9417      2.5997      0.0700      3.0467     32.9647    128.0157
   956.5000      7.9428      2.6173      0.0745      1.9829     33.7499    126.7584
   956.6000      7.9428      2.6351      0.0890      0.9015     34.1918    127.5442
   956.7000      7.9428      2.6520      0.0513     -0.1204     33.6945    124.4666
   956.8000      7.9425      2.6786      0.0741     -1.7329     32.0540    116.4756
   956.9000      7.9425      2.7117      0.1058     -3.7422     29.3675    107.3227
   957.0000      7.9410      2.7337      0.1035     -5.0708     27.7682     98.7566
   957.1000      7.9410      2.7405      0.0805     -5.4834     28.9911     90.5194
   957.2000      7.9410      2.7392      0.0589     -5.4049     31.1634     82.3145
   957.3000      7.9384      2.7337      0.0596     -5.0723     32.7846     75.0430
   957.4000      7.9384      2.7289      0.0589     -4.7799     33.8208     70.8055
   957.5000      7.9289      2.7306      0.0197     -4.8842     33.4564     69.4571
   957.6000      7.9289      2.7422      0.0249     -5.5853     30.9704     69.2173
   957.7000      7.9289      2.7610      0.0470     -6.7282     28.2546     69.7637
   957.8000      7.9154      2.7740      0.0623     -7.5127     28.0628     71.9849
   957.9000      7.9154      2.7650      0.0753     -6.9676     29.6165     73.5224
   958.0000      7.9116      2.7363      0.0390     -5.2326     30.9217     70.6501
   958.1000      7.9116      2.7022      0.0696     -3.1626     31.4443     67.3197
   958.2000      7.9116      2.6709      0.0093     -1.2697     30.6321     68.9975
   958.3000      7.9199      2.6516      0.0138     -0.0949     28.2232     73.2110
   958.4000      7.9199      2.6436      0.0404      0.3887     26.2932     75.5858
   958.5000      7.9319      2.6375      0.0238      0.7602     26.4598     76.0119
   958.6000      7.9319      2.6293      0.0318      1.2540     26.6210     77.4925
   958.7000      7.9319      2.6156      0.0334      2.0870     26.6762     80.1571
   958.8000      7.9437      2.6027      0.0107      2.8646     28.3919     83.6207
   958.9000      7.9437      2.6033      0.0431      2.8324     29.2963     89.9502
