~Version Information
 VERS.                                  2.0 : CWLS LAS VERSION
 WRAP.                                   NO : WRAPING MODE
 SWARE .                 MController 2.5.0I : SOFTWARE VERSION
~Well Information
 WELL.                      Alexander 9-43R : WELL
 COMP.                       Petrogulf corp : COMPANY
 FLD.                      Purgatorie River : FIELD
 LOC.                 NE/SE Sec 9 T33s R67W : LOCATION
 DATE.                              9/03/04 : DATE(S) LOGGED
 SRVC.       Blanco Geological Services LLC : SERVICE COMPANY
 STAT.                                   CO : STATE
 CNTY.                           Las Animas : COUNTY
 CTRY.                                  USA : COUNTRY
 API.                       05-071-08036-00 : API NUMBER
 STRT.FT                             527.00 : START DEPTH
 STOP.FT                            1779.00 : STOP DEPTH
 STEP.FT                               1.00 : DEPTH INCREMENT
 NULL.                                -9999 : NULL VALUE
~Curve information
 DEPTH.FT                                   :
 ROP.MIN/FT                                 :
 GAS.UNITS                                  :
~ASCII Log data
# ...
      1327.0          0.2         14.5 
      1328.0          0.2         13.8 
      1329.0          0.2         12.8 
      1330.0          0.2         12.0 
      1331.0          0.2         12.3 
      1332.0          0.2         11.8 
      1333.0          0.2         11.7 
      1334.0          0.2         11.7 
      1335.0          0.2         11.9 
      1336.0          0.3         12.2 
      1337.0          0.2         14.4 
      1338.0          0.1         14.7 
      1339.0          0.1         15.5 
      1340.0          0.1         15.5 
      1341.0          0.2         15.2 
      1342.0          0.1         14.1 
      1343.0          0.1         12.6 
      1344.0          0.1         11.3 
      1345.0          0.1          9.1 
      1346.0          0.1          6.9 
      1347.0          0.1          5.4 
      1348.0          2.0        111.1 
      1349.0          0.1         48.4 
      1350.0          0.3         48.9 
      1351.0          0.4         46.2 
      1352.0          0.2         33.4 
      1353.0          0.2         28.4 
      1354.0          0.2         24.5 
      1355.0          0.2         23.2 
      1356.0          0.1         23.6 
      1357.0          0.2         23.6 
      1358.0          0.2         22.1 
      1359.0          0.2         19.6 
      1360.0          0.2         18.6 
      1361.0          0.2         17.4 
      1362.0          0.2         16.5 
      1363.0          0.2         15.1 
      1364.0          0.2         14.9 
      1365.0          0.2         14.5 
      1366.0          0.2         14.4 
      1367.0          0.2         14.4 
      1368.0          0.2         13.6 
      1369.0          0.2         13.5 
      1370.0          0.4         12.2 
      1371.0          0.3         12.8 
      1372.0          0.2         13.1 
      1373.0          0.2         12.8 
      1374.0          0.2         12.2 
      1375.0          0.2         13.1 
      1376.0          0.2         12.7 
      1377.0          0.2         10.7 
      1378.0          2.2        106.8 
      1379.0          0.3         45.5 
      1380.0          0.2         45.0 
      1381.0          0.5         41.4 
      1382.0          0.2         28.8 
      1383.0          0.2         25.3 
      1384.0          0.2         23.9 
      1385.0          0.2         23.3 
      1386.0          0.2         22.5 
      1387.0          0.2         21.4 
      1388.0          0.2         19.5 
      1389.0          0.2         18.3 
      1390.0          0.3         17.5 
      1391.0          0.2         17.2 
      1392.0          0.2         16.0 
      1393.0          0.1         15.9 
      1394.0          0.2         15.3 
      1395.0          0.2         15.1 
      1396.0          0.2         14.3 
      1397.0          0.2         13.9 
      1398.0          0.2         13.9 
      1399.0          0.2         13.7 
      1400.0          0.1         13.9 
      1401.0          0.2         13.4 
      1402.0          0.1         12.4 
      1403.0          0.2         11.7 
      1404.0          0.2         11.1 
      1405.0          0.2         11.4 
      1406.0          0.2         12.4 
      1407.0          0.2         11.8 
      1408.0          0.2          6.8 
      1409.0          0.3          2.8 
      1410.0          2.1        101.2 
      1411.0          0.4         41.9 
      1412.0          0.3         31.9 
      1413.0          0.2         26.6 
      1414.0          0.2         21.6 
      1415.0          0.2         19.9 
      1416.0          0.2         19.2 
      1417.0          0.3         17.3 
      1418.0          0.3         16.2 
      1419.0          0.3         16.0 
      1420.0          0.2         16.0 
      1421.0          0.1         15.1 
      1422.0          0.1         15.2 
      1423.0          0.2         14.9 
      1424.0          0.2         14.2 
      1425.0          0.2         13.7 
      1426.0          0.2         12.7 
      1427.0          0.2         11.5 
      1428.0          0.2         10.3 
      1429.0          0.2         10.0 
      1430.0          0.3         10.2 
      1431.0          0.2         10.3 
      1432.0          0.1         10.9 
      1433.0          0.2         10.8 
      1434.0          0.2          9.7 
      1435.0          0.2          9.5 
      1436.0          0.2          9.5 
      1437.0          0.2         10.2 
      1438.0          0.2          9.7 
      1439.0          0.1          5.3 
      1440.0          4.0        192.9 
      1441.0          0.6         29.0 
      1442.0          0.3         19.1 
      1443.0          0.2         16.9 
      1444.0          0.3         16.1 
      1445.0          0.2         14.7 
      1446.0          0.2         13.2 
      1447.0          0.2         12.8 
      1448.0          0.2         12.3 
      1449.0          0.2         11.4 
      1450.0          0.2         10.4 
      1451.0          0.2          9.3 
      1452.0          0.2          9.2 
      1453.0          0.2          9.0 
      1454.0          0.2          8.7 
      1455.0          0.1          8.4 
      1456.0          0.2          7.6 
      1457.0          0.2          7.0 
      1458.0          0.2          7.2 
      1459.0          0.2          6.7 
      1460.0          0.2          6.1 
      1461.0          0.2          6.4 
      1462.0          0.1          6.3 
      1463.0          0.2          6.6 
      1464.0          0.1          7.7 
      1465.0          0.1          9.3 
      1466.0          0.2         10.8 
      1467.0          0.1         11.6 
      1468.0          0.1         11.4 
      1469.0          0.1          9.8 
      1470.0          2.7         49.2 
      1471.0          0.3         27.3 
      1472.0          0.3         27.4 
      1473.0          0.2         23.8 
      1474.0          0.3         21.2 
      1475.0          0.3         15.9 
      1476.0          0.2         11.8 
      1477.0          0.2         10.6 
      1478.0          0.2         10.6 
      1479.0          0.2         10.0 
      1480.0          0.2          6.8 
      1481.0          0.2         12.2 
      1482.0          0.2         12.8 
      1483.0          0.2         11.9 
      1484.0          0.2         12.5 
      1485.0          0.2         13.6 
      1486.0          0.2         13.6 
      1487.0          0.2         11.1 
      1488.0          0.2          9.5 
      1489.0          0.2          9.0 
      1490.0          0.2          7.7 
      1491.0          0.2          6.5 
      1492.0          0.2          6.2 
      1493.0          0.2          5.5 
      1494.0          0.2          4.8 
      1495.0          0.2          4.7 
      1496.0          0.2          5.0 
      1497.0          0.2          5.1 
      1498.0          0.2          5.6 
      1499.0          0.1          4.6 
      1500.0          2.6         39.0 
      1501.0          0.4         25.4 
      1502.0          0.4         25.5 
      1503.0          0.4         19.5 
      1504.0          0.3         13.9 
      1505.0          0.3         11.4 
      1506.0          0.3          8.5 
      1507.0          0.2          8.4 
      1508.0          0.3          8.8 
      1509.0          0.3          8.8 
      1510.0          0.3          7.5 
      1511.0          0.2          6.3 
      1512.0          0.3          5.5 
      1513.0          0.2          5.5 
      1514.0          0.3          5.7 
      1515.0          0.3          5.4 
      1516.0          0.1          5.1 
      1517.0          0.2          4.5 
      1518.0          0.2          3.6 
      1519.0          0.1          3.7 
      1520.0          0.2          3.3 
      1521.0          0.2          2.9 
      1522.0          0.2          2.4 
      1523.0          0.2          3.3 
      1524.0          0.2          3.5 
      1525.0          0.2          3.4 
      1526.0          0.2          3.5 
