~Version Information
VERS.                      2.0: CWLS Log ASCII Standard - VERSION 2.0
WRAP.                       NO: One line per depth step
~Well Information Block
STRT.FT               390.0000: 
STOP.FT               902.2000: 
STEP.FT                 0.1000: 
NULL.                -999.2500: 
COMP.          Pioneer Natural Resources: COMPANY
WELL.              Venom 32-22: WELL
FLD.           Purgatoire River: FIELD
LOC.           2307' FNL & 2024' FEL----: LOCATION
PROV.                 Colorado: PROVINCE
CNTY.               Las Animas: COUNTRY
SRVC.                Patterson: SERVICE COMPANY
DATE.          Wed May 11 08:31:39 2005: LOG DATE
UWI.           05 071 08361 00: UNIQUE WELL ID
~Curve Information Block
DEPT.FT            0 000 00 00: Depth
DCAL.in                       : CDL Caliper
RHOB.g/cc                     : CDL Bulk Density
RHOC.g/cc                     : CDL Density Correction
DPOR.pu                       : CDL Density Porosity
NPOR.pu                       : Neutron Porosity
GR.GAPI                       : Gamma Ray
~Parameter Information Block
~A  Depth       DCAL        RHOB        RHOC        DPOR        NPOR         GR     
# ...
   802.8000      7.9336      2.4032      0.0190     14.9596     23.1719    115.1771
   802.9000      7.9336      2.3805     -0.0370     16.3339     23.4129    117.7567
   803.0000      7.9334      2.3765      0.0470     16.5779     23.4822    113.7422
   803.1000      7.9334      2.3763      0.0611     16.5901     23.7996    108.8444
   803.2000      7.9334      2.3710      0.0190     16.9111     24.2018    108.0585
   803.3000      7.9261      2.3667      0.0783     17.1721     24.4785    111.8516
   803.4000      7.9261      2.3636      0.0560     17.3586     24.4886    119.0734
   803.5000      7.9146      2.3614      0.0423     17.4893     24.1954    124.9172
   803.6000      7.9146      2.3615      0.0751     17.4838     24.1346    124.2150
   803.7000      7.9146      2.3622      0.0937     17.4453     24.5995    119.3134
   803.8000      7.9028      2.3657      0.0822     17.2315     25.0460    115.2068
   803.9000      7.9028      2.3753      0.0789     16.6501     25.1836    108.9431
   804.0000      7.8963      2.3853      0.0845     16.0425     25.2616     97.6776
   804.1000      7.8963      2.3933      0.0481     15.5567     25.2307     89.6248
   804.2000      7.8963      2.4067      0.0900     14.7454     24.9496     93.1600
   804.3000      7.9105      2.4201      0.0861     13.9355     24.6502    103.3622
   804.4000      7.9105      2.4134      0.1024     14.3422     24.4292    110.4694
   804.5000      7.9422      2.3859      0.0328     16.0060     24.2379    113.5219
   804.6000      7.9422      2.3599      0.0455     17.5828     24.3035    114.7984
   804.7000      7.9422      2.3482      0.0407     18.2923     24.8223    114.7388
   804.8000      7.9654      2.3537      0.0194     17.9577     25.4991    112.4005
   804.9000      7.9654      2.3722      0.0778     16.8354     25.6720    103.3899
   805.0000      7.9770      2.3869      0.0590     15.9464     25.3546     91.3971
   805.1000      7.9770      2.3852      0.0457     16.0501     25.2211     88.2618
   805.2000      7.9770      2.3685      0.0322     17.0629     25.1753     97.3778
   805.3000      7.9785      2.3491      0.0228     18.2360     24.7974    111.2065
   805.4000      7.9785      2.3429      0.0095     18.6131     24.2150    118.5652
   805.5000      7.9693      2.3529      0.0322     18.0043     23.8940    115.2875
   805.6000      7.9693      2.3650      0.0347     17.2753     24.0883    109.1585
   805.7000      7.9693      2.3684      0.0371     17.0686     24.2902    106.1552
   805.8000      7.9603      2.3642      0.0722     17.3221     24.1260    105.6582
   805.9000      7.9603      2.3566      0.0633     17.7845     23.8909    106.3234
   806.0000      7.9520      2.3562      0.0236     17.8086     23.8101    107.1775
   806.1000      7.9520      2.3729      0.0607     16.7911     23.9032    108.5290
   806.2000      7.9520      2.3983      0.0640     15.2562     24.2253    113.2278
   806.3000      7.9440      2.4113      0.0877     14.4651     24.5712    123.0769
   806.4000      7.9440      2.4016      0.0721     15.0539     24.9433    133.1637
   806.5000      7.9407      2.3843      0.0381     16.1001     25.5497    135.6434
   806.6000      7.9407      2.3826      0.0516     16.2050     26.1357    124.7959
   806.7000      7.9407      2.3965      0.0864     15.3641     26.0946    103.2529
   806.8000      7.9424      2.4106      0.0585     14.5121     25.3400     85.7103
   806.9000      7.9424      2.4206      0.0416     13.9030     24.6290     83.8302
   807.0000      7.9497      2.4287      0.0950     13.4147     24.6099     96.2132
   807.1000      7.9497      2.4297      0.0829     13.3545     25.1066    113.7713
   807.2000      7.9497      2.4236      0.0491     13.7233     25.4386    123.6571
   807.3000      7.9583      2.4146      0.0347     14.2696     25.2987    118.0713
   807.4000      7.9583      2.4036      0.0359     14.9335     24.9506    104.7197
   807.5000      7.9621      2.3970      0.0122     15.3356     24.9788     96.5096
   807.6000      7.9621      2.4046      0.0417     14.8742     25.5765     96.3013
   807.7000      7.9621      2.4269      0.0373     13.5203     26.0413     98.0711
   807.8000      7.9619      2.4483      0.1026     12.2226     25.8719     94.8518
   807.9000      7.9619      2.4479      0.0677     12.2470     25.4962     88.3543
   808.0000      7.9629      2.4270      0.0460     13.5163     25.2182     87.5984
   808.1000      7.9629      2.4090      0.0238     14.6062     24.8070     95.7622
   808.2000      7.9629      2.4118      0.0382     14.4340     24.2331    104.9376
   808.3000      7.9653      2.4294      0.0462     13.3705     23.5739    109.0643
   808.4000      7.9653      2.4481      0.0728     12.2372     23.2474    111.8536
   808.5000      7.9651      2.4630      0.0435     11.3352     23.7493    116.5256
   808.6000      7.9651      2.4656      0.1104     11.1778     24.6529    122.0069
   808.7000      7.9651      2.4512      0.0570     12.0481     25.0274    125.6391
   808.8000      7.9622      2.4367      0.0261     12.9267     24.5840    125.4664
   808.9000      7.9622      2.4315      0.0531     13.2441     24.1277    121.1242
   809.0000      7.9604      2.4222      0.0536     13.8069     24.3089    114.5249
   809.1000      7.9604      2.4071      0.0255     14.7226     24.7968    110.2531
   809.2000      7.9604      2.3994      0.0064     15.1850     25.1421    111.4432
   809.3000      7.9591      2.4003      0.0350     15.1356     25.3695    115.7914
   809.4000      7.9591      2.4001      0.0447     15.1469     25.5673    118.2150
   809.5000      7.9584      2.3987      0.0536     15.2285     25.5033    114.9595
   809.6000      7.9584      2.4041      0.0472     14.9034     25.1626    105.1278
   809.7000      7.9584      2.4152      0.0723     14.2321     24.7858     96.2144
   809.8000      7.9592      2.4271      0.0649     13.5104     24.5174     95.3305
   809.9000      7.9592      2.4396      0.0702     12.7493     24.5546     97.6108
   810.0000      7.9607      2.4476      0.0900     12.2695     24.9799     97.0564
   810.1000      7.9607      2.4516      0.0736     12.0272     25.3718     95.2741
   810.2000      7.9607      2.4566      0.0774     11.7226     25.6068     93.7225
   810.3000      7.9619      2.4528      0.0916     11.9509     25.8813     94.0999
   810.4000      7.9619      2.4338      0.0616     13.1031     25.8568     97.2922
   810.5000      7.9616      2.4141      0.0338     14.2953     25.2742     97.8297
   810.6000      7.9616      2.4060      0.0661     14.7868     24.7299     93.2997
   810.7000      7.9616      2.4035      0.0640     14.9386     24.7422     90.1147
   810.8000      7.9609      2.4029      0.0594     14.9769     25.0584     92.4101
   810.9000      7.9609      2.4082      0.0735     14.6552     25.1894     98.7331
   811.0000      7.9623      2.4143      0.0482     14.2866     25.0845    105.4061
   811.1000      7.9623      2.4137      0.0567     14.3234     25.0504    109.5059
   811.2000      7.9623      2.4100      0.0385     14.5469     25.1530    112.7226
   811.3000      7.9655      2.4093      0.0789     14.5878     25.2220    115.4521
   811.4000      7.9655      2.4127      0.0304     14.3818     25.2237    113.9466
   811.5000      7.9682      2.4181      0.0689     14.0562     25.3820    109.8931
   811.6000      7.9682      2.4218      0.0347     13.8273     25.5480    107.4558
   811.7000      7.9682      2.4239      0.0653     13.7057     25.2399    108.9746
   811.8000      7.9685      2.4198      0.0640     13.9533     24.6622    113.8677
   811.9000      7.9685      2.4051      0.0378     14.8407     24.4280    116.8284
   812.0000      7.9665      2.3902     -0.0014     15.7480     24.3979    115.5852
   812.1000      7.9665      2.3876      0.0412     15.9019     24.0861    109.2881
   812.2000      7.9665      2.3940      0.0427     15.5161     23.6230    100.1123
   812.3000      7.9642      2.3981      0.0499     15.2644     23.3590     97.3408
