~Version Information
VERS.                      2.0: CWLS Log ASCII Standard - VERSION 2.0
WRAP.                       NO: One line per depth step
~Well Information Block
STRT.FT               -10.0000: 
STOP.FT              2184.0000: 
STEP.FT                 0.2500: 
NULL.                -999.2500: 
COMP.          Petrogulf Corporation: COMPANY
WELL.              Silva 1-43R: WELL
FLD.           Purgatorie River: FIELD
LOC.           1971' FSL & 526' FEL--: LOCATION
CNTY.               Las Animas: COUNTY
SRVC.          Patterson Wireline: SERVICE COMPANY
DATE.          Thu Jul 13 13:08:17 2006: LOG DATE
UWI.           05 072 08372 00: UNIQUE WELL ID
STAT.                       CO: STATE
~Curve Information Block
DEPT.FT            0 000 00 00: Depth
CCL.                          : Casing Collar Locator
TT3.usec                      : CBL 3' Travel Time
AMP3.mV                       : CBL 3' Amplitude
GR.GAPI                       : Gamma Ray
~Parameter Information Block
~A  Depth       CCL         TT3         AMP3         GR     
# ...
   727.0000      0.0000    674.0204      8.0048    136.6964
   727.2500      0.0000    659.6895      8.2275    135.8020
   727.5000      0.0000    632.8416      8.4030    133.2779
   727.7500      0.0000    594.1064      8.5100    128.5758
   728.0000      0.0000    552.6962      8.5459    123.4656
   728.2500      0.0000    523.9102      8.5243    119.7161
   728.5000      0.0000    519.7696      8.4657    117.4291
   728.7500      0.0000    539.5775      8.3872    115.7054
   729.0000      0.0000    569.1240      8.2979    114.6284
   729.2500      0.0000    590.5524      8.2014    115.7679
   729.5000      0.0000    594.8142      8.0980    120.0483
   729.7500      0.0000    585.2252      7.9816    125.8351
   730.0000      0.0000    570.2677      7.8394    130.2896
   730.2500      0.0000    555.6118      7.6598    132.4356
   730.5000      0.0000    543.2582      7.4400    134.0585
   730.7500      0.0000    534.4340      7.1841    137.9033
   731.0000      0.0000    529.6244      6.9035    145.6140
   731.2500      0.0000    527.5034      6.6225    156.7285
   731.5000      0.0000    528.0805      6.3765    168.5201
   731.7500      0.0000    536.1157      6.1994    177.1183
   732.0000      0.0000    556.5978      6.1131    179.9464
   732.2500      0.0000    586.3880      6.1246    177.3389
   732.5000      0.0000    614.4197      6.2201    171.5834
   732.7500      0.0000    631.2894      6.3556    164.8039
   733.0000      0.0000    636.7502      6.4622    158.1575
   733.2500      0.0000    637.7687      6.4727    152.5648
   733.5000      0.0000    641.3206      6.3553    149.3701
   733.7500      0.0000    649.3826      6.1370    149.7769
   734.0000      0.0000    659.3445      5.8976    153.5356
   734.2500      0.0000    667.7258      5.7281    158.4414
   734.5000      0.0000    672.9718      5.6797    161.3795
   734.7500      0.0000    675.5129      5.7435    160.2337
   735.0000      0.0000    676.4539      5.8736    155.4395
   735.2500      0.0000    676.6943      6.0252    150.0317
   735.5000      0.0000    676.7407      6.1803    147.6177
   735.7500      0.0000    676.8035      6.3565    149.7336
   736.0000      0.0000    676.9401      6.6008    155.2174
   736.2500      0.0000    677.1929      6.9635    162.0017
   736.5000      0.0000    677.6296      7.4554    168.7952
   736.7500      0.0000    678.2498      8.0161    174.9367
   737.0000      0.0000    678.8248      8.5239    179.4566
   737.2500      0.0000    678.6558      8.8581    180.8412
   737.5000      0.0000    676.2372      8.9743    177.8696
   737.7500      0.0000    669.0654      8.9286    170.9118
   738.0000      0.0000    654.4294      8.8204    162.4787
   738.2500      0.0000    632.1478      8.7128    156.0069
   738.5000      0.0000    607.9785      8.6022    153.5122
   738.7500      0.0000    592.9779      8.4483    154.2233
   739.0000      0.0000    596.0051      8.2181    155.5657
   739.2500      0.0000    615.6467      7.9105    155.5598
   739.5000      0.0000    641.1830      7.5594    154.1909
   739.7500      0.0000    661.6512      7.2182    152.5690
   740.0000      0.0000    672.5728      6.9384    151.3812
   740.2500      0.0000    675.2419      6.7527    150.7019
   740.5000      0.0000    672.9800      6.6658    150.8392
   740.7500      0.0000    668.8643      6.6547    152.4971
   741.0000      0.0000    664.4250      6.6860    155.8526
   741.2500      0.0000    657.9367      6.7376    159.8371
   741.5000      0.0000    644.1425      6.8078    162.6717
   741.7500      0.0000    618.3171      6.9043    163.2858
   742.0000      0.0000    582.6575      7.0302    162.2773
   742.2500      0.0000    547.4717      7.1810    161.5088
   742.5000      0.0000    523.6182      7.3514    162.8378
   742.7500      0.0000    514.8384      7.5351    167.0636
   743.0000      0.0000    519.5961      7.7173    173.6176
   743.2500      0.0000    537.1785      7.8750    180.9442
   743.5000      0.0000    567.0396      7.9883    187.2133
   743.7500      0.0000    603.7042      8.0485    190.9661
   744.0000      0.0000    637.2073      8.0499    191.5669
   744.2500      0.0000    659.1158      7.9831    189.4021
   744.5000      0.0000    665.6923      7.8462    185.5547
   744.7500      0.0000    655.6284      7.6601    180.9557
   745.0000      0.0000    628.2485      7.4600    175.8510
   745.2500      0.0000    586.1986      7.2711    170.5429
   745.5000      0.0000    538.5677      7.1002    166.4667
   745.7500      0.0000    498.5744      6.9500    165.5412
   746.0000      0.0000    477.2633      6.8263    168.0570
   746.2500      0.0000    479.6972      6.7276    172.0030
   746.5000      0.0000    504.9338      6.6399    175.0393
   746.7500      0.0000    546.2499      6.5519    176.5965
   747.0000      0.0000    591.4712      6.4656    177.5449
   747.2500      0.0000    626.8793      6.3849    178.4515
   747.5000      0.0000    643.7497      6.3044    179.0557
   747.7500      0.0000    642.6227      6.2236    179.3080
   748.0000      0.0000    632.9035      6.1594    179.8427
   748.2500      0.0000    628.3865      6.1213    180.7977
   748.5000      0.0000    639.8724      6.0822    180.8497
   748.7500      0.0000    669.0701      6.0053    178.4342
   749.0000      0.0000    709.1866      5.8950    173.7511
   749.2500      0.0000    750.3156      5.7949    168.7135
   749.5000     -2.0000    782.7651      5.7462    164.9669
   749.7500      0.0000    797.8828      5.7692    162.7712
   750.0000      2.0000    790.5959      5.8756    161.7569
   750.2500     -2.0000    762.2660      6.0861    161.6815
   750.5000      0.0000    719.9036      6.4268    161.9595
   750.7500      0.0000    673.2612      6.8845    161.4714
   751.0000      0.0000    633.2197      7.3569    159.7871
   751.2500      0.0000    610.2444      7.6883    158.0616
   751.5000      0.0000    609.8120      7.7974    157.7401
   751.7500      0.0000    627.7325      7.7521    158.4021
   752.0000      0.0000    651.8202      7.6937    157.6930
   752.2500      0.0000    669.6022      7.7196    153.8044
   752.5000      0.0000    673.9364      7.8432    147.5842
   752.7500      0.0000    662.0923      8.0176    141.9495
   753.0000      0.0000    633.1470      8.1635    139.6039
   753.2500      0.0000    589.4243      8.2039    141.3128
   753.5000      0.0000    539.8792      8.1106    145.6767
   753.7500      0.0000    498.6473      7.9293    149.9646
   754.0000      0.0000    478.2042      7.7548    151.1181
   754.2500      0.0000    483.7736      7.6666    146.6816
   754.5000      0.0000    512.8199      7.6766    136.1321
   754.7500      0.0000    556.8689      7.7338    122.0270
   755.0000      0.0000    603.7693      7.7693    109.0976
   755.2500      0.0000    642.0518      7.7339    101.4393
   755.5000      0.0000    666.0807      7.6029    100.4752
   755.7500      0.0000    677.2680      7.3675    105.0000
   756.0000      0.0000    680.5201      7.0334    112.0834
   756.2500      0.0000    680.1974      6.6276    118.0368
   756.5000      0.0000    678.6775      6.2041    119.9616
   756.7500      0.0000    676.8550      5.8338    117.4110
   757.0000      0.0000    674.8568      5.5722    112.3839
   757.2500      0.0000    672.2929      5.4275    107.3619
   757.5000      0.0000    668.4069      5.3613    103.6345
   757.7500      0.0000    662.6783      5.3208    101.4952
   758.0000      0.0000    655.9210      5.2699    100.9203
   758.2500      0.0000    650.6896      5.1987    101.0390
   758.5000      0.0000    649.6381      5.1161     99.6559
   758.7500      0.0000    652.6335      5.0362     94.7686
   759.0000      0.0000    655.8633      4.9673     86.8102
   759.2500      0.0000    654.7578      4.9105     78.6388
   759.5000      0.0000    647.8489      4.8644     73.0506
   759.7500      0.0000    637.2301      4.8296     70.6910
   760.0000      0.0000    625.8025      4.8081     70.3692
   760.2500      0.0000    615.3010      4.8011     70.7990
