~Version Information
VERS.                      2.0: CWLS Log ASCII Standard - VERSION 2.0
WRAP.                       NO: One line per depth step
~Well Information Block
STRT.FT                 0.7500: 
STOP.FT              2144.0000: 
STEP.FT                 0.2500: 
NULL.                -999.2500: 
COMP.          Petrogulf Corporation: COMPANY
WELL.            Montoya 1-44R: WELL
FLD.           Purgatorie River: FIELD
LOC.           658' FSL & 1052' FWL: LOCATION
CNTY.               Las Animas: COUNTY
SRVC.                         : SERVICE COMPANY
DATE.          Tue Nov 30 08:31:55 2004: LOG DATE
UWI.           05 071 08239 00: UNIQUE WELL ID
STAT.                 Colorado: STATE
~Curve Information Block
DEPT.FT            0 000 00 00: Depth
TT3.usec                      : CBL 3' Travel Time
AMP3.mV                       : CBL 3' Amplitude
GR.GAPI                       : Gamma Ray
CCL.                          : Casing Collar Locator
~Parameter Information Block
~A  Depth       TT3         AMP3         GR         CCL     
# ...
  1675.7500    746.7729      9.0363    130.5661      0.0000
  1676.0000    750.6909      8.6348    131.3748      0.0000
  1676.2500    756.4960      8.2542    130.9752      0.0000
  1676.5000    760.4992      8.0237    129.4676      0.0000
  1676.7500    758.5209      7.9562    127.3163      0.0000
  1677.0000    747.2888      7.9595    124.9191      0.0000
  1677.2500    727.5546      7.9063    122.3288      0.0000
  1677.5000    706.9296      7.7103    119.4073      0.0000
  1677.7500    696.7322      7.3622    116.2036      0.0000
  1678.0000    702.4656      6.9244    113.1133      0.0000
  1678.2500    718.0598      6.5118    110.6487      0.0000
  1678.5000    731.0652      6.2615    109.0949      0.0000
  1678.7500    731.2386      6.2787    108.4022      0.0000
  1679.0000    712.7507      6.5726    108.3665      0.0000
  1679.2500    673.0556      7.0354    108.8243      0.0000
  1679.5000    616.0981      7.4967    109.6066      0.0000
  1679.7500    557.1635      7.8119    110.3280      0.0000
  1680.0000    519.4514      7.9068    110.3183      0.0000
  1680.2500    520.9302      7.7725    108.8682      0.0000
  1680.5000    562.2277      7.4615    105.6414      0.0000
  1680.7500    626.1735      7.0825    100.9623      0.0000
  1681.0000    689.3409      6.7548     95.7722      0.0000
  1681.2500    735.6448      6.5439     91.2632      0.0000
  1681.5000    761.5886      6.4500     88.3805      0.0000
  1681.7500    772.2177      6.4471     87.5088      0.0000
  1682.0000    774.5703      6.5170     88.5390      0.0000
  1682.2500    773.8732      6.6507     91.1696      0.0000
  1682.5000    772.9590      6.8328     95.1128      0.0000
  1682.7500    773.2899      7.0206    100.0447      0.0000
  1683.0000    776.0385      7.1302    105.4731      0.0000
  1683.2500    782.1241      7.0584    110.7527      0.0000
  1683.5000    790.9507      6.7445    115.2429      0.0000
  1683.7500    799.2084      6.2319    118.4173      0.0000
  1684.0000    801.9328      5.6608    119.9106      0.0000
  1684.2500    796.1796      5.1775    119.5861      0.0000
  1684.5000    784.0736      4.8368    117.6501      0.0000
  1684.7500    771.7993      4.5926    114.6405      0.0000
  1685.0000    765.4576      4.3725    111.1775      0.0000
  1685.2500    767.3611      4.1505    107.6647      0.0000
  1685.5000    774.6619      3.9572    104.2549      0.0000
  1685.7500    780.7196      3.8355    101.1035      0.0000
  1686.0000    779.3179      3.7878     98.5846      0.0000
  1686.2500    769.1360      3.7668     97.1793      0.0000
  1686.5000    753.9072      3.7193     97.1173      0.0000
  1686.7500    738.1683      3.6317     98.0806      0.0000
  1687.0000    724.0110      3.5305     99.1885      0.0000
  1687.2500    712.0587      3.4460     99.2746      0.0000
  1687.5000    703.6772      3.3826     97.3595      0.0000
  1687.7500    700.5181      3.3146     93.1057      0.0000
  1688.0000    702.1581      3.2027     87.0224      0.0000
  1688.2500    705.3884      3.0202     80.2710      0.0000
  1688.5000    706.2347      2.7776     74.1579      0.0000
  1688.7500    702.5658      2.5254     69.5924      0.0000
  1689.0000    695.3486      2.3303     66.8248      0.0000
  1689.2500    687.9850      2.2369     65.5584      0.0000
  1689.5000    684.0397      2.2470     65.3006      0.0000
  1689.7500    684.7518      2.3245     65.6881      0.0000
  1690.0000    688.4617      2.4191     66.6165      3.0000
  1690.2500    692.2919      2.4900     68.1882     -3.0000
  1690.5000    694.0546      2.5218     70.5741      0.0000
  1690.7500    692.8340      2.5242     73.8363      0.0000
  1691.0000    688.8110      2.5158     77.7565      0.0000
  1691.2500    683.2227      2.5092     81.7491      0.0000
  1691.5000    678.1570      2.5088     84.9829      0.0000
  1691.7500    675.8616      2.5204     86.7242      0.0000
  1692.0000    678.2024      2.5517     86.7058      0.0000
  1692.2500    686.5949      2.6040     85.2423      0.0000
  1692.5000    701.6467      2.6688     82.9990      0.0000
  1692.7500    722.1827      2.7371     80.6083      0.0000
  1693.0000    744.6147      2.8082     78.4385      0.0000
  1693.2500    763.7006      2.8911     76.5962      0.0000
  1693.5000    774.8543      2.9996     75.0539      0.0000
  1693.7500    776.8506      3.1484     73.7433      0.0000
  1694.0000    772.7383      3.3521     72.5830      0.0000
  1694.2500    767.6161      3.6287     71.4773      0.0000
  1694.5000    764.9964      4.0025     70.3250      0.0000
  1694.7500    765.0613      4.4973     69.0252      0.0000
  1695.0000    765.5529      5.1103     67.4639      0.0000
  1695.2500    763.3405      5.7841     65.5445      0.0000
  1695.5000    755.1959      6.4169     63.2810      0.0000
  1695.7500    739.0678      6.9052     60.9013      0.0000
  1696.0000    717.1198      7.1735     58.8442      0.0000
  1696.2500    697.7364      7.1733     57.5768      0.0000
  1696.5000    691.1836      6.8974     57.2935      0.0000
  1696.7500    700.2936      6.4164     57.7045      0.0000
  1697.0000    716.4312      5.8777     58.1379      0.0000
  1697.2500    726.8276      5.4389     57.9672      0.0000
  1697.5000    725.9778      5.1891     57.0619      0.0000
  1697.7500    719.8987      5.1210     55.8975      0.0000
  1698.0000    720.0534      5.1658     55.2145      0.0000
  1698.2500    732.7238      5.2490     55.5111      0.0000
  1698.5000    753.8434      5.3240     56.7835      0.0000
  1698.7500    774.1472      5.3742     58.6645      0.0000
  1699.0000    787.9102      5.4046     60.7271      0.0000
  1699.2500    795.6346      5.4329     62.6972      0.0000
  1699.5000    799.9211      5.4714     64.5206      0.0000
  1699.7500    801.3690      5.5086     66.4235      0.0000
  1700.0000    798.9004      5.5153     68.9609      0.0000
  1700.2500    792.5402      5.4820     72.9052      0.0000
  1700.5000    784.4702      5.4500     78.8912      0.0000
  1700.7500    777.4683      5.4868     86.9753      0.0000
  1701.0000    773.0012      5.6196     96.3988      0.0000
  1701.2500    770.8770      5.8125    105.7556      0.0000
  1701.5000    770.0234      6.0301    113.5262      0.0000
  1701.7500    769.1584      6.3086    118.7410      0.0000
  1702.0000    767.3019      6.7379    121.4314      0.0000
  1702.2500    764.4716      7.3710    122.5977      0.0000
  1702.5000    761.7629      8.1590    123.6916      0.0000
  1702.7500    759.8229      8.9831    125.9438      0.0000
  1703.0000    756.8301      9.7562    129.8967      0.0000
  1703.2500    748.0886     10.5097    135.3062      0.0000
  1703.5000    727.1935     11.3887    141.3571      0.0000
  1703.7500    687.9470     12.5514    147.0684      0.0000
  1704.0000    627.9944     14.0241    151.7081      0.0000
  1704.2500    553.4639     15.6054    155.0141      0.0000
  1704.5000    479.2353     16.9262    157.0735      0.0000
  1704.7500    421.9271     17.6627    158.0353      0.0000
  1705.0000    392.0451     17.7288    157.9638      0.0000
  1705.2500    392.9979     17.2753    156.9907      0.0000
  1705.5000    424.3044     16.5417    155.5191      0.0000
  1705.7500    481.0803     15.7242    154.1738      0.0000
  1706.0000    550.1462     14.9317    153.4631      0.0000
  1706.2500    611.9186     14.2087    153.4349      0.0000
  1706.5000    651.5844     13.5768    153.6016      0.0000
  1706.7500    669.4677     13.0553    153.1853      0.0000
  1707.0000    678.3887     12.6563    151.5523      0.0000
  1707.2500    690.2526     12.3850    148.6180      0.0000
  1707.5000    706.7274     12.2428    144.9984      0.0000
  1707.7500    722.3314     12.2096    141.7743      0.0000
  1708.0000    732.5941     12.2290    139.9890      0.0000
  1708.2500    737.1697     12.2358    140.1758      0.0000
  1708.5000    737.4847     12.1995    142.1649      0.0000
  1708.7500    733.8101     12.1301    145.2124      0.0000
  1709.0000    724.6188     12.0487    148.3567      0.0000
