~Version Information
 VERS.                                  2.0 : CWLS LAS VERSION
 WRAP.                                   NO : WRAPING MODE
 SWARE .                 MController 2.5.0E : SOFTWARE VERSION
~Well Information
 WELL.                                  N/A : WELL
 COMP.                                  N/A : COMPANY
 FLD.                                   N/A : FIELD
 LOC.                                   N/A : LOCATION
 DATE.                                  N/A : DATE(S) LOGGED
 SRVC.                                  N/A : SERVICE COMPANY
 STAT.                                  N/A : STATE
 CNTY.                                  N/A : COUNTY
 CTRY.                                  N/A : COUNTRY
 API.                                   N/A : API NUMBER
 STRT.FT                             838.00 : START DEPTH
 STOP.FT                            2499.00 : STOP DEPTH
 STEP.FT                               1.00 : DEPTH INCREMENT
 NULL.                                -9999 : NULL VALUE
~Curve information
 DEPTH.FT                                   :
 ROP.MIN/FT                                 :
 GAS.UNITS                                  :
~ASCII Log data
# ...
     1438.00        0.450          7.1 
     1439.00        0.367          7.2 
     1440.00        0.300          7.1 
     1441.00        0.367          7.1 
     1442.00        0.333          7.4 
     1443.00        0.400          7.0 
     1444.00        0.333          7.0 
     1445.00        0.233          7.5 
     1446.00        0.267          7.3 
     1447.00        0.233          7.2 
     1448.00        0.233          7.1 
     1449.00        0.283          7.2 
     1450.00        0.200          6.9 
     1451.00        0.200          7.4 
     1452.00        0.233          7.1 
     1453.00        0.200          7.3 
     1454.00        0.233          7.3 
     1455.00        0.200          7.2 
     1456.00        0.200          7.6 
     1457.00        0.133          7.7 
     1458.00        0.200          7.7 
     1459.00        0.233          7.5 
     1460.00        0.233          7.9 
     1461.00        0.533          7.9 
     1462.00        0.333          7.3 
     1463.00        0.250          7.4 
     1464.00        0.200          7.3 
     1465.00        0.167          7.5 
     1466.00        3.017         24.1 
     1467.00        0.433         15.5 
     1468.00        0.500          9.4 
     1469.00        0.533          7.5 
     1470.00        0.333          7.2 
     1471.00        0.300          7.3 
     1472.00        0.267          7.6 
     1473.00        0.300          6.9 
     1474.00        0.267          7.1 
     1475.00        0.250          7.0 
     1476.00        0.233          6.8 
     1477.00        0.233          7.0 
     1478.00        0.233          7.3 
     1479.00        0.267          6.9 
     1480.00        0.267          6.9 
     1481.00        0.233          6.9 
     1482.00        0.200          6.9 
     1483.00        0.167          6.9 
     1484.00        0.167          6.9 
     1485.00        0.233          6.9 
     1486.00        0.200          6.9 
     1487.00        0.233          7.0 
     1488.00        0.200          6.7 
     1489.00        0.233          6.9 
     1490.00        0.217          7.3 
     1491.00        0.200          7.3 
     1492.00        0.300          7.0 
     1493.00        0.300          6.7 
     1494.00        0.200          6.6 
     1495.00        0.200          7.0 
     1496.00        3.950         27.4 
     1497.00        0.467          6.8 
     1498.00        0.367          6.9 
     1499.00        0.400          7.3 
     1500.00        0.450          8.0 
     1501.00        0.367          8.5 
     1502.00        0.300          7.8 
     1503.00        0.400          7.7 
     1504.00        0.333          7.8 
     1505.00        0.300          7.6 
     1506.00        0.367          7.2 
     1507.00        0.433          7.3 
     1508.00        0.367          7.0 
     1509.00        0.267          6.8 
     1510.00        0.350          6.9 
     1511.00        0.300          7.2 
     1512.00        0.467          7.1 
     1513.00        0.267          6.4 
     1514.00        0.233          6.7 
     1515.00        0.167          6.8 
     1516.00        0.233          6.5 
     1517.00        0.233          6.7 
     1518.00        0.200          6.7 
     1519.00        0.200          6.6 
     1520.00        0.233          6.6 
     1521.00        0.267          6.4 
     1522.00        0.283          6.5 
     1523.00        0.333          6.7 
     1524.00        0.200          6.9 
     1525.00        0.533          8.0 
     1526.00        2.133         35.9 
     1527.00        0.517         22.1 
     1528.00        0.467         11.8 
     1529.00        0.367          6.9 
     1530.00        0.333          6.4 
     1531.00        0.267          6.4 
     1532.00        0.233          6.5 
     1533.00        0.333          6.3 
     1534.00        0.400          6.4 
     1535.00        0.300          6.5 
     1536.00        0.250          6.7 
     1537.00        0.333          6.2 
     1538.00        0.167          6.3 
     1539.00        0.200          6.8 
     1540.00        0.233          6.4 
     1541.00        0.267          6.1 
     1542.00        0.233          6.4 
     1543.00        0.233          6.0 
     1544.00        0.233          5.9 
     1545.00        0.333          6.1 
     1546.00        0.200          6.1 
     1547.00        0.200          6.1 
     1548.00        0.167          5.8 
     1549.00        0.200          5.8 
     1550.00        0.167          5.7 
     1551.00        0.183          6.1 
     1552.00        0.167          6.1 
     1553.00        0.200          5.8 
     1554.00        0.167          5.7 
     1555.00        0.100          5.7 
     1556.00        3.917         86.8 
     1557.00        0.700         53.0 
     1558.00        0.467          6.4 
     1559.00        0.733          5.4 
     1560.00        0.350          4.8 
     1561.00        0.333          4.6 
     1562.00        0.367          4.8 
     1563.00        0.267          4.6 
     1564.00        0.233          4.8 
     1565.00        0.200          4.8 
     1566.00        0.167          5.1 
     1567.00        0.300          4.8 
     1568.00        0.267          4.7 
     1569.00        0.200          4.9 
     1570.00        0.267          4.7 
     1571.00        0.200          4.8 
     1572.00        0.167          5.3 
     1573.00        0.233          4.8 
     1574.00        0.217          4.7 
     1575.00        0.167          4.7 
     1576.00        0.200          5.1 
     1577.00        0.167          4.9 
     1578.00        0.200          5.2 
     1579.00        0.167          5.2 
     1580.00        0.233          4.9 
     1581.00        0.267          4.8 
     1582.00        0.267          4.9 
     1583.00        0.167          5.0 
     1584.00        0.167          5.0 
     1585.00        0.200          4.8 
     1586.00        2.550         12.9 
     1587.00        0.200          9.9 
     1588.00        0.500          7.0 
     1589.00        0.433          5.5 
     1590.00        0.367          4.7 
     1591.00        0.383          4.6 
     1592.00        0.300          4.6 
     1593.00        0.300          4.7 
     1594.00        0.333          4.6 
     1595.00        0.300          4.6 
     1596.00        0.300          4.8 
     1597.00        0.300          4.6 
     1598.00        0.267          4.5 
     1599.00        0.233          4.7 
     1600.00        0.233          4.7 
     1601.00        0.233          4.6 
     1602.00        0.200          4.7 
     1603.00        0.200          4.5 
     1604.00        0.250          4.7 
     1605.00        0.200          4.7 
     1606.00        0.167          4.2 
     1607.00        0.200          4.6 
     1608.00        0.167          4.6 
     1609.00        0.167          4.9 
     1610.00        0.200          4.7 
     1611.00        0.167          4.7 
     1612.00        0.200          5.0 
     1613.00        0.200          4.5 
     1614.00        0.200          4.5 
     1615.00        0.200          4.5 
     1616.00        3.417          8.7 
     1617.00        0.800          5.3 
     1618.00        0.450          4.5 
     1619.00        0.300          4.2 
     1620.00        0.333          4.4 
     1621.00        0.300          4.6 
     1622.00        0.267          4.4 
     1623.00        0.267          4.5 
     1624.00        0.267          4.5 
     1625.00        0.267          4.2 
     1626.00        0.267          4.1 
     1627.00        0.233          4.2 
     1628.00        0.200          4.4 
     1629.00        0.200          4.2 
     1630.00        0.250          3.9 
     1631.00        0.233          4.2 
     1632.00        0.167          4.3 
     1633.00        0.200          4.3 
     1634.00        0.267          4.3 
     1635.00        0.200          4.4 
     1636.00        0.200          4.3 
     1637.00        0.300          4.2 
