~Version Information
VERS.                      2.0: CWLS Log ASCII Standard - VERSION 2.0
WRAP.                       NO: One line per depth step
~Well Information Block
STRT.FT                10.0000: 
STOP.FT              1066.5000: 
STEP.FT                 0.2500: 
NULL.                -999.2500: 
COMP.          Pioneer Natural Resources: COMPANY
WELL.            Redland 23-24: WELL
FLD.           Purgatoire River: FIELD
LOC.           2356' FSL & 1880' FWL----: LOCATION
PROV.                 Colorado: PROVINCE
CNTY.               Las Animas: COUNTRY
SRVC.                         : SERVICE COMPANY
DATE.          Thu Mar 24 10:01:02 2005: LOG DATE
UWI.           05 071 08221   : UNIQUE WELL ID
~Curve Information Block
DEPT.FT            0 000 00 00: Depth
CCL.                          : Casing Collar Locator
TT3.usec                      : CBL 3' Travel Time
AMP3.mV                       : CBL 3' Amplitude
AMP5.mV                       : CBL 5' Amplitude
GR.GAPI                       : Gamma Ray
~Parameter Information Block
~A  Depth       CCL         TT3         AMP3        AMP5         GR     
# ...
   906.0000      0.0000    843.5250      4.7595      3.0855     72.6365
   906.2500      0.0000    841.6654      4.7061      2.9114     81.5744
   906.5000      0.0000    839.0829      4.6797      1.9539     90.8939
   906.7500      0.0000    828.3177      4.6824      2.0409     99.8224
   907.0000      0.0000    809.1782      4.7082      2.0409    108.7910
   907.2500      0.0000    788.2182      4.7437      2.0409    118.6566
   907.5000      0.0000    772.0738      4.7813      2.2150    129.1039
   907.7500      0.0000    762.7802      4.8317      2.2150    138.1998
   908.0000      0.0000    758.5447      4.9178      2.5632    143.7544
   908.2500      0.0000    756.7716      5.0534      2.2150    144.9097
   908.5000      0.0000    755.7943      5.2330      2.6503    142.4954
   908.7500      0.0000    754.9352      5.4415      2.7373    138.3760
   909.0000      0.0000    754.0237      5.6655      2.6503    134.5355
   909.2500      0.0000    753.0461      5.8912      3.1725    132.4001
   909.5000      0.0000    751.9110      6.0999      3.1725    132.5899
   909.7500      0.0000    750.1885      6.2713      3.6078    134.8070
   910.0000      0.0000    746.7183      6.3919      4.1301    137.5907
   910.2500      0.0000    739.4232      6.4653      3.7819    138.6791
   910.5000      0.0000    726.0804      6.5132      4.3912    136.5213
   910.7500      0.0000    706.2495      6.5608      4.5653    131.5650
   911.0000      0.0000    682.7850      6.6158      4.2171    125.7417
   911.2500      0.0000    660.7109      6.6631      3.9560    120.9444
   911.5000      0.0000    643.7683      6.6800      3.8689    118.1653
   911.7500      0.0000    631.9873      6.6545      4.1301    117.4986
   912.0000      0.0000    622.8511      6.5930      4.0430    118.2971
   912.2500      0.0000    614.5306      6.5142      3.9560    119.2385
   912.5000      0.0000    607.4958      6.4388      3.8689    118.5909
   912.7500      0.0000    603.1964      6.3789      4.2171    115.0538
   913.0000      0.0000    601.7029      6.3338      3.8689    108.7641
   913.2500      0.0000    600.5392      6.2907      3.7819    101.2042
   913.5000      0.0000    595.7053      6.2323      3.6948     93.9132
   913.7500      0.0000    584.4969      6.1454      3.6078     87.7361
   914.0000      0.0000    567.8617      6.0305      3.1725     83.2012
   914.2500      0.0000    549.9308      5.9057      3.3466     80.6048
   914.5000      0.0000    535.4034      5.8006      3.8689     79.3416
   914.7500      0.0000    527.7007      5.7364      3.3466     77.9537
   915.0000      0.0000    528.6509      5.7054      3.2596     75.4111
   915.2500      0.0000    538.0441      5.6770      3.7819     72.0796
   915.5000      0.0000    553.0577      5.6390      4.3041     69.1704
   915.7500      0.0000    569.7346      5.6271      4.1301     67.5630
   916.0000      0.0000    585.9691      5.6972      4.6523     67.5568
   916.2500      0.0000    601.5044      5.8602      4.1301     69.5371
   916.5000      0.0000    614.3989      6.0545      3.3466     74.0661
   916.7500      0.0000    620.5052      6.1898      2.8244     80.9454
   917.0000      0.0000    618.6407      6.2104      2.8244     88.7448
   917.2500      0.0000    613.8522      6.1182      2.7373     95.7794
   917.5000      0.0000    612.3746      5.9503      3.0855    101.3765
   917.7500      0.0000    614.2543      5.7468      3.8689    106.0653
   918.0000      0.0000    614.1185      5.5321      3.5207    110.8531
   918.2500      0.0000    609.3090      5.3222      3.0855    116.5249
   918.5000      0.0000    604.2455      5.1464      3.5207    123.5500
   918.7500      0.0000    605.6611      5.0544      3.2596    132.5162
   919.0000      0.0000    616.1013      5.0959      3.7819    144.3909
   919.2500      0.0000    633.9993      5.2883      4.3041    160.0574
   919.5000      0.0000    657.7778      5.5960      4.0430    179.4516
   919.7500      0.0000    686.4039      5.9389      4.8264    200.9162
   920.0000      0.0000    716.6131      6.2344      1.8668    221.2425
   920.2500      0.0000    743.5136      6.4362      5.9580    236.8438
   920.5000      0.0000    765.6345      6.5222      3.6078    245.2912
   920.7500      0.0000    787.0807      6.4544      2.4762    245.5606
   921.0000      0.0000    812.4464      6.2005      3.9560    237.2469
   921.2500      0.0000    840.7204      5.8177      3.9560    220.7088
   921.5000      0.0000    866.0322      5.4763      4.6523    198.2086
   921.7500      0.0000    883.1889      5.3520      4.3041    173.9995
   922.0000      0.0000    890.1763      5.4899      4.3912    152.7795
   922.2500      0.0000    886.0757      5.7820      4.0430    137.9936
   922.5000      0.0000    869.7476      6.0630      3.4337    130.8335
   922.7500      1.0000    842.2033      6.2192      4.1301    129.8848
   923.0000      0.0000    809.3492      6.2251      3.8689    132.0126
   923.2500      0.0000    780.5495      6.1224      4.3041    134.5321
   923.5000      0.0000    763.3104      6.0006      5.0876    136.6147
   923.7500      0.0000    758.9383      5.9781      5.2617    138.2808
   924.0000      0.0000    763.0433      6.1393      4.5653    138.8329
   924.2500      0.0000    769.7614      6.4664      3.3466    137.1987
   924.5000      0.0000    775.6617      6.8491      4.5653    133.1386
   924.7500      0.0000    780.6639      7.1640      6.8285    127.1822
   925.0000      0.0000    786.0891      7.3352      5.8710    119.9626
   925.2500      0.0000    791.8490      7.3489      5.0005    112.4017
   925.5000      0.0000    795.7926      7.2497      3.6948    106.0366
   925.7500      0.0000    796.1890      7.1220      4.8264    102.3083
   926.0000      0.0000    793.9121      7.0422      5.4358    101.2750
   926.2500      0.0000    791.3226      7.0318      4.7394    101.1172
   926.5000      0.0000    789.9434      7.0632      5.9580     99.3034
   926.7500      0.0000    790.1901      7.1034      5.2617     94.7585
   927.0000      0.0000    792.7650      7.1415      4.3041     88.9468
   927.2500      0.0000    799.3197      7.1804      6.1321     84.4893
   927.5000      0.0000    811.1301      7.2255      6.9156     82.6164
   927.7500      0.0000    826.7548      7.2832      5.6969     82.2393
   928.0000      0.0000    841.6183      7.3531      5.7839     81.6386
   928.2500      0.0000    850.9639      7.4131      5.1746     80.5518
   928.5000      0.0000    852.9672      7.4212      5.6098     80.1050
   928.7500      0.0000    848.2582      7.3488      5.8710     81.0656
   929.0000      0.0000    837.9692      7.2140      5.6098     82.9024
   929.2500      0.0000    823.9866      7.0780      5.2617     84.3769
   929.5000      0.0000    809.7974      7.0022      5.2617     84.3462
   929.7500      0.0000    798.9961      7.0082      5.6098     82.1126
   930.0000      0.0000    793.2159      7.0747      5.6098     77.7521
   930.2500      0.0000    792.1443      7.1688      5.0005     72.2762
   930.5000      0.0000    794.7573      7.2756      4.9135     67.1246
   930.7500      0.0000    799.7339      7.3986      5.2617     63.2597
   931.0000      0.0000    805.0854      7.5389      6.3062     60.7499
   931.2500      0.0000    808.2466      7.6896      6.3062     59.3269
   931.5000      0.0000    807.2094      7.8497      5.2617     59.1994
   931.7500      0.0000    801.9915      8.0304      5.3487     60.9043
   932.0000      0.0000    794.8355      8.2391      6.1321     64.3499
   932.2500      0.0000    788.5228      8.4682      6.3062     68.4781
   932.5000      0.0000    784.4987      8.7029      6.1321     72.1095
   932.7500      0.0000    782.6445      8.9268      5.1746     74.8500
   933.0000      0.0000    782.2933      9.1155      5.7839     76.9277
   933.2500      0.0000    782.9827      9.2370      5.4358     78.2120
   933.5000      0.0000    784.3578      9.2688      5.5228     77.6637
   933.7500      0.0000    785.6900      9.2137      5.0005     74.0871
