~Version Information
VERS.                      2.0: CWLS Log ASCII Standard - VERSION 2.0
WRAP.                       NO: One line per depth step
~Well Information Block
STRT.FT                -4.0000: 
STOP.FT              2464.0000: 
STEP.FT                 0.2500: 
NULL.                -999.2500: 
COMP.          Pioneer Natural Resources: COMPANY
WELL.            Rancher 12-35: WELL
FLD.           Purgatorie River: FIELD
LOC.           2131' FNL & 297' FWL--: LOCATION
PROV.                       CO: PROVINCE
CNTY.               Las Animas: COUNTRY
SRVC.                         : SERVICE COMPANY
DATE.          Wed Oct 20 13:17:53 2004: LOG DATE
UWI.                          : UNIQUE WELL ID
~Curve Information Block
DEPT.FT            0 000 00 00: Depth
GR.GAPI                       : Gamma Ray
CCL.                          : Casing Collar Locator
TT3.usec                      : CBL 3' Travel Time
AMP3.mV                       : CBL 3' Amplitude
~Parameter Information Block
~A  Depth        GR         CCL         TT3         AMP3    
# ...
  1470.0000     89.2987      0.0000    766.2620      4.9862
  1470.2500     86.2377      0.0000    760.1605      4.9684
  1470.5000     86.1814      0.0000    753.6654      4.9917
  1470.7500     87.7101      0.0000    748.9108      5.0241
  1471.0000     88.4218      0.0000    746.3798      5.0378
  1471.2500     87.1061      0.0000    745.5619      5.0306
  1471.5000     84.4844      0.0000    745.7335      5.0255
  1471.7500     82.1357      0.0000    746.3217      5.0459
  1472.0000     81.2362      0.0000    746.9704      5.0944
  1472.2500     82.1138      0.0000    747.5408      5.1591
  1472.5000     84.2863      0.0000    748.0503      5.2332
  1472.7500     86.6131      0.0000    748.5359      5.3180
  1473.0000     87.7140      0.0000    748.9608      5.4109
  1473.2500     86.6571      0.0000    749.2339      5.4956
  1473.5000     83.4767      0.0000    749.2576      5.5487
  1473.7500     79.2050      0.0000    748.9131      5.5546
  1474.0000     75.3042      0.0000    747.9897      5.5164
  1474.2500     72.6364      0.0000    746.2269      5.4547
  1474.5000     70.8219      0.0000    743.6370      5.3966
  1474.7500     68.8300      0.0000    740.8817      5.3609
  1475.0000     66.1008      0.0000    739.0569      5.3468
  1475.2500     62.8333      0.0000    738.7161      5.3336
  1475.5000     59.5639      0.0000    739.0721      5.2955
  1475.7500     56.9988      0.0000    738.1776      5.2243
  1476.0000     55.9803      0.0000    733.7420      5.1412
  1476.2500     56.9699      0.0000    724.1307      5.0834
  1476.5000     59.5263      0.0000    709.5543      5.0767
  1476.7500     62.5637      0.0000    692.6893      5.1204
  1477.0000     65.1981      0.0000    677.4810      5.1923
  1477.2500     67.3563      0.0000    666.7344      5.2684
  1477.5000     69.5457      0.0000    660.7933      5.3409
  1477.7500     71.9876      0.0000    658.2695      5.4167
  1478.0000     74.0990      0.0000    657.4066      5.4979
  1478.2500     74.9557      0.0000    656.7111      5.5696
  1478.5000     74.0296      0.0000    654.8911      5.6112
  1478.7500     71.2520      0.0000    651.1996      5.6188
  1479.0000     66.8195      0.0000    646.7990      5.6074
  1479.2500     61.5309      0.0000    645.7744      5.5889
  1479.5000     56.9970      0.0000    653.1541      5.5586
  1479.7500     54.6623      0.0000    670.3434      5.5059
  1480.0000     54.4010      0.0000    692.9624      5.4348
  1480.2500     54.5538      0.0000    714.0750      5.3652
  1480.5000     53.6131      0.0000    729.0502      5.3170
  1480.7500     51.6797      0.0000    737.0849      5.2965
  1481.0000     50.2140      0.0000    739.4992      5.2993
  1481.2500     50.5723      0.0000    738.0243      5.3220
  1481.5000     52.9536      0.0000    734.6016      5.3674
  1481.7500     56.6183      0.0000    731.4658      5.4387
  1482.0000     60.7334      0.0000    730.1814      5.5297
  1482.2500     64.9160      0.0000    730.5234      5.6242
  1482.5000     69.3233      0.0000    730.9315      5.7040
  1482.7500     74.4108      0.0000    729.9875      5.7558
  1483.0000     80.3156      0.0000    726.6417      5.7758
  1483.2500     86.2676      0.0000    718.9688      5.7736
  1483.5000     90.7743      0.0000    703.7541      5.7691
  1483.7500     92.5783      0.0000    678.8980      5.7774
  1484.0000     91.5033      0.0000    647.1077      5.7942
  1484.2500     88.5565      0.0000    616.2501      5.8003
  1484.5000     85.2730      0.0000    594.0854      5.7808
  1484.7500     82.7513      0.0000    582.3690      5.7381
  1485.0000     81.1505      0.0000    577.4308      5.6887
  1485.2500     80.0484      0.0000    576.5687      5.6537
  1485.5000     79.1951      0.0000    582.1134      5.6484
  1485.7500     78.7775      0.0000    597.7564      5.6741
  1486.0000     78.9660      0.0000    621.6321      5.7180
  1486.2500     79.5373      0.0000    645.6912      5.7643
  1486.5000     80.1685      0.0000    663.2245      5.8065
  1486.7500     80.7079      0.0000    675.2680      5.8520
  1487.0000     80.8983      0.0000    688.4453      5.9134
  1487.2500     80.4247      0.0000    707.6146      5.9914
  1487.5000     79.6063      0.0000    731.1552      6.0711
  1487.7500     79.6883      0.0000    752.3857      6.1354
  1488.0000     82.3925      0.0000    764.7490      6.1690
  1488.2500     89.3878      0.0000    765.7599      6.1472
  1488.5000    101.5282      0.0000    756.7213      6.0393
  1488.7500    117.6028      0.0000    740.6254      5.8419
  1489.0000    133.9402      0.0000    721.9918      5.6006
  1489.2500    146.4516      0.0000    707.0946      5.3870
  1489.5000    153.8192      0.0000    700.6982      5.2565
  1489.7500    158.1762      0.0000    701.6274      5.2227
  1490.0000    162.0958      0.0000    703.4951      5.2577
  1490.2500    165.5463      0.0000    700.6376      5.3130
  1490.5000    166.5956      0.0000    692.5908      5.3528
  1490.7500    164.4251      0.0000    683.2841      5.3700
  1491.0000    160.3274      0.0000    677.3022      5.3712
  1491.2500    155.9017      0.0000    676.7412      5.3548
  1491.5000    151.5510      0.0000    680.1661      5.3136
  1491.7500    147.0307      0.0000    683.9904      5.2518
  1492.0000    142.6795      0.0000    685.3818      5.1856
  1492.2500    139.7423      0.0000    684.4917      5.1299
  1492.5000    139.6966      0.0000    684.1415      5.0919
  1492.7500    143.2407      0.0000    687.4164      5.0844
  1493.0000    149.6291      0.0000    695.3871      5.1426
  1493.2500    156.8050      0.0000    706.9355      5.3061
  1493.5000    162.3334      0.0000    720.2625      5.5547
  1493.7500    164.7755      0.0000    733.7548      5.7708
  1494.0000    164.4115      0.0000    745.6530      5.8209
  1494.2500    162.3114      0.0000    754.0871      5.6878
  1494.5000    158.7930      0.0000    757.9606      5.4788
  1494.7500    153.7201      0.0000    757.4968      5.3013
  1495.0000    148.4716     -2.0000    753.7466      5.1756
  1495.2500    146.2018     -2.0000    747.9035      5.0653
  1495.5000    149.0265      0.0000    741.4329      4.9449
  1495.7500    155.6299      0.0000    736.4291      4.8320
  1496.0000    162.3671      0.0000    734.7496      4.7831
  1496.2500    166.1158      0.0000    736.6292      4.8491
  1496.5000    165.7130      0.0000    740.5750      5.0054
  1496.7500    161.6021      0.0000    744.5866      5.1416
  1497.0000    154.9447      0.0000    747.4282      5.1607
  1497.2500    146.7821      0.0000    749.2838      5.0737
  1497.5000    137.4935      0.0000    751.4052      4.9683
  1497.7500    127.0624      0.0000    754.7070      4.9121
  1498.0000    116.0766      0.0000    758.2057      4.9159
  1498.2500    106.3684      0.0000    758.8386      4.9650
  1498.5000    100.3750      0.0000    753.9155      5.0481
  1498.7500     99.6476      0.0000    744.9442      5.1591
  1499.0000    103.8304      0.0000    738.4603      5.2889
  1499.2500    110.8470      0.0000    740.9901      5.4239
  1499.5000    117.8217      0.0000    752.1043      5.5513
  1499.7500    122.1943      0.0000    763.0948      5.6656
  1500.0000    122.8974      0.0000    763.2465      5.7662
  1500.2500    120.9232      0.0000    748.0609      5.8442
  1500.5000    118.3532      0.0000    722.3497      5.8769
  1500.7500    116.6608      0.0000    695.9606      5.8450
  1501.0000    116.2089      0.0000    676.5576      5.7610
  1501.2500    117.0237      0.0000    666.0569      5.6716
  1501.5000    119.0345      0.0000    662.4330      5.6260
  1501.7500    121.1713      0.0000    663.1393      5.6465
  1502.0000    120.9020      0.0000    666.6232      5.7298
  1502.2500    115.7189      0.0000    672.1375      5.8639
  1502.5000    105.6104      0.0000    679.6741      6.0332
  1502.7500     93.6548      0.0000    690.1534      6.2135
  1503.0000     83.8792      0.0000    704.4817      6.3702
  1503.2500     78.8747      0.0000    721.8063      6.4628
