~Version Information
VERS.                      2.0: CWLS Log ASCII Standard - VERSION 2.0
WRAP.                       NO: One line per depth step
~Well Information Block
STRT.FT                -7.5000: 
STOP.FT              2226.0000: 
STEP.FT                 0.2500: 
NULL.                -999.2500: 
COMP.          Pioneer Natural Resources: COMPANY
WELL.              Tonto 42-23: WELL
FLD.           Purgatorie River: FIELD
LOC.           2217' FNL & 423' FEL----: LOCATION
PROV.                       CO: PROVINCE
CNTY.               Las Animas: COUNTRY
SRVC.          Patterson Wireline: SERVICE COMPANY
DATE.          Fri Apr 22 11:40:07 2005: LOG DATE
UWI.           05 071 08335 00: UNIQUE WELL ID
~Curve Information Block
DEPT.FT            0 000 00 00: Depth
CCL.                          : Casing Collar Locator
TT3.usec                      : CBL 3' Travel Time
AMP3.mV                       : CBL 3' Amplitude
GR.GAPI                       : Gamma Ray
~Parameter Information Block
~A  Depth       CCL         TT3         AMP3         GR     
# ...
   729.5000      0.0000    798.6647      7.4094     66.0809
   729.7500      0.0000    795.5007      7.4704     65.6544
   730.0000      0.0000    795.5404      7.4532     66.5120
   730.2500      0.0000    798.8293      7.4113     67.9271
   730.5000      0.0000    805.5761      7.3492     68.5111
   730.7500      0.0000    816.1290      7.2602     67.8262
   731.0000      0.0000    830.9399      7.1696     66.7522
   731.2500      0.0000    849.6073      7.1298     66.2879
   731.5000      0.0000    869.8434      7.1744     66.4522
   731.7500      0.0000    887.8448      7.2864     66.5886
   732.0000      0.0000    899.9542      7.4210     66.5256
   732.2500      0.0000    903.9170      7.5451     67.0222
   732.5000      0.0000    898.6584      7.6456     68.8468
   732.7500      0.0000    883.6016      7.7065     71.5297
   733.0000      0.0000    859.2892      7.7051     73.3125
   733.2500      0.0000    829.0804      7.6412     72.4261
   733.5000      0.0000    799.5724      7.5551     68.3943
   733.7500      0.0000    777.7491      7.5015     62.2498
   734.0000      0.0000    766.3958      7.5161     55.8193
   734.2500      0.0000    762.1832      7.6102     50.8768
   734.5000      0.0000    759.0088      7.7723     48.5102
   734.7500      0.0000    753.5279      7.9553     48.7358
   735.0000      0.0000    747.1589      8.0849     50.5756
   735.2500      0.0000    743.2243      8.1069     52.7324
   735.5000      0.0000    743.5527      8.0208     54.4187
   735.7500      0.0000    748.0094      7.8582     55.6377
   736.0000      0.0000    755.6243      7.6428     56.8603
   736.2500      0.0000    764.8884      7.3908     58.6414
   736.5000      0.0000    773.5196      7.1371     61.4315
   736.7500      0.0000    779.3523      6.9393     65.2913
   737.0000      0.0000    781.5047      6.8361     69.6788
   737.2500      0.0000    779.8331      6.8019     73.8533
   737.5000      0.0000    774.1197      6.7544     77.6611
   737.7500      0.0000    765.0939      6.6214     81.7327
   738.0000      0.0000    755.3477      6.3975     86.5822
   738.2500      0.0000    747.8452      6.1345     91.3939
   738.5000      0.0000    743.9167      5.8815     94.1337
   738.7500      0.0000    743.0128      5.6491     93.3559
   739.0000      0.0000    743.3926      5.4298     89.7741
   739.2500      0.0000    742.4705      5.2338     85.7719
   739.5000      0.0000    737.4699      5.0898     83.5194
   739.7500      0.0000    726.8118      5.0173     83.6636
   740.0000      0.0000    710.5079      5.0059     85.5357
   740.2500      0.0000    688.7824      5.0220     88.1979
   740.5000      0.0000    661.6085      5.0324     91.1420
   740.7500      0.0000    631.3964      5.0290     94.0891
   741.0000      0.0000    605.0999      5.0317     96.4580
   741.2500      0.0000    590.3870      5.0699     97.4758
   741.5000      0.0000    589.1359      5.1618     96.9242
   741.7500      0.0000    597.5879      5.3057     95.4540
   742.0000      0.0000    613.5361      5.4768     94.0235
   742.2500      0.0000    639.2028      5.6401     93.3743
   742.5000      0.0000    674.6302      5.7822     94.0099
   742.7500      0.0000    711.8014      5.9313     95.9134
   743.0000      0.0000    739.1511      6.1312     98.0677
   743.2500      0.0000    751.1950      6.3899     99.0805
   743.5000      0.0000    751.8724      6.6622     98.7446
   743.7500      0.0000    749.5440      6.8869     98.3213
   744.0000      0.0000    750.4470      7.0364     98.6959
   744.2500      0.0000    755.8157      7.1277     98.7422
   744.5000      0.0000    762.5159      7.1881     96.3040
   744.7500      0.0000    766.0284      7.2232     90.7617
   745.0000      0.0000    764.3262      7.2208     84.1159
   745.2500      0.0000    759.3205      7.1764     79.4907
   745.5000      0.0000    754.2788      7.1023     78.8587
   745.7500      0.0000    750.6826      7.0121     82.0314
   746.0000      0.0000    748.1053      6.9093     87.1727
   746.2500      0.0000    745.7677      6.7956     91.9923
   746.5000      0.0000    743.2088      6.6828     94.8124
   746.7500      0.0000    740.2915      6.5897     95.0714
   747.0000      0.0000    737.4025      6.5329     93.3230
   747.2500      0.0000    735.1446      6.5241     90.8612
   747.5000      0.0000    733.4816      6.5645     88.8893
   747.7500      0.0000    731.8367      6.6322     87.6669
   748.0000      0.0000    730.2511      6.6883     86.6240
   748.2500      0.0000    729.8445      6.7125     85.4353
   748.5000      0.0000    731.8591      6.7187     84.6369
   748.7500      0.0000    736.7148      6.7232     85.0382
   749.0000      0.0000    744.0576      6.7190     86.8891
   749.2500      0.0000    753.0328      6.6999     89.7013
   749.5000      0.0000    762.1696      6.6902     92.4625
   749.7500      0.0000    769.6081      6.7293     94.0835
   750.0000      0.0000    773.9549      6.8290     94.1369
   750.2500      0.0000    774.9620      6.9603     93.1295
   750.5000      0.0000    773.5385      7.0724     91.7656
   750.7500      0.0000    771.4171      7.1149     90.1797
   751.0000      0.0000    770.5605      7.0578     88.2206
   751.2500      0.0000    772.2883      6.9194     86.1792
   751.5000      0.0000    776.7632      6.7732     84.6059
   751.7500      0.0000    783.1409      6.7007     83.3787
   752.0000      0.0000    789.7584      6.7188     81.5923
   752.2500      0.0000    794.3365      6.7612     78.6783
   752.5000      0.0000    795.0351      6.7463     75.2732
   752.7500      0.0000    791.8212      6.6555     72.6381
   753.0000      0.0000    786.3230      6.5352     71.3506
   753.2500      0.0000    780.1614      6.4403     70.8915
   753.5000      0.0000    773.9727      6.3898     70.4615
   753.7500      0.0000    768.1879      6.3637     69.8516
   754.0000      0.0000    763.8727      6.3355     69.4448
   754.2500      0.0000    761.9999      6.3046     69.7813
   754.5000      0.0000    762.1801      6.2874     71.3654
   754.7500      0.0000    762.9518      6.2769     74.5631
   755.0000      0.0000    763.3187      6.2434     79.2964
   755.2500      0.0000    763.4471      6.1798     84.7829
   755.5000      0.0000    764.0010      6.1245     89.5361
   755.7500      0.0000    765.3298      6.1289     91.8209
   756.0000      0.0000    767.0972      6.2148     90.7148
   756.2500      0.0000    768.1309      6.3632     87.0790
   756.5000      0.0000    766.8558      6.5361     83.1327
   756.7500      0.0000    762.6549      6.6993     80.5856
   757.0000      0.0000    757.0292      6.8237     79.2725
   757.2500      0.0000    753.0143      6.8855     77.7705
   757.5000      0.0000    753.1155      6.8862     74.9457
   757.7500      0.0000    757.6066      6.8612     70.7174
   758.0000      0.0000    764.5344      6.8501     65.8838
   758.2500      0.0000    771.2346      6.8641     61.5941
   758.5000      0.0000    775.9990      6.8917     58.6414
   758.7500      0.0000    778.6467      6.9252     57.0831
   759.0000      0.0000    779.9079      6.9691     56.8576
   759.2500      0.0000    780.5480      7.0315     58.6342
   759.5000      0.0000    780.9479      7.1134     63.3231
   759.7500      0.0000    781.1464      7.1963     70.5701
   760.0000      0.0000    781.0143      7.2487     78.3074
   760.2500      0.0000    780.3660      7.2650     84.0881
   760.5000      0.0000    779.1080      7.2875     86.6752
   760.7500      0.0000    777.6255      7.3640     86.5109
   761.0000      0.0000    777.0522      7.4853     85.1946
   761.2500      0.0000    778.5544      7.5899     84.4321
   761.5000      0.0000    781.8543      7.6300     84.9539
   761.7500      0.0000    784.9136      7.6098     86.2418
   762.0000      0.0000    785.6781      7.5602     87.2603
   762.2500      0.0000    783.7962      7.5015     87.3016
   762.5000      0.0000    780.3311      7.4372     86.3022
   762.7500      0.0000    776.5400      7.3635     84.7447
