~Version Information
VERS.                      2.0: CWLS Log ASCII Standard - VERSION 2.0
WRAP.                       NO: One line per depth step
~Well Information Block
STRT.FT               743.8000: 
STOP.FT              1975.8000: 
STEP.FT                 0.1000: 
NULL.                -999.2500: 
COMP.          Petrogulf Corporation: COMPANY
WELL.            Montoya 6-14V: WELL
FLD.           Purgatorie River: FIELD
LOC.           318' FSL & 882' FWL: LOCATION
CNTY.               Las Animas: COUNTY
SRVC.                         : SERVICE COMPANY
DATE.          Sat Aug 14 09:19:43 2004: LOG DATE
UWI.           05 071 08020 00: UNIQUE WELL ID
STAT.                 Colorado: STATE
~Curve Information Block
DEPT.FT            0 000 00 00: Depth
DCAL.in                       : CDL Caliper
RHOB.g/cc                     : CDL Bulk Density
RHOC.g/cc                     : CDL Density Correction
DPOR.pu                       : CDL Density Porosity
GR.GAPI                       : Gamma Ray
NPOR.pu                       : Neutron Porosity
~Parameter Information Block
~A  Depth       DCAL        RHOB        RHOC        DPOR         GR         NPOR    
# ...
  1396.6000      7.8641      1.8409     -0.0889     49.0349     98.3157     26.7729
  1396.7000      7.8641      1.6518     -0.1969     60.4989     79.9003     28.7378
  1396.8000      7.8785      1.5039     -0.1914     69.4622     64.6848     30.5318
  1396.9000      7.8785      1.4102     -0.1117     75.1395     58.6232     31.4789
  1397.0000      7.9528      1.3358     -0.0805     79.6512     55.3638     31.9361
  1397.1000      7.9528      1.2782     -0.0811     83.1385     49.0544     32.5634
  1397.2000      7.9528      1.2603     -0.0207     84.2250     40.2556     33.4188
  1397.3000      8.2133      1.2740      0.0566     83.3956     31.2633     33.9433
  1397.4000      8.2133      1.2914      0.0642     82.3386     23.6804     33.7565
  1397.5000      8.7265      1.3018      0.0746     81.7109     21.2772     33.3187
  1397.6000      8.7265      1.3099      0.0487     81.2192     24.5645     33.1194
  1397.7000      8.7265      1.3180      0.0536     80.7285     27.4115     33.1801
  1397.8000      8.4064      1.3216      0.0657     80.5098     27.0072     33.6394
  1397.9000      8.4064      1.3237      0.0127     80.3802     25.0503     34.2559
  1398.0000      8.2499      1.3339      0.0402     79.7612     21.4885     34.6267
  1398.1000      8.2499      1.3468      0.0721     78.9847     17.2521     34.5700
  1398.2000      8.2499      1.3503      0.0612     78.7719     15.5437     33.6714
  1398.3000      8.2621      1.3519      0.0175     78.6743     17.3792     32.2067
  1398.4000      8.2621      1.3657      0.0254     77.8352     21.2568     31.3149
  1398.5000      8.1935      1.3841      0.0660     76.7201     25.2421     31.2709
  1398.6000      8.1935      1.3950      0.0063     76.0631     28.9199     31.5042
  1398.7000      8.1935      1.4074     -0.0110     75.3093     32.9243     31.6912
  1398.8000      8.1260      1.4250      0.0440     74.2442     36.6964     31.8888
  1398.9000      8.1260      1.4327      0.0402     73.7765     39.7775     32.2538
  1399.0000      8.3138      1.4250      0.0196     74.2415     42.6638     32.7527
  1399.1000      8.3138      1.4097      0.0156     75.1704     43.8962     33.1034
  1399.2000      8.3138      1.3944     -0.0101     76.0964     42.1392     33.2416
  1399.3000      8.5013      1.3837     -0.0368     76.7464     40.8883     33.0756
  1399.4000      8.5013      1.3722     -0.0110     77.4434     42.4453     32.4536
  1399.5000      8.2160      1.3499     -0.0310     78.7935     44.3708     31.6956
  1399.6000      8.2160      1.3200     -0.0444     80.6055     43.7974     31.3892
  1399.7000      8.2160      1.2986     -0.0553     81.9027     39.9324     31.7786
  1399.8000      8.1095      1.2954     -0.0236     82.0985     33.8914     32.6939
  1399.9000      8.1095      1.3013      0.0049     81.7419     29.8006     33.7886
  1400.0000      8.0925      1.3047      0.0116     81.5326     31.1120     34.7758
  1400.1000      8.0925      1.3152     -0.0350     80.8985     35.4715     35.2516
  1400.2000      8.0925      1.3532      0.0072     78.5948     38.0216     35.0695
  1400.3000      8.1037      1.4197      0.0510     74.5646     38.1871     34.6917
  1400.4000      8.1037      1.4961      0.0818     69.9305     39.0366     34.3774
  1400.5000      8.2934      1.5600      0.1441     66.0611     41.9551     34.0428
  1400.6000      8.2934      1.5984      0.1075     63.7308     44.6857     33.8874
  1400.7000      8.2934      1.6167      0.1561     62.6233     43.7900     33.8426
  1400.8000      9.0454      1.6228      0.1407     62.2518     40.4143     34.0038
  1400.9000      9.0454      1.6157      0.1408     62.6851     38.4846     34.6558
  1401.0000      9.6506      1.5875      0.1061     64.3941     37.4792     35.2150
  1401.1000      9.6506      1.5367     -0.0003     67.4717     35.1865     35.2065
  1401.2000      9.6506      1.4703     -0.0136     71.4948     31.8470     34.7769
  1401.3000     10.0886      1.4043     -0.0474     75.4975     28.8657     34.0797
  1401.4000     10.0886      1.3659     -0.0249     77.8257     26.1921     33.2792
  1401.5000      9.1965      1.3654      0.0447     77.8548     22.7274     32.5327
  1401.6000      9.1965      1.3866      0.0555     76.5717     19.1233     32.0175
  1401.7000      9.1965      1.4126      0.0485     74.9940     15.3223     32.0397
  1401.8000      8.9585      1.4356      0.0492     73.5981     11.7440     32.5328
  1401.9000      8.9585      1.4517      0.0647     72.6263     10.7147     33.3702
  1402.0000      8.9264      1.4567      0.1148     72.3184     12.0531     34.4096
  1402.1000      8.9264      1.4516      0.0357     72.6276     12.3132     34.9573
  1402.2000      8.9264      1.4394      0.0839     73.3714      9.8165     34.3751
  1402.3000      8.9706      1.4127      0.0779     74.9889      6.6584     33.2313
  1402.4000      8.9706      1.3693      0.0352     77.6204      4.6022     32.4492
  1402.5000      8.3179      1.3211     -0.0101     80.5422      4.7443     32.0668
  1402.6000      8.3179      1.2802     -0.0191     83.0181      7.0283     32.0357
  1402.7000      8.3179      1.2488     -0.0026     84.9186      8.3861     32.5485
  1402.8000      8.3075      1.2241     -0.0149     86.4163      7.0175     33.1663
  1402.9000      8.3075      1.2071     -0.0216     87.4462      5.4789     33.3129
  1403.0000      8.2739      1.1946     -0.0051     88.2046      5.4404     33.3565
  1403.1000      8.2739      1.1733      0.0212     89.4999      5.5430     33.9050
  1403.2000      8.2739      1.1376     -0.0339     91.6605      5.4651     34.5813
  1403.3000      8.4106      1.1011     -0.0572     93.8722      6.5831     34.8238
  1403.4000      8.4106      1.0786     -0.0499     95.2362      9.7761     34.8233
  1403.5000      8.9798      1.0750     -0.0620     95.4564     13.0299     35.0920
  1403.6000      8.9798      1.0872     -0.0205     94.7181     12.9587     35.6721
  1403.7000      8.9798      1.1064     -0.0325     93.5513     10.2759     36.0555
  1403.8000      9.7931      1.1275     -0.0357     92.2732      8.1853     35.8082
  1403.9000      9.7931      1.1504     -0.0205     90.8864      7.6624     35.2030
  1404.0000     10.8131      1.1746     -0.0035     89.4154      8.2527     35.0517
  1404.1000     10.8131      1.2012      0.0098     87.8089      9.3902     35.4105
  1404.2000     10.8131      1.2299      0.0253     86.0686     10.4121     35.7188
  1404.3000     11.4138      1.2526      0.0631     84.6925     11.1530     35.6886
  1404.4000     11.4138      1.2626      0.0309     84.0856     12.0943     35.2978
  1404.5000     10.9273      1.2660      0.0108     83.8797     13.1432     34.8619
  1404.6000     10.9273      1.2685      0.0136     83.7258     13.4876     34.8327
  1404.7000     10.9273      1.2666      0.0150     83.8408     11.9866     35.1964
  1404.8000      9.7720      1.2595     -0.0004     84.2749      9.4892     35.2449
  1404.9000      9.7720      1.2556     -0.0029     84.5108      8.5297     34.4334
  1405.0000      9.3329      1.2625     -0.0004     84.0910      9.2486     33.3351
  1405.1000      9.3329      1.2786      0.0177     83.1130     10.0324     32.7978
  1405.2000      9.3329      1.2959      0.0247     82.0651     10.3285     33.0714
  1405.3000      9.5077      1.3063      0.0444     81.4336     11.0219     34.1194
  1405.4000      9.5077      1.3072      0.0384     81.3828     11.9332     35.2069
  1405.5000      9.7411      1.3043      0.0168     81.5594     12.5711     35.2736
  1405.6000      9.7411      1.3033      0.0470     81.6154     13.1532     34.3569
  1405.7000      9.7411      1.3028      0.0341     81.6510     13.1564     33.5709
  1405.8000     10.2579      1.3021      0.0259     81.6899     13.0405     33.6022
  1405.9000     10.2579      1.3030      0.0247     81.6386     14.2524     33.9298
  1406.0000      9.8869      1.3030      0.0172     81.6340     15.8235     33.9546
  1406.1000      9.8869      1.2982      0.0234     81.9283     15.8914     33.8627
