~Version Information
 VERS.                      2.0: CWLS Log ASCII Standard - VERSION 2.0
 WRAP.                       NO: One line per depth step
 ~Well Information Block
 STRT.FT               115.0000: 
 STOP.FT              1768.2500: 
 STEP.FT                 0.2500: 
 NULL.                -999.2500: 
 COMP.          Petrogulf Corporation: COMPANY
 WELL.           Parsons 23-15V: WELL
 FLD.           Purgatorie River: FIELD
 LOC.           2095' FSL & 1817' FWL--API 05 071 07556 00----: LOCATION
 CNTY.               Las Animas: COUNTY
 SRVC.                         : SERVICE COMPANY
 DATE.          Fri Apr 19 16:58:41 2002: LOG DATE
 UWI.                          : UNIQUE WELL ID
 STAT.                       CO: STATE
 PROV.                         :Province
 ~Curve Information Block
 DEPT.FT            0 000 00 00: Depth
 SP.mV                         : DIL Spontaneous Potential
 RILD.Ohm-m                    : DIL Deep Resistivity
 RILM.Ohm-m                    : DIL Medium Resistivity
 RLL3.Ohm-m                    : DIL Shallow Resistivity
 GR.GAPI                       : Gamma Ray
 ~Parameter Information Block
 ~A  Depth        SP         RILD        RILM        RLL3         GR     
# ...
   367.0000   -279.4571     22.1137     21.6127     23.0664    169.0197
   367.2500   -279.4613     21.9690     21.4886     22.6880    165.4599
   367.5000   -279.4314     21.7905     21.3762     22.2854    160.2784
   367.7500   -279.3493     21.5722     21.2677     21.9453    155.2115
   368.0000   -279.2105     21.3159     21.1563     21.7254    151.5393
   368.2500   -279.0223     21.0257     21.0341     21.6273    150.0148
   368.5000   -278.7963     20.7042     20.8909     21.6056    150.7202
   368.7500   -278.5430     20.3519     20.7146     21.6019    152.6544
   369.0000   -278.2744     19.9709     20.4925     21.5809    154.2495
   369.2500   -278.0044     19.5665     20.2122     21.5406    154.7514
   369.5000   -277.7470     19.1475     19.8621     21.4864    154.5092
   369.7500   -277.5152     18.7231     19.4332     21.3917    153.8674
   370.0000   -277.3207     18.2998     18.9229     21.1856    152.7208
   370.2500   -277.1695     17.8803     18.3393     20.7766    151.4046
   370.5000   -277.0603     17.4647     17.7024     20.0935    151.1431
   370.7500   -276.9927     17.0538     17.0419     19.1244    153.0684
   371.0000   -276.9751     16.6510     16.3916     17.9468    157.1260
   371.2500   -277.0200     16.2638     15.7828     16.7284    162.0342
   371.5000   -277.1316     15.9013     15.2403     15.6785    166.0112
   371.7500   -277.2986     15.5716     14.7783     14.9609    167.6932
   372.0000   -277.4966     15.2802     14.3996     14.6233    166.8553
   372.2500   -277.6977     15.0290     14.0967     14.5904    164.4306
   372.5000   -277.8775     14.8186     13.8561     14.7219    161.8986
   372.7500   -278.0195     14.6500     13.6651     14.8891    160.4946
   373.0000   -278.1145     14.5279     13.5163     15.0248    160.3820
   373.2500   -278.1602     14.4626     13.4096     15.1276    160.3674
   373.5000   -278.1602     14.4685     13.3516     15.2269    159.0578
   373.7500   -278.1196     14.5596     13.3530     15.3344    156.5076
   374.0000   -278.0423     14.7441     13.4279     15.4244    154.1207
   374.2500   -277.9327     15.0215     13.5931     15.4736    152.7511
   374.5000   -277.7993     15.3846     13.8666     15.5381    151.4391
   374.7500   -277.6537     15.8246     14.2664     15.8002    148.3329
   375.0000   -277.5066     16.3354     14.8062     16.5173    142.6889
   375.2500   -277.3658     16.9150     15.4930     17.8805    135.6557
   375.5000   -277.2407     17.5651     16.3248     19.8700    128.9351
   375.7500   -277.1421     18.2889     17.2918     22.2217    122.9504
   376.0000   -277.0732     19.0904     18.3812     24.5635    116.8221
   376.2500   -277.0203     19.9745     19.5829     26.6586    109.9417
   376.5000   -276.9572     20.9484     20.8929     28.6140    102.9120
   376.7500   -276.8606     22.0212     22.3138     30.8999     96.8566
   377.0000   -276.7189     23.2002     23.8521     34.0833     92.3759
   377.2500   -276.5298     24.4853     25.5175     38.3533     89.2866
   377.5000   -276.2967     25.8625     27.3195     43.2038     86.7936
   377.7500   -276.0289     27.2995     29.2606     47.6605     83.7873
   378.0000   -275.7429     28.7424     31.3282     50.9553     79.6160
   378.2500   -275.4607     30.1155     33.4900     53.0654     74.8448
   378.5000   -275.2060     31.3223     35.6972     54.6698     70.8499
   378.7500   -274.9993     32.2489     37.8854     56.7189     68.5060
   379.0000   -274.8539     32.7766     39.9613     60.2002     67.3662
   379.2500   -274.7742     32.8104     41.7690     66.3743     65.9946
   379.5000   -274.7596     32.3167     43.0505     77.0421     63.0848
   379.7500   -274.8111     31.3456     43.4505     93.8689     58.6665
   380.0000   -274.9350     30.0208     42.6246    116.1934     54.5477
   380.2500   -275.1375     28.5008     40.4431    138.6770     53.4895
   380.5000   -275.4149     26.9345     37.1378    152.0334     57.6536
   380.7500   -275.7473     25.4331     33.2327    148.3202     67.5233
   381.0000   -276.1039     24.0598     29.3038    126.9660     81.9070
   381.2500   -276.4533     22.8351     25.7719     95.5604     98.6645
   381.5000   -276.7721     21.7481     22.8418     64.5274    115.4367
   381.7500   -277.0468     20.7698     20.5481     40.9607    129.9974
   382.0000   -277.2719     19.8658     18.8290     26.5183    140.3788
   382.2500   -277.4471     19.0072     17.5812     19.2703    145.1526
   382.5000   -277.5762     18.1782     16.6907     16.4394    143.9833
   382.7500   -277.6654     17.3798     16.0470     15.9107    138.1205
   383.0000   -277.7222     16.6283     15.5525     16.4314    130.2498
   383.2500   -277.7563     15.9499     15.1304     17.3019    123.5321
   383.5000   -277.7780     15.3722     14.7326     18.1135    120.2834
   383.7500   -277.7925     14.9161     14.3415     18.5994    120.9791
   384.0000   -277.7963     14.5910     13.9655     18.5659    124.1837
   384.2500   -277.7843     14.3945     13.6288     17.9468    127.7545
   384.5000   -277.7601     14.3153     13.3605     16.9240    130.6100
   384.7500   -277.7377     14.3363     13.1857     15.9098    133.3485
   385.0000   -277.7298     14.4390     13.1205     15.3279    136.8890
   385.2500   -277.7368     14.6060     13.1701     15.3741    140.7461
   385.5000   -277.7451     14.8237     13.3298     15.9453    143.2021
   385.7500   -277.7367     15.0821     13.5897     16.7454    143.2164
   386.0000   -277.6995     15.3745     13.9418     17.4797    141.4489
   386.2500   -277.6295     15.6944     14.3870     18.0924    139.1208
   386.5000   -277.5275     16.0360     14.9363     18.9986    136.4220
   386.7500   -277.3972     16.3956     15.6040     21.1573    132.3961
   387.0000   -277.2461     16.7758     16.3960     25.6656    126.2359
   387.2500   -277.0856     17.1860     17.2981     32.7285    118.6192
   387.5000   -276.9262     17.6382     18.2707     40.6613    111.7132
   387.7500   -276.7742     18.1393     19.2544     46.2829    107.6748
   388.0000   -276.6327     18.6853     20.1879     47.0732    107.0620
   388.2500   -276.5060     19.2617     21.0318     43.2366    108.7139
   388.5000   -276.4014     19.8466     21.7808     37.4504    110.9316
   388.7500   -276.3302     20.4113     22.4569     32.6366    112.6168
   389.0000   -276.3063     20.9178     23.0840     30.1462    113.5661
   389.2500   -276.3455     21.3167     23.6625     29.7085    114.0916
   389.5000   -276.4576     21.5575     24.1573     30.4092    114.5131
   389.7500   -276.6352     21.6118     24.5028     31.4793    114.9471
   390.0000   -276.8555     21.4951     24.6232     32.5107    115.4463
   390.2500   -277.0912     21.2696     24.4624     33.3355    116.2350
   390.5000   -277.3208     21.0201     24.0124     33.8020    117.8026
   390.7500   -277.5260     20.8213     23.3292     33.5889    120.8823
   391.0000   -277.6895     20.7174     22.5249     32.2548    126.0853
   391.2500   -277.8004     20.7202     21.7390     29.6117    132.8626
   391.5000   -277.8611     20.8182     21.1055     26.1076    138.7935
   391.7500   -277.8843     20.9855     20.7311     22.7433    140.7835
   392.0000   -277.8845     21.1873     20.6879     20.5645    137.4062
   392.2500   -277.8722     21.3840     21.0119     20.2875    129.8421
   392.5000   -277.8545     21.5374     21.6980     22.3554    120.7158
   392.7500   -277.8354     21.6209     22.6876     27.0708    112.4616
   393.0000   -277.8126     21.6294     23.8544     34.3533    106.5719
   393.2500   -277.7791     21.5824     25.0058     43.2200    103.7018
   393.5000   -277.7323     21.5168     25.9232     51.5955    103.8823
   393.7500   -277.6793     21.4727     26.4402     56.9613    106.3997
   394.0000   -277.6295     21.4775     26.5076     57.6395    109.8301
   394.2500   -277.5825     21.5363     26.1914     53.7725    112.8461
   394.5000   -277.5269     21.6306     25.6106     47.1405    115.1944
   394.7500   -277.4489     21.7250     24.8778     39.9539    117.6268
