~Version Information
VERS.                      2.0: CWLS Log ASCII Standard - VERSION 2.0
WRAP.                       NO: One line per depth step
~Well Information Block
STRT.FT               898.0000: 
STOP.FT              2359.2000: 
STEP.FT                 0.1000: 
NULL.                -999.2500: 
COMP.          Pioneer Natural Resources: COMPANY
WELL.             Trimax 44-23: WELL
FLD.           Purgatoire River: FIELD
LOC.           527' FSL & 1064' FEL: LOCATION
PROV.                 Colorado: PROVINCE
CNTY.               Las Animas: COUNTRY
SRVC.                Patterson: SERVICE COMPANY
DATE.          Mon Mar 14 07:28:19 2005: LOG DATE
UWI.           05 071 08326 00: UNIQUE WELL ID
~Curve Information Block
DEPT.FT            0 000 00 00: Depth
DCAL.in                       : CDL Caliper
RHOB.g/cc                     : CDL Bulk Density
RHOC.g/cc                     : CDL Density Correction
DPOR.pu                       : CDL Density Porosity
GR.GAPI                       : Gamma Ray
NPOR.pu                       : Neutron Porosity
~Parameter Information Block
~A  Depth       DCAL        RHOB        RHOC        DPOR         GR         NPOR    
# ...
  2155.6000      7.8066      2.3503      0.1155     18.1650     49.2879     30.3037
  2155.7000      7.8066      2.4127      0.1609     14.3839     46.3686     29.9692
  2155.8000      7.8041      2.4889      0.1596      9.7647     45.5024     29.0803
  2155.9000      7.8041      2.5674      0.1322      5.0089     48.0565     27.8746
  2156.0000      7.7783      2.6310      0.1330      1.1489     52.1273     26.7638
  2156.1000      7.7783      2.6677      0.1483     -1.0712     56.4196     26.3134
  2156.2000      7.7783      2.6797      0.1487     -1.8000     60.0810     26.5555
  2156.3000      7.7469      2.6800      0.1244     -1.8202     62.2815     26.5931
  2156.4000      7.7469      2.6699      0.1524     -1.2069     62.3994     25.9137
  2156.5000      7.7557      2.6364      0.1286      0.8244     60.5353     25.6760
  2156.6000      7.7557      2.5821      0.0282      4.1142     58.8911     26.7783
  2156.7000      7.7557      2.5314     -0.0175      7.1856     59.0402     28.0282
  2156.8000      7.7913      2.4994      0.0042      9.1258     62.2607     27.9640
  2156.9000      7.7913      2.4781      0.0363     10.4153     67.9943     27.0251
  2157.0000      7.8290      2.4589     -0.0055     11.5838     71.7312     26.5527
  2157.1000      7.8290      2.4413      0.0486     12.6481     72.9873     26.9731
  2157.2000      7.8290      2.4209      0.0572     13.8856     75.8662     27.6045
  2157.3000      7.8577      2.3983      0.0492     15.2519     78.5576     27.6861
  2157.4000      7.8577      2.3859      0.0353     16.0056     77.0625     27.2224
  2157.5000      7.8794      2.3832      0.0248     16.1692     74.3745     26.6451
  2157.6000      7.8794      2.3705      0.0744     16.9381     74.3162     26.4432
  2157.7000      7.8794      2.3409      0.0222     18.7346     76.0766     27.0060
  2157.8000      7.9014      2.3155      0.0221     20.2715     75.9410     28.0197
  2157.9000      7.9014      2.3065      0.0516     20.8205     72.2209     28.7361
  2158.0000      7.9120      2.3048      0.0084     20.9220     68.2808     28.7937
  2158.1000      7.9120      2.3054      0.0455     20.8868     66.3516     28.6570
  2158.2000      7.9120      2.2990      0.0755     21.2755     65.1144     28.8237
  2158.3000      7.9125      2.2710      0.0703     22.9716     64.3494     28.9763
  2158.4000      7.9125      2.2280      0.0467     25.5785     63.8132     29.3076
  2158.5000      7.9225      2.1880      0.0638     27.9971     62.5567     30.0554
  2158.6000      7.9225      2.1526      0.0508     30.1466     61.6514     30.5638
  2158.7000      7.9225      2.1166      0.0190     32.3301     62.8898     30.7799
  2158.8000      7.9466      2.0848     -0.0150     34.2537     64.2179     30.7915
  2158.9000      7.9466      2.0654     -0.0121     35.4311     63.1514     30.2566
  2159.0000      7.9620      2.0627      0.0155     35.5959     60.0387     29.7791
  2159.1000      7.9620      2.0735      0.0376     34.9366     56.8545     30.2670
  2159.2000      7.9620      2.0921      0.0411     33.8140     57.2778     31.1647
  2159.3000      7.9534      2.1272      0.0679     31.6851     61.9569     31.1509
  2159.4000      7.9534      2.1964      0.1026     27.4903     66.0402     30.0642
  2159.5000      7.9458      2.2897      0.1530     21.8361     67.3285     28.9213
  2159.6000      7.9458      2.3685      0.1363     17.0583     68.1309     28.6163
  2159.7000      7.9458      2.4170      0.0911     14.1235     69.1283     29.1391
  2159.8000      7.9416      2.4559      0.0896     11.7641     70.0208     29.7887
  2159.9000      7.9416      2.4902      0.1331      9.6860     71.3757     29.5908
  2160.0000      7.9266      2.4984      0.1134      9.1883     73.2069     28.4812
  2160.1000      7.9266      2.4870      0.0612      9.8777     75.5775     27.7624
  2160.2000      7.9266      2.4845      0.0740     10.0273     79.9297     28.0730
  2160.3000      7.9088      2.4901      0.1087      9.6938     84.6016     28.5228
  2160.4000      7.9088      2.4822      0.1162     10.1719     86.8237     28.6112
  2160.5000      7.8966      2.4624      0.0138     11.3692     86.7518     28.6272
  2160.6000      7.8966      2.4487      0.0258     12.2008     84.2133     28.8103
  2160.7000      7.8966      2.4463      0.0358     12.3453     81.4989     29.5653
  2160.8000      7.8890      2.4543      0.0362     11.8623     81.3710     30.4176
  2160.9000      7.8890      2.4685      0.0477     10.9997     80.9456     30.2092
  2161.0000      7.8712      2.4800      0.0754     10.3035     77.4590     29.3458
  2161.1000      7.8712      2.4840      0.0655     10.0606     73.9343     28.6898
  2161.2000      7.8712      2.4781      0.0808     10.4156     72.9718     28.5160
  2161.3000      7.8457      2.4605      0.0900     11.4829     73.4221     28.9238
  2161.4000      7.8457      2.4363      0.0310     12.9537     72.1439     29.3512
  2161.5000      7.8432      2.4168      0.0660     14.1356     68.1350     29.3287
  2161.6000      7.8432      2.4116      0.0480     14.4455     66.5791     29.0847
  2161.7000      7.8432      2.4154      0.1015     14.2202     71.2366     28.7993
  2161.8000      7.8573      2.4120      0.0666     14.4258     77.7382     28.6247
  2161.9000      7.8573      2.4003      0.0280     15.1362     81.3965     28.6303
  2162.0000      7.8534      2.3846      0.0614     16.0832     82.3665     28.7482
  2162.1000      7.8534      2.3615      0.0628     17.4853     81.6792     28.8338
  2162.2000      7.8534      2.3352      0.0321     19.0758     81.2062     28.9461
  2162.3000      7.8322      2.3173      0.0594     20.1637     81.1374     29.4338
  2162.4000      7.8322      2.3018      0.0869     21.1046     80.9048     30.2744
  2162.5000      7.8260      2.2724      0.0538     22.8853     81.3659     31.0505
  2162.6000      7.8260      2.2273      0.0329     25.6204     82.6527     31.5181
  2162.7000      7.8260      2.1728      0.0515     28.9213     83.9985     31.6784
  2162.8000      7.8409      2.1189     -0.0433     32.1861     82.2452     31.5076
  2162.9000      7.8409      2.0772     -0.0054     34.7170     77.0811     31.0185
  2163.0000      7.8582      2.0446      0.0015     36.6921     73.0947     30.5523
  2163.1000      7.8582      2.0151     -0.0265     38.4762     72.0135     30.3596
  2163.2000      7.8582      1.9900     -0.0281     40.0016     73.2796     30.6633
  2163.3000      7.8693      1.9704      0.0156     41.1863     77.9998     31.6786
  2163.4000      7.8693      1.9568      0.0250     42.0145     84.8697     32.7600
  2163.5000      7.8669      1.9465      0.1085     42.6380     87.5396     32.8402
  2163.6000      7.8669      1.9325      0.0781     43.4847     81.7848     32.0189
  2163.7000      7.8669      1.9064      0.1002     45.0687     70.8867     31.4977
  2163.8000      7.8508      1.8634      0.0668     47.6727     60.2848     31.8297
  2163.9000      7.8508      1.8112      0.0281     50.8361     53.5062     32.3222
  2164.0000      7.8536      1.7597      0.0560     53.9571     51.4269     32.0314
  2164.1000      7.8536      1.7126      0.0291     56.8110     51.9393     31.2016
  2164.2000      7.8536      1.6751      0.0192     59.0822     53.7777     30.7434
  2164.3000      7.9034      1.6509     -0.0088     60.5489     55.2913     30.6605
  2164.4000      7.9034      1.6358      0.0363     61.4689     52.4738     30.6054
  2164.5000      7.9900      1.6305     -0.0074     61.7855     45.7192     30.6424
  2164.6000      7.9900      1.6436      0.0617     60.9946     39.8397     30.8659
  2164.7000      7.9900      1.6703      0.1006     59.3739     37.4855     30.9358
  2164.8000      8.0349      1.7012      0.1171     57.5020     38.6627     30.6288
  2164.9000      8.0349      1.7406      0.1166     55.1127     42.4128     30.5539
  2165.0000      8.0015      1.7979      0.1309     51.6448     46.7266     31.0939
  2165.1000      8.0015      1.8676      0.1865     47.4187     50.7753     31.8741
