~Version Information
VERS.                      2.0: CWLS Log ASCII Standard - VERSION 2.0
WRAP.                       NO: One line per depth step
~Well Information Block
STRT.FT                60.5000: 
STOP.FT              1875.7500: 
STEP.FT                 0.2500: 
NULL.                -999.2500: 
COMP.          Petrogulf Corporation: COMPANY
WELL.             State 16-14R: WELL
FLD.           Purgatorie River: FIELD
LOC.           598' FSL & 682' FWL--: LOCATION
PROV.                       CO: PROVINCE
CNTY.               Las Animas: COUNTRY
SRVC.                         : SERVICE COMPANY
DATE.          Fri Nov 12 08:50:45 2004: LOG DATE
UWI.            005 071 08034 : UNIQUE WELL ID
~Curve Information Block
DEPT.FT            0 000 00 00: Depth
GR.GAPI                       : Gamma Ray
CCL.                          : Casing Collar Locator
TT3.usec                      : CBL 3' Travel Time
AMP3.mV                       : CBL 3' Amplitude
~Parameter Information Block
~A  Depth        GR         CCL         TT3         AMP3    
# ...
   663.5000     79.5099      2.0000    318.6173     10.1289
   663.7500     81.0109      0.0000    318.6735     10.2940
   664.0000     82.4375      0.0000    321.3551     10.3972
   664.2500     82.5825      0.0000    326.8824     10.4805
   664.5000     81.2558      0.0000    334.7303     10.5925
   664.7500     79.1650      0.0000    342.9062     10.7894
   665.0000     77.0352      0.0000    348.5343     11.1016
   665.2500     75.5095      0.0000    349.6189     11.4683
   665.5000     75.4498      0.0000    346.5947     11.7459
   665.7500     77.5000      0.0000    342.3184     11.8257
   666.0000     81.1578      0.0000    340.2924     11.7236
   666.2500     84.6608      0.0000    342.3876     11.5447
   666.5000     86.2746      0.0000    348.0242     11.3947
   666.7500     85.7293      0.0000    355.7281     11.3360
   667.0000     84.2000      0.0000    365.7653     11.3844
   667.2500     83.0466      0.0000    381.4821     11.5203
   667.5000     82.8844      0.0000    407.5575     11.7066
   667.7500     83.5064      0.0000    444.6444     11.9062
   668.0000     84.0341      0.0000    483.4448     12.0863
   668.2500     83.2622      0.0000    506.0554     12.2206
   668.5000     80.6054      0.0000    498.7650     12.2986
   668.7500     76.9252      0.0000    465.7492     12.3290
   669.0000     74.0858      0.0000    427.2738     12.3298
   669.2500     73.4885      0.0000    402.9320     12.3137
   669.5000     75.0179      0.0000    397.7498     12.2848
   669.7500     77.1625      0.0000    403.0317     12.2451
   670.0000     77.9541      0.0000    406.9164     12.1967
   670.2500     76.2117      0.0000    403.2658     12.1349
   670.5000     72.6868      0.0000    393.1303     12.0430
   670.7500     70.0293      0.0000    380.8866     11.9035
   671.0000     70.8506      0.0000    369.9870     11.7217
   671.2500     75.3519      0.0000    361.2144     11.5329
   671.5000     81.0253      0.0000    353.4474     11.3768
   671.7500     84.6762      0.0000    345.5221     11.2674
   672.0000     84.6065      0.0000    337.5426     11.1922
   672.2500     81.1721      0.0000    330.6431     11.1373
   672.5000     76.0012      0.0000    325.7800     11.1010
   672.7500     71.0849      0.0000    322.9952     11.0869
   673.0000     68.0900      0.0000    321.6622     11.0926
   673.2500     67.6062      0.0000    321.0871     11.1072
   673.5000     68.8726      0.0000    320.8264     11.1158
   673.7500     70.6195      0.0000    320.6805     11.1088
   674.0000     72.1094      0.0000    320.5885     11.0890
   674.2500     73.2152      0.0000    320.5424     11.0703
   674.5000     73.9282      0.0000    320.5363     11.0682
   674.7500     74.1171      0.0000    320.5523     11.0882
   675.0000     73.6165      0.0000    320.5688     11.1215
   675.2500     72.5226      0.0000    320.5743     11.1527
   675.5000     71.5275      0.0000    320.5685     11.1698
   675.7500     71.8192      0.0000    320.5539     11.1662
   676.0000     74.3808      0.0000    320.5348     11.1400
   676.2500     79.1379      0.0000    320.5187     11.0982
   676.5000     84.5749      0.0000    320.5144     11.0550
   676.7500     88.4222      0.0000    320.5260     11.0223
   677.0000     89.2373      0.0000    320.5505     11.0007
   677.2500     87.4039      0.0000    320.5789     10.9856
   677.5000     84.4581      0.0000    320.6028     10.9776
   677.7500     81.6395      0.0000    320.6277     10.9813
   678.0000     79.2254      0.0000    320.6864     10.9963
   678.2500     76.8408      0.0000    320.8688     11.0161
   678.5000     73.9620      0.0000    321.3904     11.0387
   678.7500     70.3648      0.0000    322.7036     11.0685
   679.0000     66.5179      0.0000    325.5176     11.1067
   679.2500     63.5195      0.0000    330.4745     11.1479
   679.5000     62.3858      0.0000    337.4933     11.1918
   679.7500     63.3548      0.0000    345.4559     11.2516
   680.0000     65.8201      0.0000    352.9489     11.3427
   680.2500     68.7222      0.0000    359.8336     11.4595
   680.5000     70.9835      0.0000    368.5328     11.5731
   680.7500     71.8808      0.0000    384.0986     11.6566
   681.0000     71.3628      0.0000    412.1420     11.7125
   681.2500     70.0992      0.0000    453.8091     11.7674
   681.5000     68.9514      0.0000    500.0016     11.8452
   681.7500     68.2779      0.0000    531.9882     11.9497
   682.0000     67.8709      0.0000    533.1469     12.0686
   682.2500     67.3047      0.0000    503.7018     12.1831
   682.5000     65.9055      0.0000    462.5956     12.2722
   682.7500     62.7354      0.0000    432.7772     12.3168
   683.0000     57.3162      0.0000    424.3345     12.3098
   683.2500     50.4350      0.0000    431.7594     12.2595
   683.5000     43.9157      0.0000    445.3852     12.1809
   683.7500     39.5854      0.0000    462.6257     12.0910
   684.0000     38.3207      0.0000    487.7287     12.0111
   684.2500     39.6741      0.0000    524.1976     11.9610
   684.5000     42.2109      0.0000    570.1754     11.9428
   684.7500     44.4376      0.0000    618.9865     11.9403
   685.0000     45.6656      0.0000    661.9344     11.9353
   685.2500     46.0852      0.0000    692.4933     11.9171
   685.5000     46.1882      0.0000    709.5002     11.8747
   685.7500     46.3999      0.0000    715.8235     11.7963
   686.0000     47.1620      0.0000    713.6160     11.6869
   686.2500     48.8654      0.0000    701.0402     11.5766
   686.5000     51.5000      0.0000    673.7849     11.4987
   686.7500     54.8156      0.0000    630.7737     11.4658
   687.0000     58.9815      0.0000    578.7413     11.4692
   687.2500     64.5814      0.0000    530.0253     11.4901
   687.5000     71.5973      0.0000    494.9423     11.5033
   687.7500     78.7752      0.0000    477.0477     11.4796
   688.0000     84.4906      0.0000    474.4637     11.4004
   688.2500     88.2585      0.0000    481.9952     11.2743
   688.5000     91.1376      0.0000    490.7430     11.1371
   688.7500     94.5503      0.0000    489.9539     11.0273
   689.0000     98.6115      0.0000    473.9071     10.9583
   689.2500    101.7358      0.0000    446.6931     10.9140
   689.5000    102.2542      0.0000    418.2802     10.8711
   689.7500    100.2828      0.0000    396.7976     10.8228
   690.0000     97.4462      0.0000    385.1906     10.7818
   690.2500     95.0693      0.0000    382.7355     10.7632
   690.5000     93.4329      0.0000    387.2625     10.7634
   690.7500     92.4754      0.0000    396.5674     10.7594
   691.0000     92.2674      0.0000    409.7738     10.7309
   691.2500     92.9814      0.0000    428.7136     10.6769
   691.5000     94.8992      0.0000    457.7887     10.6076
   691.7500     97.8746      0.0000    500.6011     10.5291
   692.0000    100.3775      0.0000    554.0657     10.4445
   692.2500     99.9841      0.0000    605.8972     10.3615
   692.5000     95.4981      0.0000    641.0054     10.2894
   692.7500     88.0796      0.0000    652.6024     10.2336
   693.0000     79.9318      0.0000    647.2325     10.1973
   693.2500     72.4375      0.0000    639.7434     10.1883
   693.5000     65.8186      0.0000    643.3555     10.2218
   693.7500     60.1014      0.0000    661.5353     10.3102
   694.0000     56.0730      0.0000    686.9462     10.4506
   694.2500     55.2521      0.0000    708.7084     10.6226
   694.5000     58.6515      0.0000    721.3478     10.7964
   694.7500     65.4024      0.0000    727.0744     10.9452
   695.0000     72.8544      0.0000    731.1453     11.0547
   695.2500     78.3583      0.0000    736.6725     11.1275
   695.5000     81.0150      0.0000    743.1277     11.1751
   695.7500     81.5985      0.0000    748.0800     11.2070
   696.0000     81.0757      0.0000    749.6754     11.2280
   696.2500     79.7034      0.0000    747.9268     11.2369
   696.5000     77.6086      0.0000    744.3835     11.2260
   696.7500     75.6685      0.0000    741.0947     11.1892
