~Version Information
VERS.                      2.0: CWLS Log ASCII Standard - VERSION 2.0
WRAP.                       NO: One line per depth step
~Well Information Block
STRT.FT                -9.7500: 
STOP.FT              2158.2500: 
STEP.FT                 0.2500: 
NULL.                -999.2500: 
COMP.          Petrogulf Corporation: COMPANY
WELL.             State 16-41V: WELL
FLD.           Purgatoire River: FIELD
LOC.           335' FNL & 823' FEL--: LOCATION
PROV.                 Colorado: PROVINCE
CNTY.               Las Animas: COUNTRY
SRVC.                Patterson: SERVICE COMPANY
DATE.          Wed Aug 17 12:15:10 2005: LOG DATE
UWI.           05 071 08344 00: UNIQUE WELL ID
~Curve Information Block
DEPT.FT            0 000 00 00: Depth
CCL.                          : Casing Collar Locator
TT3.usec                      : CBL 3' Travel Time
AMP3.mV                       : CBL 3' Amplitude
GR.GAPI                       : Gamma Ray
~Parameter Information Block
~A  Depth       CCL         TT3         AMP3         GR     
# ...
   559.7500      0.0000    508.3031      4.6815     83.6794
   560.0000      0.0000    536.3560      4.3589     86.8511
   560.2500      0.0000    565.4897      4.0769     88.7254
   560.5000      0.0000    589.4391      3.9089     88.7439
   560.7500      0.0000    608.6268      3.8921     86.6830
   561.0000      0.0000    622.7032      4.0358     82.5905
   561.2500      0.0000    625.8083      4.3249     76.9784
   561.5000      0.0000    610.6966      4.7068     71.1073
   561.7500      0.0000    576.9734      5.0935     66.5791
   562.0000      0.0000    534.0886      5.3972     64.1994
   562.2500      0.0000    496.2362      5.5692     63.3564
   562.5000      0.0000    474.2949      5.6206     62.8264
   562.7500      0.0000    470.8853      5.6271     62.0891
   563.0000      0.0000    481.1981      5.7145     61.6311
   563.2500      0.0000    497.8765      6.0108     62.1273
   563.5000      0.0000    515.9133      6.5796     63.6093
   563.7500      0.0000    534.7218      7.3845     65.2962
   564.0000      0.0000    556.4055      8.3103     65.9494
   564.2500      0.0000    581.3168      9.2201     64.5633
   564.5000      0.0000    605.4147     10.0066     61.2860
   564.7500      0.0000    623.0706     10.6170     57.7883
   565.0000      0.0000    631.1435     11.0505     56.2406
   565.2500      0.0000    627.9786     11.3411     57.6141
   565.5000      0.0000    610.2918     11.5388     61.0872
   565.7500      0.0000    575.2275     11.6928     65.1215
   566.0000      0.0000    526.3736     11.8274     68.8861
   566.2500      0.0000    475.5748     11.9213     72.5305
   566.5000      0.0000    437.7562     11.9189     76.3200
   566.7500      0.0000    424.1225     11.7762     80.0153
   567.0000      0.0000    438.7698     11.5048     83.2693
   567.2500      0.0000    477.5229     11.1738     86.2255
   567.5000      0.0000    527.4213     10.8678     89.2334
   567.7500      0.0000    569.6705     10.6425     92.0718
   568.0000      0.0000    587.4163     10.5108     93.8461
   568.2500      0.0000    573.5961     10.4583     93.6022
   568.5000      0.0000    533.6226     10.4576     90.8374
   568.7500      0.0000    482.1064     10.4656     85.7196
   569.0000      0.0000    435.2910     10.4256     79.1587
   569.2500      0.0000    403.2640     10.2899     72.5113
   569.5000      0.0000    387.5185     10.0475     66.9624
   569.7500      0.0000    384.8809      9.7288     63.1344
   570.0000      0.0000    392.1170      9.3866     61.1856
   570.2500      0.0000    406.0800      9.0647     61.0477
   570.5000      0.0000    421.2003      8.7735     62.3854
   570.7500      0.0000    430.3242      8.4927     64.5183
   571.0000      0.0000    430.2065      8.2021     66.7894
   571.2500      0.0000    425.1152      7.9043     69.0631
   571.5000      0.0000    423.3374      7.6148     71.5293
   571.7500      0.0000    430.1608      7.3397     74.0588
   572.0000      0.0000    444.2891      7.0821     76.2717
   572.2500      0.0000    459.8488      6.8617     78.1912
   572.5000      0.0000    471.2548      6.7077     80.0162
   572.7500      0.0000    476.8073      6.6184     81.1864
   573.0000      0.0000    478.9395      6.5388     80.6710
   573.2500      0.0000    482.1233      6.3910     78.4435
   573.5000      0.0000    490.2321      6.1383     75.9200
   573.7500      0.0000    504.1421      5.8188     74.6322
   574.0000      0.0000    520.1147      5.5201     74.9910
   574.2500      0.0000    531.3140      5.3203     76.5509
   574.5000      0.0000    533.6620      5.2438     78.8158
   574.7500      0.0000    530.6353      5.2630     81.0572
   575.0000      0.0000    529.6434      5.3347     81.8107
   575.2500      0.0000    533.0417      5.4329     79.7717
   575.5000      0.0000    534.8367      5.5446     75.5777
   575.7500      0.0000    526.4996      5.6498     72.0350
   576.0000      0.0000    504.8640      5.7259     72.0870
   576.2500      0.0000    474.8678      5.7768     76.4666
   576.5000      0.0000    445.6189      5.8413     83.1044
   576.7500      0.0000    423.8148      5.9560     88.6427
   577.0000      0.0000    410.6554      6.1094     90.7966
   577.2500      0.0000    403.9696      6.2449     89.6563
   577.5000      0.0000    401.5506      6.3134     87.0193
   577.7500      0.0000    402.0926      6.3171     84.7548
   578.0000      0.0000    404.5814      6.2993     83.8362
   578.2500      0.0000    408.4597      6.2931     84.3891
   578.5000      0.0000    414.7881      6.2903     86.2124
   578.7500      0.0000    426.7128      6.2619     89.2562
   579.0000      0.0000    447.6364      6.1995     93.6495
   579.2500      0.0000    477.7189      6.1232     99.1184
   579.5000      0.0000    512.4933      6.0436    104.5075
   579.7500      0.0000    546.2690      5.9284    108.2045
   580.0000      0.0000    576.5285      5.7217    109.0755
   580.2500      0.0000    603.1257      5.4032    106.7319
   580.5000      0.0000    623.8167      5.0204    101.1522
   580.7500      0.0000    633.1512      4.6509     92.9160
   581.0000      0.0000    625.8635      4.3406     83.9220
   581.2500      0.0000    600.1613      4.0835     76.7991
   581.5000      0.0000    559.6082      3.8531     72.8782
   581.7500      0.0000    514.3710      3.6416     71.1187
   582.0000      0.0000    478.7856      3.4690     69.4439
   582.2500      0.0000    463.8131      3.3599     66.8429
   582.5000      0.0000    470.4086      3.3135     63.8986
   582.7500      0.0000    490.1150      3.3002     61.6951
   583.0000      0.0000    511.7669      3.2899     60.7116
   583.2500      0.0000    528.0484      3.2784     60.6217
   583.5000      0.0000    537.3483      3.2822     60.7984
   583.7500      0.0000    541.4843      3.3178     60.8281
   584.0000      0.0000    542.8690      3.3931     60.5581
   584.2500      0.0000    543.2512      3.5090     59.9551
   584.5000      0.0000    543.6039      3.6600     59.1999
   584.7500      0.0000    543.9323      3.8347     58.7023
   585.0000      0.0000    542.6221      4.0211     58.6787
   585.2500      0.0000    536.1154      4.2141     58.8144
   585.5000      0.0000    520.4511      4.4160     58.5910
   585.7500      0.0000    494.6649      4.6313     57.8134
   586.0000      0.0000    462.7927      4.8645     56.6117
   586.2500      0.0000    431.6075      5.1198     55.1423
   586.5000      0.0000    406.2572      5.4023     53.5685
   586.7500      0.0000    388.3233      5.7140     52.1417
   587.0000      0.0000    377.0001      6.0473     51.0574
   587.2500      0.0000    370.7469      6.3819     50.4132
   587.5000      0.0000    367.9942      6.6893     50.4212
   587.7500      0.0000    367.4135      6.9436     51.4244
   588.0000      0.0000    368.1659      7.1334     53.5297
   588.2500      0.0000    370.0262      7.2657     56.2699
   588.5000      0.0000    373.2862      7.3619     58.7118
   588.7500      0.0000    378.3324      7.4516     60.0890
   589.0000      0.0000    385.0102      7.5708     60.6313
   589.2500      0.0000    392.6936      7.7569     61.7278
   589.5000      0.0000    401.8700      8.0305     64.8230
   589.7500      0.0000    415.7223      8.3886     69.9436
   590.0000      0.0000    437.7885      8.8462     75.5370
   590.2500      0.0000    465.2465      9.4974     79.8501
   590.5000      0.0000    485.5548     10.5085     82.1839
   590.7500      0.0000    484.3138     12.0358     82.6352
   591.0000      0.0000    458.2915     14.1759     81.1297
   591.2500      0.0000    418.3703     16.9874     77.4123
   591.5000      0.0000    379.3556     20.5114     71.9405
   591.7500      2.0000    349.5258     24.7574     66.1884
   592.0000     -2.0000    329.3670     29.6941     61.7345
   592.2500     -2.0000    315.9586     35.2300     59.2077
   592.5000      0.0000    306.3765     41.1733     58.2700
   592.7500      0.0000    298.6157     47.2508     58.3948
   593.0000      0.0000    291.4719     53.2493     59.2717
