~Version Information
VERS.                      2.0: CWLS Log ASCII Standard - VERSION 2.0
WRAP.                       NO: One line per depth step
~Well Information Block
STRT.FT               392.5000: 
STOP.FT              2252.6000: 
STEP.FT                 0.1000: 
NULL.                -999.2500: 
COMP.          Petrogulf Corporation: COMPANY
WELL.          Alexander 9-43V: WELL
FLD.           Purgatorie River: FIELD
LOC.           1651' FSL & 1081' FEL: LOCATION
CNTY.               Las Animas: COUNTY
SRVC.                         : SERVICE COMPANY
DATE.          Mon Mar 17 08:48:25 2003: LOG DATE
UWI.           05 071 07727 00: UNIQUE WELL ID
STAT.                 Colorado: STATE
~Curve Information Block
DEPT.FT            0 000 00 00: Depth
DCAL.in                       : CDL Caliper
RHOB.g/cc                     : CDL Bulk Density
RHOC.g/cc                     : CDL Density Correction
DPOR.pu                       : CDL Density Porosity
GR.GAPI                       : Gamma Ray
NPOR.pu                       : Neutron Porosity
~Parameter Information Block
~A  Depth       DCAL        RHOB        RHOC        DPOR         GR         NPOR    
# ...
   421.3000      8.2172   -999.2500   -999.2500   -999.2500     73.4617     46.6971
   421.4000      8.2172   -999.2500     -0.5025   -999.2500     73.4617     46.7064
   421.5000      8.2176   -999.2500     -0.5022   -999.2500     73.6832     46.7184
   421.6000      8.2176   -999.2500     -0.5015   -999.2500     73.6832     46.7343
   421.7000      8.2176   -999.2500     -0.5006   -999.2500     73.6832     46.7545
   421.8000      8.2173   -999.2500     -0.4997   -999.2500     74.3258     46.7780
   421.9000      8.2173   -999.2500     -0.4988   -999.2500     74.3258     46.8038
   422.0000      8.2169   -999.2500     -0.4983   -999.2500     75.6564     46.8303
   422.1000      8.2169   -999.2500     -0.4980   -999.2500     75.6564     46.8564
   422.2000      8.2169   -999.2500     -0.4982   -999.2500     75.6564     46.8805
   422.3000      8.2161   -999.2500     -0.4989   -999.2500     77.7403     46.9014
   422.4000      8.2161   -999.2500     -0.4999   -999.2500     77.7403     46.9177
   422.5000      8.2166   -999.2500     -0.5012   -999.2500     80.2487     46.9276
   422.6000      8.2166   -999.2500     -0.5027   -999.2500     80.2487     46.9298
   422.7000      8.2166   -999.2500     -0.5043   -999.2500     80.2487     46.9229
   422.8000      8.2178   -999.2500     -0.5058   -999.2500     82.5742     46.9065
   422.9000      8.2178   -999.2500     -0.5072   -999.2500     82.5742     46.8806
   423.0000      8.2171   -999.2500     -0.5083   -999.2500     84.2262     46.8465
   423.1000      8.2171   -999.2500     -0.5089   -999.2500     84.2262     46.8061
   423.2000      8.2171   -999.2500     -0.5090   -999.2500     84.2262     46.7618
   423.3000      8.2149   -999.2500     -0.5085   -999.2500     85.0819     46.7160
   423.4000      8.2149      2.2240     -0.5075     25.8182     85.0819     46.6705
   423.5000      8.2141      2.2273     -0.5059     25.6181     85.2765     46.6265
   423.6000      8.2141      2.2307     -0.5039     25.4131     85.2765     46.5842
   423.7000      8.2141      2.2341     -0.5017     25.2076     85.2765     46.5428
   423.8000      8.2142      2.2374     -0.4994     25.0063     84.9894     46.5009
   423.9000      8.2142      2.2406     -0.4971     24.8136     84.9894     46.4573
   424.0000      8.2140      2.2435     -0.4952     24.6333     84.3357     46.4109
   424.1000      8.2140      2.2463     -0.4936     24.4688     84.3357     46.3611
   424.2000      8.2140      2.2487     -0.4925     24.3219     84.3357     46.3083
   424.3000      8.2142      2.2508     -0.4920     24.1936     83.2961     46.2535
   424.4000      8.2142      2.2526     -0.4920     24.0834     83.2961     46.1981
   424.5000      8.2153      2.2542     -0.4925     23.9895     81.7197     46.1443
   424.6000      8.2153      2.2555     -0.4933     23.9092     81.7197     46.0936
   424.7000      8.2153      2.2567     -0.4944     23.8382     81.7197     46.0479
   424.8000      8.2161      2.2578     -0.4957     23.7720     79.5016     46.0082
   424.9000      8.2161      2.2589     -0.4970     23.7052     79.5016     45.9752
   425.0000      8.2158      2.2601     -0.4981     23.6322     76.7803     45.9486
   425.1000      8.2158      2.2615     -0.4990     23.5475     76.7803     45.9275
   425.2000      8.2158      2.2631     -0.4995     23.4462     76.7803     45.9102
   425.3000      8.2170      2.2652     -0.4995     23.3238     73.8869     45.8938
   425.4000      8.2170      2.2676     -0.4989     23.1773     73.8869     45.8748
   425.5000      8.2190      2.2704     -0.4977     23.0048     71.0692     45.8487
   425.6000      8.2190      2.2737     -0.4959     22.8062     71.0692     45.8110
   425.7000      8.2190      2.2774     -0.4936     22.5825     71.0692     45.7569
   425.8000      8.2191      2.2814     -0.4907     22.3367     68.2638     45.6827
   425.9000      8.2191      2.2858     -0.4874     22.0729     68.2638     45.5861
   426.0000      8.2175      2.2904     -0.4839     21.7958     65.1804     45.4672
   426.1000      8.2175      2.2951     -0.4803     21.5108     65.1804     45.3284
   426.2000      8.2175      2.2998     -0.4768     21.2231     65.1804     45.1749
   426.3000      8.2161      2.3045     -0.4735     20.9372     61.7318     45.0138
   426.4000      8.2161      2.3092     -0.4706     20.6565     61.7318     44.8538
   426.5000      8.2152      2.3137     -0.4681     20.3825     58.3997     44.7038
   426.6000      8.2152      2.3181     -0.4661     20.1157     58.3997     44.5719
   426.7000      8.2152      2.3224     -0.4644     19.8545     58.3997     44.4642
   426.8000      8.2152      2.3267     -0.4631     19.5958     55.9468     44.3840
   426.9000      8.2152      2.3310     -0.4619     19.3359     55.9468     44.3314
   427.0000      8.2163      2.3353     -0.4608     19.0701     54.6589     44.3035
   427.1000      8.2163      2.3399     -0.4597     18.7941     54.6589     44.2945
   427.2000      8.2163      2.3447     -0.4585     18.5043     54.6589     44.2967
   427.3000      8.2170      2.3497     -0.4573     18.1978     53.9974     44.3016
   427.4000      8.2170      2.3551     -0.4561     17.8737     53.9974     44.3007
   427.5000      8.2166      2.3607     -0.4550     17.5323     53.0748     44.2865
   427.6000      8.2166      2.3666     -0.4541     17.1758     53.0748     44.2535
   427.7000      8.2166      2.3727     -0.4534     16.8075     53.0748     44.1989
   427.8000      8.2162      2.3789     -0.4531     16.4320     51.3853     44.1221
   427.9000      8.2162      2.3851     -0.4531     16.0543     51.3853     44.0250
   428.0000      8.2157      2.3913     -0.4536     15.6799     49.0472     43.9115
   428.1000      8.2157      2.3973     -0.4545     15.3139     49.0472     43.7860
   428.2000      8.2157      2.4032     -0.4556     14.9606     49.0472     43.6538
   428.3000      8.2163      2.4087     -0.4571     14.6238     46.4804     43.5189
   428.4000      8.2163      2.4140     -0.4587     14.3060     46.4804     43.3846
   428.5000      8.2178      2.4189     -0.4603     14.0088     44.0410     43.2530
   428.6000      8.2178      2.4234     -0.4619     13.7327     44.0410     43.1252
   428.7000      8.2178      2.4276     -0.4634     13.4772     44.0410     43.0021
   428.8000      8.2179      2.4315     -0.4647     13.2409     42.0274     42.8847
   428.9000      8.2179      2.4351     -0.4659     13.0218     42.0274     42.7749
   429.0000      8.2165      2.4385     -0.4668     12.8169     40.8799     42.6757
   429.1000      8.2165      2.4417     -0.4677     12.6227     40.8799     42.5909
   429.2000      8.2165      2.4448     -0.4684     12.4353     40.8799     42.5249
   429.3000      8.2151      2.4479     -0.4689     12.2504     41.0891     42.4819
   429.4000      8.2151      2.4510     -0.4694     12.0635     41.0891     42.4655
   429.5000      8.2151      2.4541     -0.4697     11.8706     42.8004     42.4777
   429.6000      8.2151      2.4575     -0.4697     11.6683     42.8004     42.5192
   429.7000      8.2151      2.4610     -0.4693     11.4544     42.8004     42.5892
   429.8000      8.2160      2.4647     -0.4686     11.2289     45.5943     42.6855
   429.9000      8.2160      2.4686     -0.4675     10.9937     45.5943     42.8050
   430.0000      8.2171      2.4726     -0.4660     10.7536     48.6989     42.9441
   430.1000      8.2171      2.4765     -0.4642     10.5164     48.6989     43.0989
   430.2000      8.2171      2.4802     -0.4622     10.2925     48.6989     43.2657
   430.3000      8.2170      2.4834     -0.4602     10.0948     51.4517     43.4404
   430.4000      8.2170      2.4860     -0.4584      9.9377     51.4517     43.6196
   430.5000      8.2165      2.4877     -0.4571      9.8362     53.6861     43.7999
   430.6000      8.2165      2.4882     -0.4565      9.8048     53.6861     43.9785
   430.7000      8.2165      2.4874     -0.4567      9.8560     53.6861     44.1525
   430.8000      8.2153      2.4850     -0.4578      9.9994     55.7989     44.3199
