~Version Information
VERS.                      2.0: CWLS Log ASCII Standard - VERSION 2.0
WRAP.                       NO: One line per depth step
~Well Information Block
STRT.FT               590.0000: 
STOP.FT              1563.5000: 
STEP.FT                 0.2500: 
NULL.                -999.2500: 
COMP.          Petrogulf Corporation: COMPANY
WELL.             State 16-43R: WELL
FLD.           Purgatorie River: FIELD
LOC.           2538' FSL & 716' FEL: LOCATION
PROV.                 Colorado: PROVINCE
CNTY.               Las Animas: COUNTRY
SRVC.                Patterson: SERVICE COMPANY
DATE.          Tue Aug 09 14:21:37 2005: LOG DATE
UWI.                          : UNIQUE WELL ID
~Curve Information Block
DEPT.FT            0 000 00 00: Depth
RILD.Ohm-m                    : DIL Deep Resistivity
RILM.Ohm-m                    : DIL Medium Resistivity
GR.GAPI                       : Gamma Ray
~Parameter Information Block
~A  Depth       RILD        RILM         GR     
# ...
  1091.0000     22.7372     23.5242     95.2263
  1091.2500     22.5839     23.5243     92.7302
  1091.5000     23.6954     23.7299    103.7439
  1091.7500     23.3676     24.5635    103.1784
  1092.0000     22.9169     24.2178    111.2388
  1092.2500     23.4457     23.4578    110.8755
  1092.5000     23.0356     23.0797    103.3963
  1092.7500     22.8438     23.2385    100.2783
  1093.0000     23.3676     23.2701    108.8704
  1093.2500     23.1051     24.9109    110.0009
  1093.5000     22.7187     23.9725    110.4709
  1093.7500     22.1522     22.9135    115.0916
  1094.0000     22.5584     22.8361    102.3383
  1094.2500     22.6316     23.1222    107.9567
  1094.5000     23.7263     23.0277    105.0483
  1094.7500     23.5086     23.8415    102.5805
  1095.0000     23.6847     24.0489    101.6372
  1095.2500     23.6518     22.8200    105.5841
  1095.5000     22.6811     23.2285    108.2748
  1095.7500     23.4699     24.4669    106.0016
  1096.0000     23.4439     24.1023    116.4847
  1096.2500     22.9927     24.7602    113.4071
  1096.5000     22.4885     25.0979    108.8400
  1096.7500     24.6270     24.8981    110.8001
  1097.0000     24.3815     24.8121    107.8985
  1097.2500     23.9891     24.7338    107.7805
  1097.5000     23.9674     25.6170     96.7461
  1097.7500     24.5958     25.4602     98.7433
  1098.0000     24.3829     25.2378     98.6819
  1098.2500     25.0312     24.0430     98.4585
  1098.5000     24.3226     24.1643     98.4985
  1098.7500     24.1040     23.8849     95.2330
  1099.0000     23.6490     24.1377     99.9013
  1099.2500     23.9656     25.1596     97.2602
  1099.5000     23.4268     23.9538     91.9680
  1099.7500     24.2343     24.3896     96.4661
  1100.0000     24.0392     25.0274     98.4517
  1100.2500     24.5429     24.4892    108.9378
  1100.5000     24.5336     24.0402     94.3097
  1100.7500     23.8692     23.8916     97.3446
  1101.0000     23.3805     24.9013     93.9678
  1101.2500     24.5007     25.5254     97.9723
  1101.5000     24.5552     24.3064     90.3266
  1101.7500     24.6172     25.3865     93.0711
  1102.0000     24.4276     25.4511     96.5365
  1102.2500     24.2855     25.3175    104.0118
  1102.5000     24.2580     25.0273    102.1163
  1102.7500     24.8205     24.9709    106.3044
  1103.0000     23.9382     24.8740    111.7181
  1103.2500     23.6544     24.8009    100.8511
  1103.5000     24.8460     24.5991    103.0962
  1103.7500     24.6816     25.0227    109.2875
  1104.0000     23.7465     24.4352    110.8772
  1104.2500     23.3553     24.8153    107.4455
  1104.5000     22.3921     24.2928    102.1761
  1104.7500     23.5143     24.3802    100.3034
  1105.0000     23.3841     23.1743    106.0864
  1105.2500     22.5904     23.0144    105.2599
  1105.5000     23.4675     23.0889     94.0173
  1105.7500     23.0523     23.1742     99.2891
  1106.0000     22.7173     23.1074     98.9457
  1106.2500     23.3789     23.5227     99.8720
  1106.5000     22.2302     22.5832    111.5037
  1106.7500     22.0427     22.7112    110.3204
  1107.0000     21.7643     22.7815    109.8102
  1107.2500     22.0342     22.0225    108.4228
  1107.5000     22.4629     22.2104    105.5572
  1107.7500     23.1607     22.4143    110.1363
  1108.0000     23.4584     22.6387    107.5160
  1108.2500     23.2768     23.5265    100.5910
  1108.5000     23.0605     22.5106     96.0814
  1108.7500     22.4250     22.6761     95.8297
  1109.0000     22.6067     22.6448    106.3257
  1109.2500     23.0377     22.2196    109.3066
  1109.5000     22.5545     22.3305    104.0020
  1109.7500     21.6234     22.6019    105.7959
  1110.0000     23.4117     22.2826    102.9407
  1110.2500     23.3405     23.0623     97.2161
  1110.5000     23.6413     23.2475     98.2875
  1110.7500     24.2721     23.7823    101.1282
  1111.0000     24.1330     23.6742    106.4305
  1111.2500     24.8540     24.5541    104.4257
  1111.5000     24.9706     24.4993    106.1007
  1111.7500     25.1182     24.4811    109.1728
  1112.0000     25.3109     24.6264     96.8988
  1112.2500     24.1578     25.8346     92.4152
  1112.5000     24.3623     25.8976     95.4778
  1112.7500     24.0423     25.8426     93.0537
  1113.0000     24.3335     25.5872    100.6945
  1113.2500     24.7917     26.7243     94.8600
  1113.5000     23.6326     27.9002    100.7543
  1113.7500     22.4690     25.9114    107.9134
  1114.0000     21.5742     25.4395    116.2228
  1114.2500     21.5870     23.7587    132.4383
  1114.5000     21.8611     22.0807    148.1668
  1114.7500     21.7303     21.6927    157.2508
  1115.0000     22.0274     20.7226    165.2810
  1115.2500     21.4200     20.9699    161.6649
  1115.5000     21.1695     20.8083    162.4715
  1115.7500     22.0127     20.7140    155.3211
  1116.0000     20.4846     21.5159    154.1615
  1116.2500     20.2748     20.9852    148.2427
  1116.5000     20.1937     21.3309    139.7592
  1116.7500     19.7596     21.2028    135.6301
  1117.0000     18.8289     20.8282    134.8725
  1117.2500     19.3646     21.6530    136.0004
  1117.5000     20.0399     21.7624    131.7212
  1117.7500     19.7499     22.2056    122.8094
  1118.0000     20.3227     22.3498    118.7345
  1118.2500     19.9613     22.0693    118.5178
  1118.5000     20.9728     22.3930    122.8329
  1118.7500     21.4904     22.8272    124.7271
  1119.0000     21.8315     22.7261    130.4423
  1119.2500     21.7281     23.0156    134.9665
  1119.5000     22.3182     22.5265    136.6331
  1119.7500     20.6606     23.6583    131.7235
  1120.0000     22.2602     24.2435    124.6811
  1120.2500     23.4027     25.1708    122.6219
  1120.5000     24.2167     25.9508    119.1669
  1120.7500     25.0469     28.2167    119.4508
  1121.0000     24.8256     29.1137     99.0032
  1121.2500     25.1213     29.4854     91.3301
  1121.5000     25.8747     30.7694     90.8878
  1121.7500     24.5529     29.7668     83.8879
  1122.0000     25.4336     32.8708     91.7472
  1122.2500     25.8821     32.1599     94.5786
  1122.5000     26.7521     31.0840     92.1815
  1122.7500     25.5958     31.5577     91.8988
  1123.0000     27.1332     31.6441     93.6741
  1123.2500     27.1901     29.7448     91.3800
  1123.5000     25.4095     31.6354     94.5520
  1123.7500     26.2921     30.1547     91.5110
  1124.0000     27.2195     28.3033     92.7207
  1124.2500     27.1959     27.8954     96.8205
  1124.5000     25.9951     28.0630     95.4651
  1124.7500     25.2163     28.1671     98.0550
  1125.0000     27.0766     28.9913    106.7495
  1125.2500     27.5364     28.2848    111.4792
  1125.5000     26.3453     29.9476    105.0039
  1125.7500     24.6633     29.6805    103.3027
  1126.0000     24.7970     30.0408     94.5541
  1126.2500     24.4682     29.2856     97.3887
  1126.5000     23.4379     29.8093    101.8127
  1126.7500     22.9191     27.8090    104.7406
  1127.0000     21.9831     26.8309    108.8517
  1127.2500     21.3141     26.1385    125.0392
  1127.5000     20.5471     23.3511    143.6942
  1127.7500     20.5081     21.2503    153.9173
  1128.0000     19.6032     20.0822    158.8503
  1128.2500     20.0211     19.4497    154.3045
  1128.5000     19.7398     18.9774    164.4450
  1128.7500     19.7121     17.5802    174.3098
  1129.0000     18.7254     17.6973    158.8588
  1129.2500     18.2500     18.0766    152.3471
  1129.5000     17.6596     18.7751    146.7289
  1129.7500     17.4501     18.4762    147.2218
  1130.0000     17.2461     17.7960    145.5954
  1130.2500     17.5684     17.6228    142.6778
  1130.5000     18.1227     17.0058    149.2461
  1130.7500     18.0769     16.9737    137.6334
  1131.0000     17.7157     17.4468    139.9069
  1131.2500     18.2636     17.7595    133.0832
  1131.5000     18.4286     18.4157    129.0933
  1131.7500     18.5182     19.5019    132.3338
  1132.0000     18.4592     18.9741    127.5144
  1132.2500     19.0007     19.1442    127.4919
  1132.5000     19.1846     18.8010    126.9353
