~Version Information
VERS.                      2.0: CWLS Log ASCII Standard - VERSION 2.0
WRAP.                       NO: One line per depth step
~Well Information Block
STRT.FT               647.0000: 
STOP.FT              1166.0000: 
STEP.FT                 0.1000: 
NULL.                -999.2500: 
COMP.          Pioneer Natural Resources: COMPANY
WELL.             Linda T 32-3: WELL
FLD.           Purgatoire River: FIELD
LOC.           1350' FNL & 2290' FEL: LOCATION
PROV.                 Colorado: PROVINCE
CNTY.               Las Animas: COUNTRY
SRVC.                Patterson: SERVICE COMPANY
DATE.          Sat Feb 05 08:06:50 2005: LOG DATE
UWI.           05 071 08215 00: UNIQUE WELL ID
~Curve Information Block
DEPT.FT            0 000 00 00: Depth
DCAL.in                       : CDL Caliper
RHOB.g/cc                     : CDL Bulk Density
RHOC.g/cc                     : CDL Density Correction
DPOR.pu                       : CDL Density Porosity
GR.GAPI                       : Gamma Ray
NPOR.pu                       : Neutron Porosity
~Parameter Information Block
~A  Depth       DCAL        RHOB        RHOC        DPOR         GR         NPOR    
   647.0000      8.1971      2.1508     -0.5281     30.2562     98.7075     34.6980
   647.1000      8.1971      2.1657     -0.5400     29.3512    105.4812     33.9003
   647.2000      8.1971      2.1838     -0.4927     28.2552    112.2946     33.4476
   647.3000      8.1975      2.1895     -0.4666     27.9079    116.2549     33.5905
   647.4000      8.1975      2.1758     -0.5026     28.7410    116.4723     33.5169
   647.5000      8.1951      2.1596     -0.5397     29.7241    111.7229     32.8400
   647.6000      8.1951      2.1546     -0.5083     30.0270    102.7546     32.0002
   647.7000      8.1951      2.1531     -0.5424     30.1128     94.3589     31.6066
   647.8000      8.1964      2.1513     -0.5715     30.2244     90.5138     31.9673
   647.9000      8.1964      2.1530     -0.5166     30.1226     91.3097     32.8663
   648.0000      8.1959      2.1546     -0.5263     30.0254     96.5101     33.6749
   648.1000      8.1959      2.1530     -0.5106     30.1186    105.4210     33.8583
   648.2000      8.1959      2.1507     -0.5307     30.2613    113.6131     33.4984
   648.3000      8.1959      2.1499     -0.5329     30.3065    118.0063     33.1999
   648.4000      8.1959      2.1582     -0.5648     29.8054    118.6341     33.4344
   648.5000      8.1964      2.1762     -0.4850     28.7142    114.0106     34.1102
   648.6000      8.1964      2.1891     -0.4976     27.9332    107.3256     34.6598
   648.7000      8.1964      2.1907     -0.5126     27.8370    104.1654     34.7738
   648.8000      8.1953      2.1871     -0.4859     28.0521    105.6543     34.6094
   648.9000      8.1953      2.1830     -0.5059     28.3048    110.4464     34.3722
   649.0000      8.1940      2.1770     -0.4940     28.6643    114.6704     34.1772
   649.1000      8.1940      2.1662     -0.5145     29.3204    115.2038     34.0707
   649.2000      8.1940      2.1590     -0.5566     29.7604    114.1505     34.3349
   649.3000      8.1981      2.1681     -0.5213     29.2049    116.0589     34.7724
   649.4000      8.1981      2.1921     -0.5426     27.7540    120.3151     34.5750
   649.5000      8.1850      2.2167     -0.5067     26.2584    122.0236     33.9785
   649.6000      8.1850      2.2263     -0.5638     25.6791    121.3181     33.8497
   649.7000      8.1850      2.2157     -0.5133     26.3235    120.4453     33.9607
   649.8000      8.1824      2.1895     -0.5485     27.9085    118.5903     33.7346
   649.9000      8.1824      2.1548     -0.5606     30.0120    114.2506     33.3966
   650.0000      8.1844      2.1283     -0.6296     31.6189    110.4905     33.6148
   650.1000      8.1844      2.1316     -0.5828     31.4197    109.3211     34.2840
   650.2000      8.1844      2.1575     -0.5422     29.8474    107.6155     34.3332
   650.3000      8.1858      2.1744     -0.5372     28.8260    105.1800     33.3532
   650.4000      8.1858      2.1724     -0.5619     28.9481    102.9613     32.4689
   650.5000      8.1869      2.1624     -0.5481     29.5499    100.8972     32.5723
   650.6000      8.1869      2.1483     -0.5236     30.4041    100.4178     33.2859
   650.7000      8.1869      2.1374     -0.5646     31.0669    101.8486     33.8316
   650.8000      8.1851      2.1484     -0.5879     30.4021    104.7012     33.8955
   650.9000      8.1851      2.1790     -0.4798     28.5456    106.7794     33.8077
   651.0000      8.1869      2.2010     -0.5123     27.2147    104.9617     33.8975
   651.1000      8.1869      2.2042     -0.5348     27.0152    103.2840     34.1381
   651.2000      8.1869      2.2022     -0.5159     27.1387    106.5032     34.1697
   651.3000      8.1853      2.2061     -0.5474     26.9032    108.3466     33.7106
   651.4000      8.1853      2.2165     -0.5335     26.2719    103.3755     33.0474
   651.5000      8.1858      2.2228     -0.5005     25.8926     98.1707     32.8674
   651.6000      8.1858      2.2253     -0.5785     25.7383    100.3849     33.1492
   651.7000      8.1858      2.2345     -0.5039     25.1833    107.1981     33.2483
   651.8000      8.1846      2.2441     -0.5008     24.5991    111.0963     32.8674
   651.9000      8.1846      2.2492     -0.4753     24.2891    109.0889     32.1876
   652.0000      8.1860      2.2563     -0.5266     23.8588    105.9097     31.7628
   652.1000      8.1860      2.2645     -0.4947     23.3646    106.4167     31.8314
   652.2000      8.1860      2.2649     -0.5313     23.3381    106.6346     32.1957
   652.3000      8.1839      2.2557     -0.4749     23.8950    103.9425     32.7918
   652.4000      8.1839      2.2407     -0.5247     24.8031    103.4192     33.3208
   652.5000      8.1853      2.2213     -0.4815     25.9809    107.1713     33.4520
   652.6000      8.1853      2.1998     -0.5720     27.2833    108.6325     33.2803
   652.7000      8.1853      2.1921     -0.5707     27.7500    102.6397     33.2065
   652.8000      8.1844      2.2014     -0.4901     27.1859     95.0855     33.5457
   652.9000      8.1844      2.2116     -0.5382     26.5722     92.5948     34.2067
   653.0000      8.1852      2.2127     -0.5129     26.5045     93.4414     35.1063
   653.1000      8.1852      2.2013     -0.5186     27.1926     95.1053     36.0409
   653.2000      8.1852      2.1883     -0.5581     27.9840     97.2141     36.2243
   653.3000      8.1856      2.1906     -0.5323     27.8417     98.1677     35.2708
   653.4000      8.1856      2.2003     -0.4790     27.2546     99.1110     34.2796
   653.5000      8.1853      2.1968     -0.4826     27.4680    100.6992     34.5931
   653.6000      8.1853      2.1859     -0.5680     28.1251     99.7747     35.9515
   653.7000      8.1853      2.1823     -0.5282     28.3447     97.2084     36.8780
   653.8000      8.1870      2.1791     -0.5328     28.5382     96.2876     36.5617
   653.9000      8.1870      2.1751     -0.5601     28.7810     95.7464     35.7157
   654.0000      8.1857      2.1755     -0.5041     28.7585     95.5468     35.3575
   654.1000      8.1857      2.1709     -0.5089     29.0349     98.4442     35.3974
   654.2000      8.1857      2.1630     -0.5600     29.5138     99.7438     35.4374
   654.3000      8.1839      2.1663     -0.5255     29.3169     94.7429     35.7697
   654.4000      8.1839      2.1844     -0.5707     28.2193     88.6500     36.4817
   654.5000      8.1833      2.2072     -0.5031     26.8348     86.4548     36.7308
   654.6000      8.1833      2.2177     -0.5049     26.2005     84.9760     36.0548
   654.7000      8.1833      2.2092     -0.4869     26.7175     82.6784     35.2531
   654.8000      8.1812      2.1955     -0.5708     27.5469     84.0070     35.0471
   654.9000      8.1812      2.1926     -0.5478     27.7230     89.5324     35.1879
   655.0000      8.1851      2.1973     -0.5423     27.4346     94.6141     35.2496
   655.1000      8.1851      2.2008     -0.5239     27.2215     94.4892     35.0143
   655.2000      8.1851      2.2032     -0.5226     27.0785     91.3824     34.5782
   655.3000      8.1851      2.2089     -0.4963     26.7350     91.8854     34.2865
   655.4000      8.1851      2.2120     -0.5037     26.5468     94.1844     33.9858
   655.5000      8.1858      2.2061     -0.5028     26.9010     94.1399     33.3986
   655.6000      8.1858      2.2001     -0.5775     27.2639     93.9596     32.9302
   655.7000      8.1858      2.1960     -0.4982     27.5170     92.7928     33.1758
   655.8000      8.1871      2.1786     -0.5385     28.5700     90.3528     33.9191
   655.9000      8.1871      2.1521     -0.5489     30.1766     93.9028     34.3717
   656.0000      8.1860      2.1384     -0.5753     31.0040    103.4883     34.1141
   656.1000      8.1860      2.1372     -0.5001     31.0793    108.6393     33.3653
   656.2000      8.1860      2.1304     -0.5257     31.4892    105.5468     32.4765
   656.3000      8.1860      2.1188     -0.5453     32.1944    100.0197     31.6902
   656.4000      8.1860      2.1207     -0.5692     32.0771     95.6557     31.4607
   656.5000      8.1852      2.1463     -0.5350     30.5292     90.7817     31.9101
