~Version Information
VERS.                      2.0: CWLS Log ASCII Standard - VERSION 2.0
WRAP.                       NO: One line per depth step
~Well Information Block
STRT.FT                -7.2500: 
STOP.FT               765.5000: 
STEP.FT                 0.2500: 
NULL.                -999.2500: 
COMP.          Pioneer Natural Resources: COMPANY
WELL.          Barrelman 41-27: WELL
FLD.           Purgatorie River: FIELD
LOC.           371' FNL & 493' FEL--: LOCATION
PROV.                       CO: PROVINCE
CNTY.               Las Animas: COUNTRY
SRVC.          Patterson Wireline: SERVICE COMPANY
DATE.          Wed May 25 09:32:20 2005: LOG DATE
UWI.           05 071 08334 00: UNIQUE WELL ID
~Curve Information Block
DEPT.FT            0 000 00 00: Depth
CCL.                          : Casing Collar Locator
TT3.usec                      : CBL 3' Travel Time
AMP3.mV                       : CBL 3' Amplitude
GR.GAPI                       : Gamma Ray
~Parameter Information Block
~A  Depth       CCL         TT3         AMP3         GR     
# ...
   394.7500      0.0000    854.7885      7.9428     87.9148
   395.0000      0.0000    852.7394      7.9984     91.2268
   395.2500      0.0000    853.4933      8.1048     93.1044
   395.5000      0.0000    855.7426      8.2343     92.5710
   395.7500      0.0000    858.0244      8.3444     89.8265
   396.0000      0.0000    859.4946      8.4114     86.1193
   396.2500      0.0000    860.1276      8.4512     82.7475
   396.5000      0.0000    860.2960      8.5058     80.5574
   396.7500      0.0000    860.3528      8.6050     80.0832
   397.0000      0.0000    860.4354      8.7415     81.5008
   397.2500      0.0000    860.4041      8.8787     84.2349
   397.5000      0.0000    859.7233      8.9704     87.0915
   397.7500      0.0000    857.8154      8.9598     89.1082
   398.0000      0.0000    855.6486      8.7732     90.0000
   398.2500      0.0000    857.7917      8.3603     89.6701
   398.5000      0.0000    871.4170      7.7722     87.9486
   398.7500      0.0000    900.6063      7.1742     85.1889
   399.0000      0.0000    941.0111      6.7455     82.5362
   399.2500      0.0000    981.5317      6.5592     81.0776
   399.5000      0.0000   1011.5307      6.5631     80.9193
   399.7500      0.0000   1026.1117      6.6550     81.3626
   400.0000     -2.0000   1026.3883      6.7623     81.8107
   400.2500      0.0000   1016.9255      6.8693     82.2542
   400.5000      0.0000   1001.6997      7.0092     82.9408
   400.7500      0.0000    980.5947      7.2417     83.8935
   401.0000      0.0000    951.4761      7.6038     84.9324
   401.2500      0.0000    916.9177      8.0466     86.0619
   401.5000      0.0000    885.6395      8.4304     87.6466
   401.7500      0.0000    865.3970      8.6243     89.9064
   402.0000      0.0000    856.8765      8.6099     92.0243
   402.2500      0.0000    855.6408      8.4717     92.0902
   402.5000      0.0000    857.5326      8.3114     88.5592
   402.7500      0.0000    861.0856      8.1892     81.8149
   403.0000      0.0000    866.4034      8.1215     74.0888
   403.2500      0.0000    873.1632      8.0951     68.1083
   403.5000      0.0000    879.6697      8.0834     65.9131
   403.7500      0.0000    883.6203      8.0639     68.1566
   404.0000      0.0000    883.7049      8.0347     73.6881
   404.2500      0.0000    880.2185      8.0140     79.9510
   404.5000      0.0000    874.2122      8.0196     84.4944
   404.7500      0.0000    866.5824      8.0490     86.4116
   405.0000      0.0000    858.2117      8.0848     86.3298
   405.2500      0.0000    850.5424      8.1190     85.3067
   405.5000      0.0000    845.3398      8.1644     84.1304
   405.7500      0.0000    843.3088      8.2365     83.3724
   406.0000      0.0000    842.8277      8.3311     83.3164
   406.2500      0.0000    840.7040      8.4233     83.5536
   406.5000      0.0000    834.9180      8.4847     83.0702
   406.7500      0.0000    826.6197      8.4957     81.0632
   407.0000      0.0000    819.0853      8.4484     77.6769
   407.2500      0.0000    814.7637      8.3462     73.9933
   407.5000      0.0000    813.6418      8.2043     71.3805
   407.7500      0.0000    814.1674      8.0470     70.6922
   408.0000      0.0000    814.9879      7.9042     71.9984
   408.2500      0.0000    815.6323      7.8050     74.9440
   408.5000      0.0000    816.1116      7.7666     78.9779
   408.7500      0.0000    816.3381      7.7823     83.1568
   409.0000      0.0000    815.8782      7.8249     86.2889
   409.2500      0.0000    814.0846      7.8637     87.6441
   409.5000      0.0000    810.6295      7.8772     87.2945
   409.7500      0.0000    806.2476      7.8541     85.6899
   410.0000      0.0000    803.0055      7.7886     83.3273
   410.2500      0.0000    803.4507      7.6831     80.9128
   410.5000      0.0000    809.0645      7.5533     79.3730
   410.7500      0.0000    819.2224      7.4325     79.2794
   411.0000      0.0000    831.3658      7.3634     80.2648
   411.2500      0.0000    842.3232      7.3795     81.2625
   411.5000      0.0000    850.0239      7.4806     81.4687
   411.7500      0.0000    854.3516      7.6250     81.0229
   412.0000      0.0000    856.6249      7.7452     80.7086
   412.2500      0.0000    858.7364      7.7754     81.1620
   412.5000      0.0000    862.9887      7.6811     82.5046
   412.7500      0.0000    872.5486      7.4878     84.3899
   413.0000      0.0000    891.3049      7.2824     86.0149
   413.2500      0.0000    921.8035      7.1468     86.3621
   413.5000      0.0000    961.5254      7.0674     84.9116
   413.7500      0.0000   1001.4449      6.9494     82.0229
   414.0000      0.0000   1031.1729      6.7460     78.3335
   414.2500      0.0000   1047.2804      6.5228     74.0017
   414.5000      0.0000   1054.9877      6.3655     68.9090
   414.7500      0.0000   1060.7220      6.2783     63.4649
   415.0000      2.0000   1065.1963      6.2087     58.8479
   415.2500      0.0000   1064.3795      6.1263     56.3905
   415.5000      0.0000   1054.1261      6.0528     56.7502
   415.7500      0.0000   1032.5411      6.0430     59.5042
   416.0000      0.0000   1000.6818      6.1498     63.3907
   416.2500      0.0000    962.9924      6.3871     66.9208
   416.5000      0.0000    925.7487      6.7224     68.8896
   416.7500      0.0000    893.7025      7.1192     68.6802
   417.0000      0.0000    868.0506      7.5604     66.4120
   417.2500      0.0000    847.2833      8.0121     62.8063
   417.5000      0.0000    829.6401      8.4059     58.8136
   417.7500      0.0000    815.2466      8.6852     55.3591
   418.0000      0.0000    806.0388      8.8477     53.2548
   418.2500      0.0000    803.4901      8.9300     52.9615
   418.5000      0.0000    806.7028      8.9702     54.3301
   418.7500      0.0000    812.7825      8.9919     56.7002
   419.0000      0.0000    818.6420      9.0039     59.2239
   419.2500      0.0000    822.5953      9.0074     61.0452
   419.5000      0.0000    825.0980      9.0079     61.4237
   419.7500      0.0000    828.1140      9.0181     60.0446
   420.0000      0.0000    833.0513      9.0475     57.2988
   420.2500      0.0000    838.9844      9.0938     54.0974
   420.5000      0.0000    843.2740      9.1461     51.2976
   420.7500      0.0000    844.2103      9.1925     49.2738
   421.0000      0.0000    842.9258      9.2247     47.8931
   421.2500      0.0000    842.4457      9.2425     46.7244
   421.5000      0.0000    844.8057      9.2532     45.3405
   421.7500      0.0000    849.3791      9.2624     43.6693
   422.0000      0.0000    854.0132      9.2659     42.1413
   422.2500      0.0000    857.1860      9.2542     41.4274
   422.5000      0.0000    858.8271      9.2259     41.9926
   422.7500      0.0000    859.7338      9.1920     43.7831
   423.0000      0.0000    860.8404      9.1644     46.2074
   423.2500      0.0000    862.8834      9.1415     48.4938
   423.5000      0.0000    866.1430      9.1089     50.2838
   423.7500      0.0000    870.0980      9.0561     51.8657
   424.0000      0.0000    873.4413      8.9909     53.6661
   424.2500      0.0000    874.7963      8.9328     55.6207
   424.5000      0.0000    873.7479      8.8965     57.2488
   424.7500      0.0000    871.3831      8.8832     58.1803
   425.0000      0.0000    869.7958      8.8827     58.3460
   425.2500      0.0000    870.5862      8.8823     57.8031
   425.5000      0.0000    873.3323      8.8739     56.6543
   425.7500      0.0000    875.6085      8.8526     55.1536
   426.0000      0.0000    874.9182      8.8093     53.6985
   426.2500      0.0000    870.7091      8.7345     52.5501
   426.5000      0.0000    864.2872      8.6333     51.5528
   426.7500      0.0000    857.1082      8.5300     50.3429
   427.0000      0.0000    849.9543      8.4510     48.8734
   427.2500      0.0000    843.6663      8.4094     47.4938
   427.5000      0.0000    839.5351      8.4069     46.4914
   427.7500      0.0000    838.3458      8.4423     45.8258
   428.0000      0.0000    839.6850      8.5154     45.3309
