~Version Information
VERS.                      2.0: CWLS Log ASCII Standard - VERSION 2.0
WRAP.                       NO: One line per depth step
~Well Information Block
STRT.FT               840.0000: 
STOP.FT              2020.0000: 
STEP.FT                 0.1000: 
NULL.                -999.2500: 
COMP.          Petrogulf Corporation: COMPANY
WELL.           Lavedure 7-44R: WELL
FLD.           Purgatorie River: FIELD
LOC.           946' FSL & 521' FEL: LOCATION
PROV.                 Colorado: PROVINCE
CNTY.               Las Animas: COUNTRY
SRVC.                Patterson: SERVICE COMPANY
DATE.          Mon Sep 26 08:30:48 2005: LOG DATE
UWI.                          : UNIQUE WELL ID
~Curve Information Block
DEPT.FT            0 000 00 00: Depth
DCAL.in                       : CDL Caliper
RHOB.g/cc                     : CDL Bulk Density
RHOC.g/cc                     : CDL Density Correction
DPOR.pu                       : CDL Density Porosity
GR.GAPI                       : Gamma Ray
NPOR.pu                       : Neutron Porosity
~Parameter Information Block
~A  Depth       DCAL        RHOB        RHOC        DPOR         GR         NPOR    
# ...
  1848.0000      7.8308      2.5831      0.1087      4.0534    141.9075     26.0920
  1848.1000      7.8308      2.5863      0.0476      3.8631    145.9191     26.3936
  1848.2000      7.8308      2.5795      0.0241      4.2709    148.5003     26.6133
  1848.3000      7.8253      2.5756      0.0216      4.5120    147.8887     26.7587
  1848.4000      7.8253      2.5673      0.0783      5.0116    145.7472     26.9673
  1848.5000      7.8156      2.5534      0.0033      5.8539    142.9629     27.5571
  1848.6000      7.8156      2.5424      0.0595      6.5200    143.3478     28.3779
  1848.7000      7.8156      2.5390      0.0288      6.7262    150.5395     29.0414
  1848.8000      7.8304      2.5464      0.0561      6.2761    157.8678     29.3655
  1848.9000      7.8304      2.5510      0.0670      6.0006    157.3739     29.3018
  1849.0000      7.8847      2.5325      0.0645      7.1229    152.0791     29.0206
  1849.1000      7.8847      2.4998      0.0114      9.1037    149.1169     28.9498
  1849.2000      7.8847      2.4794     -0.0006     10.3389    148.6240     29.2451
  1849.3000      7.9088      2.4749      0.0099     10.6114    147.0241     29.5775
  1849.4000      7.9088      2.4644      0.0471     11.2491    145.5377     29.8273
  1849.5000      7.9095      2.4395     -0.0239     12.7584    146.4141     30.1095
  1849.6000      7.9095      2.4234     -0.0259     13.7315    148.1694     30.4835
  1849.7000      7.9095      2.4249      0.0338     13.6421    149.5035     30.9470
  1849.8000      7.9104      2.4140      0.0772     14.3004    149.2373     31.2909
  1849.9000      7.9104      2.3805     -0.0070     16.3338    145.7070     31.3527
  1850.0000      7.9052      2.3548      0.0333     17.8880    140.9044     31.2107
  1850.1000      7.9052      2.3612      0.0126     17.5024    139.6196     31.0623
  1850.2000      7.9052      2.3898      0.0649     15.7674    142.9010     30.9600
  1850.3000      7.9090      2.4063      0.1104     14.7704    146.4798     30.8685
  1850.4000      7.9090      2.3963      0.0418     15.3786    146.9253     30.7357
  1850.5000      7.9061      2.3822      0.0020     16.2313    143.9903     30.5607
  1850.6000      7.9061      2.3842      0.0422     16.1090    140.3965     30.4199
  1850.7000      7.9061      2.4035      0.0338     14.9417    139.8866     30.4449
  1850.8000      7.9091      2.4346      0.0618     13.0571    140.7188     30.5621
  1850.9000      7.9091      2.4642      0.0532     11.2618    139.6823     30.4623
  1851.0000      7.9003      2.4830      0.0529     10.1228    138.1658     30.0327
  1851.1000      7.9003      2.4968      0.0594      9.2874    136.1760     29.4647
  1851.2000      7.9003      2.5135      0.0841      8.2700    133.8582     28.8871
  1851.3000      7.8594      2.5342      0.0799      7.0178    132.4245     28.4701
  1851.4000      7.8594      2.5557      0.0669      5.7158    131.4270     28.3344
  1851.5000      7.8350      2.5695      0.0673      4.8794    131.2787     28.3185
  1851.6000      7.8350      2.5674      0.0380      5.0081    130.7300     28.3861
  1851.7000      7.8350      2.5564     -0.0113      5.6699    127.6662     28.4926
  1851.8000      7.8055      2.5502      0.0306      6.0483    123.0014     28.4507
  1851.9000      7.8055      2.5525      0.0430      5.9112    119.4892     28.2304
  1852.0000      7.7959      2.5595      0.0276      5.4871    116.8606     28.0879
  1852.1000      7.7959      2.5669      0.0307      5.0351    112.9674     28.2403
  1852.2000      7.7959      2.5761      0.0553      4.4784    109.0823     28.3752
  1852.3000      7.7820      2.5887      0.0767      3.7144    106.3638     28.2041
  1852.4000      7.7820      2.5955      0.0738      3.3014    104.2229     27.9705
  1852.5000      7.7816      2.5862      0.0635      3.8661    104.2212     27.8924
  1852.6000      7.7816      2.5677      0.0062      4.9898    105.7831     27.8031
  1852.7000      7.7816      2.5537      0.0204      5.8370    105.8042     27.6753
  1852.8000      7.7842      2.5457     -0.0044      6.3205    106.0112     27.7746
  1852.9000      7.7842      2.5393      0.0050      6.7110    108.4734     28.0990
  1853.0000      7.7822      2.5319      0.0247      7.1602    110.1108     28.3824
  1853.1000      7.7822      2.5251     -0.0061      7.5726    109.7222     28.3658
  1853.2000      7.7822      2.5251     -0.0159      7.5700    110.3854     27.9837
  1853.3000      7.8093      2.5355     -0.0020      6.9412    114.2138     27.5778
  1853.4000      7.8093      2.5482      0.0405      6.1695    118.2800     27.5280
  1853.5000      7.8617      2.5485      0.0629      6.1537    118.5157     27.8893
  1853.6000      7.8617      2.5356      0.0101      6.9344    118.3155     28.4257
  1853.7000      7.8617      2.5267      0.0131      7.4753    122.2778     28.7277
  1853.8000      7.8465      2.5300      0.0273      7.2732    126.5152     28.5635
  1853.9000      7.8465      2.5375      0.0388      6.8180    127.5097     28.1991
  1854.0000      7.8585      2.5355      0.0331      6.9383    128.0734     27.9648
  1854.1000      7.8585      2.5200      0.0432      7.8785    127.8279     27.9246
  1854.2000      7.8585      2.4995      0.0255      9.1230    125.8526     27.9922
  1854.3000      7.8992      2.4830      0.0293     10.1216    124.3394     28.1298
  1854.4000      7.8992      2.4737      0.0145     10.6872    122.0286     28.3765
  1854.5000      7.9280      2.4733      0.0101     10.7063    117.3514     28.5523
  1854.6000      7.9280      2.4838      0.0181     10.0716    113.0583     28.5677
  1854.7000      7.9280      2.4993      0.0379      9.1363    112.3713     28.6309
  1854.8000      7.9358      2.5150      0.0323      8.1846    115.3058     28.6607
  1854.9000      7.9358      2.5331      0.0464      7.0821    120.4771     28.5891
  1855.0000      7.8958      2.5496      0.0698      6.0841    125.8997     28.5127
  1855.1000      7.8958      2.5565      0.0979      5.6668    127.2568     28.3637
  1855.2000      7.8958      2.5540      0.1269      5.8155    125.9563     28.1427
  1855.3000      7.7797      2.5522      0.0902      5.9275    127.8525     27.9249
  1855.4000      7.7797      2.5565      0.1237      5.6660    131.5168     27.7782
  1855.5000      7.7674      2.5628      0.1068      5.2873    132.4225     27.8930
  1855.6000      7.7674      2.5762      0.0902      4.4750    129.4447     28.2394
  1855.7000      7.7674      2.6010      0.1243      2.9708    127.3829     28.5519
  1855.8000      7.7862      2.6195      0.1637      1.8494    131.8476     28.5654
  1855.9000      7.7862      2.6121      0.1347      2.2978    139.4491     28.3243
  1856.0000      7.8195      2.5813      0.0833      4.1634    143.1914     28.1196
  1856.1000      7.8195      2.5460      0.0546      6.3055    143.9286     28.0339
  1856.2000      7.8195      2.5233      0.0489      7.6812    144.0283     28.1393
  1856.3000      7.8255      2.5233      0.0283      7.6814    144.1288     28.4852
  1856.4000      7.8255      2.5376      0.0834      6.8138    145.8446     28.7200
  1856.5000      7.8240      2.5402      0.1079      6.6540    148.2200     28.5641
  1856.6000      7.8240      2.5243      0.0534      7.6211    149.2303     28.3839
  1856.7000      7.8240      2.5026      0.0724      8.9322    148.5675     28.7318
  1856.8000      7.8255      2.4833      0.0133     10.1051    148.1729     29.4963
  1856.9000      7.8255      2.4699      0.0337     10.9157    151.5094     30.0587
  1857.0000      7.8240      2.4563      0.0535     11.7397    158.8177     30.1676
  1857.1000      7.8240      2.4385      0.0019     12.8201    163.5457     30.0423
  1857.2000      7.8240      2.4328     -0.0177     13.1654    160.9455     29.8409
  1857.3000      7.8258      2.4502      0.0236     12.1071    154.8281     29.5948
  1857.4000      7.8258      2.4777      0.0296     10.4417    148.7771     29.3460
  1857.5000      7.8280      2.4980      0.0740      9.2100    143.6461     29.1755
