~Version Information
 VERS.                                  2.0 : CWLS LAS VERSION
 WRAP.                                   NO : WRAPING MODE
 SWARE .                 MController 2.5.0J : SOFTWARE VERSION
~Well Information
 WELL.                      Warrior 33-1 Tr : WELL
 COMP.    Pioneer Natural Resources USA Inc : COMPANY
 FLD.                      Purgatoire River : FIELD
 LOC.                 NW/SE Sec 1 T33S R67W : LOCATION
 DATE.                            6/17/2005 : DATE(S) LOGGED
 SRVC.      Blanco Geological Services LLC  : SERVICE COMPANY
 STAT.                                   CO : STATE
 CNTY.                           Las Animas : COUNTY
 CTRY.                                  USA : COUNTRY
 API.                       05-071-08412-00 : API NUMBER
 STRT.FT                             383.00 : START DEPTH
 STOP.FT                            1751.00 : STOP DEPTH
 STEP.FT                               1.00 : DEPTH INCREMENT
 NULL.                                -9999 : NULL VALUE
~Curve information
 DEPTH.FT                                   :
 ROP.MIN/FT                                 :
 GAS.UNITS                                  :
~ASCII Log data
# ...
       783.0         0.23          1.1 
       784.0         0.13          0.8 
       785.0         0.30          1.0 
       786.0         0.20          1.0 
       787.0         0.23          0.8 
       788.0         0.20          1.0 
       789.0         0.17          0.9 
       790.0         0.17          0.8 
       791.0         0.20          0.8 
       792.0         0.22          0.9 
       793.0         0.23          1.1 
       794.0         0.20          0.9 
       795.0         0.23          1.2 
       796.0         0.20          1.0 
       797.0         0.20          1.0 
       798.0         0.23          1.1 
       799.0         0.17          1.2 
       800.0         0.23          1.1 
       801.0         0.23          1.1 
       802.0         0.20          1.3 
       803.0         0.23          1.1 
       804.0         0.17          1.0 
       805.0         0.17          1.0 
       806.0         0.13          1.2 
       807.0         0.17          1.2 
       808.0         0.17          0.9 
       809.0         0.18          0.7 
       810.0         1.73          1.2 
       811.0         0.17          1.1 
       812.0         0.30          1.2 
       813.0         0.20          1.2 
       814.0         0.17          1.0 
       815.0         0.22          1.1 
       816.0         0.27          1.0 
       817.0         0.27          1.1 
       818.0         0.17          1.0 
       819.0         0.17          1.3 
       820.0         0.30          1.1 
       821.0         0.27          1.2 
       822.0         0.15          1.2 
       823.0         0.20          1.2 
       824.0         0.20          1.3 
       825.0         0.30          1.2 
       826.0         0.17          1.1 
       827.0         0.20          1.0 
       828.0         0.17          1.1 
       829.0         0.20          1.0 
       830.0         0.17          1.3 
       831.0         0.20          1.1 
       832.0         0.17          1.3 
       833.0         0.17          1.4 
       834.0         0.17          2.2 
       835.0         0.17          3.5 
       836.0         0.18          4.2 
       837.0         0.17          7.5 
       838.0         0.13         12.1 
       839.0         0.23         27.5 
       840.0         1.23        156.6 
       841.0         0.40        154.3 
       842.0         0.23         80.5 
       843.0         0.37         63.9 
       844.0         0.27         54.4 
       845.0         0.22         46.8 
       846.0         0.20         42.0 
       847.0         0.13         38.7 
       848.0         0.17         35.2 
       849.0         0.17         31.7 
       850.0         0.20         29.5 
       851.0         0.20         26.8 
       852.0         0.17         24.6 
       853.0         0.17         23.6 
       854.0         0.13         20.9 
       855.0         0.13         17.5 
       856.0         0.47         17.7 
       857.0         0.17         11.3 
       858.0         0.27         10.3 
       859.0         0.33          9.0 
       860.0         0.23         14.3 
       861.0         0.15         16.2 
       862.0         0.13         18.0 
       863.0         0.10         19.7 
       864.0         0.17         19.4 
       865.0         0.17         17.8 
       866.0         0.17         16.0 
       867.0         0.20         14.4 
       868.0         0.13         12.6 
       869.0         0.17         11.3 
       870.0         1.10          9.9 
       871.0         0.20          5.5 
       872.0         0.43          6.9 
       873.0         0.35         10.4 
       874.0         0.23         11.5 
       875.0         0.23         13.3 
       876.0         0.20         14.0 
       877.0         0.20         14.8 
       878.0         0.20         15.8 
       879.0         0.17         16.4 
       880.0         0.17         16.5 
       881.0         0.37         16.5 
       882.0         0.27         15.3 
       883.0         0.13         14.1 
       884.0         0.43         12.4 
       885.0         0.10          9.6 
       886.0         0.10          9.0 
       887.0         0.10          8.5 
       888.0         0.23          8.1 
       889.0         0.17          6.9 
       890.0         0.15          5.6 
       891.0         0.13          4.1 
       892.0         0.10          3.7 
       893.0         0.57          3.0 
       894.0         0.20          1.5 
       895.0         1.27          1.1 
       896.0         0.20          0.7 
       897.0         0.43          0.5 
       898.0         0.27          0.4 
       899.0         0.35          0.8 
       900.0         0.20          1.0 
       901.0         0.17          0.9 
       902.0         0.17          1.6 
       903.0         0.13          1.1 
       904.0         0.13          1.2 
       905.0         0.23          1.3 
       906.0         0.13          1.1 
       907.0         0.10          1.1 
       908.0         0.23          0.8 
       909.0         0.10          0.6 
       910.0         0.47          0.5 
       911.0         0.17        -11.3 
       912.0         0.20        -11.3 
       913.0         0.20        -11.3 
       914.0         0.17        -11.3 
       915.0         0.17        -11.3 
       916.0         0.18        -11.3 
       917.0         0.23        -11.3 
       918.0         0.20        -11.3 
       919.0         0.17        -11.3 
       920.0         0.30        -11.3 
       921.0        17.97          4.0 
       922.0         1.57          2.7 
       923.0         0.13          2.3 
       924.0         0.13          2.1 
       925.0         0.27          2.2 
       926.0         0.32          2.6 
       927.0         0.20          2.4 
       928.0         0.23          2.2 
       929.0         0.20          2.3 
       930.0         0.20          2.1 
       931.0         0.20          2.1 
       932.0         0.17          2.3 
       933.0         0.13          2.4 
       934.0         0.17          2.1 
       935.0         0.13          2.1 
       936.0         0.17          2.1 
       937.0         0.17          1.7 
       938.0         0.13          2.0 
       939.0         0.17          2.1 
       940.0         0.17          2.1 
       941.0         0.13          2.2 
       942.0         0.17          2.2 
       943.0         0.17          2.1 
       944.0         0.23          2.3 
       945.0         0.18          2.4 
       946.0         0.20          3.2 
       947.0         0.17          7.7 
       948.0         0.20         13.3 
       949.0         0.20         12.8 
       950.0         0.17         12.5 
       951.0         0.20         13.8 
       952.0         0.17         15.2 
       953.0         0.17         20.4 
       954.0         0.17         31.2 
       955.0         0.50         91.6 
       956.0         1.58        241.7 
       957.0         0.37        252.4 
       958.0         0.50        246.8 
       959.0         0.30        219.3 
       960.0         0.13        220.3 
       961.0         0.20        222.7 
       962.0         0.17        222.9 
       963.0         0.13        221.3 
       964.0         0.13        217.9 
       965.0         0.13        215.1 
       966.0         0.17        213.1 
       967.0         0.17        210.4 
       968.0         0.20        205.3 
       969.0         0.17        190.9 
       970.0         0.22        181.8 
       971.0         0.17        182.9 
       972.0         0.17        188.6 
       973.0         0.20        192.6 
       974.0         0.27        192.4 
       975.0         0.30        189.2 
       976.0         0.20        185.3 
       977.0         0.13        188.1 
       978.0         0.17        189.7 
       979.0         0.27        189.7 
       980.0         0.20        173.4 
       981.0         0.20        135.0 
       982.0         0.20        120.1 
