~Version Information
VERS.                      2.0: CWLS Log ASCII Standard - VERSION 2.0
WRAP.                       NO: One line per depth step
~Well Information Block
STRT.FT               -19.5000: 
STOP.FT              2456.0000: 
STEP.FT                 0.2500: 
NULL.                -999.2500: 
COMP.          Petrogulf Corporation: COMPANY
WELL.           Montoya 12-44V: WELL
FLD.           Purgatorie River: FIELD
LOC.           698' FSL & 599' FEL: LOCATION
CNTY.               Las Animas: COUNTY
SRVC.                         : SERVICE COMPANY
DATE.          Mon Sep 13 13:44:10 2004: LOG DATE
UWI.           05-071-08094-00: UNIQUE WELL ID
STAT.                 Colorado: STATE
~Curve Information Block
DEPT.FT            0 000 00 00: Depth
TT3.usec                      : CBL 3' Travel Time
AMP3.mV                       : CBL 3' Amplitude
GR.GAPI                       : Gamma Ray
CCL.                          : Casing Collar Locator
~Parameter Information Block
~A  Depth       TT3         AMP3         GR         CCL     
   -19.5000   -999.2500   -999.2500   -999.2500      0.0000
   -19.2500   -999.2500   -999.2500   -999.2500      0.0000
   -19.0000   -999.2500   -999.2500   -999.2500      0.0000
   -18.7500   -999.2500   -999.2500   -999.2500      0.0000
   -18.5000   -999.2500   -999.2500   -999.2500      0.0000
   -18.2500   -999.2500   -999.2500   -999.2500      0.0000
   -18.0000   -999.2500   -999.2500   -999.2500      0.0000
   -17.7500   -999.2500   -999.2500   -999.2500      0.0000
   -17.5000   -999.2500   -999.2500   -999.2500      0.0000
   -17.2500   -999.2500   -999.2500   -999.2500      0.0000
   -17.0000   -999.2500   -999.2500   -999.2500      0.0000
   -16.7500   -999.2500   -999.2500   -999.2500      0.0000
   -16.5000   -999.2500   -999.2500   -999.2500      0.0000
   -16.2500   -999.2500   -999.2500   -999.2500      0.0000
   -16.0000   -999.2500   -999.2500    106.2573      0.0000
   -15.7500   -999.2500   -999.2500    102.7064      0.0000
   -15.5000   -999.2500   -999.2500    101.6001      0.0000
   -15.2500   -999.2500   -999.2500    102.9901      0.0000
   -15.0000   -999.2500   -999.2500    105.5187      0.0000
   -14.7500   -999.2500   -999.2500    107.5037      0.0000
   -14.5000   -999.2500   -999.2500    108.1352      0.0000
   -14.2500   -999.2500   -999.2500    107.6159      0.0000
   -14.0000   -999.2500   -999.2500    106.6254      0.0000
   -13.7500   -999.2500   -999.2500    105.9655      0.0000
   -13.5000   -999.2500   -999.2500    106.3362      0.0000
   -13.2500   -999.2500   -999.2500    107.9021      0.0000
   -13.0000   -999.2500   -999.2500    109.9573      0.0000
   -12.7500   -999.2500   -999.2500    111.2439      0.0000
   -12.5000   -999.2500   -999.2500    110.9411      0.0000
   -12.2500   -999.2500   -999.2500    109.6419      0.0000
   -12.0000   -999.2500   -999.2500    109.2238      0.0000
   -11.7500   -999.2500   -999.2500    111.3536      0.0000
   -11.5000   -999.2500   -999.2500    115.9878      0.0000
   -11.2500   -999.2500   -999.2500    121.3354      0.0000
   -11.0000   -999.2500   -999.2500    125.0172      0.0000
   -10.7500   -999.2500   -999.2500    125.2590      0.0000
   -10.5000   -999.2500   -999.2500    121.6773      0.0000
   -10.2500   1424.3541      0.5240    115.6007      0.0000
   -10.0000   1424.2728      0.5204    109.5963      0.0000
    -9.7500   1424.2570      0.5198    106.1846      0.0000
    -9.5000   1424.3596      0.5207    106.5067      0.0000
    -9.2500   1424.4951      0.5242    109.9306      0.0000
    -9.0000   1424.5236      0.5248    114.9074      0.0000
    -8.7500   1424.4678      0.5165    120.1351      0.0000
    -8.5000   1424.4686      0.5045    124.7607      0.0000
    -8.2500   1424.5302      0.4989    127.7674      0.0000
    -8.0000   1424.5236      0.5003    127.7868      0.0000
    -7.7500   1424.4327      0.5019    124.0169      0.0000
    -7.5000   1424.3585      0.4997    117.4304      0.0000
    -7.2500   1424.3105      0.4963    110.8547      0.0000
    -7.0000   1424.2292      0.4973    107.3432      0.0000
    -6.7500   1424.1465      0.5052    108.0175      0.0000
    -6.5000   1424.1455      0.5185    111.4113      0.0000
    -6.2500   1424.2216      0.5329    114.9985      0.0000
    -6.0000   1424.2747      0.5418    117.2368      0.0000
    -5.7500   1424.2501      0.5507    118.1296      0.0000
    -5.5000   1424.2263      0.5848    118.3684      0.0000
    -5.2500   1424.2861      0.6592    118.4535      0.0000
    -5.0000   1424.3915      0.7401    118.5346      0.0000
    -4.7500   1424.4706      0.7584    118.7445      0.0000
    -4.5000   1424.5208      0.6966    119.4166      0.0000
    -4.2500   1424.5714      0.6160    120.6280      0.0000
    -4.0000   1424.5969      0.5674    121.3317      5.0000
    -3.7500   1424.5236      0.5427    119.2174     -2.5497
    -3.5000   1424.3661      0.5241    111.8792     -5.0000
    -3.2500   1424.2568      0.5155     98.6036     -3.8467
    -3.0000   1424.2653      0.5192     81.4001      0.0000
    -2.7500   1424.3182      0.5228     64.2526      0.0000
    -2.5000   1424.3595      0.5166     50.9451      0.0000
    -2.2500   1424.4329      0.5072     43.2192      0.0000
    -2.0000   1424.5236      0.5072     40.6939      0.0000
    -1.7500   1424.5302      0.5170     42.0353      0.0000
    -1.5000   1424.4686      0.5248     45.8506      0.0000
    -1.2500   1424.4678      0.5242     50.7954      0.0000
    -1.0000   1424.5236      0.5206     55.5648      0.0000
    -0.7500   1424.4951      0.5190     59.2722      0.0000
    -0.5000   1424.3594      0.5165     61.9192      0.0000
    -0.2500   1424.2549      0.5102     64.2077      0.0000
     0.0000   1424.2577      0.5025     66.5671      0.0000
     0.2500   1424.2832      0.4967     68.5189      0.0000
     0.5000   1424.2577      0.4962     69.3101      0.0000
     0.7500   1424.2548      0.4997     68.9294      0.0000
     1.0000   1424.3584      0.5019     68.0513      0.0000
     1.2500   1424.4877      0.5003     67.2255      0.0000
     1.5000   1424.4885      0.4989     66.7233      0.0000
     1.7500   1424.3660      0.5045     67.1447      0.0000
     2.0000   1424.2906      0.5165     69.5290      0.0000
     2.2500   1424.3660      0.5248     74.4171      0.0000
     2.5000   1424.4886      0.5248     80.9277      0.0000
     2.7500   1424.4886      0.5233     87.0810      0.0000
     3.0000   1424.3660      0.5274     91.2127      0.0000
     3.2500   1424.2908      0.5331     93.1294      0.0000
     3.5000   1424.3669      0.5326     94.0137      0.0000
     3.7500   1424.4951      0.5242     95.1941      0.0000
     4.0000   1424.5161      0.5129     96.7669      0.0000
     4.2500   1424.4327      0.5030     97.3444      0.0000
     4.5000   1424.3660      0.4968     95.3139      0.0000
     4.7500   1424.3466      0.4962     90.4126      0.0000
     5.0000   1424.3385      0.4996     84.0937      0.0000
     5.2500   1424.3595      0.5013     78.5615      0.0000
     5.5000   1424.4125      0.4976     75.3830      0.0000
     5.7500   1424.4421      0.4906     74.5684      0.0000
     6.0000   1424.4199      0.4888     74.7580      0.0000
     6.2500   1424.3945      0.4984     74.5695      0.0000
     6.5000   1424.4403      0.5142     73.8735      0.0000
     6.7500   1424.5247      0.5238     73.5520      0.0000
     7.0000   1424.5313      0.5220     74.2757      0.0000
     7.2500   1424.4763      0.5151     76.1238      0.0000
     7.5000   1424.5038      0.5119     79.1408      0.0000
     7.7500   1424.6329      0.5163     83.2184      0.0000
     8.0000   1424.7091      0.5275     87.2324      0.0000
     8.2500   1424.6329      0.5410     89.2250      0.0000
     8.5000   1424.5038      0.5492     88.0859      0.0000
     8.7500   1424.4753      0.5471     84.7926      0.0000
     9.0000   1424.4236      0.5405     81.6155      0.0000
     9.2500   1423.2303      0.5706     80.1495      0.0000
     9.5000   1414.4943      0.8667     80.2877      0.0000
     9.7500   1373.6440      2.3195     80.8827      0.0000
    10.0000   1249.8713      6.8055     80.8841      0.0000
    10.2500   1008.8081     15.7366     79.8059      0.0000
    10.5000    707.6609     27.3664     77.6880      0.0000
    10.7500    466.4050     37.5555     74.9424      0.0000
    11.0000    342.3387     44.0730     72.0634      0.0000
    11.2500    301.1386     47.8457     69.4197      0.0000
    11.5000    291.9989     50.3822     67.4185      0.0000
    11.7500    290.4005     52.2470     66.5667      0.0000
    12.0000    290.0447     53.6706     66.9843      0.0000
    12.2500    289.8635     55.0521     67.9933      0.0000
    12.5000    289.6362     56.6474     68.6189      0.0000
    12.7500    289.3738     58.3468     68.5863      0.0000
    13.0000    289.1824     59.8493     68.6520      0.0000
    13.2500    289.1180     60.9238     69.8774      0.0000
    13.5000    289.1123     61.5561     72.6187      0.0000
    13.7500    289.0541     61.9749     76.2360      0.0000
