~Version Information
 VERS.                                  2.0 : CWLS LAS VERSION
 WRAP.                                   NO : WRAPING MODE
 SWARE .                 MController 2.5.0J : SOFTWARE VERSION
~Well Information
 WELL.                      Robinson 15-12V : WELL
 COMP.                Petrogulf Corporation : COMPANY
 FLD.                      Purgatoire River : FIELD
 LOC.                SW/NW Sec 15 T33S R67W : LOCATION
 DATE.                             09/10/05 : DATE(S) LOGGED
 SRVC.       BLANCO Geological Services LLC : SERVICE COMPANY
 STAT.                                   CO : STATE
 CNTY.                           Las Animas : COUNTY
 CTRY.                                  USA : COUNTRY
 API.                       05-071-08308-00 : API NUMBER
 STRT.FT                              52.00 : START DEPTH
 STOP.FT                            2041.00 : STOP DEPTH
 STEP.FT                               1.00 : DEPTH INCREMENT
 NULL.                                -9999 : NULL VALUE
~Curve information
 DEPTH.FT                                   :
 ROP.MIN/FT                                 :
 GAS.UNITS                                  :
~ASCII Log data
        52.0     -9999.00          3.5 
        53.0         7.93          4.6 
        54.0         0.23          4.1 
        55.0         0.40          4.4 
        56.0         5.43          4.7 
        57.0         0.17          4.1 
        58.0         0.13          4.4 
        59.0         0.20          4.7 
        60.0         0.17          4.6 
        61.0         0.20          4.5 
        62.0         0.20          4.4 
        63.0         0.27          4.6 
        64.0         0.30          4.5 
        65.0         0.23          4.2 
        66.0         0.23          4.2 
        67.0         0.23          4.6 
        68.0         0.25          4.3 
        69.0         0.23          4.5 
        70.0         0.27          4.2 
        71.0         0.23          4.3 
        72.0         0.30          4.1 
        73.0         0.30          4.4 
        74.0         0.23          4.3 
        75.0         0.27          4.3 
        76.0         0.37          4.4 
        77.0         0.23          4.0 
        78.0         0.27          4.4 
        79.0         0.27          4.7 
        80.0         0.32          6.0 
        81.0         0.30         52.3 
        82.0         0.30        117.1 
        83.0         0.27        102.9 
        84.0         0.30         44.5 
        85.0         0.30         15.3 
        86.0         1.23          6.4 
        87.0         0.30          3.0 
        88.0         0.32          3.2 
        89.0         0.30          3.2 
        90.0         0.23          3.2 
        91.0         0.23          3.7 
        92.0         0.23          3.4 
        93.0         0.23          3.4 
        94.0         0.27          4.0 
        95.0         0.23          4.2 
        96.0         0.23          4.2 
        97.0         0.20          3.9 
        98.0         0.27          4.2 
        99.0         0.23          3.8 
       100.0         0.27          3.9 
       101.0         0.27          3.9 
       102.0         0.28          4.6 
       103.0         0.13          4.4 
       104.0         0.23          4.6 
       105.0         0.23          4.4 
       106.0         0.23          4.7 
       107.0         0.27          4.5 
       108.0         0.27          4.3 
       109.0         0.20          4.6 
       110.0         0.27          4.5 
       111.0         0.27          4.6 
       112.0         0.23          4.7 
       113.0         0.23          4.3 
       114.0         0.27          4.4 
       115.0         0.23          4.7 
       116.0         1.15          4.8 
       117.0         0.27          5.0 
       118.0         0.27          4.8 
       119.0         0.20          5.1 
       120.0         0.27          4.9 
       121.0         0.20          4.6 
       122.0         0.33          4.8 
       123.0         0.27          4.7 
       124.0         0.27          4.6 
       125.0         0.32          4.5 
       126.0         0.43          4.7 
       127.0         0.40          4.7 
       128.0         0.40          4.8 
       129.0         0.33          4.5 
       130.0         0.27          4.4 
       131.0         0.27          4.1 
       132.0         0.23          4.5 
       133.0         0.30          4.5 
       134.0         0.27          4.2 
       135.0         0.28          4.4 
       136.0         0.30          4.1 
       137.0         0.27          4.0 
       138.0         0.30          4.3 
       139.0         0.30          4.0 
       140.0         0.30          4.0 
       141.0         0.33          3.8 
       142.0         0.27          4.0 
       143.0         0.27          3.9 
       144.0         0.27          4.1 
       145.0         0.33          3.7 
       146.0         1.35          4.2 
       147.0         0.30          4.3 
       148.0         0.23          4.0 
       149.0         0.20          4.0 
       150.0         0.23          4.2 
       151.0         0.30          3.8 
       152.0         0.23          3.6 
       153.0         0.20          4.0 
       154.0         0.27          3.6 
       155.0         0.17          3.7 
       156.0         0.18          3.6 
       157.0         0.20          3.6 
       158.0         0.17          4.0 
       159.0         0.13          4.0 
       160.0         0.17          4.1 
       161.0         0.40          4.3 
       162.0         0.37          3.4 
       163.0         0.20          3.1 
       164.0         0.27          3.2 
       165.0         0.23          3.1 
       166.0         0.17          3.1 
       167.0         0.17          3.0 
       168.0         0.20          3.2 
       169.0         0.27          2.9 
       170.0         0.10          3.0 
       171.0         0.10          2.8 
       172.0         0.25          3.3 
       173.0         0.30          3.3 
       174.0         0.23          3.0 
       175.0         0.27          2.8 
       176.0         1.30          3.4 
       177.0         0.27          3.4 
       178.0         0.27          4.0 
       179.0         0.27          3.4 
       180.0         0.35          3.6 
       181.0         0.30          3.6 
       182.0         0.27          3.3 
       183.0         0.27          3.6 
       184.0         0.33          3.5 
       185.0         0.30          3.6 
       186.0         0.33          3.2 
       187.0         0.27          3.5 
       188.0         0.37          3.4 
       189.0         0.30          3.3 
       190.0         0.27          3.2 
       191.0         0.23          3.2 
       192.0         0.25          3.2 
       193.0         0.23          3.2 
       194.0         0.27          3.4 
       195.0         0.33          3.2 
       196.0         0.27          3.1 
       197.0         0.27          3.2 
       198.0         0.37          3.4 
       199.0         0.27          3.6 
       200.0         0.30          3.2 
       201.0         0.23          3.2 
       202.0         0.23          3.2 
       203.0         0.17          3.1 
       204.0         0.22          3.1 
       205.0         0.23          3.3 
       206.0         1.57          3.7 
       207.0         0.27          3.5 
       208.0         0.10          3.8 
       209.0         0.13          3.8 
       210.0         0.33          4.1 
       211.0         0.27          3.6 
       212.0         0.23          3.6 
       213.0         0.22          3.6 
       214.0         0.13          3.4 
       215.0         0.17          3.5 
       216.0         0.13          3.6 
       217.0         0.27          3.6 
       218.0         0.23          3.1 
       219.0         0.27          3.1 
       220.0         0.20          3.0 
       221.0         0.20          3.1 
       222.0         0.20          2.9 
       223.0         0.23          3.4 
       224.0         0.27          3.0 
       225.0         0.23          2.9 
       226.0         0.23          3.1 
       227.0         0.27          3.1 
       228.0         0.23          3.2 
       229.0         0.25          3.3 
       230.0         0.23          3.3 
       231.0         0.20          3.2 
       232.0         0.20          3.5 
       233.0         0.23          3.5 
       234.0         0.27          3.4 
       235.0         0.33          3.3 
       236.0         1.23          3.6 
       237.0         0.23          3.6 
       238.0         0.28          3.5 
       239.0         0.27          3.2 
       240.0         0.20          3.5 
       241.0         0.20          3.4 
       242.0         0.23          2.9 
       243.0         0.27          3.1 
       244.0         0.27          2.9 
       245.0         0.27          2.9 
       246.0         0.23          3.0 
       247.0         0.27          2.8 
       248.0         0.27          3.0 
       249.0         0.23          2.9 
       250.0         0.23          3.0 
       251.0         0.23          3.0 
