~Version Information
VERS.                      2.0: CWLS Log ASCII Standard - VERSION 2.0
WRAP.                       NO: One line per depth step
~Well Information Block
STRT.FT               930.0000: 
STOP.FT              2783.2000: 
STEP.FT                 0.1000: 
NULL.                -999.2500: 
COMP.          Pioneer Natural Resources: COMPANY
WELL.           Desoto 13-7TR: WELL
FLD.           Purgatoire River: FIELD
LOC.           1404' FSL & 1115' FWL: LOCATION
PROV.                 Colorado: PROVINCE
CNTY.               Las Animas: COUNTRY
SRVC.                Patterson: SERVICE COMPANY
DATE.          Fri Jan 14 14:42:18 2005: LOG DATE
UWI.           05 071 08216 00: UNIQUE WELL ID
~Curve Information Block
DEPT.FT            0 000 00 00: Depth
DCAL.in                       : CDL Caliper
RHOB.g/cc                     : CDL Bulk Density
RHOC.g/cc                     : CDL Density Correction
DPOR.pu                       : CDL Density Porosity
NPOR.pu                       : Neutron Porosity
GR.GAPI                       : Gamma Ray
~Parameter Information Block
~A  Depth       DCAL        RHOB        RHOC        DPOR        NPOR         GR     
# ...
  1784.4000      8.1776      2.5381      0.0472      6.7830     23.5412     93.8812
  1784.5000      8.1785      2.5306     -0.0125      7.2381     23.8369    101.9990
  1784.6000      8.1785      2.5291     -0.0132      7.3279     24.1072    113.1955
  1784.7000      8.1785      2.5355      0.0251      6.9397     24.4013    115.6354
  1784.8000      8.1803      2.5313      0.0477      7.1925     24.5993    109.5727
  1784.9000      8.1803      2.5134      0.0215      8.2791     24.6488    107.0437
  1785.0000      8.1834      2.4991      0.0203      9.1474     24.8297    112.1373
  1785.1000      8.1834      2.5039     -0.0447      8.8545     25.7554    119.6598
  1785.2000      8.1834      2.5234      0.0407      7.6720     27.4294    122.4391
  1785.3000      8.1865      2.5369      0.0374      6.8560     28.6980    119.5319
  1785.4000      8.1865      2.5388      0.0427      6.7366     28.7946    117.9564
  1785.5000      8.1875      2.5384      0.0727      6.7620     28.0578    120.5196
  1785.6000      8.1875      2.5432      0.0343      6.4745     27.1674    127.5026
  1785.7000      8.1875      2.5568      0.0616      5.6481     26.8984    137.0596
  1785.8000      8.1864      2.5741      0.1074      4.6012     27.5245    142.6358
  1785.9000      8.1864      2.5827      0.1466      4.0792     28.5507    140.3199
  1786.0000      8.1860      2.5756      0.0913      4.5097     29.2762    134.9855
  1786.1000      8.1860      2.5553      0.1149      5.7389     29.2491    134.5290
  1786.2000      8.1860      2.5329      0.0411      7.0994     28.9220    139.8905
  1786.3000      8.1871      2.5204      0.0656      7.8533     29.0689    144.2015
  1786.4000      8.1871      2.5113      0.0687      8.4037     29.3197    141.5819
  1786.5000      8.1874      2.4975      0.0562      9.2429     28.7713    133.4943
  1786.6000      8.1874      2.4945      0.0476      9.4270     28.0128    126.5079
  1786.7000      8.1874      2.5286      0.0063      7.3562     28.0052    124.3436
  1786.8000      8.1874      2.6095      0.0527      2.4524     28.4813    123.2223
  1786.9000      8.1874      2.7119      0.1197     -3.7505     28.6428    119.3098
  1787.0000      8.1888      2.7924      0.1777     -8.6291     27.9699    113.9997
  1787.1000      8.1888      2.8421      0.1924    -11.6448     26.9168    108.4582
  1787.2000      8.1888      2.8906      0.2048    -14.5805     26.4034    102.8119
  1787.3000      8.1902      2.9379      0.2306    -17.4461     26.4853     97.2864
  1787.4000      8.1902      2.9588      0.1888    -18.7128     26.4809     90.9068
  1787.5000      8.1892      2.9685      0.1032    -19.3013     26.2274     85.3405
  1787.6000      8.1892      2.9819      0.1775    -20.1127     26.1951     85.1227
  1787.7000      8.1892      2.9784      0.0463    -19.9050     26.5466     87.7592
  1787.8000      8.1877      2.9605      0.0124    -18.8162     27.2267     91.4621
  1787.9000      8.1877      2.9330      0.0785    -17.1511     27.9503     98.8761
  1788.0000      8.1848      2.8759      0.0560    -13.6907     28.3633    106.2787
  1788.1000      8.1848      2.7968     -0.0231     -8.8956     28.5125    109.0263
  1788.2000      8.1848      2.7293     -0.0352     -4.8066     28.2566    111.5570
  1788.3000      8.1881      2.6793     -0.0278     -1.7785     27.6599    120.5147
  1788.4000      8.1881      2.6396     -0.0875      0.6312     26.8869    131.1174
  1788.5000      8.2036      2.6203     -0.0792      1.8011     26.1084    134.3916
  1788.6000      8.2036      2.6251     -0.0361      1.5105     25.9483    132.3706
  1788.7000      8.2036      2.6315      0.0455      1.1210     26.2173    132.1291
  1788.8000      8.2149      2.6150      0.0135      2.1208     26.5741    132.8116
  1788.9000      8.2149      2.5820     -0.0244      4.1231     27.3113    131.8039
  1789.0000      8.2168      2.5536     -0.0072      5.8439     28.3133    129.8282
  1789.1000      8.2168      2.5409     -0.0493      6.6128     29.0810    129.3348
  1789.2000      8.2168      2.5368      0.0634      6.8587     29.1983    135.0996
  1789.3000      8.2171      2.5192      0.0053      7.9265     28.5179    145.5098
  1789.4000      8.2171      2.4865      0.0058      9.9075     27.7323    152.7784
  1789.5000      8.2178      2.4565     -0.0509     11.7255     27.6187    156.0830
  1789.6000      8.2178      2.4384     -0.0201     12.8246     28.0986    157.4293
  1789.7000      8.2178      2.4317     -0.0222     13.2330     28.6330    154.2632
  1789.8000      8.2200      2.4376     -0.0123     12.8703     29.1574    147.7224
  1789.9000      8.2200      2.4573      0.0234     11.6776     29.8412    146.1284
  1790.0000      8.2240      2.4805      0.0060     10.2755     30.1188    150.9233
  1790.1000      8.2240      2.4780      0.0824     10.4265     29.5769    151.7017
  1790.2000      8.2240      2.4357     -0.0133     12.9878     28.7808    142.2970
  1790.3000      8.2297      2.3910     -0.0061     15.6958     28.6821    128.4840
  1790.4000      8.2297      2.3788      0.0321     16.4336     29.5760    121.9930
  1790.5000      8.2360      2.3928      0.0623     15.5906     30.8418    126.4923
  1790.6000      8.2360      2.4152      0.0507     14.2288     31.5787    132.1355
  1790.7000      8.2360      2.4361      0.0829     12.9623     31.4091    131.1106
  1790.8000      8.2400      2.4516      0.0691     12.0269     30.7066    130.0050
  1790.9000      8.2400      2.4650      0.0808     11.2147     30.0626    135.3627
  1791.0000      8.2416      2.4771      0.1065     10.4795     29.8673    142.1502
  1791.1000      8.2416      2.4845      0.1128     10.0318     29.6036    145.6646
  1791.2000      8.2416      2.4879      0.1258      9.8214     28.7170    147.6453
  1791.3000      8.2429      2.4898      0.1092      9.7114     27.9338    150.2004
  1791.4000      8.2429      2.4897      0.0862      9.7129     27.8247    151.1862
  1791.5000      8.2426      2.4847      0.0729     10.0167     28.2586    149.5536
  1791.6000      8.2426      2.4718      0.0604     10.8000     28.9153    148.9296
  1791.7000      8.2426      2.4551      0.0404     11.8119     28.6957    149.3787
  1791.8000      8.2412      2.4428     -0.0091     12.5589     27.2719    148.3917
  1791.9000      8.2412      2.4403      0.0063     12.7070     26.0781    145.9039
  1792.0000      8.2423      2.4512     -0.0092     12.0488     25.8993    144.7825
  1792.1000      8.2423      2.4776      0.0076     10.4459     26.3112    147.7219
  1792.2000      8.2423      2.5090      0.0659      8.5436     26.5317    150.9180
  1792.3000      8.2447      2.5272      0.0494      7.4432     26.2334    152.5016
  1792.4000      8.2447      2.5369      0.0579      6.8563     25.9737    151.4156
  1792.5000      8.2461      2.5543      0.0355      5.7971     26.3611    142.7931
  1792.6000      8.2461      2.5727      0.0715      4.6857     27.2263    129.8896
  1792.7000      8.2461      2.5727      0.0916      4.6872     27.9390    124.2025
  1792.8000      8.2465      2.5562      0.0386      5.6878     28.3072    130.0850
  1792.9000      8.2465      2.5393      0.0492      6.7088     28.2203    137.3994
  1793.0000      8.2469      2.5338      0.0003      7.0400     27.5296    137.2085
  1793.1000      8.2469      2.5394      0.0355      6.7050     26.6798    133.8759
  1793.2000      8.2469      2.5403      0.0162      6.6458     26.3113    133.7337
  1793.3000      8.2473      2.5389     -0.0372      6.7343     26.6519    136.8204
  1793.4000      8.2473      2.5529      0.0507      5.8823     27.1256    140.8233
  1793.5000      8.2469      2.5767      0.0482      4.4398     27.1072    143.6214
  1793.6000      8.2469      2.5962      0.0276      3.2617     26.8828    144.2896
  1793.7000      8.2469      2.6087      0.0783      2.5016     26.8507    145.0983
  1793.8000      8.2469      2.6135      0.0275      2.2138     26.8959    148.2497
  1793.9000      8.2469      2.6056      0.0768      2.6889     26.7460    152.1666
