~Version Information
VERS.                      2.0: CWLS Log ASCII Standard - VERSION 2.0
WRAP.                       NO: One line per depth step
~Well Information Block
STRT.FT                -7.2500: 
STOP.FT              2827.7500: 
STEP.FT                 0.2500: 
NULL.                -999.2500: 
COMP.          Pioneer Natural Resources: COMPANY
WELL.           Ei-ei-oh 31-24: WELL
FLD.           Purgatorie River: FIELD
LOC.           235' FNL & 2001' FEL--: LOCATION
PROV.                       CO: PROVINCE
CNTY.               Las Animas: COUNTRY
SRVC.          Patterson Wireline: SERVICE COMPANY
DATE.          Tue Aug 23 12:06:00 2005: LOG DATE
UWI.           05 071 08403 00: UNIQUE WELL ID
~Curve Information Block
DEPT.FT            0 000 00 00: Depth
CCL.                          : Casing Collar Locator
TT3.usec                      : CBL 3' Travel Time
AMP3.mV                       : CBL 3' Amplitude
GR.GAPI                       : Gamma Ray
~Parameter Information Block
~A  Depth       CCL         TT3         AMP3         GR     
# ...
  1131.7500      0.0000    844.8849      8.9679    108.5975
  1132.0000      0.0000    844.8812      8.5983    110.4761
  1132.2500      0.0000    844.9597      8.3684    113.9289
  1132.5000      0.0000    845.0919      8.2993    117.3462
  1132.7500      0.0000    845.2504      8.3895    118.8588
  1133.0000      0.0000    845.4167      8.6288    117.3444
  1133.2500      0.0000    845.5737      9.0082    112.7695
  1133.5000      0.0000    845.7037      9.5138    105.9851
  1133.7500      0.0000    845.8041     10.1127     98.6177
  1134.0000      0.0000    845.9012     10.7461     92.9253
  1134.2500      0.0000    846.0373     11.3440     91.0064
  1134.5000      0.0000    846.2291     11.8521     93.6251
  1134.7500      0.0000    846.4364     12.2537     99.7427
  1135.0000      0.0000    846.5877     12.5664    107.2764
  1135.2500      0.0000    846.6494     12.8167    114.3019
  1135.5000      0.0000    846.6584     13.0061    119.6500
  1135.7500      0.0000    846.6617     13.0941    122.8896
  1136.0000      0.0000    846.6332     13.0182    124.1349
  1136.2500      0.0000    846.4880     12.7472    123.8085
  1136.5000      0.0000    846.1918     12.3350    122.4737
  1136.7500      0.0000    845.8248     11.9232    120.6829
  1137.0000      0.0000    845.5209     11.6818    118.6634
  1137.2500      0.0000    845.3635     11.7233    116.4543
  1137.5000      0.0000    845.3460     12.0461    114.8064
  1137.7500      0.0000    845.3759     12.5451    115.4321
  1138.0000      0.0000    845.2575     13.0770    119.4452
  1138.2500      0.0000    844.6606     13.5267    125.5851
  1138.5000      0.0000    843.2437     13.8396    130.6653
  1138.7500      0.0000    841.0630     14.0187    132.0875
  1139.0000      0.0000    838.9525     14.0997    129.9010
  1139.2500      0.0000    838.1330     14.1161    126.3954
  1139.5000      0.0000    839.0087     14.0769    123.7950
  1139.7500      0.0000    840.3716     13.9717    122.6141
  1140.0000      0.0000    840.0341     13.7872    122.1555
  1140.2500      0.0000    836.3365     13.5163    121.9162
  1140.5000      0.0000    829.2945     13.1630    121.9906
  1140.7500      0.0000    820.6598     12.7485    122.4938
  1141.0000      0.0000    812.8276     12.3067    123.2996
  1141.2500      0.0000    807.3618     11.8679    124.3687
  1141.5000      0.0000    804.3616     11.4454    125.6896
  1141.7500      0.0000    803.0037     11.0412    126.7798
  1142.0000      0.0000    802.4654     10.6599    126.8602
  1142.2500      0.0000    802.4647     10.3139    125.8720
  1142.5000      0.0000    803.3517     10.0220    124.7892
  1142.7500      0.0000    805.8626      9.8054    124.4617
  1143.0000      0.0000    810.4780      9.6752    124.5624
  1143.2500      0.0000    816.5073      9.6117    124.0937
  1143.5000      0.0000    821.7690      9.5611    122.5398
  1143.7500      0.0000    823.4906      9.4795    120.0047
  1144.0000      0.0000    820.2261      9.3799    116.5351
  1144.2500      0.0000    814.4174      9.2979    112.0203
  1144.5000      0.0000    814.6312      9.2040    106.7861
  1144.7500      0.0000    833.5773      9.0118    101.7357
  1145.0000      0.0000    879.2612      8.7031     97.6743
  1145.2500      0.0000    945.5867      8.3844     94.8048
  1145.5000      0.0000   1013.4288      8.1819     93.0789
  1145.7500      0.0000   1062.6938      8.1176     92.8497
  1146.0000      2.0000   1083.7921      8.1102     94.8121
  1146.2500      0.0000   1079.1670      8.0583     99.1500
  1146.5000      0.0000   1056.7491      7.9198    104.8449
  1146.7500      0.0000   1023.0913      7.7459    110.1008
  1147.0000      0.0000    981.7205      7.6413    113.7795
  1147.2500      0.0000    936.6342      7.6673    116.4016
  1147.5000      0.0000    895.0236      7.8002    119.3242
  1147.7500      0.0000    864.1094      8.0045    122.8242
  1148.0000      0.0000    845.9935      8.2925    125.5323
  1148.2500      0.0000    837.5148      8.6659    126.2470
  1148.5000      0.0000    834.1597      9.0473    125.8541
  1148.7500      0.0000    832.3778      9.3248    126.6060
  1149.0000      0.0000    829.5388      9.4457    129.6975
  1149.2500      0.0000    824.2303      9.4405    134.2754
  1149.5000      0.0000    817.0801      9.3773    138.4268
  1149.7500      0.0000    810.1484      9.3095    140.3247
  1150.0000      0.0000    805.1439      9.2576    138.9541
  1150.2500      0.0000    802.3251      9.2165    134.8499
  1150.5000      0.0000    800.8012      9.1727    129.9439
  1150.7500      0.0000    799.2961      9.1176    126.0115
  1151.0000      0.0000    796.6323      9.0569    123.4005
  1151.2500      0.0000    792.2776      9.0063    121.4913
  1151.5000      0.0000    787.1202      8.9766    119.9817
  1151.7500      0.0000    783.4967      8.9645    119.2447
  1152.0000      0.0000    783.6115      8.9588    119.5555
  1152.2500      0.0000    787.6268      8.9518    120.5584
  1152.5000      0.0000    793.6987      8.9419    121.6291
  1152.7500      0.0000    799.8582      8.9294    122.2763
  1153.0000      0.0000    805.3024      8.9122    122.0414
  1153.2500      0.0000    810.0726      8.8859    120.5534
  1153.5000      0.0000    814.5476      8.8488    117.9952
  1153.7500      0.0000    819.8313      8.8098    115.1317
  1154.0000      0.0000    828.1534      8.7935    112.4413
  1154.2500      0.0000    842.7922      8.8335    109.4299
  1154.5000      0.0000    867.7166      8.9553    105.1488
  1154.7500      0.0000    905.4384      9.1633     99.2268
  1155.0000      0.0000    951.6864      9.4398     92.2387
  1155.2500      0.0000    992.0198      9.7584     85.5390
  1155.5000      0.0000   1008.7255     10.0986     80.9574
  1155.7500      0.0000    996.3204     10.4426     79.9037
  1156.0000      0.0000    970.2165     10.7621     82.0348
  1156.2500      0.0000    956.0077     11.0170     84.9592
  1156.5000      0.0000    966.6710     11.1761     85.7486
  1156.7500      0.0000    990.0658     11.2341     82.9476
  1157.0000      0.0000   1000.6772     11.2105     77.3310
  1157.2500      0.0000    984.7204     11.1366     71.1106
  1157.5000      0.0000    953.2319     11.0464     66.5203
  1157.7500      0.0000    929.9122     10.9694     64.7205
  1158.0000      0.0000    926.7524     10.9219     65.3480
  1158.2500      0.0000    933.0369     10.8994     66.8160
  1158.5000      0.0000    928.2867     10.8847     67.2284
  1158.7500      0.0000    903.4584     10.8711     65.4391
  1159.0000      0.0000    867.3261     10.8807     61.6473
  1159.2500      0.0000    834.9473     10.9542     57.1539
  1159.5000      0.0000    814.9340     11.1152     53.4468
  1159.7500      0.0000    808.0972     11.3462     51.4149
  1160.0000      0.0000    813.9716     11.5968     51.1947
  1160.2500      0.0000    835.6661     11.8087     52.3237
  1160.5000      0.0000    877.7960     11.9296     53.9200
  1160.7500      0.0000    939.3265     11.9148     55.1422
  1161.0000      0.0000   1009.0667     11.7393     55.7366
  1161.2500      0.0000   1070.5986     11.4191     56.0090
  1161.5000      0.0000   1112.8398     11.0152     56.3779
  1161.7500      0.0000   1135.1877     10.6017     57.2475
  1162.0000      0.0000   1143.5067     10.2259     59.0457
  1162.2500      0.0000   1143.1965      9.8978     61.8309
  1162.5000      0.0000   1135.9999      9.6121     64.8513
  1162.7500      0.0000   1121.3564      9.3676     66.9848
  1163.0000      0.0000   1099.9822      9.1640     67.7048
  1163.2500      0.0000   1076.6710      8.9963     67.3005
  1163.5000      0.0000   1059.6155      8.8675     66.1368
  1163.7500      0.0000   1055.1184      8.8020     64.0631
  1164.0000      0.0000   1061.7308      8.8339     60.8571
  1164.2500      0.0000   1071.4742      8.9737     57.1805
  1164.5000      0.0000   1078.7766      9.1866     54.5590
  1164.7500      0.0000   1085.6140      9.4046     54.1441
  1165.0000      0.0000   1095.2406      9.5611     55.9171
