~Version Information
 VERS.                                  2.0 : CWLS LAS VERSION
 WRAP.                                   NO : WRAPING MODE
 SWARE .                 MController 2.5.0N : SOFTWARE VERSION
~Well Information
 WELL.                         Vector 33-23 : WELL
 COMP.    Pioneer Natural Resources USA Inc : COMPANY
 FLD.                      Purgatoire River : FIELD
 LOC.                NW/SE Sec 23 T32S R66W : LOCATION
 DATE.                              3/25/05 : DATE(S) LOGGED
 SRVC.       Blanco Geological Services LLC : SERVICE COMPANY
 STAT.                                   CO : STATE
 CNTY.                           Las Animas : COUNTY
 CTRY.                                  USA : COUNTRY
 API.                       05-071-08336-00 : API NUMBER
 STRT.FT                             770.00 : START DEPTH
 STOP.FT                            2300.00 : STOP DEPTH
 STEP.FT                               1.00 : DEPTH INCREMENT
 NULL.                                -9999 : NULL VALUE
~Curve information
 DEPTH.FT                                   :
 ROP.MIN/FT                                 :
 GAS.UNITS                                  :
~ASCII Log data
# ...
      1770.0         0.25         54.3 
      1771.0         0.27         57.6 
      1772.0         0.20         59.6 
      1773.0         0.23         60.2 
      1774.0         0.17         59.5 
      1775.0         0.17         58.4 
      1776.0         0.13         56.6 
      1777.0         0.13         55.2 
      1778.0         0.13         53.7 
      1779.0         0.17         52.5 
      1780.0         0.20         50.3 
      1781.0         0.17         48.9 
      1782.0         0.17         46.9 
      1783.0         0.20         45.5 
      1784.0         0.20         44.1 
      1785.0         0.17         44.0 
      1786.0         0.17         43.8 
      1787.0         0.20         42.8 
      1788.0         0.20         42.1 
      1789.0         0.22         43.6 
      1790.0         0.17         51.6 
      1791.0         0.10         54.6 
      1792.0         0.17         60.1 
      1793.0         0.17         62.4 
      1794.0         0.20         63.0 
      1795.0         0.13         62.9 
      1796.0         4.35        197.6 
      1797.0         0.33        131.5 
      1798.0         0.30        107.3 
      1799.0         0.23         88.5 
      1800.0         0.27         76.1 
      1801.0         0.25         65.7 
      1802.0         0.27         59.4 
      1803.0         0.33         55.2 
      1804.0         0.30         54.6 
      1805.0         0.27         56.2 
      1806.0         0.27         57.0 
      1807.0         0.23         57.2 
      1808.0         0.27         57.3 
      1809.0         0.27         55.7 
      1810.0         0.27         53.1 
      1811.0         0.23         52.1 
      1812.0         0.20         50.9 
      1813.0         0.20         50.0 
      1814.0         0.25         48.3 
      1815.0         0.23         47.1 
      1816.0         0.23         46.3 
      1817.0         0.20         45.5 
      1818.0         0.23         45.3 
      1819.0         0.20         44.4 
      1820.0         0.23         43.8 
      1821.0         0.20         44.9 
      1822.0         0.27         48.3 
      1823.0         0.23         51.3 
      1824.0         0.20         54.5 
      1825.0         0.10         56.0 
      1826.0         3.78        220.5 
      1827.0         0.42         98.0 
      1828.0         0.47         78.6 
      1829.0         0.53         84.2 
      1830.0         0.47         97.9 
      1831.0         0.27         98.2 
      1832.0         0.23         96.6 
      1833.0         0.23         92.5 
      1834.0         0.23         89.3 
      1835.0         0.23         86.5 
      1836.0         0.23         83.4 
      1837.0         0.23         79.3 
      1838.0         0.25         76.7 
      1839.0         0.23         74.8 
      1840.0         0.20         74.7 
      1841.0         0.27         75.8 
      1842.0         0.20         76.3 
      1843.0         0.23         76.4 
      1844.0         0.20         75.1 
      1845.0         0.20         73.5 
      1846.0         0.23         71.0 
      1847.0         0.23         68.3 
      1848.0         0.23         66.1 
      1849.0         0.23         65.6 
      1850.0         0.23         63.6 
      1851.0         0.27         56.6 
      1852.0         0.23         44.3 
      1853.0         0.28         37.0 
      1854.0         0.27         37.7 
      1855.0         0.20         41.2 
      1856.0         3.08        233.0 
      1857.0         0.37        181.5 
      1858.0         0.37        149.8 
      1859.0         0.33        117.4 
      1860.0         0.30         98.2 
      1861.0         0.33         85.0 
      1862.0         0.33         73.7 
      1863.0         0.33         66.1 
      1864.0         0.30         67.4 
      1865.0         0.32         69.3 
      1866.0         0.33         69.6 
      1867.0         0.30         69.2 
      1868.0         0.23         68.0 
      1869.0         0.27         67.9 
      1870.0         0.23         68.4 
      1871.0         0.23         69.1 
      1872.0         0.27         69.3 
      1873.0         0.23         67.7 
      1874.0         0.23         65.5 
      1875.0         0.23         63.3 
      1876.0         0.27         64.1 
      1877.0         0.23         65.3 
      1878.0         0.25         65.9 
      1879.0         0.27         65.8 
      1880.0         0.23         65.8 
      1881.0         0.23         65.5 
      1882.0         0.23         64.1 
      1883.0         0.27         58.9 
      1884.0         0.27         47.2 
      1885.0         0.30         37.7 
      1886.0         3.22        215.7 
      1887.0         0.30        148.3 
      1888.0         0.27        124.6 
      1889.0         0.27        109.3 
      1890.0         0.27         97.0 
      1891.0         0.23         87.1 
      1892.0         0.28         81.2 
      1893.0         0.23         76.4 
      1894.0         0.23         77.2 
      1895.0         0.23         78.1 
      1896.0         0.23         77.6 
      1897.0         0.27         76.7 
      1898.0         0.20         74.2 
      1899.0         0.23         72.2 
      1900.0         0.23         70.1 
      1901.0         0.20         69.2 
      1902.0         0.23         69.1 
      1903.0         0.23         69.8 
      1904.0         0.23         70.3 
      1905.0         0.23         70.2 
      1906.0         0.20         70.0 
      1907.0         0.25         68.8 
      1908.0         0.23         65.7 
      1909.0         0.27         63.3 
      1910.0         0.30         61.0 
      1911.0         0.30         58.2 
      1912.0         0.30         54.1 
      1913.0         0.37         46.4 
      1914.0         0.33         34.4 
      1915.0         0.43         28.6 
      1916.0         3.35        227.1 
      1917.0         0.40        149.3 
      1918.0         0.42        178.7 
      1919.0         0.27        210.9 
      1920.0         0.17        222.4 
      1921.0         0.13        224.9 
      1922.0         0.17        224.7 
      1923.0         0.17        220.2 
      1924.0         0.23        210.9 
      1925.0         0.27        194.1 
      1926.0         0.27        175.2 
      1927.0         0.50        162.6 
      1928.0         0.33        154.6 
      1929.0         0.30        146.3 
      1930.0         0.33        150.7 
      1931.0         0.28        151.6 
      1932.0         0.30        150.3 
      1933.0         0.40        144.5 
      1934.0         0.33        135.1 
      1935.0         0.27        127.0 
      1936.0         0.27        120.8 
      1937.0         0.30        115.4 
      1938.0         0.30        110.9 
      1939.0         0.30        108.0 
      1940.0         0.30        106.4 
      1941.0         0.27        103.3 
      1942.0         0.42         96.8 
      1943.0         0.37         73.6 
      1944.0         0.20         62.6 
      1945.0         0.37         69.1 
      1946.0         2.88        302.7 
      1947.0         0.37        217.0 
      1948.0         0.33        177.7 
      1949.0         0.23        147.6 
      1950.0         0.30        132.2 
      1951.0         0.40        116.7 
      1952.0         0.40        101.6 
      1953.0         0.40         96.9 
      1954.0         0.35        100.0 
      1955.0         0.33        100.6 
      1956.0         0.37        100.3 
      1957.0         0.27         98.3 
      1958.0         0.27         96.3 
      1959.0         0.23         93.2 
      1960.0         0.23         90.6 
      1961.0         0.27         88.6 
      1962.0         0.23         86.5 
      1963.0         0.27         84.9 
      1964.0         0.30         83.8 
      1965.0         0.23         82.7 
      1966.0         0.28         81.3 
      1967.0         0.23         80.8 
      1968.0         0.27         80.8 
      1969.0         0.23         80.3 
