~Version Information
VERS.                      2.0: CWLS Log ASCII Standard - VERSION 2.0
WRAP.                       NO: One line per depth step
~Well Information Block
STRT.FT                -9.7500: 
STOP.FT              2612.5000: 
STEP.FT                 0.2500: 
NULL.                -999.2500: 
COMP.                         : COMPANY
WELL.                         : WELL
FLD.                          : FIELD
LOC.                          : LOCATION
CNTY.                         : COUNTY
SRVC.                         : SERVICE COMPANY
DATE.          Mon Nov 17 14:56:03 2003: LOG DATE
UWI.                          : UNIQUE WELL ID
STAT.                         : STATE
~Curve Information Block
DEPT.FT            0 000 00 00: Depth
CCL.                          : Casing Collar Locator
TT3.usec                      : CBL 3' Travel Time
AMP3.mV                       : CBL 3' Amplitude
GR.GAPI                       : Gamma Ray
~Parameter Information Block
~A  Depth       CCL         TT3         AMP3         GR     
# ...
  2402.2500      0.0000    283.0327     59.9937     92.3865
  2402.5000      0.0000    290.7289     54.5596     91.2454
  2402.7500      0.0000    297.8819     49.3169     87.3315
  2403.0000      0.0000    303.5112     45.5394     81.2607
  2403.2500      0.0000    307.1461     43.5894     74.5018
  2403.5000      0.0000    309.0054     42.8736     68.5066
  2403.7500      0.0000    309.6864     42.5550     64.5771
  2404.0000     -2.0000    309.6502     42.1707     63.7743
  2404.2500      0.0000    308.9155     41.8150     66.5280
  2404.5000      0.0000    307.0828     42.0587     72.3641
  2404.7500      0.0000    303.6502     43.6311     80.0252
  2405.0000      0.0000    298.4448     46.8862     87.9194
  2405.2500      0.0000    291.8206     51.4937     94.6313
  2405.5000      0.0000    284.4851     56.6926     99.2087
  2405.7500      0.0000    277.3055     61.6996    101.2085
  2406.0000      0.0000    271.2034     65.8565    100.6880
  2406.2500      0.0000    266.8618     68.7058     98.1708
  2406.5000      0.0000    264.3701     70.1555     94.6237
  2406.7500      0.0000    263.2625     70.4998     91.5023
  2407.0000      0.0000    262.9115     70.2267     90.3874
  2407.2500      0.0000    262.8487     69.8180     91.9298
  2407.5000      0.0000    262.8309     69.6333     95.1502
  2407.7500      0.0000    262.7723     69.8378     98.3436
  2408.0000      0.0000    262.6744     70.3767    100.7920
  2408.2500      0.0000    262.5662     71.0590    103.0729
  2408.5000      0.0000    262.4713     71.6867    105.6040
  2408.7500      0.0000    262.3986     72.1385    107.6283
  2409.0000      0.0000    262.3508     72.3808    108.1571
  2409.2500      0.0000    262.3311     72.4464    107.4708
  2409.5000      0.0000    262.3413     72.3959    106.9821
  2409.7500      0.0000    262.3784     72.2748    107.5881
  2410.0000      0.0000    262.4348     72.0982    108.6573
  2410.2500      0.0000    262.4995     71.8789    108.7804
  2410.5000      0.0000    262.5584     71.6643    107.1558
  2410.7500      0.0000    262.5968     71.5325    104.1793
  2411.0000      0.0000    262.6038     71.5461    101.1675
  2411.2500      0.0000    262.5784     71.7074     99.5443
  2411.5000      0.0000    262.5308     71.9542     99.7388
  2411.7500      0.0000    262.4788     72.1994    100.7437
  2412.0000      0.0000    262.4386     72.3826    101.0261
  2412.2500      0.0000    262.4171     72.4939     99.7670
  2412.5000      0.0000    262.4117     72.5532     97.1335
  2412.7500      0.0000    262.4168     72.5714     93.8746
  2413.0000      0.0000    262.4305     72.5331     91.0630
  2413.2500      0.0000    262.4533     72.4179     89.6669
  2413.5000      0.0000    262.4832     72.2395     89.7374
  2413.7500      0.0000    262.5111     72.0594     90.2099
  2414.0000      0.0000    262.5246     71.9527     89.9856
  2414.2500      0.0000    262.5154     71.9551     89.0961
  2414.5000      0.0000    262.4858     72.0473     88.4470
  2414.7500      0.0000    262.4456     72.1816     88.5792
  2415.0000      0.0000    262.4073     72.3112     89.1303
  2415.2500      0.0000    262.3804     72.4018     89.3568
  2415.5000      0.0000    262.3705     72.4350     88.7661
  2415.7500      0.0000    262.3765     72.4109     87.2509
  2416.0000      0.0000    262.3921     72.3422     84.8669
  2416.2500      0.0000    262.4115     72.2404     81.4890
  2416.5000      0.0000    262.4453     72.0885     76.8541
  2416.7500      0.0000    262.5615     71.8022     71.3102
  2417.0000      0.0000    262.9692     71.2066     66.4649
  2417.2500      0.0000    264.1340     70.0733     64.4821
  2417.5000      0.0000    266.7885     68.2015     66.3106
  2417.7500      0.0000    271.5898     65.4822     70.7635
  2418.0000      0.0000    278.4813     61.9205     75.6400
  2418.2500      0.0000    286.4153     57.6369     79.5452
  2418.5000      0.0000    294.3510     52.8375     82.4015
  2418.7500      0.0000    303.4355     47.7564     84.7022
  2419.0000      0.0000    319.2217     42.6002     86.8643
  2419.2500      0.0000    351.7720     37.5300     89.0417
  2419.5000      0.0000    410.9018     32.6727     91.0506
  2419.7500      0.0000    497.0423     28.1391     92.5091
  2420.0000      0.0000    595.7097     24.0268     93.2015
  2420.2500      0.0000    684.2532     20.4067     93.2039
  2420.5000      0.0000    746.5602     17.3115     92.8230
  2420.7500      0.0000    781.2095     14.7345     92.6393
  2421.0000      0.0000    797.1145     12.6366     93.2529
  2421.2500      0.0000    804.5593     10.9597     94.8085
  2421.5000      0.0000    810.0913      9.6436     97.2384
  2421.7500      0.0000    815.9055      8.6356    100.7583
  2422.0000      0.0000    820.9664      7.8901    105.1573
  2422.2500      0.0000    822.6840      7.3696    108.7438
  2422.5000      0.0000    818.7585      7.0394    109.2376
  2422.7500      0.0000    808.2360      6.8549    106.0089
  2423.0000      0.0000    791.5992      6.7555    100.6488
  2423.2500      0.0000    770.7357      6.6757     95.2883
  2423.5000      0.0000    748.9418      6.5596     91.1360
  2423.7500      0.0000    730.0018      6.3703     88.6577
  2424.0000      0.0000    716.7052      6.1034     88.1785
  2424.2500      0.0000    710.2606      5.8007     89.7154
  2424.5000      0.0000    710.2275      5.5303     92.5589
  2424.7500      0.0000    713.7545      5.3291     95.4622
  2425.0000      0.0000    715.7487      5.1678     97.2617
  2425.2500      0.0000    711.8342      4.9959     97.2538
  2425.5000      0.0000    701.5245      4.8101     95.2162
  2425.7500      0.0000    688.2215      4.6580     91.5067
  2426.0000      0.0000    676.9227      4.5890     87.2091
  2426.2500      0.0000    672.1085      4.6152     83.6726
  2426.5000     -2.0000    676.5635      4.7039     81.5255
  2426.7500      0.0000    691.2778      4.8000     80.3946
  2427.0000      0.0000    715.2070      4.8642     79.9040
  2427.2500      0.0000    743.1724      4.8884     80.5663
  2427.5000      0.0000    765.6339      4.8784     83.0638
  2427.7500      0.0000    775.1703      4.8419     86.8604
  2428.0000      0.0000    774.4010      4.7994     90.2514
  2428.2500      0.0000    774.3678      4.7842     91.8947
  2428.5000      0.0000    783.5179      4.8166     91.7165
  2428.7500      0.0000    800.2255      4.8886     90.2429
  2429.0000      0.0000    816.7753      4.9693     87.8300
  2429.2500      0.0000    827.6677      5.0181     84.9565
  2429.5000      0.0000    832.4424      5.0118     82.6165
  2429.7500      0.0000    832.9301      4.9760     81.6812
  2430.0000      0.0000    830.3201      4.9767     82.1060
  2430.2500      0.0000    824.7796      5.0579     83.2607
  2430.5000      0.0000    816.6667      5.1962     84.7322
  2430.7500      0.0000    807.4389      5.3247     86.3842
  2431.0000      0.0000    799.1975      5.3941     87.9447
  2431.2500      0.0000    793.3327      5.3945     89.0504
  2431.5000      0.0000    789.6373      5.3373     89.6930
  2431.7500      0.0000    786.3640      5.2402     90.2878
  2432.0000      0.0000    780.5233      5.1302     91.1194
  2432.2500      0.0000    768.4202      5.0466     91.8921
  2432.5000      0.0000    747.1951      5.0201     91.9511
  2432.7500      0.0000    716.8008      5.0492     90.8503
  2433.0000      0.0000    680.1539      5.1007     88.6946
  2433.2500      0.0000    641.2908      5.1373     86.1405
  2433.5000      0.0000    604.2929      5.1407     84.1606
  2433.7500      0.0000    573.4954      5.1159     83.5948
  2434.0000      0.0000    552.6651      5.0840     84.6729
  2434.2500      0.0000    543.6410      5.0720     86.8009
  2434.5000      0.0000    546.7132      5.0982     88.7979
  2434.7500      0.0000    561.4907      5.1585     89.6707
  2435.0000      0.0000    585.8162      5.2280     89.4636
  2435.2500      0.0000    614.3616      5.2752     89.1328
  2435.5000      0.0000    640.3139      5.2803     89.2674
