~Version Information
VERS.                      2.0: CWLS Log ASCII Standard - VERSION 2.0
WRAP.                       NO: One line per depth step
~Well Information Block
STRT.FT               260.0000: 
STOP.FT              2611.5000: 
STEP.FT                 0.2500: 
NULL.                -999.2500: 
COMP.          Pioneer Natural Resources: COMPANY
WELL.           Costello 44-24: WELL
FLD.           Purgatoire River: FIELD
LOC.           327' FSL & 378' FEL: LOCATION
PROV.                 Colorado: PROVINCE
CNTY.               Las Animas: COUNTRY
SRVC.                Patterson: SERVICE COMPANY
DATE.          Mon Jul 11 00:49:32 2005: LOG DATE
UWI.           05 071 08413 00: UNIQUE WELL ID
~Curve Information Block
DEPT.FT            0 000 00 00: Depth
SN.Ohm-m                      : IEL Short Normal
SP.mV                         : IEL Spontaneous Potential
DIR.Ohm-m                     : IEL Induction Resistivity
GR.GAPI                       : Gamma Ray
~Parameter Information Block
~A  Depth        SN          SP         DIR          GR     
# ...
  1332.0000   2000.0000    200.0000     16.6002    109.5811
  1332.2500   2000.0000    200.0000     16.9514    102.7172
  1332.5000   2000.0000    200.0000     17.3408     95.1983
  1332.7500   2000.0000    200.0000     17.7817     91.6813
  1333.0000   2000.0000    200.0000     18.2943     87.6675
  1333.2500   2000.0000    200.0000     18.8988     85.5630
  1333.5000   2000.0000    200.0000     19.6068     83.1201
  1333.7500   2000.0000    200.0000     20.4163     81.7266
  1334.0000   2000.0000    200.0000     21.3046     79.3979
  1334.2500   2000.0000    200.0000     22.2251     77.6324
  1334.5000   2000.0000    200.0000     23.1156     75.3922
  1334.7500   2000.0000    200.0000     23.9215     74.7846
  1335.0000   2000.0000    200.0000     24.6222     75.6140
  1335.2500   2000.0000    200.0000     25.2360     76.9419
  1335.5000   2000.0000    200.0000     25.8023     78.8201
  1335.7500   2000.0000    200.0000     26.3606     79.3802
  1336.0000   2000.0000    200.0000     26.9376     78.8631
  1336.2500   2000.0000    200.0000     27.5421     77.8261
  1336.5000   2000.0000    200.0000     28.1657     75.8991
  1336.7500   2000.0000    200.0000     28.7881     74.6803
  1337.0000   2000.0000    200.0000     29.3916     72.9962
  1337.2500   2000.0000    200.0000     29.9758     71.7208
  1337.5000   2000.0000    200.0000     30.5561     69.1083
  1337.7500   2000.0000    200.0000     31.1473     66.8491
  1338.0000   2000.0000    200.0000     31.7495     63.0099
  1338.2500   2000.0000    200.0000     32.3575     60.4144
  1338.5000   2000.0000    200.0000     32.9839     56.8770
  1338.7500   2000.0000    200.0000     33.6638     55.0130
  1339.0000   2000.0000    200.0000     34.4254     53.3852
  1339.2500   2000.0000    200.0000     35.2544     53.1560
  1339.5000   2000.0000    200.0000     36.0767     53.8336
  1339.7500   2000.0000    200.0000     36.7622     54.7539
  1340.0000   2000.0000    200.0000     37.1341     56.6505
  1340.2500   2000.0000    200.0000     37.0073     58.1903
  1340.5000   2000.0000    200.0000     36.2756     60.6278
  1340.7500   2000.0000    200.0000     34.9920     62.0913
  1341.0000   2000.0000    200.0000     33.3553     63.8503
  1341.2500   2000.0000    200.0000     31.6000     64.9875
  1341.5000   2000.0000    200.0000     29.8980     67.7911
  1341.7500   2000.0000    200.0000     28.3272     71.1947
  1342.0000   2000.0000    200.0000     26.8933     79.3694
  1342.2500   2000.0000    200.0000     25.5675     86.7060
  1342.5000   2000.0000    200.0000     24.3201     99.4374
  1342.7500   2000.0000    200.0000     23.1424    108.1948
  1343.0000   2000.0000    200.0000     22.0489    120.0850
  1343.2500   2000.0000    200.0000     21.0602    126.2314
  1343.5000   2000.0000    200.0000     20.1814    131.5094
  1343.7500   2000.0000    200.0000     19.3931    132.0702
  1344.0000   2000.0000    200.0000     18.6621    128.9120
  1344.2500   2000.0000    200.0000     17.9597    125.0256
  1344.5000   2000.0000    200.0000     17.2740    118.6923
  1344.7500   2000.0000    200.0000     16.6109    115.3177
  1345.0000   2000.0000    200.0000     15.9862    112.8060
  1345.2500   2000.0000    200.0000     15.4182    113.1216
  1345.5000   2000.0000    200.0000     14.9222    116.2947
  1345.7500   2000.0000    200.0000     14.5069    119.5038
  1346.0000   2000.0000    200.0000     14.1732    124.2483
  1346.2500   2000.0000    200.0000     13.9174    126.7335
  1346.5000   2000.0000    200.0000     13.7380    129.7738
  1346.7500   2000.0000    200.0000     13.6384    131.9987
  1347.0000   2000.0000    200.0000     13.6191    136.1957
  1347.2500   2000.0000    200.0000     13.6645    139.2230
  1347.5000   2000.0000    200.0000     13.7368    142.8428
  1347.7500   2000.0000    200.0000     13.7882    144.0397
  1348.0000   2000.0000    200.0000     13.7866    143.9995
  1348.2500   2000.0000    200.0000     13.7333    143.3345
  1348.5000   2000.0000    200.0000     13.6575    142.4495
  1348.7500   2000.0000    200.0000     13.5928    142.0506
  1349.0000   2000.0000    200.0000     13.5555    141.2787
  1349.2500   2000.0000    200.0000     13.5372    140.6514
  1349.5000   2000.0000    200.0000     13.5160    140.4997
  1349.7500   2000.0000    200.0000     13.4748    141.4852
  1350.0000   2000.0000    200.0000     13.4144    144.5232
  1350.2500   2000.0000    200.0000     13.3515    147.1300
  1350.5000   2000.0000    200.0000     13.3051    151.2301
  1350.7500   2000.0000    200.0000     13.2840    153.6939
  1351.0000   2000.0000    200.0000     13.2850    155.8369
  1351.2500   2000.0000    200.0000     13.3019    155.5589
  1351.5000   2000.0000    200.0000     13.3372    152.5258
  1351.7500   2000.0000    200.0000     13.4080    149.5110
  1352.0000   2000.0000    200.0000     13.5419    145.2569
  1352.2500   2000.0000    200.0000     13.7665    143.2771
  1352.5000   2000.0000    200.0000     14.0971    141.4709
  1352.7500   2000.0000    200.0000     14.5291    140.2500
  1353.0000   2000.0000    200.0000     15.0363    136.5911
  1353.2500   2000.0000    200.0000     15.5821    132.2366
  1353.5000   2000.0000    200.0000     16.1402    122.9152
  1353.7500   2000.0000    200.0000     16.7098    115.5292
  1354.0000   2000.0000    200.0000     17.3134    104.3119
  1354.2500   2000.0000    200.0000     17.9774     97.6712
  1354.5000   2000.0000    200.0000     18.7143     90.2949
  1354.7500   2000.0000    200.0000     19.5161     87.5681
  1355.0000   2000.0000    200.0000     20.3569     86.7112
  1355.2500   2000.0000    200.0000     21.1951     87.8109
  1355.5000   2000.0000    200.0000     21.9730     90.9239
  1355.7500   2000.0000    200.0000     22.6194     93.5212
  1356.0000   2000.0000    200.0000     23.0689     97.7924
  1356.2500   2000.0000    200.0000     23.2938    100.7867
  1356.5000   2000.0000    200.0000     23.3243    105.4603
  1356.7500   2000.0000    200.0000     23.2311    108.7738
  1357.0000   2000.0000    200.0000     23.0842    114.3569
  1357.2500   2000.0000    200.0000     22.9244    118.6603
  1357.5000   2000.0000    200.0000     22.7647    125.7831
  1357.7500   2000.0000    200.0000     22.6051    130.4045
  1358.0000   2000.0000    200.0000     22.4367    135.7560
  1358.2500   2000.0000    200.0000     22.2410    137.7011
  1358.5000   2000.0000    200.0000     22.0001    138.0068
  1358.7500   2000.0000    200.0000     21.7171    136.4685
  1359.0000   2000.0000    200.0000     21.4230    130.9975
  1359.2500   2000.0000    200.0000     21.1609    124.8696
  1359.5000   2000.0000    200.0000     20.9633    112.5626
  1359.7500   2000.0000    200.0000     20.8420    103.6667
  1360.0000   2000.0000    200.0000     20.7944     92.4477
  1360.2500   2000.0000    200.0000     20.8139     87.8481
  1360.5000   2000.0000    200.0000     20.8944     86.2676
  1360.7500   2000.0000    200.0000     21.0227     88.5281
  1361.0000   2000.0000    200.0000     21.1659     95.5373
  1361.2500   2000.0000    200.0000     21.2707    101.4916
  1361.5000   2000.0000    200.0000     21.2915    110.1761
  1361.7500   2000.0000    200.0000     21.2345    114.5870
  1362.0000   2000.0000    200.0000     21.1723    117.5414
  1362.2500   2000.0000    200.0000     21.2018    116.6835
  1362.5000   2000.0000    200.0000     21.3786    111.8038
  1362.7500   2000.0000    200.0000     21.6858    107.2671
  1363.0000   2000.0000    200.0000     22.0577    100.8929
  1363.2500   2000.0000    200.0000     22.4364     97.8467
  1363.5000   2000.0000    200.0000     22.8111     94.9371
  1363.7500   2000.0000    200.0000     23.2153     93.2265
  1364.0000   2000.0000    200.0000     23.6998     89.4950
  1364.2500   2000.0000    200.0000     24.3153     85.9747
  1364.5000   2000.0000    200.0000     25.1127     80.0925
  1364.7500   2000.0000    200.0000     26.1482     76.8325
  1365.0000   2000.0000    200.0000     27.4715     74.4604
  1365.2500   2000.0000    200.0000     29.0913     74.7052
