~Version Information
VERS.                      2.0: CWLS Log ASCII Standard - VERSION 2.0
WRAP.                       NO: One line per depth step
~Well Information Block
STRT.FT               260.0000: 
STOP.FT              2269.5000: 
STEP.FT                 0.1000: 
NULL.                -999.2500: 
COMP.          Pioneer Natural Resources: COMPANY
WELL.            Moo Moo 31-36: WELL
FLD.           Purgatoire River: FIELD
LOC.           612' FNL & 2326' FEL: LOCATION
PROV.                 Colorado: PROVINCE
CNTY.               Las Animas: COUNTRY
SRVC.                Patterson: SERVICE COMPANY
DATE.          Fri Jun 17 07:04:43 2005: LOG DATE
UWI.           05 071 08395 00: UNIQUE WELL ID
~Curve Information Block
DEPT.FT            0 000 00 00: Depth
DCAL.in                       : CDL Caliper
RHOB.g/cc                     : CDL Bulk Density
RHOC.g/cc                     : CDL Density Correction
DPOR.pu                       : CDL Density Porosity
GR.GAPI                       : Gamma Ray
NPOR.pu                       : Neutron Porosity
~Parameter Information Block
~A  Depth       DCAL        RHOB        RHOC        DPOR         GR         NPOR    
# ...
   528.8000      8.4426      2.1135      0.1472     32.5164    144.5899     20.7656
   528.9000      8.4426      2.1389      0.1063     30.9746    143.1184     20.9402
   529.0000      8.4082      2.1726      0.1460     28.9331    140.8226     21.0953
   529.1000      8.4082      2.2156      0.2172     26.3254    140.9137     21.2779
   529.2000      8.4082      2.2586      0.2130     23.7223    141.7077     21.3858
   529.3000      8.4000      2.2949      0.1548     21.5209    143.2878     21.3492
   529.4000      8.4000      2.3233      0.1662     19.7991    146.0752     21.4476
   529.5000      8.3887      2.3327      0.1793     19.2277    147.1988     21.5987
   529.6000      8.3887      2.3151      0.1273     20.2996    146.3873     21.5842
   529.7000      8.3887      2.2804      0.1241     22.4015    144.3859     21.5370
   529.8000      8.3902      2.2439      0.1037     24.6098    140.9879     21.5363
   529.9000      8.3902      2.2159      0.1091     26.3111    140.6050     21.7238
   530.0000      8.3935      2.1980      0.1360     27.3911    142.7528     22.2784
   530.1000      8.3935      2.1852      0.1039     28.1708    140.8945     22.8917
   530.2000      8.3935      2.1786      0.0387     28.5726    135.4060     22.9650
   530.3000      8.4062      2.1856      0.0894     28.1449    132.2993     22.4638
   530.4000      8.4062      2.2113      0.0398     26.5887    135.6639     21.9223
   530.5000      8.3952      2.2496      0.1665     24.2638    138.6856     21.7951
   530.6000      8.3952      2.2838      0.1425     22.1932    134.2834     21.9922
   530.7000      8.3952      2.3116      0.1260     20.5077    129.5167     22.0932
   530.8000      8.4055      2.3379      0.1569     18.9147    130.8700     22.1029
   530.9000      8.4055      2.3597      0.1449     17.5910    133.9117     22.2266
   531.0000      8.4244      2.3797      0.1839     16.3788    137.8294     22.4452
   531.1000      8.4244      2.3949      0.2121     15.4594    145.8792     22.5430
   531.2000      8.4244      2.3898      0.2106     15.7676    152.9000     22.3616
   531.3000      8.5224      2.3668      0.1459     17.1653    154.1964     22.0832
   531.4000      8.5224      2.3530      0.1001     17.9977    152.2133     22.1752
   531.5000      8.5066      2.3592      0.1567     17.6267    149.3130     22.7940
   531.6000      8.5066      2.3532      0.1992     17.9899    145.9601     23.4451
   531.7000      8.5066      2.3099      0.1197     20.6139    143.7485     23.5925
   531.8000      8.4492      2.2478      0.0795     24.3766    143.8372     23.1337
   531.9000      8.4492      2.1929      0.0589     27.7005    145.9916     22.1682
   532.0000      8.4347      2.1545      0.0382     30.0324    149.6123     21.0110
   532.1000      8.4347      2.1347      0.0370     31.2316    152.6286     20.1001
   532.2000      8.4347      2.1326      0.0812     31.3557    152.9618     19.6963
   532.3000      8.4355      2.1522      0.1429     30.1725    150.9193     19.8968
   532.4000      8.4355      2.2140      0.1132     26.4214    148.5617     20.2025
   532.5000      8.4332      2.3206      0.3336     19.9646    146.2273     19.7412
   532.6000      8.4332      2.4230      0.4275     13.7595    145.2710     18.7295
   532.7000      8.4332      2.4756      0.4870     10.5681    148.5059     18.1284
   532.8000      8.4236      2.4788      0.4416     10.3734    152.8151     18.1968
   532.9000      8.4236      2.4563      0.3588     11.7390    152.7801     18.6515
   533.0000      8.4844      2.4251      0.3309     13.6291    150.0927     19.2874
   533.1000      8.4844      2.3865      0.2755     15.9701    149.0863     19.9184
   533.2000      8.4844      2.3397      0.2332     18.8089    149.4953     20.4718
   533.3000      8.6096      2.2920      0.1227     21.6992    148.0023     21.1642
   533.4000      8.6096      2.2477      0.1367     24.3789    143.6480     21.9225
   533.5000      8.4742      2.2061      0.0564     26.9039    136.8124     22.2954
   533.6000      8.4742      2.1699      0.0340     29.0962    128.2353     22.2384
   533.7000      8.4742      2.1349      0.0808     31.2199    122.7105     22.3666
   533.8000      8.3908      2.0980      0.0696     33.4533    123.1914     22.9956
   533.9000      8.3908      2.0838      0.0518     34.3123    127.2911     23.6742
   534.0000      8.4136      2.1144      0.0611     32.4635    132.8931     23.9869
   534.1000      8.4136      2.1705      0.1145     29.0597    136.7955     24.0633
   534.2000      8.4136      2.2260      0.0932     25.6974    136.3304     24.1958
   534.3000      8.3906      2.2763      0.1475     22.6468    134.5581     24.4587
   534.4000      8.3906      2.3246      0.1007     19.7232    135.1623     24.7871
   534.5000      8.3543      2.3682      0.1912     17.0802    138.0895     25.1865
   534.6000      8.3543      2.3953      0.1396     15.4375    143.8882     25.6610
   534.7000      8.3543      2.4076      0.0629     14.6933    151.1150     26.1553
   534.8000      8.3660      2.4207      0.0879     13.8985    155.4613     26.4856
   534.9000      8.3660      2.4432      0.0143     12.5351    152.8984     26.4217
   535.0000      8.3849      2.4699      0.0694     10.9150    143.4805     26.0422
   535.1000      8.3849      2.4829      0.1046     10.1288    132.0007     25.6978
   535.2000      8.3849      2.4755      0.0399     10.5761    125.2162     25.3858
   535.3000      8.4324      2.4590      0.0620     11.5765    128.2078     24.7166
   535.4000      8.4324      2.4367      0.0259     12.9271    138.2588     23.9069
   535.5000      8.4265      2.4115      0.0149     14.4525    146.3352     23.3420
   535.6000      8.4265      2.3946     -0.0027     15.4782    147.5476     22.7847
   535.7000      8.4265      2.3850     -0.0100     16.0579    146.0951     22.1517
   535.8000      8.4642      2.3709      0.0375     16.9143    146.5939     21.5974
   535.9000      8.4642      2.3551     -0.0719     17.8739    145.9789     20.9899
   536.0000      8.5536      2.3485      0.0125     18.2742    141.4034     20.3105
   536.1000      8.5536      2.3389      0.0340     18.8557    135.9753     19.8556
   536.2000      8.5536      2.3053      0.0310     20.8891    131.6163     19.5166
   536.3000      8.6379      2.2471      0.0214     24.4166    124.2965     18.8880
   536.4000      8.6379      2.1675      0.0367     29.2426    113.7215     18.3049
   536.5000      8.6792      2.0562      0.0492     35.9893    107.8098     18.4165
   536.6000      8.6792      1.9271     -0.0915     43.8144    109.7730     19.1272
   536.7000      8.6792      1.8253     -0.0905     49.9821    115.5008     20.0365
   536.8000      8.6704      1.7798     -0.1121     52.7369    119.5292     21.0130
   536.9000      8.6704      1.7882     -0.0628     52.2296    119.1477     21.9183
   537.0000      8.6795      1.8327     -0.0187     49.5314    115.6532     22.7706
   537.1000      8.6795      1.9067      0.0214     45.0463    111.1351     23.8028
   537.2000      8.6795      2.0172      0.1083     38.3524    108.6295     24.7994
   537.3000      8.7117      2.1585      0.2206     29.7857    110.7866     25.3261
   537.4000      8.7117      2.3049      0.2623     20.9166    113.4260     25.4732
   537.5000      8.6366      2.4348      0.2132     13.0429    112.6261     25.6042
   537.6000      8.6366      2.5361      0.2548      6.9005    110.9800     25.9812
   537.7000      8.6366      2.5861      0.1293      3.8708    111.1539     26.5555
   537.8000      8.6157      2.5800      0.0777      4.2451    113.4920     27.0195
   537.9000      8.6157      2.5516      0.0146      5.9634    115.9309     27.1801
   538.0000      8.4731      2.5302      0.0397      7.2632    118.4983     27.1073
   538.1000      8.4731      2.5188      0.0122      7.9490    124.3814     26.8864
   538.2000      8.4731      2.5209     -0.0222      7.8227    134.1923     26.6010
   538.3000      8.4436      2.5355     -0.0066      6.9392    142.2428     26.5548
