~Version Information
VERS.                      2.0: CWLS Log ASCII Standard - VERSION 2.0
WRAP.                       NO: One line per depth step
~Well Information Block
STRT.FT                -7.0000: 
STOP.FT              1656.2500: 
STEP.FT                 0.2500: 
NULL.                -999.2500: 
COMP.          Pioneer Natural Resources: COMPANY
WELL.               Elmo 14-21: WELL
FLD.           Purgatorie River: FIELD
LOC.           623' FSL & 450' FWL--: LOCATION
PROV.                       CO: PROVINCE
CNTY.               Las Animas: COUNTRY
SRVC.          Patterson Wireline: SERVICE COMPANY
DATE.          Mon Jun 27 15:45:41 2005: LOG DATE
UWI.           05 071 08360 00: UNIQUE WELL ID
~Curve Information Block
DEPT.FT            0 000 00 00: Depth
CCL.                          : Casing Collar Locator
TT3.usec                      : CBL 3' Travel Time
AMP3.mV                       : CBL 3' Amplitude
GR.GAPI                       : Gamma Ray
~Parameter Information Block
~A  Depth       CCL         TT3         AMP3         GR     
# ...
   663.0000      0.0000    261.0101     66.2929     60.8442
   663.2500      0.0000    261.0283     66.5313     59.7237
   663.5000      0.0000    261.0521     66.7667     58.5530
   663.7500      0.0000    261.0743     66.9577     56.9334
   664.0000      0.0000    261.0887     67.0805     54.5603
   664.2500      0.0000    261.0935     67.1327     51.5685
   664.5000      0.0000    261.0915     67.1290     48.6858
   664.7500      0.0000    261.0872     67.0925     46.8258
   665.0000      0.0000    261.0846     67.0492     46.5975
   665.2500      0.0000    261.0865     67.0224     48.0426
   665.5000      0.0000    261.0954     67.0224     50.5879
   665.7500      0.0000    261.1129     67.0418     53.3711
   666.0000      0.0000    261.1391     67.0587     55.9170
   666.2500      0.0000    261.1718     67.0513     58.4743
   666.5000      0.0000    261.2074     67.0123     61.4122
   666.7500      0.0000    261.2412     66.9521     64.3799
   667.0000      0.0000    261.2701     66.8862     66.4396
   667.2500      0.0000    261.2954     66.8231     66.9606
   667.5000      0.0000    261.3221     66.7695     65.9895
   667.7500      0.0000    261.3513     66.7426     63.9537
   668.0000      0.0000    261.3737     66.7678     61.5274
   668.2500      0.0000    261.3741     66.8581     59.5487
   668.5000      0.0000    261.3436     66.9999     58.4514
   668.7500      0.0000    261.2899     67.1556     57.8314
   669.0000      0.0000    261.2352     67.2784     57.0373
   669.2500      0.0000    261.2037     67.3272     56.1300
   669.5000      0.0000    261.2078     67.2824     55.9461
   669.7500      0.0000    261.2406     67.1609     57.2356
   670.0000      0.0000    261.2814     67.0188     59.8221
   670.2500      0.0000    261.3105     66.9271     62.4930
   670.5000      0.0000    261.3204     66.9322     63.7908
   670.7500      0.0000    261.3147     67.0285     63.1767
   671.0000      0.0000    261.2993     67.1680     61.4397
   671.2500      0.0000    261.2766     67.2970     59.8967
   671.5000      0.0000    261.2471     67.3872     59.2652
   671.7500      0.0000    261.2147     67.4358     59.3633
   672.0000      0.0000    261.1870     67.4495     59.7863
   672.2500      0.0000    261.1721     67.4350     60.6314
   672.5000      0.0000    261.1743     67.3993     62.3184
   672.7500      0.0000    261.1926     67.3487     64.7896
   673.0000      0.0000    261.2199     67.2915     67.4062
   673.2500      0.0000    261.2457     67.2423     69.6981
   673.5000      0.0000    261.2623     67.2232     71.5532
   673.7500      0.0000    261.2696     67.2537     72.4748
   674.0000      0.0000    261.2721     67.3338     71.4500
   674.2500      0.0000    261.2717     67.4367     68.0885
   674.5000      0.0000    261.2672     67.5250     63.4654
   674.7500      0.0000    261.2576     67.5817     59.3505
   675.0000      0.0000    261.2455     67.6209     56.8401
   675.2500      0.0000    261.2350     67.6623     56.0040
   675.5000      0.0000    261.2297     67.7032     56.5698
   675.7500      0.0000    261.2314     67.7205     58.4595
   676.0000      0.0000    261.2392     67.6974     61.5568
   676.2500      0.0000    261.2504     67.6387     65.1730
   676.5000      0.0000    261.2637     67.5612     68.0364
   676.7500      0.0000    261.2808     67.4798     69.0549
   677.0000      0.0000    261.3018     67.4080     68.1462
   677.2500      0.0000    261.3197     67.3614     66.2075
   677.5000      0.0000    261.3235     67.3529     64.3837
   677.7500      0.0000    261.3072     67.3852     63.5145
   678.0000      0.0000    261.2747     67.4472     63.9368
   678.2500      0.0000    261.2375     67.5150     65.2831
   678.5000      0.0000    261.2094     67.5574     66.4109
   678.7500      0.0000    261.1995     67.5551     65.9701
   679.0000      0.0000    261.2053     67.5176     63.4136
   679.2500      0.0000    261.2163     67.4750     59.5015
   679.5000      0.0000    261.2257     67.4465     55.7401
   679.7500      0.0000    261.2376     67.4228     53.3143
   680.0000      0.0000    261.2640     67.3717     52.5795
   680.2500      0.0000    261.3284     67.2202     53.3399
   680.5000      0.0000    261.4911     66.7733     55.3234
   680.7500      0.0000    261.8828     65.6233     58.4047
   681.0000      0.0000    262.6811     63.2702     62.5283
   681.2500      0.0000    263.9840     59.5560     67.3854
   681.5000      0.0000    265.6568     55.0406     72.1620
   681.7500      0.0000    267.3338     50.7618     75.7471
   682.0000      0.0000    268.6288     47.5286     77.2541
   682.2500      0.0000    269.3643     45.5298     76.3279
   682.5000      0.0000    269.6176     44.5252     73.1972
   682.7500      0.0000    269.6014     44.1502     68.7114
   683.0000      0.0000    269.5135     44.0515     64.1377
   683.2500      0.0000    269.4543     43.9741     60.6178
   683.5000      0.0000    269.4221     43.8637     58.7772
   683.7500      0.0000    269.3355     43.9581     58.7304
   684.0000      0.0000    269.0497     44.7751     60.1163
   684.2500      0.0000    268.3997     46.8383     62.0098
   684.5000      0.0000    267.3029     50.2205     63.0959
   684.7500      0.0000    265.8616     54.3890     62.3573
   685.0000      0.0000    264.3513     58.5815     59.8488
   685.2500      0.0000    263.0744     62.2237     56.8062
   685.5000      0.0000    262.1981     65.0006     54.8723
   685.7500      0.0000    261.7079     66.7962     54.9930
   686.0000      0.0000    261.4856     67.7097     56.8235
   686.2500      0.0000    261.4106     68.0152     59.1627
   686.5000      0.0000    261.4053     68.0150     61.0560
   686.7500      0.0000    261.4283     67.9159     62.4511
   687.0000      0.0000    261.4578     67.8051     63.8201
   687.2500      0.0000    261.4843     67.6927     65.3872
   687.5000      0.0000    261.5066     67.5693     66.7832
   687.7500      0.0000    261.5271     67.4490     67.2811
   688.0000      0.0000    261.5461     67.3678     66.3558
   688.2500      0.0000    261.5597     67.3524     64.1668
   688.5000      0.0000    261.5611     67.3926     61.4853
   688.7500      0.0000    261.5460     67.4454     59.0318
   689.0000      0.0000    261.5172     67.4669     56.9174
   689.2500      0.0000    261.4838     67.4401     54.8284
   689.5000      0.0000    261.4561     67.3767     52.7181
   689.7500      0.0000    261.4402     67.3025     51.1498
   690.0000      0.0000    261.4369     67.2447     50.8845
   690.2500      0.0000    261.4429     67.2233     52.2759
   690.5000      0.0000    261.4537     67.2410     55.0193
   690.7500      0.0000    261.4643     67.2777     58.1806
   691.0000      0.0000    261.4717     67.3007     60.5466
   691.2500      0.0000    261.4789     67.2863     61.3212
   691.5000      0.0000    261.4928     67.2351     60.3741
   691.7500      0.0000    261.5176     67.1653     57.6505
   692.0000      0.0000    261.5489     67.0916     53.0101
   692.2500      0.0000    261.5765     67.0108     47.1444
   692.5000      0.0000    261.5912     66.9127     41.8799
   692.7500      0.0000    261.5870     66.8045     38.8269
   693.0000      0.0000    261.5630     66.7162     38.1182
   693.2500      0.0000    261.5258     66.6742     38.8090
   693.5000      0.0000    261.4905     66.6737     40.0432
   693.7500      0.0000    261.4733     66.6871     41.4661
   694.0000      0.0000    261.4800     66.6980     42.8821
   694.2500      0.0000    261.5024     66.7183     43.9819
   694.5000      0.0000    261.5259     66.7715     44.4611
   694.7500      0.0000    261.5416     66.8673     44.2433
   695.0000      0.0000    261.5515     66.9903     43.5210
   695.2500      0.0000    261.5620     67.1039     42.7107
   695.5000      0.0000    261.5747     67.1696     42.4182
   695.7500      0.0000    261.5845     67.1709     43.1094
   696.0000      0.0000    261.5849     67.1231     44.5288
   696.2500      0.0000    261.5741     67.0593     45.7978
