~Version Information
 VERS.                                  2.0 : CWLS LAS VERSION
 WRAP.                                   NO : WRAPING MODE
 SWARE .                 MController 2.5.0J : SOFTWARE VERSION
~Well Information
 WELL.                           Furu 6-23R : WELL
 COMP.                Petrogulf Corporation : COMPANY
 FLD.                       Purgatory River : FIELD
 LOC.                  NE/SW Sec6 T33S R67W : LOCATION
 DATE.                    6/19/06 - 6/21/06 : DATE(S) LOGGED
 SRVC.      Blanco Geological Services, LLC : SERVICE COMPANY
 STAT.                             Colorado : STATE
 CNTY.                           Las Animas : COUNTY
 CTRY.                                  USA : COUNTRY
 API.                       05-071-08266-00 : API NUMBER
 STRT.FT                             566.00 : START DEPTH
 STOP.FT                            2205.00 : STOP DEPTH
 STEP.FT                               1.00 : DEPTH INCREMENT
 NULL.                                -9999 : NULL VALUE
~Curve information
 DEPTH.FT                                   :
 ROP.MIN/FT                                 :
 GAS.UNITS                                  :
~ASCII Log data
# ...
      1966.0         6.72        432.2 
      1967.0         0.27        105.1 
      1968.0         0.47         43.0 
      1969.0         0.73         16.6 
      1970.0         0.73         18.7 
      1971.0         1.25         26.1 
      1972.0         1.73         32.5 
      1973.0         0.98         33.5 
      1974.0         0.63         26.7 
      1975.0         0.63         21.9 
      1976.0         0.87         22.3 
      1977.0         1.42         30.2 
      1978.0         1.40         30.2 
      1979.0         1.13         26.7 
      1980.0         1.05         26.9 
      1981.0         0.77         27.2 
      1982.0         0.53         26.5 
      1983.0         1.22         33.9 
      1984.0         1.27         32.7 
      1985.0         1.27         30.4 
      1986.0         0.67         29.7 
      1987.0         0.55         26.8 
      1988.0         0.40         25.0 
      1989.0         0.37         24.9 
      1990.0         0.47         25.6 
      1991.0         0.63         27.1 
      1992.0         0.60         27.3 
      1993.0         0.52         26.8 
      1994.0         0.97         27.3 
      1995.0         1.20         28.5 
      1996.0        14.45        379.0 
      1997.0         0.77         13.0 
      1998.0         0.80         20.4 
      1999.0         0.77         25.0 
      2000.0         0.67         28.6 
      2001.0         0.78         30.1 
      2002.0         0.70         28.4 
      2003.0         0.80         24.6 
      2004.0         0.63         24.2 
      2005.0         0.70         28.7 
      2006.0         0.88         30.5 
      2007.0         0.87         28.1 
      2008.0         0.93         29.4 
      2009.0         0.92         29.5 
      2010.0         1.03         27.2 
      2011.0         1.00         21.6 
      2012.0         0.93         22.5 
      2013.0         1.08         21.2 
      2014.0         1.20         19.2 
      2015.0         0.63         19.2 
      2016.0         0.78         20.5 
      2017.0         0.60         21.3 
      2018.0         0.43         21.5 
      2019.0         0.40         21.2 
      2020.0         0.53         20.9 
      2021.0         0.63         19.9 
      2022.0         0.78         19.8 
      2023.0         1.30         19.7 
      2024.0         0.37         17.8 
      2025.0         1.40         17.9 
      2026.0         6.92        340.4 
      2027.0         0.33         88.0 
      2028.0         0.53         36.8 
      2029.0         0.77         14.9 
      2030.0         0.90         20.4 
      2031.0         1.32         27.1 
      2032.0         1.07         29.5 
      2033.0         1.07         28.9 
      2034.0         1.28         21.8 
      2035.0         1.17         17.1 
      2036.0         1.27         18.7 
      2037.0         1.05         18.5 
      2038.0         1.77         23.9 
      2039.0         1.05         28.3 
      2040.0         0.80         28.2 
      2041.0         0.57         25.4 
      2042.0         0.50         23.1 
      2043.0         0.50         22.0 
      2044.0         0.50         25.1 
      2045.0         0.45         26.4 
      2046.0         1.00         28.2 
      2047.0         1.00         36.7 
      2048.0         0.93         35.6 
      2049.0         0.98         14.6 
      2050.0         1.13         20.9 
      2051.0         1.00         21.2 
      2052.0         0.62         20.9 
      2053.0         0.43         20.9 
      2054.0         0.77         20.2 
      2055.0         1.07         25.9 
      2056.0         9.92        314.3 
      2057.0         0.27         14.8 
      2058.0         0.40         17.7 
      2059.0         0.38         20.9 
      2060.0         0.50         24.8 
      2061.0         0.63         33.5 
      2062.0         0.50         36.1 
      2063.0         0.47         36.2 
      2064.0         0.93         34.7 
      2065.0         0.58         21.9 
      2066.0         0.43         21.0 
      2067.0         0.33         23.0 
      2068.0         0.53         26.0 
      2069.0         0.60         29.2 
      2070.0         0.47         30.8 
      2071.0         0.43         37.2 
      2072.0         0.48         40.8 
      2073.0         0.70         37.4 
      2074.0         0.57         18.1 
      2075.0         0.57         23.1 
      2076.0         0.67         25.1 
      2077.0         0.65         27.1 
      2078.0         1.50         30.0 
      2079.0         2.02         25.4 
      2080.0         0.90         26.0 
      2081.0         0.40         25.1 
      2082.0         0.47         24.6 
      2083.0         0.47         26.3 
      2084.0         0.60         29.6 
      2085.0         0.42         30.0 
      2086.0         8.63        306.1 
      2087.0         0.53         27.6 
      2088.0         0.85         11.6 
      2089.0         0.60         15.8 
      2090.0         0.70         19.9 
      2091.0         0.93         25.3 
      2092.0         1.75         35.3 
      2093.0         1.40         44.1 
      2094.0         0.67         53.1 
      2095.0         0.55         53.8 
      2096.0         0.50         56.7 
      2097.0         0.60         46.3 
      2098.0         0.43          6.1 
      2099.0         0.43          6.7 
      2100.0         0.50         11.6 
      2101.0         0.57         15.0 
      2102.0         0.52         18.2 
      2103.0         0.63         21.2 
      2104.0         1.17         27.6 
      2105.0         1.17         29.5 
      2106.0         0.98         25.2 
      2107.0         0.47         12.7 
      2108.0         0.47         15.5 
      2109.0         0.37         21.2 
      2110.0         0.50         19.8 
      2111.0         0.53         11.3 
      2112.0         0.65         11.7 
      2113.0         1.07         27.0 
      2114.0         0.43         29.6 
      2115.0         0.90         30.4 
      2116.0         9.75        309.7 
      2117.0         1.08         21.6 
      2118.0         1.40         27.4 
      2119.0         1.37         31.6 
      2120.0         1.12         28.2 
      2121.0         1.07         26.4 
      2122.0         1.03         28.5 
      2123.0         1.52         30.3 
      2124.0         1.63         43.0 
      2125.0         1.35         38.5 
      2126.0         0.50         20.7 
      2127.0         0.67         19.6 
      2128.0         0.70         26.1 
      2129.0         0.78         32.7 
      2130.0         0.73         33.3 
      2131.0         0.73         32.4 
      2132.0         0.73         30.6 
      2133.0         0.87         31.5 
      2134.0         0.95         31.7 
      2135.0         0.87         31.9 
      2136.0         0.80         31.1 
      2137.0         0.73         30.6 
      2138.0         0.75         28.7 
      2139.0         0.83         25.1 
      2140.0         0.60         24.1 
      2141.0         0.73         27.2 
      2142.0         0.78         33.5 
      2143.0         1.07         35.7 
      2144.0         0.73         33.1 
      2145.0         1.07         29.1 
      2146.0         7.85        342.2 
      2147.0         0.43         64.9 
      2148.0         0.60         26.8 
      2149.0         0.83         19.2 
      2150.0         1.12         27.3 
      2151.0         1.37         29.4 
      2152.0         1.10         28.3 
      2153.0         0.98         25.7 
      2154.0         0.87         28.2 
      2155.0         0.80         28.6 
      2156.0         0.80         26.4 
      2157.0         0.88         29.8 
      2158.0         0.90         35.7 
      2159.0         0.77         36.2 
      2160.0         0.80         35.4 
      2161.0         0.62         33.2 
      2162.0         0.57         32.7 
      2163.0         0.63         32.4 
      2164.0         0.60         31.2 
      2165.0         0.73         31.6 
