~Version Information
VERS.                                  2.0 : CWLS LAS VERSION
WRAP.                                   NO : WRAPING MODE
SWARE .                 MController 2.5.0J : SOFTWARE VERSION
~Well Information
WELL.                         State 16-43V : WELL
COMP.                       Petrogulf CORP : COMPANY
FLD.                NE/SE Sec 16 T33S R67W : FIELD
LOC.                      Purgatoire River : LOCATION
DATE.                            12/3-4/04 : DATE(S) LOGGED
SRVC.        Blanco Geological Service LLC : SERVICE COMPANY
STAT.                                   CO : STATE
CNTY.                            Las Animas: COUNTY
CTRY.                                  USA : COUNTRY
API.                           05-071-08015: API NUMBER
STRT.FT                             626.00 : START DEPTH
STOP.FT                            2125.00 : STOP DEPTH
STEP.FT                               1.00 : DEPTH INCREMENT
NULL.                                -9999 : NULL VALUE
~Curve information
DEPTH.FT                                   :
ROP.MIN/FT                                 :
GAS.UNITS                                  :
~ASCII Log data
# ...
       832.0         0.23         23.2
       833.0         0.23         23.9
       834.0         0.20         23.4
       835.0         0.15         22.7
       836.0         0.27          9.6
       837.0         0.30          9.9
       838.0         0.32         10.4
       839.0         0.30         10.8
       840.0         0.20         11.2
       841.0         0.20         10.5
       842.0         0.20         10.7
       843.0         0.20         11.8
       844.0         0.20          9.5
       845.0         0.20          9.5
       846.0         0.20         10.0
       847.0         0.27          9.0
       848.0         0.33          9.0
       849.0         0.23          9.2
       850.0         0.20          9.7
       851.0         0.20          9.7
       852.0         0.20         10.0
       853.0         0.22         10.9
       854.0         0.23         10.3
       855.0         0.17          9.1
       856.0         0.17         10.0
       857.0         0.23          9.9
       858.0         0.10          9.6
       859.0         0.13          9.4
       860.0         0.10          8.8
       861.0         0.10          8.8
       862.0         0.10          8.6
       863.0         0.17          9.2
       864.0         0.10          9.0
       865.0         0.10          9.2
       866.0         0.30          6.8
       867.0         0.20          6.2
       868.0         0.27          6.4
       869.0         0.27          7.0
       870.0         0.17          7.5
       871.0         0.33          7.3
       872.0         0.27          7.0
       873.0         0.27          7.0
       874.0         0.25          7.2
       875.0         0.23          6.9
       876.0         0.20          5.9
       877.0         0.17          7.1
       878.0         0.13          8.0
       879.0         0.13          7.6
       880.0         0.10          7.8
       881.0         0.10          7.4
       882.0         0.13          7.2
       883.0         0.13          8.0
       884.0         0.10          8.6
       885.0         0.10          8.9
       886.0         0.13          8.9
       887.0         0.10          9.4
       888.0         0.13          9.0
       889.0         0.10          9.1
       890.0         0.13          8.9
       891.0         0.10          8.4
       892.0         0.13          8.3
       893.0         0.10          7.3
       894.0         0.13          8.3
       895.0         0.13          7.6
       896.0         0.27          6.6
       897.0         0.23          6.5
       898.0         0.17          6.4
       899.0         0.13          6.3
       900.0         0.23          7.4
       901.0         0.23          7.5
       902.0         0.22          8.4
       903.0         0.20          7.7
       904.0         0.17          7.5
       905.0         0.17          8.2
       906.0         0.20          7.4
       907.0         0.23          7.2
       908.0         0.23          7.4
       909.0         0.27          8.2
       910.0         0.33          8.3
       911.0         0.30         10.4
       912.0         0.30          9.8
       913.0         0.27          8.0
       914.0         0.23          7.6
       915.0         0.23          7.3
       916.0         0.28          8.8
       917.0         0.27          9.8
       918.0         0.20          8.3
       919.0         0.33          6.8
       920.0         0.20          6.9
       921.0         0.30          7.3
       922.0         0.23          7.7
       923.0         0.30          9.2
       924.0         0.27          8.5
       925.0         0.27          8.2
       926.0         0.27          8.7
       927.0         0.43          7.4
       928.0         0.37          7.4
       929.0         0.32          5.6
       930.0         0.27          6.7
       931.0         0.23          7.5
       932.0         0.20          6.6
       933.0         0.17          6.7
       934.0         0.17          7.2
       935.0         0.17          7.6
       936.0         0.13          7.2
       937.0         0.17          7.9
       938.0         0.10          7.2
       939.0         0.13          7.1
       940.0         0.17          8.4
       941.0         0.20          8.2
       942.0         0.20          8.1
       943.0         0.27          9.7
       944.0         0.20          6.9
       945.0         0.18          6.3
       946.0         0.10          6.4
       947.0         0.13          6.2
       948.0         0.10          5.9
       949.0         0.10          5.9
       950.0         0.10          5.9
       951.0         0.13          6.5
       952.0         0.23          7.1
       953.0         0.23          7.5
       954.0         0.20          7.0
       955.0         0.27          7.9
       956.0         0.20          6.5
       957.0         0.30          8.0
       958.0         0.33          7.1
       959.0         0.33          8.1
       960.0         0.27          8.2
       961.0         0.27          7.5
       962.0         0.27          6.6
       963.0         0.23          7.3
       964.0         0.23          8.0
       965.0         0.23          8.2
       966.0         0.25          7.4
       967.0         0.13          7.7
       968.0         0.10          8.4
       969.0         0.10          8.0
       970.0         0.23          8.7
       971.0         0.23          8.0
       972.0         0.27          9.8
       973.0         0.33          8.0
       974.0         0.23          7.8
       975.0         0.27          7.7
       976.0         0.17          9.2
       977.0         0.13          9.5
       978.0         0.30          8.9
       979.0         0.27          8.8
       980.0         0.27          8.7
       981.0         0.25          8.8
       982.0         0.27          9.1
       983.0         0.20          8.3
       984.0         0.23          7.8
       985.0         0.17          7.4
       986.0         0.30          7.3
       987.0         0.23          6.6
       988.0         0.30          7.7
       989.0         0.30          8.0
       990.0         0.40          7.5
       991.0         0.40          7.5
       992.0         0.27          7.4
       993.0         0.33          7.9
       994.0         0.27          8.2
       995.0         0.27          8.7
       996.0         0.25          8.6
       997.0         0.27          9.3
       998.0         0.23         10.8
       999.0         0.30          9.2
      1000.0         0.23          7.4
      1001.0         0.27          7.2
      1002.0         0.30          9.2
      1003.0         0.17          9.7
      1004.0         0.23          9.9
      1005.0         0.23          9.3
      1006.0         0.20          8.8
      1007.0         0.17          8.0
      1008.0         0.17          7.7
      1009.0         0.07          7.5
      1010.0         0.20          7.9
      1011.0         0.23          7.3
      1012.0         0.25          6.9
      1013.0         0.30          8.5
      1014.0         0.27          9.9
      1015.0         0.20         10.0
      1016.0         0.23          7.2
      1017.0         0.30          6.8
      1018.0         0.30          7.7
      1019.0         0.27          8.3
      1020.0         0.23          8.7
      1021.0         0.23          8.5
      1022.0         0.30          9.1
      1023.0         0.37          9.1
      1024.0         0.28          8.4
      1025.0         0.27          8.9
      1026.0         0.20          9.5
      1027.0         0.20          9.8
      1028.0         0.17          8.4
      1029.0         0.13          8.2
      1030.0         0.17          7.1
      1031.0         0.17          7.9
      1032.0         0.20          9.1
      1033.0         0.17          7.8
      1034.0         0.13          7.4
      1035.0         0.23          7.6
      1036.0         0.23          7.0
      1037.0         0.17          7.2
