~Version Information
VERS.                      2.0: CWLS Log ASCII Standard - VERSION 2.0
WRAP.                       NO: One line per depth step
~Well Information Block
STRT.FT                60.5000: 
STOP.FT              1875.7500: 
STEP.FT                 0.2500: 
NULL.                -999.2500: 
COMP.          Petrogulf Corporation: COMPANY
WELL.             State 16-14R: WELL
FLD.           Purgatorie River: FIELD
LOC.           598' FSL & 682' FWL--: LOCATION
PROV.                       CO: PROVINCE
CNTY.               Las Animas: COUNTRY
SRVC.                         : SERVICE COMPANY
DATE.          Fri Nov 12 08:50:45 2004: LOG DATE
UWI.            005 071 08034 : UNIQUE WELL ID
~Curve Information Block
DEPT.FT            0 000 00 00: Depth
GR.GAPI                       : Gamma Ray
CCL.                          : Casing Collar Locator
TT3.usec                      : CBL 3' Travel Time
AMP3.mV                       : CBL 3' Amplitude
~Parameter Information Block
~A  Depth        GR         CCL         TT3         AMP3    
# ...
   898.0000    141.7456      0.0000    748.6115     10.2303
   898.2500    144.5729      0.0000    750.4526     10.2523
   898.5000    144.7861      0.0000    751.7763     10.2514
   898.7500    145.2338      0.0000    752.4685     10.2488
   899.0000    146.3869      0.0000    752.6866     10.2575
   899.2500    146.3028      0.0000    752.6146     10.2765
   899.5000    143.2613      0.0000    752.4158     10.3003
   899.7500    137.8507      0.0000    752.2249     10.3269
   900.0000    132.5700      0.0000    752.1225     10.3592
   900.2500    129.8446      0.0000    752.1328     10.3989
   900.5000    130.4013      0.0000    752.2327     10.4371
   900.7500    133.0404      0.0000    752.3704     10.4561
   901.0000    135.6102      0.0000    752.4952     10.4445
   901.2500    136.3029      0.0000    752.5828     10.4104
   901.5000    134.4507      0.0000    752.6343     10.3786
   901.7500    130.4605      0.0000    752.6608     10.3723
   902.0000    125.3130      0.0000    752.6514     10.3943
   902.2500    120.4636      0.0000    752.5139     10.4251
   902.5000    117.8605      0.0000    752.0073     10.4387
   902.7500    119.0112      0.0000    750.8248     10.4240
   903.0000    123.5992      0.0000    748.9584     10.3920
   903.2500    129.7126      0.0000    747.0732     10.3587
   903.5000    135.7919      0.0000    746.1996     10.3161
   903.7500    141.6958      0.0000    746.6730     10.2238
   904.0000    147.6094      0.0000    747.4369     10.0378
   904.2500    152.6919      0.0000    746.8455      9.7479
   904.5000    155.3340      0.0000    744.6071      9.3825
   904.7500    154.6800      0.0000    743.0807      8.9798
   905.0000    151.6370      0.0000    746.1767      8.5555
   905.2500    148.0127      0.0000    756.3074      8.1003
   905.5000    144.6447      0.0000    772.7233      7.6045
   905.7500    141.0335      0.0000    793.3484      7.0757
   906.0000    136.9840      0.0000    817.2330      6.5323
   906.2500    133.6036      0.0000    843.8259      5.9885
   906.5000    131.8746      0.0000    870.5427      5.4541
   906.7500    130.8552      0.0000    893.0139      4.9488
   907.0000    128.3408      0.0000    908.1714      4.5074
   907.2500    123.4761      0.0000    916.2097      4.1685
   907.5000    118.0898      0.0000    919.4605      3.9580
   907.7500    115.0621      0.0000    920.1642      3.8806
   908.0000    115.7459      0.0000    919.2460      3.9229
   908.2500    119.1946      0.0000    916.2723      4.0647
   908.5000    123.3425      0.0000    909.8578      4.2954
   908.7500    126.3382      0.0000    898.1701      4.6199
   909.0000    127.2252      0.0000    879.7282      5.0438
   909.2500    126.5893      0.0000    854.8426      5.5531
   909.5000    126.5627      0.0000    826.9425      6.1190
   909.7500    128.8883      0.0000    801.6190      6.7177
   910.0000    132.8119      0.0000    783.0669      7.3299
   910.2500    135.9709      0.0000    771.3676      7.9213
   910.5000    137.3070      0.0000    763.5820      8.4417
   910.7500    137.9343      0.0000    756.8780      8.8466
   911.0000    139.3130      0.0000    750.6511      9.0957
   911.2500    141.6541      0.0000    746.9321      9.1469
   911.5000    143.8978      0.0000    749.0175      9.0030
   911.7500    144.4985      0.0000    758.2523      8.7597
   912.0000    142.6834      0.0000    772.0269      8.5320
   912.2500    139.4396      0.0000    786.2340      8.3298
   912.5000    136.8216      0.0000    798.8872      8.0829
   912.7500    135.9873      0.0000    809.8342      7.7670
   913.0000    136.3416      0.0000    818.5861      7.4221
   913.2500    136.6663      0.0000    824.3934      7.0721
   913.5000    136.4241     -2.0000    827.0893      6.7032
   913.7500    135.8136     -2.0000    826.9377      6.3084
   914.0000    135.2991      0.0000    824.9469      5.9203
   914.2500    135.4295      0.0000    822.7097      5.6062
   914.5000    136.5527      0.0000    820.0200      5.4307
   914.7500    138.2200      0.0000    813.8179      5.3953
   915.0000    139.0995      0.0000    801.7546      5.4174
   915.2500    137.8293      0.0000    785.8653      5.4030
   915.5000    134.2473      0.0000    771.2243      5.3305
   915.7500    129.9205      0.0000    761.8188      5.2429
   916.0000    127.1360      0.0000    758.8158      5.1876
   916.2500    127.0157      0.0000    761.5477      5.2020
   916.5000    128.7821      0.0000    768.1731      5.3333
   916.7500    130.8694      0.0000    775.2563      5.6280
   917.0000    132.3495      0.0000    778.6063      6.0922
   917.2500    133.2706      0.0000    776.1575      6.6782
   917.5000    134.0773      0.0000    769.6762      7.3181
   917.7500    134.9282      0.0000    762.8381      7.9613
   918.0000    135.4967      0.0000    758.0699      8.5741
   918.2500    135.1860      0.0000    755.6049      9.1134
   918.5000    133.1711      0.0000    754.6251      9.5213
   918.7500    128.3869      0.0000    754.3789      9.7586
   919.0000    120.2054      0.0000    754.4179      9.8417
   919.2500    109.3745      0.0000    754.4161      9.8437
   919.5000     98.0865      0.0000    754.0535      9.8593
   919.7500     89.0409      0.0000    753.0063      9.9632
   920.0000     84.1948      0.0000    751.0694     10.1747
   920.2500     83.7639      0.0000    748.4111     10.4393
   920.5000     86.0371      0.0000    745.7385     10.6489
   920.7500     88.4980      0.0000    743.8613     10.7090
   921.0000     89.7393      0.0000    742.8440     10.5985
   921.2500     90.6939      0.0000    742.0159     10.3616
   921.5000     94.0659      0.0000    741.3841     10.0441
   921.7500    102.0793      0.0000    742.7052      9.6559
   922.0000    114.2137      0.0000    748.2008      9.1969
   922.2500    127.0747      0.0000    757.8826      8.6946
   922.5000    136.6791      0.0000    768.7000      8.1900
   922.7500    141.0889      0.0000    777.0134      7.6890
   923.0000    141.2851      0.0000    782.4069      7.1468
   923.2500    139.9633      0.0000    789.2604      6.5163
   923.5000    139.4223      0.0000    803.8554      5.8057
   923.7500    139.9927      0.0000    828.6009      5.0838
   924.0000    140.1259      0.0000    858.8793      4.4421
   924.2500    137.8661      0.0000    886.3281      3.9624
   924.5000    132.1669      0.0000    905.1526      3.7023
   924.7500    123.2573      0.0000    914.8279      3.6792
   925.0000    112.7420      0.0000    917.6902      3.8566
   925.2500    103.5924      0.0000    915.2171      4.1552
   925.5000     99.0309      0.0000    906.5062      4.4908
   925.7500    100.3621      0.0000    889.7191      4.8159
   926.0000    105.6855      0.0000    865.1044      5.1363
   926.2500    111.0729      0.0000    836.4841      5.4948
   926.5000    113.2491      0.0000    808.9517      5.9381
   926.7500    111.3821      0.0000    785.1644      6.4991
   927.0000    106.8326      0.0000    764.8251      7.1893
   927.2500    101.6761      0.0000    747.4220      7.9749
   927.5000     97.3515      0.0000    733.9640      8.7518
   927.7500     94.1350      0.0000    725.9167      9.3808
   928.0000     91.4863      0.0000    723.6989      9.7725
   928.2500     88.8138      0.0000    726.5194      9.9360
   928.5000     86.1202      0.0000    732.7935      9.9472
   928.7500     84.1931      0.0000    740.4036      9.8839
   929.0000     84.1915      0.0000    747.2451      9.7883
   929.2500     86.6773      0.0000    752.0584      9.6718
   929.5000     90.8876      0.0000    754.7628      9.5405
   929.7500     95.2605      0.0000    755.9907      9.4112
   930.0000     98.7091      0.0000    756.4398      9.3006
   930.2500    100.9793      0.0000    756.5632      9.2097
   930.5000    101.9242      0.0000    756.5788      9.1284
   930.7500    101.3237      0.0000    756.5645      9.0536
   931.0000     99.5340      0.0000    756.5443      8.9958
   931.2500     97.4444      0.0000    756.5471      8.9680
