~Version Information
VERS.                      2.0: CWLS Log ASCII Standard - VERSION 2.0
WRAP.                       NO: One line per depth step
~Well Information Block
STRT.FT                -7.0500: 
STOP.FT              3072.6000: 
STEP.FT                 0.0500: 
NULL.                -999.2500: 
COMP.          Pioneer Natural Resources: COMPANY
WELL.              Stones 24-8: WELL
FLD.           Purgatoire River: FIELD
LOC.           648' FSL & 2264' FWL--: LOCATION
PROV.                 Colorado: PROVINCE
CNTY.               Las Animas: COUNTRY
SRVC.                Patterson: SERVICE COMPANY
DATE.          Fri Feb 04 12:43:19 2005: LOG DATE
UWI.           05 071 07945 00: UNIQUE WELL ID
~Curve Information Block
DEPT.FT            0 000 00 00: Depth
CCL.                          : Casing Collar Locator
TT3.usec                      : CBL 3' Travel Time
AMP3.mV                       : CBL 3' Amplitude
GR.GAPI                       : Gamma Ray
~Parameter Information Block
~A  Depth       CCL         TT3         AMP3         GR     
# ...
  1835.4500      0.0000    513.8478      2.2266    114.5502
  1835.5000      0.0000    514.5944      2.2480    108.9144
  1835.5500      0.0000    514.5944      2.2480    108.9144
  1835.6000      0.0000    514.5944      2.2480    108.9144
  1835.6500      0.0000    514.5944      2.2480    108.9144
  1835.7000      0.0000    514.5944      2.2480    108.9144
  1835.7500      0.0000    512.5377      2.2957    106.4547
  1835.8000      0.0000    512.5377      2.2957    106.4547
  1835.8500      0.0000    512.5377      2.2957    106.4547
  1835.9000      0.0000    512.5377      2.2957    106.4547
  1835.9500      0.0000    512.5377      2.2957    106.4547
  1836.0000      0.0000    507.3651      2.3580    108.7072
  1836.0500      0.0000    507.3651      2.3580    108.7072
  1836.1000      0.0000    507.3651      2.3580    108.7072
  1836.1500      0.0000    507.3651      2.3580    108.7072
  1836.2000      0.0000    507.3651      2.3580    108.7072
  1836.2500      0.0000    506.3360      2.4044    115.3271
  1836.3000      0.0000    506.3360      2.4044    115.3271
  1836.3500      0.0000    506.3360      2.4044    115.3271
  1836.4000      0.0000    506.3360      2.4044    115.3271
  1836.4500      0.0000    506.3360      2.4044    115.3271
  1836.5000      0.0000    519.2442      2.4097    123.3482
  1836.5500      0.0000    519.2442      2.4097    123.3482
  1836.6000      0.0000    519.2442      2.4097    123.3482
  1836.6500      0.0000    519.2442      2.4097    123.3482
  1836.7000      0.0000    519.2442      2.4097    123.3482
  1836.7500      0.0000    549.2973      2.3766    128.4863
  1836.8000      0.0000    549.2973      2.3766    128.4863
  1836.8500      0.0000    549.2973      2.3766    128.4863
  1836.9000      0.0000    549.2973      2.3766    128.4863
  1836.9500      0.0000    549.2973      2.3766    128.4863
  1837.0000      0.0000    589.2147      2.3321    127.8737
  1837.0500      0.0000    589.2147      2.3321    127.8737
  1837.1000      0.0000    589.2147      2.3321    127.8737
  1837.1500      0.0000    589.2147      2.3321    127.8737
  1837.2000      0.0000    589.2147      2.3321    127.8737
  1837.2500      0.0000    625.7823      2.3065    121.9712
  1837.3000      0.0000    625.7823      2.3065    121.9712
  1837.3500      0.0000    625.7823      2.3065    121.9712
  1837.4000      0.0000    625.7823      2.3065    121.9712
  1837.4500      0.0000    625.7823      2.3065    121.9712
  1837.5000      0.0000    647.5131      2.3176    114.3431
  1837.5500      0.0000    647.5131      2.3176    114.3431
  1837.6000      0.0000    647.5131      2.3176    114.3431
  1837.6500      0.0000    647.5131      2.3176    114.3431
  1837.7000      0.0000    647.5131      2.3176    114.3431
  1837.7500      0.0000    648.6753      2.3705    109.7111
  1837.8000      0.0000    648.6753      2.3705    109.7111
  1837.8500      0.0000    648.6753      2.3705    109.7111
  1837.9000      0.0000    648.6753      2.3705    109.7111
  1837.9500      0.0000    648.6753      2.3705    109.7111
  1838.0000      0.0000    629.3264      2.4622    111.3982
  1838.0500      0.0000    629.3264      2.4622    111.3982
  1838.1000      0.0000    629.3264      2.4622    111.3982
  1838.1500      0.0000    629.3264      2.4622    111.3982
  1838.2000      0.0000    629.3264      2.4622    111.3982
  1838.2500      0.0000    595.3911      2.5798    119.3817
  1838.3000      0.0000    595.3911      2.5798    119.3817
  1838.3500      0.0000    595.3911      2.5798    119.3817
  1838.4000      0.0000    595.3911      2.5798    119.3817
  1838.4500      0.0000    595.3911      2.5798    119.3817
  1838.5000      0.0000    558.5521      2.6974    130.0064
  1838.5500      0.0000    558.5521      2.6974    130.0064
  1838.6000      0.0000    558.5521      2.6974    130.0064
  1838.6500      0.0000    558.5521      2.6974    130.0064
  1838.7000      0.0000    558.5521      2.6974    130.0064
  1838.7500      0.0000    531.6147      2.7854    137.7239
  1838.8000      0.0000    531.6147      2.7854    137.7239
  1838.8500      0.0000    531.6147      2.7854    137.7239
  1838.9000      0.0000    531.6147      2.7854    137.7239
  1838.9500      0.0000    531.6147      2.7854    137.7239
  1839.0000      0.0000    520.3939      2.8315    137.9774
  1839.0500      0.0000    520.3939      2.8315    137.9774
  1839.1000      0.0000    520.3939      2.8315    137.9774
  1839.1500      0.0000    520.3939      2.8315    137.9774
  1839.2000      0.0000    520.3939      2.8315    137.9774
  1839.2500      0.0000    520.4370      2.8484    129.4779
  1839.3000      0.0000    520.4370      2.8484    129.4779
  1839.3500      0.0000    520.4370      2.8484    129.4779
  1839.4000      0.0000    520.4370      2.8484    129.4779
  1839.4500      0.0000    520.4370      2.8484    129.4779
  1839.5000      0.0000    522.8920      2.8559    114.6674
  1839.5500      0.0000    522.8920      2.8559    114.6674
  1839.6000      0.0000    522.8920      2.8559    114.6674
  1839.6500      0.0000    522.8920      2.8559    114.6674
  1839.7000      0.0000    522.8920      2.8559    114.6674
  1839.7500      0.0000    523.2337      2.8576     98.2303
  1839.8000      0.0000    523.2337      2.8576     98.2303
  1839.8500      0.0000    523.2337      2.8576     98.2303
  1839.9000      0.0000    523.2337      2.8576     98.2303
  1839.9500      0.0000    523.2337      2.8576     98.2303
  1840.0000      0.0000    523.9949      2.8432     84.5071
  1840.0500      0.0000    523.9949      2.8432     84.5071
  1840.1000      0.0000    523.9949      2.8432     84.5071
  1840.1500      0.0000    523.9949      2.8432     84.5071
  1840.2000      0.0000    523.9949      2.8432     84.5071
  1840.2500      0.0000    530.2930      2.8114     75.5130
  1840.3000      0.0000    530.2930      2.8114     75.5130
  1840.3500      0.0000    530.2930      2.8114     75.5130
  1840.4000      0.0000    530.2930      2.8114     75.5130
  1840.4500      0.0000    530.2930      2.8114     75.5130
  1840.5000      0.0000    543.9623      2.7827     70.7984
  1840.5500      0.0000    543.9623      2.7827     70.7984
  1840.6000      0.0000    543.9623      2.7827     70.7984
  1840.6500      0.0000    543.9623      2.7827     70.7984
  1840.7000      0.0000    543.9623      2.7827     70.7984
  1840.7500      0.0000    561.6006      2.7817     68.7253
  1840.8000      0.0000    561.6006      2.7817     68.7253
  1840.8500      0.0000    561.6006      2.7817     68.7253
  1840.9000      0.0000    561.6006      2.7817     68.7253
  1840.9500      0.0000    561.6006      2.7817     68.7253
  1841.0000      0.0000    577.0869      2.8095     67.7612
  1841.0500      0.0000    577.0869      2.8095     67.7612
  1841.1000      0.0000    577.0869      2.8095     67.7612
  1841.1500      0.0000    577.0869      2.8095     67.7612
  1841.2000      0.0000    577.0869      2.8095     67.7612
  1841.2500      0.0000    585.3574      2.8432     67.1052
  1841.3000      0.0000    585.3574      2.8432     67.1052
  1841.3500      0.0000    585.3574      2.8432     67.1052
  1841.4000      0.0000    585.3574      2.8432     67.1052
  1841.4500      0.0000    585.3574      2.8432     67.1052
  1841.5000      0.0000    584.1185      2.8652     66.8740
  1841.5500      0.0000    584.1185      2.8652     66.8740
  1841.6000      0.0000    584.1185      2.8652     66.8740
  1841.6500      0.0000    584.1185      2.8652     66.8740
  1841.7000      0.0000    584.1185      2.8652     66.8740
  1841.7500      0.0000    573.5948      2.8774     67.9857
  1841.8000      0.0000    573.5948      2.8774     67.9857
  1841.8500      0.0000    573.5948      2.8774     67.9857
  1841.9000      0.0000    573.5948      2.8774     67.9857
  1841.9500      0.0000    573.5948      2.8774     67.9857
  1842.0000      0.0000    556.6895      2.8787     71.5522
  1842.0500      0.0000    556.6895      2.8787     71.5522
  1842.1000      0.0000    556.6895      2.8787     71.5522
