~Version Information
VERS.                      2.0: CWLS Log ASCII Standard - VERSION 2.0
WRAP.                       NO: One line per depth step
~Well Information Block
STRT.FT               -16.5000: 
STOP.FT              1244.7500: 
STEP.FT                 0.2500: 
NULL.                -999.2500: 
COMP.          Pioneer Natural Resources: COMPANY
WELL.          Bouncer41-27 Tr: WELL
FLD.           Purgatorie River: FIELD
LOC.           292' FNL & 222' FEL--------: LOCATION
PROV.                       CO: PROVINCE
CNTY.               Las Animas: COUNTRY
SRVC.                         : SERVICE COMPANY
DATE.          Fri Feb 11 15:34:51 2005: LOG DATE
UWI.                071-08291 : UNIQUE WELL ID
~Curve Information Block
DEPT.FT            0 000 00 00: Depth
CCL.                          : Casing Collar Locator
TT3.usec                      : CBL 3' Travel Time
AMP3.mV                       : CBL 3' Amplitude
GR.GAPI                       : Gamma Ray
~Parameter Information Block
~A  Depth       CCL         TT3         AMP3         GR     
# ...
  1156.0000      0.0000    589.7703      6.5904    112.0838
  1156.2500      0.0000    608.8792      6.5294    115.3078
  1156.5000      0.0000    646.2262      6.4444    116.0307
  1156.7500      0.0000    689.0208      6.3361    115.4768
  1157.0000      0.0000    723.4906      6.1943    114.5934
  1157.2500      0.0000    744.4689      6.0235    113.7044
  1157.5000      0.0000    753.5442      5.8596    112.6460
  1157.7500      0.0000    754.1135      5.7486    110.7143
  1158.0000      0.0000    749.8484      5.7100    106.8291
  1158.2500      0.0000    744.4937      5.7268    100.4102
  1158.5000      0.0000    740.5165      5.7683     92.0466
  1158.7500      0.0000    738.1890      5.8129     83.1713
  1159.0000      0.0000    736.7368      5.8532     75.4619
  1159.2500      0.0000    736.0908      5.8920     70.4819
  1159.5000      0.0000    736.8237      5.9397     69.1382
  1159.7500      0.0000    738.5784      6.0156     71.0421
  1160.0000      0.0000    739.7339      6.1505     74.3908
  1160.2500      0.0000    739.0229      6.3738     76.5353
  1160.5000      0.0000    736.8137      6.6824     75.1348
  1160.7500      0.0000    734.4771      7.0211     69.6623
  1161.0000      0.0000    732.9935      7.3048     62.3730
  1161.2500      0.0000    732.4318      7.4662     57.5013
  1161.5000      0.0000    732.3664      7.4846     58.6148
  1161.7500      0.0000    732.4105      7.3860     65.9959
  1162.0000      0.0000    732.4289      7.2254     76.5346
  1162.2500      0.0000    732.4068      7.0650     86.4263
  1162.5000      0.0000    732.2174      6.9541     93.9823
  1162.7500      0.0000    731.5347      6.9197     99.8290
  1163.0000      0.0000    730.0487      6.9663    105.1090
  1163.2500      0.0000    727.8906      7.0775    110.3337
  1163.5000      0.0000    725.8959      7.2214    115.7108
  1163.7500      0.0000    725.1987      7.3647    121.5240
  1164.0000      0.0000    726.2729      7.4890    127.5916
  1164.2500      0.0000    728.4677      7.5918    132.7392
  1164.5000      0.0000    730.6571      7.6696    135.6307
  1164.7500      0.0000    732.1769      7.6993    136.4742
  1165.0000      0.0000    733.0145      7.6408    137.2809
  1165.2500      0.0000    733.3819      7.4666    139.8312
  1165.5000      0.0000    733.2615      7.1902    143.8816
  1165.7500      0.0000    732.1322      6.8635    147.9246
  1166.0000      0.0000    728.7488      6.5483    150.9321
  1166.2500      0.0000    721.4263      6.2891    152.5636
  1166.5000      0.0000    709.5952      6.1079    152.3807
  1166.7500      0.0000    695.8005      6.0122    149.9790
  1167.0000      0.0000    685.0842      6.0007    145.7430
  1167.2500      0.0000    680.4842      6.0605    140.5989
  1167.5000      0.0000    678.6194      6.1622    135.0203
  1167.7500      0.0000    670.4029      6.2610    128.8892
  1168.0000      0.0000    647.4927      6.3117    122.2199
  1168.2500      0.0000    609.7711      6.2915    115.4646
  1168.5000      0.0000    566.6389      6.2111    109.1698
  1168.7500      0.0000    529.5438      6.1055    103.7201
  1169.0000      0.0000    504.6757      6.0166     99.4442
  1169.2500      0.0000    494.9572      5.9797     96.7512
  1169.5000      0.0000    504.2605      6.0122     96.1139
  1169.7500      0.0000    532.2152      6.1074     97.9507
  1170.0000      0.0000    566.0909      6.2397    102.3115
  1170.2500      0.0000    586.2155      6.3788    108.5535
  1170.5000      0.0000    583.3796      6.5032    115.5816
  1170.7500      0.0000    567.3499      6.6017    122.4874
  1171.0000      0.0000    554.8501      6.6694    128.5297
  1171.2500      0.0000    552.1768      6.7105    132.4647
  1171.5000      0.0000    553.7358      6.7454    132.8585
  1171.7500      0.0000    554.2344      6.7987    129.7780
  1172.0000      0.0000    555.5575      6.8714    125.7730
  1172.2500      0.0000    560.9777      6.9314    124.4919
  1172.5000      0.0000    567.0132      6.9437    127.8343
  1172.7500      0.0000    563.8063      6.9076    134.0153
  1173.0000      0.0000    544.7309      6.8601    138.6161
  1173.2500      0.0000    515.6240      6.8461    138.2849
  1173.5000      0.0000    492.1594      6.8834    133.3803
  1173.7500      0.0000    485.9118      6.9497    126.5613
  1174.0000      0.0000    494.1639      6.9960    119.5184
  1174.2500      0.0000    505.5894      6.9779    112.0092
  1174.5000      0.0000    515.0409      6.8842    103.3701
  1174.7500      0.0000    529.3793      6.7489     93.7594
  1175.0000      0.0000    556.7723      6.6351     84.1567
  1175.2500      0.0000    592.2690      6.5982     76.0356
  1175.5000      0.0000    617.8958      6.6525     70.9709
  1175.7500      0.0000    618.8225      6.7680     69.8030
  1176.0000      0.0000    599.0610      6.8950     72.0603
  1176.2500      0.0000    580.3065      6.9933     76.5729
  1176.5000      0.0000    583.8497      7.0496     82.5661
  1176.7500      0.0000    612.8136      7.0736     89.7296
  1177.0000      0.0000    652.6310      7.0807     97.3790
  1177.2500      0.0000    686.7332      7.0831    104.2127
  1177.5000      0.0000    708.4495      7.0912    109.2062
  1177.7500      0.0000    719.9391      7.1141    112.6100
  1178.0000      0.0000    725.6212      7.1506    115.6722
  1178.2500      0.0000    728.5408      7.1890    119.0880
  1178.5000      0.0000    730.1571      7.2189    121.8955
  1178.7500      0.0000    731.0101      7.2369    122.4277
  1179.0000      0.0000    731.1074      7.2381    120.4293
  1179.2500      0.0000    729.8784      7.2065    117.7862
  1179.5000      0.0000    725.8578      7.1247    116.9147
  1179.7500      0.0000    716.8243      6.9899    118.6177
  1180.0000      0.0000    701.4655      6.8235    121.7226
  1180.2500      0.0000    682.1738      6.6653    124.5670
  1180.5000      0.0000    665.7043      6.5574    126.2928
  1180.7500      0.0000    659.0599      6.5242    126.6739
  1181.0000      0.0000    663.9836      6.5693    125.5785
  1181.2500      0.0000    676.3472      6.6867    123.3217
  1181.5000      0.0000    690.6191      6.8619    121.1330
  1181.7500      0.0000    703.4174      7.0599    120.4200
  1182.0000      0.0000    713.1121      7.2277    121.2755
  1182.2500      0.0000    718.1685      7.3236    122.1672
  1182.5000      0.0000    717.2907      7.3403    121.6578
  1182.7500      0.0000    711.2250      7.2993    120.2839
  1183.0000      0.0000    703.9307      7.2257    120.2253
  1183.2500      0.0000    700.8116      7.1325    123.2818
  1183.5000      0.0000    704.5341      7.0166    129.4923
  1183.7500      0.0000    712.7890      6.8684    137.2381
  1184.0000      0.0000    720.7036      6.6900    144.1075
  1184.2500      0.0000    724.7917      6.5052    148.0662
  1184.5000      0.0000    724.1429      6.3546    148.4973
  1184.7500      0.0000    718.7483      6.2828    146.3949
  1185.0000      0.0000    707.2290      6.3218    143.6109
  1185.2500      0.0000    686.1461      6.4745    141.6870
  1185.5000      0.0000    652.7900      6.7131    140.7507
  1185.7500      0.0000    610.9627      6.9917    139.2396
  1186.0000      0.0000    573.8687      7.2547    135.0693
  1186.2500      0.0000    557.7791      7.4426    127.2897
  1186.5000      0.0000    569.4759      7.5115    116.6513
  1186.7500      0.0000    599.8469      7.4599    105.1062
  1187.0000      0.0000    631.0380      7.3303     95.1294
  1187.2500      0.0000    649.8415      7.1788     88.9792
  1187.5000      0.0000    653.9404      7.0481     87.9783
  1187.7500      0.0000    647.5646      6.9652     92.3406
  1188.0000      0.0000    634.6476      6.9429    101.3181
  1188.2500      0.0000    616.9200      6.9705    113.2029
  1188.5000      0.0000    595.6281      7.0139    125.7577
  1188.7500      0.0000    572.0134      7.0456    137.3045
  1189.0000      0.0000    546.3503      7.0737    147.2594
  1189.2500      0.0000    519.1709      7.1289    155.3096
