~Version Information
VERS.                      2.0: CWLS Log ASCII Standard - VERSION 2.0
WRAP.                       NO: One line per depth step
~Well Information Block
STRT.FT                -7.2500: 
STOP.FT               862.2500: 
STEP.FT                 0.2500: 
NULL.                -999.2500: 
COMP.          Pioneer Natural Resources: COMPANY
WELL.          Santisteven 13-22: WELL
FLD.           Purgatorie River: FIELD
LOC.           1861' FSL & 992' FWL--: LOCATION
PROV.                       CO: PROVINCE
CNTY.               Las Animas: COUNTRY
SRVC.          Patterson Wireline: SERVICE COMPANY
DATE.          Thu Apr 07 09:08:11 2005: LOG DATE
UWI.           05 071 08337 00: UNIQUE WELL ID
~Curve Information Block
DEPT.FT            0 000 00 00: Depth
CCL.                          : Casing Collar Locator
TT3.usec                      : CBL 3' Travel Time
AMP3.mV                       : CBL 3' Amplitude
GR.GAPI                       : Gamma Ray
~Parameter Information Block
~A  Depth       CCL         TT3         AMP3         GR     
# ...
   428.2500      0.0000    742.9797      6.4397    120.7376
   428.5000      0.0000    740.7465      6.2958    123.9305
   428.7500      0.0000    740.0546      6.1543    124.4375
   429.0000      0.0000    741.5064      6.0260    123.5324
   429.2500      0.0000    745.7431      5.9266    123.1293
   429.5000      0.0000    753.0318      5.8607    123.5851
   429.7500      0.0000    762.1909      5.8191    123.4639
   430.0000      0.0000    770.3693      5.7914    121.5954
   430.2500      0.0000    774.6957      5.7758    118.9215
   430.5000      0.0000    774.3816      5.7777    117.8094
   430.7500      0.0000    770.9757      5.8028    119.6882
   431.0000      0.0000    766.6202      5.8511    123.8167
   431.2500      0.0000    762.3636      5.9134    128.0961
   431.5000      0.0000    758.2629      5.9731    130.5303
   431.7500      0.0000    754.6983      6.0157    130.2087
   432.0000      0.0000    752.6959      6.0371    127.6077
   432.2500      0.0000    752.5900      6.0403    123.9393
   432.5000      0.0000    753.1182      6.0253    119.8327
   432.7500      0.0000    752.7004      5.9891    114.7508
   433.0000      0.0000    751.4723      5.9386    107.9449
   433.2500      0.0000    751.2866      5.8919     99.8616
   433.5000      0.0000    753.5529      5.8647     92.2500
   433.7500      0.0000    757.5660      5.8572     86.7003
   434.0000      0.0000    761.2003      5.8603     83.2700
   434.2500      0.0000    762.9768      5.8702     80.7491
   434.5000      0.0000    763.2350      5.8913     78.1482
   434.7500      0.0000    763.4077      5.9269     75.6958
   435.0000      0.0000    764.3950      5.9694     74.5026
   435.2500      0.0000    765.7551      6.0008     75.3335
   435.5000      0.0000    766.4236      6.0040     77.6275
   435.7500      0.0000    766.0502      5.9823     79.7828
   436.0000      0.0000    765.5538      5.9630     80.5654
   436.2500      0.0000    766.2646      5.9748     80.1178
   436.5000      0.0000    768.1858      6.0222     79.5436
   436.7500      0.0000    769.1569      6.0866     79.7323
   437.0000      0.0000    766.4919      6.1441     80.7066
   437.2500      0.0000    760.0317      6.1746     81.9131
   437.5000      0.0000    753.1594      6.1660     83.0082
   437.7500      0.0000    750.0975      6.1271     84.4081
   438.0000      0.0000    752.2541      6.0862     86.9812
   438.2500      0.0000    757.3729      6.0610     91.0309
   438.5000      0.0000    761.7715      6.0361     95.6010
   438.7500      0.0000    763.0391      5.9854     98.8459
   439.0000      0.0000    761.0458      5.9052     99.2128
   439.2500      0.0000    757.1736      5.8160     96.5001
   439.5000      0.0000    752.9760      5.7389     91.9042
   439.7500      0.0000    749.4627      5.6830     86.9555
   440.0000      0.0000    747.2445      5.6502     82.3127
   440.2500      0.0000    746.8719      5.6397     77.5080
   440.5000      0.0000    748.6005      5.6452     71.7682
   440.7500      0.0000    751.6693      5.6557     65.0847
   441.0000      0.0000    754.3489      5.6623     58.6867
   441.2500      0.0000    755.4806      5.6608     54.5649
   441.5000      0.0000    755.7997      5.6459     54.3735
   441.7500      0.0000    757.0490      5.6072     58.3823
   442.0000      0.0000    759.9063      5.5297     65.0348
   442.2500      0.0000    763.3790      5.3987     71.4656
   442.5000      0.0000    766.1384      5.2028     74.9748
   442.7500      0.0000    768.0207      4.9442     74.6116
   443.0000      0.0000    770.4161      4.6526     71.4256
   443.2500      0.0000    775.7373      4.3797     67.0380
   443.5000      0.0000    785.8516      4.1618     62.2049
   443.7500      0.0000    799.4162      3.9885     57.0072
   444.0000      0.0000    810.4661      3.8247     51.9748
   444.2500      0.0000    812.1263      3.6579     48.3288
   444.5000      0.0000    803.9284      3.5036     47.0241
   444.7500     -2.0000    794.1691      3.3769     47.9466
   445.0000     -2.0000    792.9593      3.2863     50.2534
   445.2500     -2.0000    803.4297      3.2480     53.3296
   445.5000      0.0000    820.1900      3.2873     57.1790
   445.7500      0.0000    834.3710      3.4221     61.9293
   446.0000      0.0000    839.2536      3.6491     67.3559
   446.2500      0.0000    833.3463      3.9385     73.1023
   446.5000      0.0000    820.3027      4.2448     78.9061
   446.7500      0.0000    805.8541      4.5408     84.2310
   447.0000      0.0000    794.0466      4.8392     88.0809
   447.2500      0.0000    785.9255      5.1688     89.5624
   447.5000      0.0000    780.7753      5.5337     88.4869
   447.7500      0.0000    777.7935      5.9070     85.4867
   448.0000      0.0000    776.9030      6.2511     81.7898
   448.2500      0.0000    778.6154      6.5263     78.6700
   448.5000      0.0000    782.8580      6.6942     76.8578
   448.7500      0.0000    787.7258      6.7368     76.4265
   449.0000      0.0000    790.2686      6.6799     77.0393
   449.2500      0.0000    789.2047      6.5860     78.1326
   449.5000      0.0000    786.3189      6.5143     79.0760
   449.7500      0.0000    784.7750      6.4861     79.4246
   450.0000      0.0000    786.7371      6.4802     79.0219
   450.2500      0.0000    792.7552      6.4557     77.9369
   450.5000      0.0000    801.9301      6.3826     76.5112
   450.7500      0.0000    811.4839      6.2626     75.2993
   451.0000      0.0000    816.9756      6.1264     74.5551
   451.2500      0.0000    814.6244      6.0098     73.8506
   451.5000      0.0000    804.3417      5.9321     72.6310
   451.7500      0.0000    790.2480      5.8958     71.1493
   452.0000      0.0000    777.8623      5.8973     70.5001
   452.2500      0.0000    770.8672      5.9313     71.6704
   452.5000      0.0000    770.0212      5.9871     74.8912
   452.7500      0.0000    773.8843      6.0500     79.9947
   453.0000      0.0000    780.1443      6.1105     86.9031
   453.2500      0.0000    786.8638      6.1707     95.2485
   453.5000      0.0000    793.0143      6.2387    103.7741
   453.7500      0.0000    798.1653      6.3174    110.7349
   454.0000      0.0000    802.2100      6.4009    114.9752
   454.2500      0.0000    805.4052      6.4796    116.4483
   454.5000      0.0000    807.9501      6.5452    115.9565
   454.7500      0.0000    809.5148      6.5890    114.6852
   455.0000      0.0000    809.9006      6.6012    113.6908
   455.2500      0.0000    810.0708      6.5784    113.2505
   455.5000      0.0000    811.5729      6.5330    112.4729
   455.7500      0.0000    814.6025      6.4899    109.7351
   456.0000      0.0000    817.5729      6.4640    103.8699
   456.2500      0.0000    819.3010      6.4400     95.1205
   456.5000      0.0000    820.9580      6.3800     84.9636
   456.7500      0.0000    824.6957      6.2562     75.0773
   457.0000      0.0000    830.0309      6.0784     66.5421
   457.2500      0.0000    832.3683      5.8847     59.7539
   457.5000      0.0000    826.3580      5.7044     54.6565
   457.7500      0.0000    811.0735      5.5358     50.9288
   458.0000      0.0000    790.9294      5.3600     48.0928
   458.2500      0.0000    771.5045      5.1704     45.6077
   458.5000      0.0000    755.9132      4.9829     43.0718
   458.7500      0.0000    745.0836      4.8177     40.5336
   459.0000      0.0000    739.3418      4.6760     38.5593
   459.2500      0.0000    738.6234      4.5354     37.8270
   459.5000      0.0000    741.8614      4.3727     38.5348
   459.7500      0.0000    746.9198      4.1884     40.0306
   460.0000      0.0000    751.4397      4.0076     40.9566
   460.2500      0.0000    753.9333      3.8571     40.0516
   460.5000      0.0000    754.0853      3.7425     37.1464
   460.7500      0.0000    752.0894      3.6476     33.3762
   461.0000      0.0000    748.1367      3.5552     30.3539
   461.2500      0.0000    742.9028      3.4684     29.1719
   461.5000      0.0000    738.1503      3.4129     30.0952
