~Version Information
VERS.                      2.0: CWLS Log ASCII Standard - VERSION 2.0
WRAP.                       NO: One line per depth step
~Well Information Block
STRT.FT               258.0000: 
STOP.FT               998.2000: 
STEP.FT                 0.1000: 
NULL.                -999.2500: 
COMP.          Pioneer Natural Resources: COMPANY
WELL.          Piggyback 33-25: WELL
FLD.           Purgatoire River: FIELD
LOC.           1600' FSL & 1800' FEL: LOCATION
PROV.                 Colorado: PROVINCE
CNTY.               Las Animas: COUNTRY
SRVC.                Patterson: SERVICE COMPANY
DATE.          Fri Apr 29 16:11:48 2005: LOG DATE
UWI.           05 071 08233 00: UNIQUE WELL ID
~Curve Information Block
DEPT.FT            0 000 00 00: Depth
DCAL.in                       : CDL Caliper
RHOB.g/cc                     : CDL Bulk Density
RHOC.g/cc                     : CDL Density Correction
DPOR.pu                       : CDL Density Porosity
GR.GAPI                       : Gamma Ray
NPOR.pu                       : Neutron Porosity
~Parameter Information Block
~A  Depth       DCAL        RHOB        RHOC        DPOR         GR         NPOR    
# ...
   699.6000      7.9585      2.0349      0.0421     37.2788     83.7769     28.9989
   699.7000      7.9585      2.0217      0.0242     38.0787     77.9549     27.7570
   699.8000      7.9607      2.0365      0.0055     37.1827     71.5493     27.4909
   699.9000      7.9607      2.0866      0.1072     34.1431     68.4707     27.7976
   700.0000      7.9618      2.1483      0.1400     30.4056     70.2584     28.2416
   700.1000      7.9618      2.2028      0.1230     27.1027     75.0893     28.4042
   700.2000      7.9618      2.2488      0.1383     24.3159     80.2057     27.9383
   700.3000      7.9684      2.2891      0.1369     21.8739     84.0715     27.3110
   700.4000      7.9684      2.3418      0.0845     18.6802     85.0735     26.6783
   700.5000      7.9920      2.4249      0.1174     13.6406     84.2550     25.4342
   700.6000      7.9920      2.5130      0.1662      8.3021     82.9058     23.2801
   700.7000      7.9920      2.5604      0.1518      5.4306     78.8061     20.9546
   700.8000      7.9356      2.5654      0.0438      5.1256     72.7213     19.9022
   700.9000      7.9356      2.5587      0.0773      5.5347     67.6071     20.2067
   701.0000      7.8988      2.5517      0.0592      5.9585     64.6725     20.5028
   701.1000      7.8988      2.5445      0.0343      6.3924     65.2815     20.2460
   701.2000      7.8988      2.5398      0.0529      6.6810     66.9262     19.7964
   701.3000      7.8900      2.5405      0.0498      6.6347     67.0976     19.5125
   701.4000      7.8900      2.5468      0.0512      6.2518     67.7524     19.3458
   701.5000      7.9008      2.5417      0.0507      6.5608     66.9391     19.0295
   701.6000      7.9008      2.5106      0.0291      8.4480     64.7093     18.8323
   701.7000      7.9008      2.4591      0.0603     11.5684     65.8453     19.0818
   701.8000      7.8792      2.3971      0.0274     15.3248     68.4089     19.5472
   701.9000      7.8792      2.3357      0.0111     19.0498     69.4321     20.1470
   702.0000      7.8835      2.2901     -0.0357     21.8132     70.6514     21.4782
   702.1000      7.8835      2.2654      0.0450     23.3110     72.3450     23.4609
   702.2000      7.8835      2.2448      0.0799     24.5590     73.2194     24.7873
   702.3000      7.8958      2.2134      0.0663     26.4605     74.8014     24.9524
   702.4000      7.8958      2.1831      0.0400     28.2974     78.4767     25.0207
   702.5000      7.9025      2.1799      0.0551     28.4887     80.9868     25.3749
   702.6000      7.9025      2.2069      0.1525     26.8575     80.2256     25.1293
   702.7000      7.9025      2.2486      0.0647     24.3274     78.5991     24.7297
   702.8000      7.9026      2.3044      0.0616     20.9436     77.6097     25.4800
   702.9000      7.9026      2.3711      0.1253     16.9055     75.7758     27.0371
   703.0000      7.8951      2.4238      0.1563     13.7092     73.2482     28.3792
   703.1000      7.8951      2.4426      0.1900     12.5721     73.1406     29.2456
   703.2000      7.8951      2.4365      0.1205     12.9392     76.0160     29.5447
   703.3000      7.8916      2.4374      0.0618     12.8871     77.6472     29.0878
   703.4000      7.8916      2.4660      0.0941     11.1534     76.2577     27.9394
   703.5000      7.8825      2.5067      0.1586      8.6857     76.7870     26.4663
   703.6000      7.8825      2.5346      0.1212      6.9962     82.3923     25.1428
   703.7000      7.8825      2.5428      0.1360      6.4990     87.5688     23.9601
   703.8000      7.8986      2.5379      0.0907      6.7952     87.6967     22.5162
   703.9000      7.8986      2.5385      0.0657      6.7567     85.6659     21.3242
   704.0000      7.9032      2.5490      0.0729      6.1232     82.8888     21.1585
   704.1000      7.9032      2.5500      0.0887      6.0604     78.4832     21.7323
   704.2000      7.9032      2.5336      0.0477      7.0533     75.5759     22.4733
   704.3000      7.9082      2.5098      0.0468      8.4969     75.4373     22.8737
   704.4000      7.9082      2.4917      0.0094      9.5951     74.6895     22.8308
   704.5000      7.8994      2.4894      0.0254      9.7339     74.1041     22.8285
   704.6000      7.8994      2.4990      0.0055      9.1490     77.4203     22.7984
   704.7000      7.8994      2.5066      0.0053      8.6903     82.0205     22.4894
   704.8000      7.9200      2.5094      0.0045      8.5194     84.9385     22.3242
   704.9000      7.9200      2.5120      0.0359      8.3622     88.0312     22.5308
   705.0000      7.8967      2.5083      0.0507      8.5866     89.8011     22.6805
   705.1000      7.8967      2.4998     -0.0169      9.1028     88.1666     22.8129
   705.2000      7.8967      2.4945      0.0950      9.4222     84.3375     23.3256
   705.3000      7.8817      2.4843      0.1122     10.0427     80.6691     23.7504
   705.4000      7.8817      2.4674      0.0207     11.0696     81.7002     23.8312
   705.5000      7.8777      2.4568      0.0779     11.7108     89.3617     24.2798
   705.6000      7.8777      2.4555      0.0448     11.7864     97.7192     25.1454
   705.7000      7.8777      2.4642      0.0533     11.2623    101.4243     25.4229
   705.8000      7.8757      2.4897      0.0773      9.7136    102.4092     24.5861
   705.9000      7.8757      2.5302      0.1352      7.2620    101.3288     23.6351
   706.0000      7.8702      2.5635      0.1778      5.2453     97.0578     23.2664
   706.1000      7.8702      2.5777      0.0909      4.3826     92.4632     22.9545
   706.2000      7.8702      2.5886      0.0928      3.7216     87.7216     22.4199
   706.3000      7.8661      2.6031      0.1302      2.8403     80.2532     22.1723
   706.4000      7.8661      2.6102      0.1448      2.4149     72.5182     22.3634
   706.5000      7.8520      2.5944      0.1380      3.3680     69.6337     22.1170
   706.6000      7.8520      2.5540      0.0748      5.8179     69.9966     21.0053
   706.7000      7.8520      2.5143      0.0017      8.2229     68.3624     19.9681
   706.8000      7.8551      2.5020      0.0082      8.9724     63.8364     19.4529
   706.9000      7.8551      2.5138      0.0398      8.2538     58.6173     18.9314
   707.0000      7.8630      2.5369      0.0385      6.8521     55.2254     18.1316
   707.1000      7.8630      2.5746      0.0793      4.5672     53.9443     17.2464
   707.2000      7.8630      2.6219      0.1373      1.7031     53.2889     16.7448
   707.3000      7.8667      2.6555      0.1119     -0.3357     54.2906     16.7225
   707.4000      7.8667      2.6704      0.1215     -1.2357     57.2173     16.7242
   707.5000      7.8444      2.6832      0.1184     -2.0114     58.6905     16.5868
   707.6000      7.8444      2.7070      0.1401     -3.4517     56.8816     16.4793
   707.7000      7.8444      2.7309      0.2072     -4.9010     53.4267     16.4874
   707.8000      7.8238      2.7331      0.1501     -5.0390     48.5133     16.2494
   707.9000      7.8238      2.7178      0.1022     -4.1093     42.3298     15.5129
   708.0000      7.8266      2.7041      0.1352     -3.2774     37.0642     14.9625
   708.1000      7.8266      2.6845      0.1080     -2.0912     34.4565     15.3013
   708.2000      7.8266      2.6384      0.0474      0.7022     34.4740     16.4084
   708.3000      7.8429      2.5755     -0.0136      4.5157     33.8204     17.6200
   708.4000      7.8429      2.5290      0.0032      7.3330     30.7484     18.1740
   708.5000      7.8791      2.5228     -0.0602      7.7108     30.6122     17.7951
   708.6000      7.8791      2.5505      0.0660      6.0327     37.0050     17.0771
   708.7000      7.8791      2.5783      0.0726      4.3459     43.9742     16.5086
   708.8000      7.8885      2.5845      0.0734      3.9678     44.6942     16.0605
   708.9000      7.8885      2.5731      0.0878      4.6604     40.9088     15.8608
   709.0000      7.8783      2.5571      0.0261      5.6286     39.7941     16.0976
   709.1000      7.8783      2.5455      0.0712      6.3353     43.0055     16.5070
