~Version Information
VERS.                      2.0: CWLS Log ASCII Standard - VERSION 2.0
WRAP.                       NO: One line per depth step
~Well Information Block
STRT.FT               -14.0000: 
STOP.FT              2531.7500: 
STEP.FT                 0.2500: 
NULL.                -999.2500: 
COMP.          Petrogulf Corporation: COMPANY
WELL.            Lavedure 7-44: WELL
FLD.           Purgatorie River: FIELD
LOC.           969' FSL & 501' FEL--: LOCATION
PROV.                       CO: PROVINCE
CNTY.               Las Animas: COUNTRY
SRVC.          Patterson Wireline: SERVICE COMPANY
DATE.          Wed Dec 10 09:23:08 2003: LOG DATE
UWI.                          : UNIQUE WELL ID
~Curve Information Block
DEPT.FT            0 000 00 00: Depth
CCL.                          : Casing Collar Locator
TT3.usec                      : CBL 3' Travel Time
AMP3.mV                       : CBL 3' Amplitude
GR.GAPI                       : Gamma Ray
~Parameter Information Block
~A  Depth       CCL         TT3         AMP3         GR     
# ...
  1661.0000      0.0000    763.6227      2.8463     51.6737
  1661.2500      0.0000    736.1512      2.7481     52.5066
  1661.5000      0.0000    713.0978      2.7004     52.2620
  1661.7500      0.0000    703.4449      2.7426     51.7504
  1662.0000      0.0000    707.5126      2.8479     51.8503
  1662.2500      0.0000    718.0756      2.9471     52.6345
  1662.5000      0.0000    727.8760      2.9813     53.3683
  1662.7500      0.0000    734.1860      2.9368     53.3424
  1663.0000      0.0000    736.9971      2.8668     52.6611
  1663.2500      0.0000    736.7941      2.8608     52.1427
  1663.5000      0.0000    735.9756      2.9529     52.5724
  1663.7500     -2.0000    739.5653      3.0760     54.3061
  1664.0000      0.0000    751.3254      3.1395     57.5656
  1664.2500      0.0000    769.4877      3.1297     62.8061
  1664.5000      0.0000    787.5427      3.1082     70.5328
  1664.7500      0.0000    799.0853      3.1357     80.8058
  1665.0000      0.0000    802.2208      3.2228     93.1293
  1665.2500      0.0000    800.5820      3.3228    106.8353
  1665.5000      0.0000    800.3622      3.3501    121.3279
  1665.7500      0.0000    805.3253      3.2403    135.7441
  1666.0000      0.0000    814.0867      3.0278    148.3836
  1666.2500      0.0000    822.0848      2.8447    156.7912
  1666.5000      0.0000    825.7627      2.8122    159.1653
  1666.7500      0.0000    824.8883      2.9346    156.2511
  1667.0000      0.0000    821.6874      3.1116    151.5900
  1667.2500      0.0000    818.6255      3.2448    149.2133
  1667.5000      0.0000    817.1496      3.3127    150.7173
  1667.7500      0.0000    817.7791      3.3499    154.4173
  1668.0000      0.0000    820.3748      3.3811    157.0878
  1668.2500      0.0000    823.9219      3.4041    156.5782
  1668.5000      0.0000    826.5729      3.4217    153.2082
  1668.7500      0.0000    826.7333      3.4458    148.9451
  1669.0000      0.0000    824.3552      3.4615    145.2736
  1669.2500      0.0000    820.8812      3.4291    141.8430
  1669.5000      0.0000    817.8403      3.3434    136.9927
  1669.7500      0.0000    815.5931      3.2563    129.4400
  1670.0000      0.0000    813.1140      3.2174    119.6060
  1670.2500      0.0000    808.4523      3.2211    109.6007
  1670.5000      0.0000    799.7490      3.2275    102.0722
  1670.7500      0.0000    787.0021      3.2120     98.7778
  1671.0000      0.0000    773.3671      3.1780     99.7340
  1671.2500      0.0000    763.7545      3.1403    103.3291
  1671.5000      0.0000    760.9313      3.1118    107.2568
  1671.7500      0.0000    762.9230      3.1093    109.5683
  1672.0000      0.0000    764.6232      3.1637    109.2513
  1672.2500      0.0000    762.0986      3.2986    106.4467
  1672.5000      0.0000    755.8205      3.4860    102.3461
  1672.7500      0.0000    750.4297      3.6564     98.3655
  1673.0000      0.0000    751.2681      3.7700     95.0589
  1673.2500      0.0000    760.1926      3.8518     92.0962
  1673.5000      0.0000    773.7361      3.9361     89.3192
  1673.7500      0.0000    785.2573      4.0048     87.3808
  1674.0000      0.0000    789.8759      4.0172     87.2732
  1674.2500      0.0000    788.1865      3.9907     89.5430
  1674.5000      0.0000    785.1306      4.0102     93.8790
  1674.7500      0.0000    784.9596      4.1348     99.1204
  1675.0000      0.0000    787.4521      4.3212    103.7097
  1675.2500      0.0000    789.2367      4.4721    106.5022
  1675.5000      0.0000    788.3301      4.5426    107.4792
  1675.7500      0.0000    786.6094      4.5690    107.6291
  1676.0000      0.0000    787.5663      4.6027    107.9488
  1676.2500      0.0000    792.1390      4.6488    108.5809
  1676.5000      0.0000    797.5227      4.6765    109.0263
  1676.7500      0.0000    799.9927      4.6714    109.0074
  1677.0000      0.0000    798.0291      4.6486    108.7743
  1677.2500      0.0000    792.5005      4.6057    108.5536
  1677.5000      0.0000    784.7329      4.4903    108.0890
  1677.7500      0.0000    775.1942      4.2538    107.1075
  1678.0000      0.0000    764.1204      3.9440    106.1729
  1678.2500      0.0000    753.1112      3.7034    106.6498
  1678.5000      0.0000    745.5175      3.6469    109.5016
  1678.7500      0.0000    744.1153      3.7472    114.0247
  1679.0000      0.0000    748.2041      3.8644    117.9036
  1679.2500      0.0000    754.2846      3.8838    118.8907
  1679.5000      0.0000    759.8012      3.8125    116.7937
  1679.7500      0.0000    764.5240      3.7457    113.7003
  1680.0000      0.0000    768.3137      3.7494    112.0890
  1680.2500      0.0000    769.9438      3.7921    112.9605
  1680.5000      0.0000    768.6226      3.7913    115.9229
  1680.7500      0.0000    764.8237      3.7061    120.3331
  1681.0000      0.0000    759.3952      3.5654    125.6300
  1681.2500      0.0000    753.5153      3.4328    131.1675
  1681.5000      0.0000    749.6996      3.3648    136.7120
  1681.7500      0.0000    751.5425      3.3767    142.7692
  1682.0000      0.0000    761.3301      3.4198    149.4225
  1682.2500      0.0000    777.0248      3.4198    155.1075
  1682.5000      0.0000    791.9182      3.3536    157.6786
  1682.7500      0.0000    798.6968      3.2666    156.6942
  1683.0000      0.0000    794.6468      3.2091    153.7868
  1683.2500     -2.0000    783.0459      3.1917    150.9017
  1683.5000      0.0000    770.0656      3.1993    148.9635
  1683.7500      0.0000    759.9333      3.2089    147.9622
  1684.0000      0.0000    752.2159      3.1827    147.3894
  1684.2500      0.0000    744.0327      3.0798    146.5181
  1684.5000      0.0000    734.8536      2.8953    144.8770
  1684.7500      0.0000    728.2413      2.6784    142.7516
  1685.0000      0.0000    729.1592      2.4951    141.1396
  1685.2500      0.0000    740.3344      2.3757    141.1069
  1685.5000      0.0000    760.0826      2.3084    143.0397
  1685.7500      0.0000    782.4417      2.2792    146.3744
  1686.0000      0.0000    800.3850      2.2842    149.9724
  1686.2500      0.0000    810.4790      2.3031    152.7708
  1686.5000      0.0000    814.5632      2.2993    154.1192
  1686.7500      0.0000    816.6385      2.2617    153.6797
  1687.0000      0.0000    818.4692      2.2130    151.5260
  1687.2500      0.0000    818.2722      2.1694    148.5366
  1687.5000      0.0000    813.1072      2.1239    146.0737
  1687.7500      0.0000    802.4822      2.0751    144.8645
  1688.0000      0.0000    790.2056      2.0390    144.5910
  1688.2500      0.0000    782.4438      2.0180    144.6293
  1688.5000      0.0000    782.5377      1.9883    144.4742
  1688.7500      0.0000    787.3049      1.9303    143.2763
  1689.0000      0.0000    789.5499      1.8491    139.7957
  1689.2500      0.0000    784.9546      1.7578    133.5196
  1689.5000      0.0000    776.1078      1.6698    125.7474
  1689.7500      0.0000    769.6283      1.6113    119.1201
  1690.0000      0.0000    769.9133      1.6044    115.8784
  1690.2500      0.0000    775.7153      1.6283    116.6262
  1690.5000      0.0000    782.2047      1.6335    120.5818
  1690.7500      0.0000    785.9578      1.6084    126.5694
  1691.0000      0.0000    787.8157      1.5994    133.5821
  1691.2500      0.0000    790.9646      1.6450    140.5529
  1691.5000      0.0000    796.8469      1.7169    146.0406
  1691.7500      0.0000    803.4445      1.7551    148.7886
  1692.0000      0.0000    806.9116      1.7493    148.6372
  1692.2500      0.0000    804.4755      1.7501    146.3108
  1692.5000      0.0000    796.6594      1.8004    142.2735
  1692.7500      0.0000    787.4505      1.8842    136.4739
  1693.0000      0.0000    781.3588      1.9609    129.3949
  1693.2500      0.0000    779.3732      2.0193    122.6533
  1693.5000      0.0000    778.1147      2.0715    118.0732
  1693.7500      0.0000    773.2388      2.1159    116.5442
  1694.0000      0.0000    763.4641      2.1423    118.1254
  1694.2500      0.0000    751.5563      2.1594    122.6382
