~Version Information
VERS.                      2.0: CWLS Log ASCII Standard - VERSION 2.0
WRAP.                       NO: One line per depth step
~Well Information Block
STRT.FT               840.0000: 
STOP.FT              2448.5000: 
STEP.FT                 0.2500: 
NULL.                -999.2500: 
COMP.          Petrogulf Corporation: COMPANY
WELL.             Leier 17-42V: WELL
FLD.           Purgatorie River: FIELD
LOC.           2309' FNL & 1062' FEL SENE 17 33S 67W: LOCATION
PROV.                 Colorado: PROVINCE
CNTY.               Las Animas: COUNTRY
SRVC.                Patterson: SERVICE COMPANY
DATE.          Thu Sep 22 09:40:29 2005: LOG DATE
UWI.                 071 08409: UNIQUE WELL ID
~Curve Information Block
DEPT.FT            0 000 00 00: Depth
SP.mV                         : DIL Spontaneous Potential
RILD.Ohm-m                    : DIL Deep Resistivity
RILM.Ohm-m                    : DIL Medium Resistivity
RLL3.Ohm-m                    : DIL Shallow Resistivity
GR.GAPI                       : Gamma Ray
~Parameter Information Block
~A  Depth        SP         RILD        RILM        RLL3         GR     
# ...
  2408.0000    139.9404      8.8057      9.0450      8.2774     94.8983
  2408.2500    139.6781      8.6135      9.3799      9.2916    104.7741
  2408.5000    139.3685      8.3529      9.6257     11.0220     93.6894
  2408.7500    138.8892      8.1275      9.5511     15.0922     80.2440
  2409.0000    138.2804      7.9975      9.2210     19.0259     76.1446
  2409.2500    137.6721      7.9530      8.5820     15.3113     71.8404
  2409.5000    137.2256      7.8414      8.1110      9.3423     77.5016
  2409.7500    136.7671      7.7853      7.8267      7.3382     69.5066
  2410.0000    136.2112      7.6641      7.7477      8.2678     66.6836
  2410.2500    135.6365      7.7970      7.7859      9.5011     72.6687
  2410.5000    135.0737      7.9671      7.7450     10.9626     70.3964
  2410.7500    134.5562      8.2415      7.6451     11.1252     82.6025
  2411.0000    134.0565      8.5383      7.5509      9.1124     59.2841
  2411.2500    133.6076      8.7250      7.6891      7.0499     60.6722
  2411.5000    133.2819      8.9930      7.9933      6.5831     72.6582
  2411.7500    133.0975      9.1761      8.6607      8.0794     78.2829
  2412.0000    132.9164      9.5357      9.4594     11.8410     84.2366
  2412.2500    132.7460      9.8150     10.5607     17.6023     88.6796
  2412.5000    132.6691     10.0531     11.6382     20.4320     82.4707
  2412.7500    132.5796     10.1296     12.5975     20.4938     72.7079
  2413.0000    132.2804     10.0781     13.2152     21.3685     60.9381
  2413.2500    131.8118     10.2617     13.5688     22.2911     53.9968
  2413.5000    131.4800     10.6263     13.9298     22.0815     69.0455
  2413.7500    131.1827     10.9906     13.9760     21.2758     67.0337
  2414.0000    130.9346     11.3463     13.9535     20.4371     54.8750
  2414.2500    130.7253     11.5344     13.5383     19.1586     57.2815
  2414.5000    130.4925     11.7996     13.0984     16.8577     50.1960
  2414.7500    130.1965     11.7733     12.6562     13.1147     54.9089
  2415.0000    129.8061     12.1004     12.2154     10.9089     52.0430
  2415.2500    129.2752     12.2418     11.9751     11.0115     61.4878
  2415.5000    128.6261     12.1231     11.7693     11.0065     72.0072
  2415.7500    128.0706     11.7442     12.0156      8.5317     78.3462
  2416.0000    127.6303     11.1382     12.4954      9.5263     76.6154
  2416.2500    127.1433     10.5105     12.9750     15.1664     85.9124
  2416.5000    126.9132      9.8165     13.4790     21.5340     84.3696
  2416.7500    127.0159      9.2204     13.5835     26.0819     78.4037
  2417.0000    127.2584      8.6711     12.8236     28.4179     76.2532
  2417.2500    127.4932      8.2920     11.5413     29.7305     67.8736
  2417.5000    127.5765      8.0123      9.9807     28.5894     70.6389
  2417.7500    127.6907      8.0016      8.5937     21.4494     75.4595
  2418.0000    127.8230      8.1190      7.5698     11.3834     66.0802
  2418.2500    127.9055      8.2925      6.8895      6.7882     65.2558
  2418.5000    127.7393      8.4953      6.6306      5.0764     85.0737
  2418.7500    127.3637      8.6708      6.7847      5.0170     85.0480
  2419.0000    126.8735      8.7507      7.0816      6.4735     96.6946
  2419.2500    126.4246      8.8831      7.4833      9.2493    114.6521
  2419.5000    125.9096      8.8906      7.9723      9.9097     98.9440
  2419.7500    125.3417      8.8587      8.4051      9.5972     99.3776
  2420.0000    124.6203      8.8536      8.9018     11.1468     92.3732
  2420.2500    123.9175      8.8800      9.4940     14.4661     94.5244
  2420.5000    123.1085      9.0975     10.1321     19.1450     78.5192
  2420.7500    122.4362      9.5224     10.8215     22.4598     76.3866
  2421.0000    122.0909     10.1029     11.6165     23.0945     76.1893
  2421.2500    121.9497     10.7644     12.3943     22.1755     85.2051
  2421.5000    121.7675     11.4068     13.2643     21.3093     64.8271
  2421.7500    121.5252     12.2340     14.2525     20.4306     76.3172
  2422.0000    121.2705     13.2717     15.0471     19.6280     71.8707
  2422.2500    121.0728     14.1125     15.9626     19.7085     66.6589
  2422.5000    120.8552     15.0037     16.9563     19.9000     63.0478
  2422.7500    120.7496     15.6213     17.4512     19.6264     55.5056
  2423.0000    120.7247     16.0122     17.9795     18.3534     48.7326
  2423.2500    120.6215     16.0417     18.3929     16.8345     66.0232
  2423.5000    120.1646     16.1373     18.8918     16.1845     72.7783
  2423.7500    119.5268     15.8586     19.3407     16.4807     72.7153
  2424.0000    118.7891     15.7274     19.6579     18.0132     61.2534
  2424.2500    118.2065     15.7044     19.8558     20.0245     62.3924
  2424.5000    117.9645     15.2480     19.6838     20.8849     56.4167
  2424.7500    118.0286     14.8138     19.3602     21.5989     25.3655
  2425.0000    118.1895     14.3726     18.8230     21.9211      0.1588
  2425.2500    118.4036     14.0294     18.0617     22.3081      0.0000
  2425.5000    118.7577     13.9871     16.6262     22.2869   -999.2500
  2425.7500    119.2272     14.0745     15.2264     20.4269   -999.2500
  2426.0000    119.6666     14.1103     14.0521     15.7813   -999.2500
  2426.2500    119.8431     14.0066     13.4237     11.0468   -999.2500
  2426.5000    119.6084     14.0949     13.1244      9.3889   -999.2500
  2426.7500    118.9290     13.7841     13.1737     10.6341   -999.2500
  2427.0000    118.0390     13.6463     13.4930     13.0661   -999.2500
  2427.2500    117.3417     13.4394     13.8406     15.9761   -999.2500
  2427.5000    116.8234     13.2315     13.9919     18.6040   -999.2500
  2427.7500    116.5641     13.0896     13.8586     19.2649   -999.2500
  2428.0000    116.5431     12.8545     13.4765     16.9988   -999.2500
  2428.2500    116.6213     12.8279     13.2588     13.2001   -999.2500
  2428.5000    116.4209     12.8810     13.4190     12.3702   -999.2500
  2428.7500    115.9696     13.1374     13.8515     14.5665   -999.2500
  2429.0000    115.7846     13.2644     14.4146     15.8458   -999.2500
  2429.2500    115.8847     12.9106     14.7795     15.9932   -999.2500
  2429.5000    116.0210     12.3044     15.3176     16.6153   -999.2500
  2429.7500    116.3495     11.9736     15.7915     16.5710   -999.2500
  2430.0000    116.8505     11.7266     15.8903     16.8135   -999.2500
  2430.2500    117.2409     11.3402     15.5644     17.7449   -999.2500
  2430.5000    117.5551     11.1447     15.1247     18.6846   -999.2500
  2430.7500    118.0143     10.8453     14.7244     19.2288   -999.2500
  2431.0000    118.5978     10.6675     14.0091     19.0850   -999.2500
  2431.2500    119.3035     10.6082     12.9780     18.3618   -999.2500
  2431.5000    119.8177     10.5140     11.8687     15.4101   -999.2500
  2431.7500    120.1786     10.4803     11.1055     10.6768   -999.2500
  2432.0000    120.3857     10.2703     10.5820      7.8959   -999.2500
  2432.2500    120.1780     10.3176     10.4271      8.1035   -999.2500
  2432.5000    119.7622     10.2729     10.4608      9.8730   -999.2500
  2432.7500    119.3508     10.2413     10.7067     11.5280   -999.2500
  2433.0000    119.0259     10.4226     11.0221     11.8718   -999.2500
  2433.2500    118.6992     10.1870     11.1145     11.8057   -999.2500
  2433.5000    118.3974     10.1105     11.3827     13.9738   -999.2500
  2433.7500    118.2611      9.9015     11.6101     19.1943   -999.2500
  2434.0000    118.3003     10.0398     11.5540     22.0842   -999.2500
  2434.2500    118.4000     10.3370     11.4139     20.9702   -999.2500
  2434.5000    118.5197     10.7566     11.3281     16.4302   -999.2500
  2434.7500    118.5269     11.2137     11.5238     11.2283   -999.2500
  2435.0000    118.4179     11.5702     12.0718      9.8215   -999.2500
  2435.2500    118.3722     11.8733     12.9475     12.8711   -999.2500
  2435.5000    118.1631     12.4413     14.1516     17.6666   -999.2500
  2435.7500    105.2182     14.3305     15.3794     20.7680   -999.2500
