~Version Information
VERS.                      2.0: CWLS Log ASCII Standard - VERSION 2.0
WRAP.                       NO: One line per depth step
~Well Information Block
STRT.FT               300.0000: 
STOP.FT               871.2500: 
STEP.FT                 0.2500: 
NULL.                -999.2500: 
COMP.          Pioneer Natural Resources: COMPANY
WELL.            Hustler 12-17: WELL
FLD.           Purgatoire River: FIELD
LOC.           2150' FNL & 450' FWL: LOCATION
PROV.                 Colorado: PROVINCE
CNTY.               Las Animas: COUNTRY
SRVC.                Patterson: SERVICE COMPANY
DATE.          Mon Dec 20 09:25:34 2004: LOG DATE
UWI.           05 071 08236 00: UNIQUE WELL ID
~Curve Information Block
DEPT.FT            0 000 00 00: Depth
SN.Ohm-m                      : IEL Short Normal
SP.mV                         : IEL Spontaneous Potential
DIR.Ohm-m                     : IEL Induction Resistivity
GR.GAPI                       : Gamma Ray
~Parameter Information Block
~A  Depth        SN          SP         DIR          GR     
# ...
   836.0000    645.9807   -800.0005     12.7657    158.4132
   836.2500    645.9807   -800.0005     12.5829    153.9531
   836.5000    645.9807   -800.0005     12.3227    147.0091
   836.7500    645.9807   -800.0005     11.9952    142.7882
   837.0000    645.9807   -800.0005     11.6281    138.4466
   837.2500    645.9807   -800.0005     11.2589    137.5655
   837.5000    645.9807   -800.0005     10.9217    139.3547
   837.7500    645.9807   -800.0005     10.6378    141.8496
   838.0000    645.9807   -800.0005     10.4125    144.9947
   838.2500    645.9807   -799.9962     10.2395    144.4510
   838.5000    645.9807   -799.9773     10.1077    134.7410
   838.7500    645.9807   -799.9158     10.0096    120.0393
   839.0000    645.9807   -799.7321      9.9455     86.8132
   839.2500    645.9807   -799.2435      9.9232     61.7453
   839.5000    645.9807   -798.0754      9.9538     29.7400
   839.7500    645.9807   -795.5602     10.0467     15.5723
   840.0000    645.9807   -790.6680     10.2061      4.5640
   840.2500    645.9807   -782.0397     10.4302      1.6846
   840.5000    645.9807   -768.1730     10.7112      0.2849
   840.7500    645.9420   -747.7269     11.0369      0.0706
   841.0000    645.6882   -719.8158     11.3919      0.0033
   841.2500    644.3963   -684.1382     11.7586   -999.2500
   841.5000    639.2729   -640.8749     12.1182   -999.2500
   841.7500    623.4343   -590.4511     12.4530   -999.2500
   842.0000    585.2543   -533.3487     12.7501   -999.2500
   842.2500    513.4484   -470.0988     13.0044   -999.2500
   842.5000    407.9943   -401.4522     13.2190   -999.2500
   842.7500    286.8766   -328.6195     13.4026   -999.2500
   843.0000    177.7683   -253.4591     13.5628   -999.2500
   843.2500    100.1934   -178.5233     13.6988   -999.2500
   843.5000     56.0114   -106.9000     13.7986   -999.2500
   843.7500     35.0756    -41.8186     13.8410   -999.2500
   844.0000     26.0195     13.9260     13.8072   -999.2500
   844.2500     21.7850     58.5656     13.6953   -999.2500
   844.5000     19.3332     91.7278     13.5300   -999.2500
   844.7500     17.6488    114.4178     13.3591   -999.2500
   845.0000     16.4376    128.6120     13.2343   -999.2500
   845.2500     15.5998    136.6538     13.1907   -999.2500
   845.5000     15.0846    140.7115     13.2366   -999.2500
   845.7500     14.8199    142.4515     13.3580   -999.2500
   846.0000     14.7198    142.9704     13.5295   -999.2500
   846.2500     14.7125    142.9001     13.7230   -999.2500
   846.5000     14.7524    142.5738     13.9111   -999.2500
   846.7500     14.8136    142.1683     14.0678   -999.2500
   847.0000     14.8775    141.7884     14.1706   -999.2500
   847.2500     14.9258    141.4997     14.2043   -999.2500
   847.5000     14.9418    141.3327     14.1652   -999.2500
   847.7500     14.9185    141.2801     14.0644   -999.2500
   848.0000     14.8666    141.3007     13.9261   -999.2500
   848.2500     14.8120    141.3334     13.7816   -999.2500
   848.5000     14.7826    141.3163     13.6594   -999.2500
   848.7500     14.7923    141.2069     13.5757   -999.2500
   849.0000     14.8332    140.9960     13.5310   -999.2500
   849.2500     14.8812    140.7082     13.5127   -999.2500
   849.5000     14.9107    140.3893     13.5036   -999.2500
   849.7500     14.9056    140.0826     13.4896   -999.2500
   850.0000     14.8609    139.8084     13.4621   -999.2500
   850.2500     14.7806    139.5548     13.4171   -999.2500
   850.5000     14.6830    139.2851     13.3556   -999.2500
   850.7500     14.5996    138.9556     13.2873   -999.2500
   851.0000     14.5532    138.5339     13.2295   -999.2500
   851.2500     14.5325    138.0091     13.1983   -999.2500
   851.5000     14.4915    137.3911     13.1963   -999.2500
   851.7500     14.3780    136.7041     13.2063   -999.2500
   852.0000     14.1656    135.9793     13.1971   -999.2500
   852.2500     13.8692    135.2507     13.1372   -999.2500
   852.5000     13.5365    134.5519     13.0097   -999.2500
   852.7500     13.2258    133.9134     12.8189   -999.2500
   853.0000     12.9808    133.3556     12.5881   -999.2500
   853.2500     12.8097    132.8823     12.3508   -999.2500
   853.5000     12.6828    132.4760     12.1399   -999.2500
   853.7500     12.5618    132.0991     11.9791   -999.2500
   854.0000     12.4353    131.7017     11.8766   -999.2500
   854.2500     12.3201    131.2325     11.8250   -999.2500
   854.5000     12.2357    130.6487     11.8041   -999.2500
   854.7500     12.1878    129.9220     11.7876   -999.2500
   855.0000     12.1747    129.0379     11.7534   -999.2500
   855.2500     12.1997    127.9927     11.6943   -999.2500
   855.5000     12.2726    126.7900     11.6239   -999.2500
   855.7500     12.4046    125.4434     11.5724   -999.2500
   856.0000     12.5971    123.9811     11.5748   -999.2500
   856.2500     12.8290    122.4514     11.6555   -999.2500
   856.5000     13.0530    120.9215     11.8176   -999.2500
   856.7500     13.2078    119.4702     12.0357   -999.2500
   857.0000     13.2438    118.1781     12.2569   -999.2500
   857.2500     13.1422    117.1195     12.4114   -999.2500
   857.5000     12.9206    116.3590     12.4344   -999.2500
   857.7500     12.6222    115.9473     12.2894   -999.2500
   858.0000     12.2971    115.9111     11.9818   -999.2500
   858.2500     11.9782    116.2369     11.8282   -999.2500
   858.5000     11.6690    116.8557     11.3173   -999.2500
   858.7500     11.3517    117.6418     10.8070   -999.2500
   859.0000     11.0127    118.4324     10.3465   -999.2500
   859.2500     10.6609    119.0600      9.9647   -999.2500
   859.5000     10.3244    119.3846      9.6711   -999.2500
   859.7500     10.0318    119.3101      9.4616   -999.2500
   860.0000      9.7982    118.7844      9.3290   -999.2500
   860.2500      9.6276    117.7909      9.2736   -999.2500
   860.5000      9.5315    116.3414      9.3134   -999.2500
   860.7500      9.5484    114.4767      9.4981   -999.2500
   861.0000      9.7402    112.2682      9.9340   -999.2500
   861.2500     10.1623    109.8148     10.8343   -999.2500
   861.5000     10.8265    107.2289     12.6375   -999.2500
   861.7500     11.6830    104.6187     15.7684   -999.2500
   862.0000     12.6352    102.0722     23.8494   -999.2500
   862.2500     13.5779     99.6531     49.8808   -999.2500
   862.5000     14.4393     97.4073    957.3464   -999.2500
   862.7500     15.2002     95.3729 100000.0000   -999.2500
   863.0000     15.8802     93.5853 100000.0000   -999.2500
   863.2500     16.5044     92.0739 100000.0000   -999.2500
   863.5000     17.0706     90.8496 100000.0000   -999.2500
   863.7500     17.5373     89.9000 100000.0000   -999.2500
   864.0000     17.8421     89.1754 100000.0000   -999.2500
   864.2500     17.9394     88.5777 100000.0000   -999.2500
   864.5000     17.8274     87.9395 100000.0000   -999.2500
   864.7500     17.5459     86.9904 100000.0000   -999.2500
   865.0000     17.1508     85.3249 100000.0000   -999.2500
   865.2500     16.6893     82.4065 100000.0000   -999.2500
   865.5000     16.1749     77.6566 100000.0000   -999.2500
   865.7500     15.5487     70.6496 100000.0000   -999.2500
   866.0000     14.6243     61.3596 100000.0000   -999.2500
   866.2500     13.0745     50.3252 100000.0000   -999.2500
   866.5000     10.5842     38.5990 100000.0000   -999.2500
   866.7500      7.1784     27.4554 100000.0000   -999.2500
   867.0000      3.4201     17.9869 100000.0000   -999.2500
   867.2500      0.1429     10.7934 100000.0000   -999.2500
   867.5000     -2.0964      5.9062 100000.0000   -999.2500
   867.7500     -3.2914      2.9367 100000.0000   -999.2500
   868.0000     -3.7887      1.3230 100000.0000   -999.2500
   868.2500     -3.9500      0.5385 100000.0000   -999.2500
   868.5000     -3.9908      0.1974 100000.0000   -999.2500
   868.7500     -3.9988      0.0647 100000.0000   -999.2500
   869.0000   -999.2500      0.0184  20144.4355   -999.2500
   869.2500   -999.2500      0.0040   1266.2996   -999.2500
