~Version Information
 VERS.                                  2.0 : CWLS LAS VERSION
 WRAP.                                   NO : WRAPING MODE
 SWARE .                 MController 2.5.0J : SOFTWARE VERSION
~Well Information
 WELL.                         Sebring42-29 : WELL
 COMP.    Pioneer Natural Resources USA Inc : COMPANY
 FLD.                      Purgatoire River : FIELD
 LOC.                SE/NE Sec 29 T32S R67W : LOCATION
 DATE.                             08/12/05 : DATE(S) LOGGED
 SRVC.       BLANCO Geological Services LLC : SERVICE COMPANY
 STAT.                                   CO : STATE
 CNTY.                           Las Animas : COUNTY
 CTRY.                                  USA : COUNTRY
 API.                       05-071-08293-00 : API NUMBER
 STRT.FT                             750.00 : START DEPTH
 STOP.FT                            2880.00 : STOP DEPTH
 STEP.FT                               1.00 : DEPTH INCREMENT
 NULL.                                -9999 : NULL VALUE
~Curve information
 DEPTH.FT                                   :
 ROP.MIN/FT                                 :
 GAS.UNITS                                  :
~ASCII Log data
# ...
      1550.0         0.33         28.5 
      1551.0         0.23         23.4 
      1552.0         0.37         23.9 
      1553.0         0.33         28.6 
      1554.0         0.38         35.5 
      1555.0         0.37         45.5 
      1556.0         0.37         56.2 
      1557.0         0.37         64.2 
      1558.0         0.23         66.5 
      1559.0         0.20         66.8 
      1560.0         0.33         66.8 
      1561.0         6.40       1036.2 
      1562.0         0.37       1004.8 
      1563.0         0.27        931.4 
      1564.0         0.30        852.9 
      1565.0         0.33        739.4 
      1566.0         0.25        581.7 
      1567.0         0.23        440.0 
      1568.0         0.23        108.2 
      1569.0         0.20         59.4 
      1570.0         0.30         38.2 
      1571.0         0.30         21.8 
      1572.0         0.30         15.4 
      1573.0         0.33         13.0 
      1574.0         0.33         11.7 
      1575.0         0.40         12.0 
      1576.0         0.58         16.5 
      1577.0         0.53         27.0 
      1578.0         0.47         40.4 
      1579.0         0.37         50.4 
      1580.0         0.37         57.5 
      1581.0         0.37         63.0 
      1582.0         0.37         68.5 
      1583.0         0.40         84.1 
      1584.0         0.37        113.1 
      1585.0         0.18        127.6 
      1586.0         0.27        150.3 
      1587.0         0.20        166.4 
      1588.0         0.23        182.8 
      1589.0         0.17        193.7 
      1590.0         0.10        200.0 
      1591.0         4.48        304.9 
      1592.0         0.30        312.4 
      1593.0         0.37        463.7 
      1594.0         0.30        466.1 
      1595.0         0.38        355.9 
      1596.0         0.33        154.6 
      1597.0         0.33         70.8 
      1598.0         0.30         50.1 
      1599.0         0.30         28.5 
      1600.0         0.23         18.2 
      1601.0         0.10         18.6 
      1602.0         0.23         25.6 
      1603.0         0.17         30.5 
      1604.0         0.27         38.1 
      1605.0         0.33         45.0 
      1606.0         0.37         45.2 
      1607.0         0.32         40.3 
      1608.0         0.13         34.3 
      1609.0         0.17         33.3 
      1610.0         0.13         30.9 
      1611.0         0.27         29.4 
      1612.0         0.27         27.6 
      1613.0         0.27         29.6 
      1614.0         0.27         37.1 
      1615.0         0.30         58.2 
      1616.0         0.27         84.5 
      1617.0         0.27        112.0 
      1618.0         0.33        150.2 
      1619.0         0.92        247.2 
      1620.0         0.83        332.2 
      1621.0         2.42        957.3 
      1622.0         0.50        937.8 
      1623.0         0.63        804.0 
      1624.0         0.40        519.7 
      1625.0         0.30        106.7 
      1626.0         0.47         53.0 
      1627.0         0.23         32.1 
      1628.0         0.20         25.6 
      1629.0         0.25         21.9 
      1630.0         0.27         18.2 
      1631.0         0.27         28.1 
      1632.0         0.30         48.5 
      1633.0         0.30         68.2 
      1634.0         0.27         73.1 
      1635.0         0.23         72.5 
      1636.0         0.17         64.6 
      1637.0         0.13         56.6 
      1638.0         0.17         50.2 
      1639.0         0.17         43.2 
      1640.0         0.30         36.6 
      1641.0         0.23         28.7 
      1642.0         0.20         23.9 
      1643.0         0.23         23.1 
      1644.0         0.18         24.5 
      1645.0         0.20         29.1 
      1646.0         0.17         35.3 
      1647.0         0.17         44.5 
      1648.0         0.23         64.2 
      1649.0         0.20         86.2 
      1650.0         0.20        110.8 
      1651.0         7.33       1085.7 
      1652.0         0.17         89.4 
      1653.0         0.13         82.2 
      1654.0         0.23         70.2 
      1655.0         0.23         48.1 
      1656.0         0.27         32.4 
      1657.0         0.23         21.8 
      1658.0         0.28         17.0 
      1659.0         0.30         15.5 
      1660.0         0.23         15.1 
      1661.0         0.20         15.1 
      1662.0         0.30         15.9 
      1663.0         0.27         16.3 
      1664.0         0.37         17.3 
      1665.0         0.23         18.3 
      1666.0         0.23         19.6 
      1667.0         0.20         20.2 
      1668.0         0.23         20.7 
      1669.0         0.17         21.5 
      1670.0         0.20         22.3 
      1671.0         0.20         23.7 
      1672.0         0.25         25.3 
      1673.0         0.20         25.3 
      1674.0         0.23         25.3 
      1675.0         0.17         25.5 
      1676.0         0.17         26.0 
      1677.0         0.23         28.1 
      1678.0         0.23         32.3 
      1679.0         0.23         37.4 
      1680.0         0.13         40.4 
      1681.0         5.73        383.0 
      1682.0         0.47        371.5 
      1683.0         0.53        331.4 
      1684.0         0.47        293.3 
      1685.0         0.47        215.2 
      1686.0         0.40        108.2 
      1687.0         0.42         47.8 
      1688.0         0.43         24.6 
      1689.0         0.43         15.1 
      1690.0         0.40         17.8 
      1691.0         0.47         30.3 
      1692.0         0.47         97.1 
      1693.0         0.40        182.0 
      1694.0         0.37        250.8 
      1695.0         0.22        284.4 
      1696.0         0.10        300.2 
      1697.0         0.13        317.7 
      1698.0         0.10        327.5 
      1699.0         0.10        334.0 
      1700.0         0.13        335.4 
      1701.0         0.10        332.0 
      1702.0         0.20        320.0 
      1703.0         0.37        269.1 
      1704.0         0.30        136.4 
      1705.0         0.23         67.6 
      1706.0         0.23         41.8 
      1707.0         0.20         28.4 
      1708.0         0.23         22.7 
      1709.0         0.27         24.8 
      1710.0         0.23         32.3 
      1711.0         4.97        308.7 
      1712.0         0.40        323.8 
      1713.0         0.40        359.6 
      1714.0         0.30        366.7 
      1715.0         0.27        346.0 
      1716.0         0.30        262.1 
      1717.0         0.38        153.6 
      1718.0         0.37         71.5 
      1719.0         0.40         34.0 
      1720.0         0.53         19.5 
      1721.0         0.53         17.1 
      1722.0         0.43         19.7 
      1723.0         0.50         24.7 
      1724.0         0.55         33.8 
      1725.0         0.47         47.6 
      1726.0         0.43         61.6 
      1727.0         0.33         72.4 
      1728.0         0.37         76.1 
      1729.0         0.13         74.8 
      1730.0         0.13         71.8 
      1731.0         0.13         67.5 
      1732.0         0.30         62.6 
      1733.0         0.20         50.1 
      1734.0         0.20         42.6 
      1735.0         0.20         34.5 
      1736.0         0.13         30.3 
      1737.0         0.13         27.8 
      1738.0         0.13         26.8 
      1739.0         0.18         27.1 
      1740.0         0.17         28.3 
      1741.0         6.50        346.7 
      1742.0         0.37        266.3 
      1743.0         0.13        256.6 
      1744.0         0.17        254.4 
      1745.0         0.30        262.5 
      1746.0         0.27        264.5 
      1747.0         0.23        261.9 
      1748.0         0.17        241.1 
      1749.0         0.17        211.7 
