~Version Information
VERS.                      2.0: CWLS Log ASCII Standard - VERSION 2.0
WRAP.                       NO: One line per depth step
~Well Information Block
STRT.FT                10.0000: 
STOP.FT               859.0000: 
STEP.FT                 0.2500: 
NULL.                -999.2500: 
COMP.          Pioneer Natural Resources: COMPANY
WELL.          Prospector 12-19: WELL
FLD.           Purgatoire River: FIELD
LOC.           2262' FNL & 634' FWL: LOCATION
PROV.                 Colorado: PROVINCE
CNTY.               Las Animas: COUNTRY
SRVC.                Patterson: SERVICE COMPANY
DATE.          Tue May 10 11:52:48 2005: LOG DATE
UWI.           05 071 08191 00: UNIQUE WELL ID
~Curve Information Block
DEPT.FT            0 000 00 00: Depth
CCL.                          : Casing Collar Locator
TT3.usec                      : CBL 3' Travel Time
AMP3.mV                       : CBL 3' Amplitude
GR.GAPI                       : Gamma Ray
~Parameter Information Block
~A  Depth       CCL         TT3         AMP3         GR     
# ...
   713.5000      0.0000    898.8234      6.0201     71.1778
   713.7500      0.0000    893.6656      6.0324     77.4286
   714.0000      0.0000    886.3572      6.0413     83.9500
   714.2500      0.0000    878.1290      6.0474     90.6012
   714.5000      0.0000    870.8325      6.0674     97.3537
   714.7500      0.0000    865.7324      6.1174    103.8473
   715.0000      0.0000    862.9081      6.1906    109.0574
   715.2500      0.0000    861.6572      6.2539    111.7096
   715.5000      0.0000    861.2045      6.2743    111.2328
   715.7500      0.0000    861.0638      6.2481    108.2384
   716.0000      0.0000    861.0430      6.2070    104.1420
   716.2500      0.0000    861.1519      6.2008    100.5204
   716.5000      0.0000    861.5435      6.2711     98.4855
   716.7500      0.0000    862.4930      6.4254     97.9902
   717.0000      0.0000    864.2787      6.6299     97.7884
   717.2500      0.0000    866.8043      6.8322     96.7559
   717.5000      0.0000    869.2402      6.9946     95.2183
   717.7500      0.0000    870.3541      7.1087     94.3968
   718.0000      0.0000    869.5402      7.1851     94.7756
   718.2500      0.0000    867.4088      7.2386     95.8772
   718.5000      0.0000    865.1690      7.2866     97.5564
   718.7500      0.0000    863.5995      7.3526    100.3815
   719.0000      0.0000    862.7240      7.4559    104.2738
   719.2500      0.0000    862.1931      7.5928    107.6257
   719.5000      0.0000    861.7355      7.7382    108.4098
   719.7500      0.0000    861.3669      7.8734    105.8532
   720.0000      0.0000    861.3719      8.0060    100.8152
   720.2500      0.0000    862.1669      8.1576     94.9252
   720.5000      0.0000    863.9587      8.3389     89.4992
   720.7500      0.0000    866.1494      8.5474     85.1544
   721.0000      0.0000    866.8495      8.7809     82.3556
   721.2500      0.0000    863.6228      9.0452     81.6824
   721.5000      0.0000    855.8734      9.3489     82.9264
   721.7500      0.0000    846.6960      9.6940     84.6146
   722.0000      0.0000    841.1339     10.0661     85.5134
   722.2500      0.0000    841.3849     10.4281     86.1398
   722.5000      0.0000    843.7143     10.7261     87.7322
   722.7500      0.0000    839.8851     10.9138     90.1106
   723.0000      0.0000    821.6745     10.9786     91.5970
   723.2500      0.0000    787.1643     10.9432     90.9598
   723.5000      0.0000    746.6746     10.8412     88.4830
   723.7500      0.0000    720.5925     10.6951     85.0332
   724.0000      0.0000    724.8041     10.5198     81.0999
   724.2500      0.0000    756.4021     10.3424     77.1250
   724.5000      0.0000    796.3683     10.2036     73.7844
   724.7500      0.0000    825.4070     10.1346     71.3271
   725.0000      0.0000    834.6260     10.1437     69.2352
   725.2500      0.0000    824.9617     10.2338     66.9797
   725.5000      0.0000    803.3416     10.4251     64.8125
   725.7500      0.0000    779.8089     10.7457     63.6452
   726.0000      0.0000    762.4718     11.1967     64.2639
   726.2500      0.0000    751.9877     11.7324     66.5889
   726.5000      0.0000    742.8793     12.2832     69.5688
   726.7500      0.0000    730.9607     12.7950     71.9106
   727.0000      0.0000    717.5615     13.2483     73.1178
   727.2500      0.0000    706.8054     13.6503     73.8767
   727.5000      0.0000    701.2996     14.0216     75.2520
   727.7500      0.0000    700.5255     14.3814     77.4230
   728.0000      0.0000    700.8878     14.7301     79.3628
   728.2500      0.0000    695.4216     15.0561     79.8596
   728.5000      0.0000    674.1212     15.3819     78.7455
   728.7500      0.0000    627.9387     15.7934     77.0697
   729.0000      0.0000    556.6125     16.3914     76.2203
   729.2500      0.0000    473.3924     17.2084     76.8816
   729.5000      0.0000    398.6769     18.1788     78.5176
   729.7500      0.0000    346.7028     19.1763     79.6501
   730.0000      0.0000    318.6022     20.0623     78.8755
   730.2500      0.0000    306.8068     20.7151     76.0527
   730.5000      0.0000    303.0944     21.0484     72.6512
   730.7500      0.0000    302.6138     21.0276     70.7877
   731.0000      0.0000    303.8962     20.6722     71.6802
   731.2500      0.0000    308.3926     20.0437     74.9202
   731.5000      0.0000    321.1575     19.2230     79.0821
   731.7500      0.0000    351.1708     18.2636     82.7397
   732.0000      0.0000    407.5951     17.1466     84.8887
   732.2500      0.0000    491.5791     15.8162     84.9475
   732.5000      0.0000    591.5710     14.2863     82.8378
   732.7500      0.0000    690.1426     12.6750     79.1389
   733.0000      0.0000    775.8940     11.1140     75.0445
   733.2500      0.0000    846.1609      9.6696     71.9671
   733.5000      0.0000    900.4548      8.3766     70.8769
   733.7500      0.0000    936.7588      7.2960     71.8556
   734.0000      0.0000    954.1805      6.4869     74.1589
   734.2500      0.0000    955.4238      5.9368     76.5051
   734.5000      0.0000    945.9265      5.5621     77.4383
   734.7500      0.0000    931.9813      5.2840     75.9616
   735.0000      0.0000    919.7015      5.0779     72.2052
   735.2500      0.0000    914.0821      4.9381     67.5236
   735.5000      0.0000    917.2073      4.8358     63.8894
   735.7500      0.0000    926.9064      4.7422     62.9543
   736.0000      0.0000    938.1957      4.6701     65.2604
   736.2500      0.0000    947.0925      4.6690     70.0817
   736.5000      0.0000    952.8618      4.8007     76.0975
   736.7500      0.0000    956.8712      5.1276     82.3558
   737.0000      0.0000    960.4317      5.6924     88.5706
   737.2500      0.0000    963.7795      6.4787     94.5439
   737.5000      0.0000    966.4891      7.3802     99.5527
   737.7500      0.0000    969.2781      8.2215    102.5162
   738.0000      0.0000    976.8637      8.8484    102.7885
   738.2500      0.0000    998.0533      9.2304    100.6866
   738.5000      0.0000   1039.8741      9.4786     97.1386
   738.7500      0.0000   1099.3881      9.7651     92.7769
   739.0000      0.0000   1162.4841     10.2187     87.3049
   739.2500      0.0000   1211.8066     10.8556     79.8449
   739.5000      0.0000   1234.6968     11.5816     70.2600
   739.7500      0.0000   1224.0535     12.2642     60.0664
   740.0000      2.0000   1177.5775     12.8094     51.6651
   740.2500      2.0000   1102.4205     13.1819     46.6414
   740.5000      0.0000   1017.0060     13.4241     44.7681
   740.7500      0.0000    937.2194     13.7035     44.3619
   741.0000      0.0000    857.7773     14.2691     43.6785
   741.2500      0.0000    758.4453     15.2279     42.2701
   741.5000      0.0000    635.6219     16.3528     41.0450
   741.7500      0.0000    518.9741     17.2177     41.0661
   742.0000      0.0000    450.9449     17.5327     42.5406
   742.2500      0.0000    455.5430     17.2888     44.9260
   742.5000      0.0000    526.4735     16.6423     47.5670
   742.7500      0.0000    634.3645     15.7713     49.9533
   743.0000      0.0000    742.6678     14.8084     51.6100
   743.2500      0.0000    824.8293     13.8193     52.2982
   743.5000      0.0000    873.5189     12.8245     52.4708
   743.7500      0.0000    896.4916     11.8519     53.0995
   744.0000      0.0000    905.8773     10.9502     54.7591
   744.2500      0.0000    910.9929     10.1547     57.0421
   744.5000      0.0000    916.7516      9.4700     58.9833
   744.7500      0.0000    924.4151      8.8826     59.8690
   745.0000      0.0000    932.4628      8.3768     59.5458
   745.2500      0.0000    937.8568      7.9442     58.2391
   745.5000      0.0000    937.8949      7.5855     56.4510
   745.7500      0.0000    932.0319      7.3005     54.9529
   746.0000      0.0000    922.8291      7.0770     54.4312
   746.2500      0.0000    915.0515      6.8920     54.9358
   746.5000      0.0000    912.6298      6.7172     55.9180
   746.7500      0.0000    915.6959      6.5322     56.9748
