~Version Information
VERS.                      2.0: CWLS Log ASCII Standard - VERSION 2.0
WRAP.                       NO: One line per depth step
~Well Information Block
STRT.FT               698.9000: 
STOP.FT              2459.5000: 
STEP.FT                 0.1000: 
NULL.                -999.2500: 
COMP.          Petrogulf Corporation: COMPANY
WELL.             State 16-23V: WELL
FLD.           Purgatorie River: FIELD
LOC.           2414' FSL & 2215' FWL: LOCATION
PROV.                 Colorado: PROVINCE
CNTY.               Las Animas: COUNTRY
SRVC.                         : SERVICE COMPANY
DATE.          Mon Jun 09 12:47:39 2003: LOG DATE
UWI.           05 071 07865 00: UNIQUE WELL ID
~Curve Information Block
DEPT.FT            0 000 00 00: Depth
SP.mV                         : DIL Spontaneous Potential
RILD.Ohm-m                    : DIL Deep Resistivity
RILM.Ohm-m                    : DIL Medium Resistivity
RLL3.Ohm-m                    : DIL Shallow Resistivity
GR.GAPI                       : Gamma Ray
~Parameter Information Block
~A  Depth        SP         RILD        RILM        RLL3         GR     
# ...
  1740.5000     13.4661     13.5566     12.7490     18.7113    122.9986
  1740.6000     13.4661     13.5566     12.7490     18.7113    125.7812
  1740.7000     13.4661     13.5566     12.7490     18.7113    128.6118
  1740.8000     13.3899     13.2779     12.1883     15.1619    131.4258
  1740.9000     13.3899     13.2779     12.1883     15.1619    134.1521
  1741.0000     13.2845     12.9303     11.6879     13.0357    136.7219
  1741.1000     13.2845     12.9303     11.6879     13.0357    139.0739
  1741.2000     13.2845     12.9303     11.6879     13.0357    141.1543
  1741.3000     13.1512     12.5398     11.2605     11.6008    142.9120
  1741.4000     13.1512     12.5398     11.2605     11.6008    144.3027
  1741.5000     13.0024     12.1276     10.9037     10.5738    145.2848
  1741.6000     13.0024     12.1276     10.9037     10.5738    145.8275
  1741.7000     13.0024     12.1276     10.9037     10.5738    145.9120
  1741.8000     12.8506     11.7135     10.6061      9.9719    145.5430
  1741.9000     12.8506     11.7135     10.6061      9.9719    144.7543
  1742.0000     12.7082     11.3140     10.3544      9.8635    143.6135
  1742.1000     12.7082     11.3140     10.3544      9.8635    142.2204
  1742.2000     12.7082     11.3140     10.3544      9.8635    140.6995
  1742.3000     12.5982     10.9384     10.1390     10.1449    139.1915
  1742.4000     12.5982     10.9384     10.1390     10.1449    137.8358
  1742.5000     12.5436     10.5952      9.9586     10.5003    136.7570
  1742.6000     12.5436     10.5952      9.9586     10.5003    136.0487
  1742.7000     12.5436     10.5952      9.9586     10.5003    135.7640
  1742.8000     12.5448     10.2975      9.8201     10.6788    135.9057
  1742.9000     12.5448     10.2975      9.8201     10.6788    136.4306
  1743.0000     12.5765     10.0570      9.7297     10.8173    137.2530
  1743.1000     12.5765     10.0570      9.7297     10.8173    138.2556
  1743.2000     12.5765     10.0570      9.7297     10.8173    139.3079
  1743.3000     12.6055      9.8752      9.6789     11.2828    140.2767
  1743.4000     12.6055      9.8752      9.6789     11.2828    141.0431
  1743.5000     12.6141      9.7415      9.6392     12.2334    141.5174
  1743.6000     12.6141      9.7415      9.6392     12.2334    141.6447
  1743.7000     12.6141      9.7415      9.6392     12.2334    141.4122
  1743.8000     12.6116      9.6388      9.5744     13.4671    140.8533
  1743.9000     12.6116      9.6388      9.5744     13.4671    140.0390
  1744.0000     12.6234      9.5530      9.4631     14.5230    139.0695
  1744.1000     12.6234      9.5530      9.4631     14.5230    138.0665
  1744.2000     12.6234      9.5530      9.4631     14.5230    137.1508
  1744.3000     12.6722      9.4792      9.3104     14.8329    136.4306
  1744.4000     12.6722      9.4792      9.3104     14.8329    135.9846
  1744.5000     12.7659      9.4201      9.1444     14.0622    135.8553
  1744.6000     12.7659      9.4201      9.1444     14.0622    136.0432
  1744.7000     12.7659      9.4201      9.1444     14.0622    136.5107
  1744.8000     12.8935      9.3814      9.0056     12.5074    137.1905
  1744.9000     12.8935      9.3814      9.0056     12.5074    137.9928
  1745.0000     13.0257      9.3696      8.9367     10.9646    138.8236
  1745.1000     13.0257      9.3696      8.9367     10.9646    139.5957
  1745.2000     13.0257      9.3696      8.9367     10.9646    140.2335
  1745.3000     13.1378      9.3899      8.9687     10.0837    140.6826
  1745.4000     13.1378      9.3899      8.9687     10.0837    140.9149
  1745.5000     13.2367      9.4434      9.1094     10.0028    140.9185
  1745.6000     13.2367      9.4434      9.1094     10.0028    140.7035
  1745.7000     13.2367      9.4434      9.1094     10.0028    140.2915
  1745.8000     13.3435      9.5242      9.3415     10.5209    139.7113
  1745.9000     13.3435      9.5242      9.3415     10.5209    138.9886
  1746.0000     13.4556      9.6220      9.6300     11.3471    138.1451
  1746.1000     13.4556      9.6220      9.6300     11.3471    137.1947
  1746.2000     13.4556      9.6220      9.6300     11.3471    136.1426
  1746.3000     13.5454      9.7296      9.9364     12.2201    134.9899
  1746.4000     13.5454      9.7296      9.9364     12.2201    133.7386
  1746.5000     13.5969      9.8494     10.2358     12.9803    132.3973
  1746.6000     13.5969      9.8494     10.2358     12.9803    130.9893
  1746.7000     13.5969      9.8494     10.2358     12.9803    129.5522
  1746.8000     13.6216      9.9927     10.5271     13.5790    128.1408
  1746.9000     13.6216      9.9927     10.5271     13.5790    126.8234
  1747.0000     13.6308     10.1733     10.8323     14.0345    125.6682
  1747.1000     13.6308     10.1733     10.8323     14.0345    124.7350
  1747.2000     13.6308     10.1733     10.8323     14.0345    124.0592
  1747.3000     13.6133     10.4033     11.1854     14.4164    123.6462
  1747.4000     13.6133     10.4033     11.1854     14.4164    123.4636
  1747.5000     13.5485     10.6891     11.6213     14.8395    123.4501
  1747.6000     13.5485     10.6891     11.6213     14.8395    123.5205
  1747.7000     13.5485     10.6891     11.6213     14.8395    123.5864
  1747.8000     13.4289     11.0274     12.1611     15.4389    123.5648
  1747.9000     13.4289     11.0274     12.1611     15.4389    123.3911
  1748.0000     13.2687     11.3983     12.7971     16.3384    123.0268
  1748.1000     13.2687     11.3983     12.7971     16.3384    122.4542
  1748.2000     13.2687     11.3983     12.7971     16.3384    121.6715
  1748.3000     13.0985     11.7623     13.4798     17.5900    120.6897
  1748.4000     13.0985     11.7623     13.4798     17.5900    119.5228
  1748.5000     12.9545     12.0657     14.1200     19.1009    118.1893
  1748.6000     12.9545     12.0657     14.1200     19.1009    116.7185
  1748.7000     12.9545     12.0657     14.1200     19.1009    115.1492
  1748.8000     12.8653     12.2571     14.6089     20.6203    113.5439
  1748.9000     12.8653     12.2571     14.6089     20.6203    111.9865
  1749.0000     12.8379     12.3084     14.8519     21.8071    110.5842
  1749.1000     12.8379     12.3084     14.8519     21.8071    109.4575
  1749.2000     12.8379     12.3084     14.8519     21.8071    108.7323
  1749.3000     12.8558     12.2297     14.8008     22.3323    108.5207
  1749.4000     12.8558     12.2297     14.8008     22.3323    108.9103
  1749.5000     12.8974     12.0626     14.4753     21.9595    109.9487
  1749.6000     12.8974     12.0626     14.4753     21.9595    111.6379
  1749.7000     12.8974     12.0626     14.4753     21.9595    113.9281
  1749.8000     12.9529     11.8556     13.9601     20.5985    116.7286
  1749.9000     12.9529     11.8556     13.9601     20.5985    119.9130
  1750.0000     13.0191     11.6393     13.3758     18.3942    123.3362
  1750.1000     13.0191     11.6393     13.3758     18.3942    126.8459
  1750.2000     13.0191     11.6393     13.3758     18.3942    130.2990
  1750.3000     13.0878     11.4194     12.8381     15.7897    133.5737
  1750.4000     13.0878     11.4194     12.8381     15.7897    136.5753
  1750.5000     13.1525     11.1897     12.4267     13.3918    139.2344
  1750.6000     13.1525     11.1897     12.4267     13.3918    141.5146
  1750.7000     13.1525     11.1897     12.4267     13.3918    143.3991
  1750.8000     13.2161     10.9439     12.1715     11.6760    144.8929
  1750.9000     13.2161     10.9439     12.1715     11.6760    146.0115
  1751.0000     13.2847     10.6762     12.0538     10.8032    146.7761
  1751.1000     13.2847     10.6762     12.0538     10.8032    147.2097
  1751.2000     13.2847     10.6762     12.0538     10.8032    147.3278
  1751.3000     13.3582     10.3846     12.0146     10.6885    147.1428
  1751.4000     13.3582     10.3846     12.0146     10.6885    146.6603
  1751.5000     13.4364     10.0808     11.9749     11.1993    145.8890
  1751.6000     13.4364     10.0808     11.9749     11.1993    144.8412
