~Version Information
VERS.                      2.0: CWLS Log ASCII Standard - VERSION 2.0
WRAP.                       NO: One line per depth step
~Well Information Block
STRT.FT               235.0000: 
STOP.FT              1634.5000: 
STEP.FT                 0.2500: 
NULL.                -999.2500: 
COMP.          Petrogulf Corporation: COMPANY
WELL.             State 16-41R: WELL
FLD.           Purgatorie River: FIELD
LOC.           280' FNL & 907' FEL: LOCATION
SECT.                       16: SECTION
TOWN.                      33S: TOWNSHIP
RANG.                      67W: RANGE
STAT.                 Colorado: STATE
CNTY.               Las Animas: COUNTY
CTRY.                      USA: COUNTRY
SRVC.                Patterson: SERVICE COMPANY
DATE.         Tue Oct 18 15:59:41 2005: LOG DATE
API.              05-071-08345: UNIQUE WELL ID
~Curve Information Block
DEPT.FT            0 000 00 00: Depth
SP.mV                         : DIL Spontaneous Potential
RILD.Ohm-m                    : DIL Deep Resistivity
RILM.Ohm-m                    : DIL Medium Resistivity
RLL3.Ohm-m                    : DIL Shallow Resistivity
GR.GAPI                       : Gamma Ray
~Parameter Information Block
~A  Depth        SP         RILD        RILM        RLL3         GR     
# ...
   599.0000    168.4469     21.6447     25.2537     47.2201     89.0171
   599.2500    168.8789     21.0867     25.3455     38.0967     90.6509
   599.5000    169.1496     20.6167     24.2681     29.6378     97.4611
   599.7500    169.2345     20.1910     22.6900     23.1225    104.4681
   600.0000    169.1331     19.7779     21.0938     18.8658    116.3569
   600.2500    168.8672     19.3594     19.7118     16.5643    123.4416
   600.5000    168.4765     18.9324     18.6117     15.6842    130.2411
   600.7500    168.0096     18.5072     17.7816     15.7197    131.5938
   601.0000    167.5153     18.1026     17.1811     16.3144    129.9514
   601.2500    167.0352     17.7421     16.7658     17.2365    128.0615
   601.5000    166.5998     17.4500     16.4963     18.2548    126.6340
   601.7500    166.2277     17.2482     16.3428     19.0646    126.8960
   602.0000    165.9284     17.1513     16.2842     19.3810    127.4836
   602.2500    165.7039     17.1636     16.3076     19.1276    127.0131
   602.5000    165.5500     17.2780     16.4057     18.5068    124.9205
   602.7500    165.4550     17.4789     16.5744     17.8769    123.1889
   603.0000    165.3967     17.7464     16.8100     17.5633    120.7009
   603.2500    165.3416     18.0606     17.1073     17.7452    118.9950
   603.5000    165.2456     18.4031     17.4572     18.4232    116.0162
   603.7500    165.0576     18.7562     17.8462     19.4355    113.7769
   604.0000    164.7271     19.1027     18.2569     20.5398    110.3112
   604.2500    164.2113     19.4287     18.6694     21.5524    107.9314
   604.5000    163.4830     19.7279     19.0646     22.4306    103.8843
   604.7500    162.5345     20.0047     19.4269     23.1952    100.7782
   605.0000    161.3796     20.2729     19.7474     23.7867     96.2265
   605.2500    160.0513     20.5504     20.0254     24.0461     93.9734
   605.5000    158.5964     20.8527     20.2678     23.8586     92.4621
   605.7500    157.0681     21.1872     20.4882     23.2920     92.6490
   606.0000    155.5171     21.5516     20.7033     22.5821     94.5712
   606.2500    153.9851     21.9322     20.9308     21.9874     97.0936
   606.5000    152.5002     22.3057     21.1858     21.6609    102.8624
   606.7500    151.0772     22.6431     21.4787     21.6383    107.4801
   607.0000    149.7197     22.9206     21.8140     21.9098    113.3670
   607.2500    148.4239     23.1341     22.1901     22.4716    115.3172
   607.5000    147.1820     23.3045     22.5990     23.3148    114.7946
   607.7500    145.9836     23.4693     23.0288     24.3822    112.9061
   608.0000    144.8180     23.6639     23.4658     25.5318    109.1847
   608.2500    143.6751     23.9086     23.8981     26.5408    106.3314
   608.5000    142.5471     24.2083     24.3189     27.1902    101.3577
   608.7500    141.4297     24.5615     24.7288     27.4155     97.7730
   609.0000    140.3226     24.9677     25.1351     27.3893     92.7848
   609.2500    139.2299     25.4265     25.5492     27.4061     90.0697
   609.5000    138.1602     25.9311     25.9823     27.6397     87.0390
   609.7500    137.1260     26.4648     26.4412     28.0276     85.6212
   610.0000    136.1443     27.0031     26.9246     28.4283     84.1913
   610.2500    135.2362     27.5206     27.4228     28.8867     83.5867
   610.5000    134.4250     27.9953     27.9185     29.6815     82.8353
   610.7500    133.7346     28.4111     28.3908     31.0281     82.1009
   611.0000    133.1862     28.7596     28.8207     32.7328     80.4844
   611.2500    132.7975     29.0449     29.1957     34.2455     79.4995
   611.5000    132.5816     29.2848     29.5136     35.1172     79.0853
   611.7500    132.5473     29.5042     29.7825     35.3186     79.5112
   612.0000    132.6988     29.7244     30.0172     35.0684     80.4465
   612.2500    133.0335     29.9540     30.2345     34.5359     81.0131
   612.5000    133.5392     30.1871     30.4466     33.8898     81.9236
   612.7500    134.1922     30.4045     30.6566     33.4956     82.6395
   613.0000    134.9569     30.5784     30.8563     33.7791     83.6898
   613.2500    135.7891     30.6814     31.0271     34.8414     84.2504
   613.5000    136.6418     30.6949     31.1441     36.3267     84.9085
   613.7500    137.4730     30.6159     31.1824     37.6670     85.3672
   614.0000    138.2508     30.4589     31.1232     38.3722     86.2902
   614.2500    138.9575     30.2535     30.9580     38.2078     87.0011
   614.5000    139.5888     30.0353     30.6896     37.3455     87.8088
   614.7500    140.1512     29.8321     30.3300     36.3199     87.9144
   615.0000    140.6574     29.6552     29.8982     35.5797     87.1766
   615.2500    141.1211     29.5005     29.4165     35.0354     86.1656
   615.5000    141.5544     29.3567     28.9087     34.2409     84.5284
   615.7500    141.9651     29.2120     28.3974     33.0180     83.9849
   616.0000    142.3571     29.0542     27.9026     31.6861     85.0091
   616.2500    142.7307     28.8708     27.4395     30.6501     87.0862
   616.5000    143.0834     28.6542     27.0183     29.9828     91.2430
   616.7500    143.4095     28.4082     26.6454     29.4850     93.5292
   617.0000    143.7003     28.1507     26.3248     28.9783     94.9555
   617.2500    143.9436     27.9125     26.0613     28.4192     95.0513
   617.5000    144.1250     27.7322     25.8619     27.8428     96.0563
   617.7500    144.2293     27.6488     25.7374     27.3381     97.9902
   618.0000    144.2437     27.6923     25.7015     27.0419    101.8129
   618.2500    144.1597     27.8782     25.7707     27.0524    103.9321
   618.5000    143.9743     28.2089     25.9630     27.3373    105.9394
   618.7500    143.6897     28.6791     26.2973     27.7787    107.0075
   619.0000    143.3116     29.2819     26.7924     28.3213    108.8448
   619.2500    142.8482     30.0089     27.4665     29.0697    109.7778
   619.5000    142.3097     30.8498     28.3354     30.2836    109.0923
   619.7500    141.7094     31.7953     29.4092     32.3311    106.7042
   620.0000    141.0643     32.8425     30.6894     35.5965    101.2169
   620.2500    140.3963     33.9949     32.1637     40.2599     97.7200
   620.5000    139.7302     35.2549     33.8037     46.0109     94.6100
   620.7500    139.0920     36.6135     35.5665     51.9997     93.7048
   621.0000    138.5045     38.0479     37.4006     57.2254     91.5844
   621.2500    137.9840     39.5255     39.2569     61.0821     88.3509
   621.5000    137.5372     41.0081     41.0979     63.5604     80.9979
   621.7500    137.1596     42.4515     42.9006     64.9765     75.7791
   622.0000    136.8366     43.8049     44.6498     65.5909     69.4999
   622.2500    136.5463     45.0176     46.3243     65.4802     66.4324
   622.5000    136.2661     46.0526     47.8860     64.6741     62.3186
   622.7500    135.9795     46.8999     49.2773     63.3230     59.4157
   623.0000    135.6827     47.5769     50.4310     61.7078     55.3503
   623.2500    135.3882     48.1154     51.2896     60.0970     53.5009
   623.5000    135.1228     48.5438     51.8265     58.5993     52.3263
   623.7500    134.9206     48.8758     52.0563     57.1414     52.1026
   624.0000    134.8124     49.1073     52.0327     55.5863     51.5170
   624.2500    134.8163     49.2185     51.8319     53.9080     50.7637
   624.5000    134.9299     49.1780     51.5323     52.3074     49.7084
   624.7500    135.1298     48.9536     51.1943     51.1916     49.6066
   625.0000    135.3758     48.5284     50.8500     51.0367     50.4978
   625.2500    135.6207     47.9134     50.5013     52.2193     51.0842
   625.5000    135.8200     47.1482     50.1295     54.8266     50.3926
   625.7500    135.9400     46.2934     49.7120     58.4039     48.7015
   626.0000    135.9608     45.4219     49.2408     61.8240     45.5878
   626.2500    135.8753     44.6111     48.7339     63.6529     43.9818
   626.5000    135.6849     43.9265     48.2362     62.9739     42.6532
   626.7500    135.3957     43.4016     47.8064     59.9702     42.2281
