~Version Information
VERS.                      2.0: CWLS Log ASCII Standard - VERSION 2.0
WRAP.                       NO: One line per depth step
~Well Information Block
STRT.FT                -8.5000: 
STOP.FT              1597.7500: 
STEP.FT                 0.2500: 
NULL.                -999.2500: 
COMP.          Pioneer Natural Resources: COMPANY
WELL.          Dude Canyon 22-32 Tr: WELL
FLD.           Purgatorie River: FIELD
LOC.           1741' FnL & 2331' FWL--: LOCATION
PROV.                       CO: PROVINCE
CNTY.               Las Animas: COUNTRY
SRVC.          Patterson Wireline: SERVICE COMPANY
DATE.          Fri Jul 15 14:44:37 2005: LOG DATE
UWI.           05 071 08421 00: UNIQUE WELL ID
~Curve Information Block
DEPT.FT            0 000 00 00: Depth
CCL.                          : Casing Collar Locator
TT3.usec                      : CBL 3' Travel Time
AMP3.mV                       : CBL 3' Amplitude
GR.GAPI                       : Gamma Ray
~Parameter Information Block
~A  Depth       CCL         TT3         AMP3         GR     
# ...
  1130.5000      0.0000    729.5173      5.5965    107.9798
  1130.7500      0.0000    747.4047      5.5465    106.7258
  1131.0000      0.0000    756.8525      5.4585    106.2520
  1131.2500      0.0000    759.6982      5.3392    106.1315
  1131.5000      0.0000    757.9009      5.2415    106.3192
  1131.7500      0.0000    753.3800      5.2169    107.4921
  1132.0000      0.0000    748.7686      5.2685    110.3999
  1132.2500      0.0000    746.9822      5.3453    114.6728
  1132.5000      0.0000    748.9969      5.3861    118.2841
  1132.7500      0.0000    752.5899      5.3790    118.6366
  1133.0000      0.0000    754.2955      5.3754    114.8008
  1133.2500      0.0000    752.6948      5.4404    108.7516
  1133.5000      0.0000    749.5330      5.5862    103.9993
  1133.7500      0.0000    747.8203      5.7518    102.7537
  1134.0000      0.0000    748.6908      5.8516    104.4400
  1134.2500      0.0000    749.2054      5.8501    106.8008
  1134.5000      0.0000    742.0274      5.7955    108.0210
  1134.7500      0.0000    717.3234      5.7776    107.9664
  1135.0000      0.0000    667.7194      5.8525    107.9141
  1135.2500      0.0000    595.2108      6.0010    109.1029
  1135.5000      0.0000    513.8909      6.1530    111.3204
  1135.7500      0.0000    442.9119      6.2464    112.9714
  1136.0000      0.0000    394.6783      6.2677    112.5066
  1136.2500      0.0000    370.0374      6.2472    109.4132
  1136.5000      0.0000    363.7883      6.2240    103.9282
  1136.7500      0.0000    372.8183      6.2177     96.6089
  1137.0000      0.0000    398.9340      6.2228     88.5760
  1137.2500      0.0000    444.8681      6.2166     81.4687
  1137.5000      0.0000    507.4447      6.1727     76.4288
  1137.7500      0.0000    574.9420      6.0840     73.2892
  1138.0000      0.0000    632.8013      5.9785     71.0736
  1138.2500      0.0000    672.6475      5.9024     69.0060
  1138.5000      0.0000    695.0906      5.8796     66.7778
  1138.7500      0.0000    704.5480      5.8899     64.1635
  1139.0000      0.0000    702.4758      5.8886     60.7393
  1139.2500      0.0000    684.9547      5.8517     56.1284
  1139.5000      0.0000    646.3034      5.8035     50.6159
  1139.7500      0.0000    586.6050      5.7988     45.3899
  1140.0000      0.0000    516.8585      5.8700     41.9116
  1140.2500      0.0000    455.4876      5.9898     40.9389
  1140.5000      0.0000    418.8879      6.0840     42.1753
  1140.7500      0.0000    415.3646      6.0851     44.8773
  1141.0000      0.0000    444.7250      5.9806     48.7904
  1141.2500      0.0000    498.2541      5.8174     54.3038
  1141.5000      0.0000    559.0699      5.6649     61.4919
  1141.7500      0.0000    608.4938      5.5776     69.0857
  1142.0000      0.0000    636.6379      5.5800     74.6426
  1142.2500      0.0000    646.9143      5.6637     75.9141
  1142.5000      0.0000    649.6074      5.7911     72.3130
  1142.7500      0.0000    651.6870      5.9171     65.3380
  1143.0000      0.0000    652.8539      6.0171     57.5634
  1143.2500      0.0000    648.9913      6.0871     50.8932
  1143.5000      0.0000    636.7001      6.1201     45.5477
  1143.7500      0.0000    614.8320      6.0977     40.6330
  1144.0000      0.0000    584.0961      6.0104     35.5245
  1144.2500      0.0000    546.0311      5.8761     30.5911
  1144.5000      0.0000    502.3905      5.7363     26.8088
  1144.7500      0.0000    456.4592      5.6347     24.9912
  1145.0000      0.0000    414.3543      5.5991     25.4801
  1145.2500      0.0000    382.5300      5.6308     28.3976
  1145.5000      0.0000    363.4830      5.7030     33.8409
  1145.7500      0.0000    355.3168      5.7735     41.5899
  1146.0000      0.0000    355.6084      5.8130     50.9030
  1146.2500      0.0000    365.5144      5.8263     61.0229
  1146.5000      0.0000    390.4742      5.8370     71.8698
  1146.7500      0.0000    435.4441      5.8519     83.8376
  1147.0000      0.0000    496.1182      5.8558     96.6927
  1147.2500      0.0000    554.5905      5.8394    108.9254
  1147.5000      0.0000    588.9759      5.8119    118.6443
  1147.7500      0.0000    591.6683      5.7734    125.1373
  1148.0000      0.0000    576.4467      5.7008    129.0619
  1148.2500      0.0000    564.8005      5.5821    131.1949
  1148.5000      0.0000    567.4582      5.4545    131.7513
  1148.7500      0.0000    581.7296      5.3853    131.1194
  1149.0000      0.0000    602.1994      5.4119    130.5594
  1149.2500      0.0000    626.9248      5.5134    131.5315
  1149.5000      0.0000    653.4392      5.6419    134.3627
  1149.7500      0.0000    674.4894      5.7658    137.8994
  1150.0000      0.0000    680.9343      5.8731    140.5618
  1150.2500      0.0000    668.5143      5.9494    141.5743
  1150.5000      0.0000    641.3910      5.9764    141.1176
  1150.7500      0.0000    609.6241      5.9552    139.5383
  1151.0000      0.0000    583.0531      5.9146    136.7616
  1151.2500      0.0000    566.3499      5.8852    132.6468
  1151.5000      0.0000    558.3385      5.8707    127.8997
  1151.7500      0.0000    554.8424      5.8520    124.2550
  1152.0000      0.0000    552.0022      5.8175    123.3166
  1152.2500      0.0000    547.9321      5.7836    125.4338
  1152.5000      0.0000    542.5622      5.7814    130.0654
  1152.7500      0.0000    536.7321      5.8219    136.7536
  1153.0000      0.0000    531.6223      5.8749    144.9422
  1153.2500      0.0000    528.4702      5.8930    152.8339
  1153.5000      0.0000    527.9289      5.8577    157.3253
  1153.7500      0.0000    529.3453      5.7888    155.9830
  1154.0000      0.0000    531.3619      5.7094    149.1835
  1154.2500      0.0000    533.8319      5.6199    139.9545
  1154.5000      0.0000    539.2576      5.5157    131.7392
  1154.7500      0.0000    552.1591      5.4115    126.3893
  1155.0000      0.0000    576.3544      5.3294    123.6917
  1155.2500      0.0000    611.5283      5.2731    122.0824
  1155.5000      0.0000    651.9451      5.2313    119.8689
  1155.7500      0.0000    689.2826      5.2005    116.2673
  1156.0000      0.0000    716.8697      5.1858    111.6674
  1156.2500      0.0000    731.8411      5.1835    107.2899
  1156.5000      0.0000    736.2635      5.1735    104.5616
  1156.7500      0.0000    737.3148      5.1318    104.2489
  1157.0000      0.0000    742.6882      5.0427    106.0018
  1157.2500      0.0000    753.1580      4.9030    109.0044
  1157.5000      0.0000    761.3233      4.7223    112.9206
  1157.7500      0.0000    758.8313      4.5176    117.6906
  1158.0000      0.0000    744.1517      4.3005    122.4877
  1158.2500      0.0000    723.9397      4.0759    125.5140
  1158.5000      0.0000    708.4659      3.8572    125.0794
  1158.7500      0.0000    705.2505      3.6809    120.6829
  1159.0000      0.0000    714.9158      3.5898    113.1702
  1159.2500      0.0000    731.0995      3.5957    104.4425
  1159.5000      0.0000    744.3457      3.6619     97.1044
  1159.7500      2.0000    748.2393      3.7247     93.6670
  1160.0000      2.0000    743.1238      3.7334     95.3229
  1160.2500      0.0000    733.6696      3.6846    101.3131
  1160.5000      0.0000    723.8220      3.6243    109.6132
  1160.7500      0.0000    715.3027      3.6120    118.1170
  1161.0000      0.0000    708.4725      3.6744    125.0901
  1161.2500      0.0000    701.4814      3.8000    129.1341
  1161.5000      0.0000    689.6332      3.9740    129.4578
  1161.7500      0.0000    668.6375      4.2049    126.3940
  1162.0000      0.0000    639.2516      4.5092    121.5793
  1162.2500      0.0000    607.9213      4.8798    117.2644
  1162.5000      0.0000    582.9318      5.2680    114.9171
  1162.7500      0.0000    570.3319      5.5974    114.4240
  1163.0000      0.0000    572.5291      5.8043    114.8615
  1163.2500      0.0000    588.4922      5.8747    115.8376
  1163.5000      0.0000    613.7073      5.8406    117.7279
  1163.7500      0.0000    640.6605      5.7472    120.8107
