~Version Information
VERS.                      2.0: CWLS Log ASCII Standard - VERSION 2.0
WRAP.                       NO: One line per depth step
~Well Information Block
STRT.FT               506.1000: 
STOP.FT              2140.0000: 
STEP.FT                 0.1000: 
NULL.                -999.2500: 
COMP.          Petrogulf Corporation: COMPANY
WELL.            Montoya 1-44R: WELL
FLD.           Purgatorie River: FIELD
LOC.           658' FSL & 1052' FWL: LOCATION
CNTY.               Las Animas: COUNTY
SRVC.                         : SERVICE COMPANY
DATE.          Tue Nov 16 04:33:40 2004: LOG DATE
UWI.           05 071 08239 00: UNIQUE WELL ID
STAT.                 Colorado: STATE
~Curve Information Block
DEPT.FT            0 000 00 00: Depth
DCAL.in                       : CDL Caliper
RHOB.g/cc                     : CDL Bulk Density
RHOC.g/cc                     : CDL Density Correction
DPOR.pu                       : CDL Density Porosity
GR.GAPI                       : Gamma Ray
NPOR.pu                       : Neutron Porosity
~Parameter Information Block
~A  Depth       DCAL        RHOB        RHOC        DPOR         GR         NPOR    
# ...
   573.3000   -999.2500   -999.2500   -999.2500   -999.2500     44.2493     37.3274
   573.4000   -999.2500   -999.2500   -999.2500   -999.2500     46.7970     37.8539
   573.5000   -999.2500   -999.2500   -999.2500   -999.2500     48.8425     38.3936
   573.6000   -999.2500   -999.2500   -999.2500   -999.2500     49.6624     38.7729
   573.7000   -999.2500   -999.2500   -999.2500   -999.2500     51.9361     39.0347
   573.8000   -999.2500   -999.2500   -999.2500   -999.2500     55.9179     39.3409
   573.9000   -999.2500   -999.2500   -999.2500   -999.2500     60.9443     39.7279
   574.0000   -999.2500   -999.2500   -999.2500   -999.2500     67.2972     40.0029
   574.1000   -999.2500   -999.2500   -999.2500   -999.2500     74.5012     40.1437
   574.2000   -999.2500   -999.2500   -999.2500   -999.2500     82.3417     40.3538
   574.3000   -999.2500   -999.2500   -999.2500   -999.2500     88.2571     40.7365
   574.4000   -999.2500   -999.2500   -999.2500   -999.2500     89.1938     41.0963
   574.5000   -999.2500   -999.2500   -999.2500   -999.2500     89.2426     41.1798
   574.6000   -999.2500   -999.2500   -999.2500   -999.2500     92.9553     41.2218
   574.7000   -999.2500   -999.2500   -999.2500   -999.2500     97.0516     41.5026
   574.8000   -999.2500   -999.2500   -999.2500   -999.2500     97.7803     41.7108
   574.9000   -999.2500   -999.2500   -999.2500   -999.2500     96.4091     41.5752
   575.0000   -999.2500   -999.2500   -999.2500   -999.2500     95.2010     41.3154
   575.1000   -999.2500   -999.2500   -999.2500   -999.2500     93.1952     41.1374
   575.2000   -999.2500   -999.2500   -999.2500   -999.2500     90.6101     41.2433
   575.3000   -999.2500   -999.2500   -999.2500   -999.2500     90.3680     41.6618
   575.4000   -999.2500   -999.2500   -999.2500   -999.2500     94.5600     41.9140
   575.5000   -999.2500   -999.2500   -999.2500   -999.2500    101.2895     41.5885
   575.6000   -999.2500   -999.2500   -999.2500   -999.2500    107.1819     40.8056
   575.7000   -999.2500   -999.2500   -999.2500   -999.2500    111.4958     40.1776
   575.8000   -999.2500   -999.2500   -999.2500   -999.2500    111.5619     40.1151
   575.9000   -999.2500   -999.2500   -999.2500   -999.2500    107.2233     40.2788
   576.0000   -999.2500   -999.2500   -999.2500   -999.2500    104.8128     40.2398
   576.1000   -999.2500   -999.2500   -999.2500   -999.2500    105.0188     39.9409
   576.2000   -999.2500   -999.2500   -999.2500   -999.2500    104.8169     39.7343
   576.3000   -999.2500   -999.2500   -999.2500   -999.2500    103.4988     39.9668
   576.4000   -999.2500   -999.2500   -999.2500   -999.2500     99.9219     40.4940
   576.5000   -999.2500   -999.2500   -999.2500   -999.2500     96.4311     40.8996
   576.6000   -999.2500   -999.2500   -999.2500   -999.2500     97.1582     40.9897
   576.7000   -999.2500   -999.2500   -999.2500   -999.2500    100.0340     40.8413
   576.8000   -999.2500   -999.2500   -999.2500   -999.2500    103.3204     40.5990
   576.9000   -999.2500   -999.2500   -999.2500   -999.2500    108.1529     40.5945
   577.0000   -999.2500   -999.2500   -999.2500   -999.2500    111.4540     41.0214
   577.1000   -999.2500   -999.2500   -999.2500   -999.2500    109.9259     41.5550
   577.2000   -999.2500   -999.2500   -999.2500   -999.2500    107.9936     41.8098
   577.3000   -999.2500   -999.2500   -999.2500   -999.2500    109.2452     41.7727
   577.4000   -999.2500   -999.2500   -999.2500   -999.2500    110.8413     41.6427
   577.5000   -999.2500   -999.2500   -999.2500   -999.2500    111.5004     41.5945
   577.6000   -999.2500   -999.2500   -999.2500   -999.2500    112.1835     41.6144
   577.7000   -999.2500   -999.2500   -999.2500   -999.2500    109.8117     41.5631
   577.8000   -999.2500   -999.2500   -999.2500   -999.2500    102.5995     41.5659
   577.9000   -999.2500   -999.2500   -999.2500   -999.2500     95.8739     41.8965
   578.0000   -999.2500   -999.2500   -999.2500   -999.2500     93.7293     42.2780
   578.1000   -999.2500   -999.2500      0.2051   -999.2500     95.7597     42.3373
   578.2000   -999.2500   -999.2500      0.2413   -999.2500    100.6055     42.3614
   578.3000   -999.2500   -999.2500      0.2237   -999.2500    105.4878     42.4347
   578.4000   -999.2500   -999.2500      0.2121   -999.2500    105.6549     42.1478
   578.5000      2.3642   -999.2500      0.2061   -999.2500    100.9004     41.7828
   578.6000      2.3642      2.1677      0.1980     29.2274     96.0002     41.8730
   578.7000      2.3642      2.1613      0.2192     29.6188     95.0459     42.1979
   578.8000      2.3547      2.1524      0.2114     30.1560     98.7503     42.3598
   578.9000      2.3547      2.1409      0.1551     30.8562    102.9511     42.2581
   579.0000      2.3423      2.1342      0.2074     31.2606    102.2414     42.1535
   579.1000      2.3423      2.1278      0.1953     31.6498     98.7096     42.3345
   579.2000      2.3423      2.1194      0.1853     32.1581     97.9237     42.7373
   579.3000      2.3447      2.1223      0.1770     31.9803     98.5290     43.2502
   579.4000      2.3447      2.1427      0.2077     30.7445     97.1840     43.7669
   579.5000      2.3585      2.1627      0.2694     29.5322     94.3691     43.8938
   579.6000      2.3585      2.1628      0.2553     29.5249     91.2175     43.6767
   579.7000      2.3585      2.1504      0.2199     30.2806     86.5130     43.6205
   579.8000      2.3603      2.1514      0.2043     30.2169     80.6703     43.6632
   579.9000      2.3603      2.1787      0.2094     28.5634     77.1073     43.4866
   580.0000      2.3487      2.2166      0.2577     26.2666     76.4107     43.2108
   580.1000      2.3487      2.2470      0.2738     24.4260     78.2747     43.0901
   580.2000      2.3487      2.2723      0.2755     22.8915     82.7087     43.0278
   580.3000      2.3433      2.2961      0.3195     21.4498     85.7175     42.7821
   580.4000      2.3433      2.3102      0.3003     20.5961     85.0620     42.4138
   580.5000      2.3445      2.3147      0.3061     20.3219     84.2486     42.0873
   580.6000      2.3445      2.3149      0.3017     20.3062     83.6899     41.7602
   580.7000      2.3445      2.3082      0.3349     20.7152     81.6567     41.4453
   580.8000      2.3449      2.2947      0.3040     21.5341     79.5428     41.4282
   580.9000      2.3449      2.2835      0.2858     22.2142     79.4741     41.8380
   581.0000      2.3428      2.2782      0.2920     22.5347     84.1631     42.3540
   581.1000      2.3428      2.2789      0.2549     22.4896     90.3927     42.4891
   581.2000      2.3428      2.2866      0.3045     22.0272     90.0610     42.1078
   581.3000      2.3432      2.2911      0.2940     21.7494     84.2103     41.5705
   581.4000      2.3432      2.2864      0.2930     22.0380     80.8956     41.2062
   581.5000      2.3475      2.2799      0.3117     22.4274     81.6957     40.9062
   581.6000      2.3475      2.2773      0.3011     22.5849     82.7649     40.6943
   581.7000      2.3475      2.2769      0.2546     22.6127     83.6930     40.7948
   581.8000      2.3498      2.2769      0.2692     22.6122     84.3183     40.9932
   581.9000      2.3498      2.2819      0.2673     22.3087     82.9731     40.9061
   582.0000      2.3453      2.2984      0.2849     21.3110     80.0867     40.6078
   582.1000      2.3453      2.3202      0.3088     19.9901     76.6062     40.4554
   582.2000      2.3453      2.3362      0.3277     19.0211     73.8548     40.4267
   582.3000      2.3459      2.3454      0.2967     18.4595     73.1785     40.2199
   582.4000      2.3459      2.3498      0.3179     18.1922     74.3531     39.8284
   582.5000      2.3558      2.3491      0.2958     18.2390     76.9418     39.4573
   582.6000      2.3558      2.3483      0.2865     18.2876     79.5457     39.2268
   582.7000      2.3558      2.3541      0.2863     17.9334     80.0095     39.2737
   582.8000      2.3615      2.3686      0.2892     17.0548     80.1774     39.5702
