~Version Information
VERS.                      2.0: CWLS Log ASCII Standard - VERSION 2.0
WRAP.                       NO: One line per depth step
~Well Information Block
STRT.FT               510.5000: 
STOP.FT              2075.5000: 
STEP.FT                 0.1000: 
NULL.                -999.2500: 
COMP.          Petrogulf Corporation: COMPANY
WELL.          Robinson 15-11V: WELL
FLD.           Purgatorie River: FIELD
LOC.           226' FNL & 592' FWL: LOCATION
CNTY.               Las Animas: COUNTY
SRVC.                         : SERVICE COMPANY
DATE.          Wed Aug 04 06:17:53 2004: LOG DATE
UWI.           05 071 08027 00: UNIQUE WELL ID
STAT.                 Colorado: STATE
~Curve Information Block
DEPT.FT            0 000 00 00: Depth
DCAL.in                       : CDL Caliper
RHOB.g/cc                     : CDL Bulk Density
RHOC.g/cc                     : CDL Density Correction
DPOR.pu                       : CDL Density Porosity
GR.GAPI                       : Gamma Ray
NPOR.pu                       : Neutron Porosity
~Parameter Information Block
~A  Depth       DCAL        RHOB        RHOC        DPOR         GR         NPOR    
# ...
  1758.5000      7.9438      2.4631      0.1328     11.3260     74.9873     24.7875
  1758.6000      7.9438      2.4506      0.0944     12.0835     77.4798     24.9725
  1758.7000      7.9438      2.4449      0.0591     12.4329     87.3680     25.0758
  1758.8000      7.9307      2.4529      0.0387     11.9443     97.7787     24.6997
  1758.9000      7.9307      2.4670      0.0665     11.0903    107.1919     23.9828
  1759.0000      7.9231      2.4779      0.0969     10.4279    117.3474     23.5700
  1759.1000      7.9231      2.4826      0.0822     10.1478    127.4140     23.7775
  1759.2000      7.9231      2.4859      0.0851      9.9450    133.0199     24.3192
  1759.3000      7.8755      2.4938      0.0809      9.4656    134.7695     24.7222
  1759.4000      7.8755      2.5060      0.0789      8.7275    137.6494     24.6549
  1759.5000      7.8523      2.5169      0.0755      8.0659    140.5547     24.1965
  1759.6000      7.8523      2.5203      0.0438      7.8613    137.6146     23.7936
  1759.7000      7.8523      2.5192      0.0371      7.9258    128.9787     23.6364
  1759.8000      7.8502      2.5213      0.0676      7.8017    122.7408     23.4995
  1759.9000      7.8502      2.5300      0.0535      7.2744    121.8630     23.3315
  1760.0000      7.8492      2.5449      0.0816      6.3680    119.9961     23.2746
  1760.1000      7.8492      2.5592      0.0895      5.5018    112.7830     23.3996
  1760.2000      7.8492      2.5663      0.0848      5.0747    103.2956     23.6282
  1760.3000      7.8503      2.5621      0.1109      5.3272     99.4003     23.7426
  1760.4000      7.8503      2.5465      0.0527      6.2723    101.8039     23.5868
  1760.5000      7.8508      2.5314      0.0455      7.1853    102.4085     23.1701
  1760.6000      7.8508      2.5301      0.0555      7.2655     98.9284     22.9459
  1760.7000      7.8508      2.5429      0.0805      6.4927     96.7537     23.2697
  1760.8000      7.8509      2.5621      0.0732      5.3254     98.5342     23.6542
  1760.9000      7.8509      2.5774      0.0802      4.4023     99.7623     23.5826
  1761.0000      7.8510      2.5803      0.0644      4.2237     97.5601     23.2918
  1761.1000      7.8510      2.5761      0.0715      4.4800     93.9867     23.1031
  1761.2000      7.8510      2.5744      0.0661      4.5844     90.9401     22.8457
  1761.3000      7.8513      2.5756      0.0744      4.5063     87.9691     22.4736
  1761.4000      7.8513      2.5803      0.0951      4.2262     84.8908     22.3371
  1761.5000      7.8483      2.5953      0.0926      3.3168     82.2087     22.5963
  1761.6000      7.8483      2.6217      0.0960      1.7160     79.9990     23.0209
  1761.7000      7.8483      2.6504      0.1136     -0.0228     77.6799     23.2120
  1761.8000      7.8504      2.6683      0.1342     -1.1113     75.6494     23.0022
  1761.9000      7.8504      2.6627      0.1077     -0.7673     75.1065     22.6624
  1762.0000      7.8501      2.6344      0.0847      0.9481     75.8651     22.4954
  1762.1000      7.8501      2.6012      0.0873      2.9574     79.0577     22.4827
  1762.2000      7.8501      2.5804      0.0681      4.2199     82.2783     22.4548
  1762.3000      7.8508      2.5779      0.0715      4.3709     79.8711     22.2696
  1762.4000      7.8508      2.5874      0.0750      3.7932     75.3777     21.9392
  1762.5000      7.8510      2.5969      0.0640      3.2168     75.4104     21.6859
  1762.6000      7.8510      2.5993      0.0724      3.0714     76.5229     21.6178
  1762.7000      7.8510      2.5959      0.0512      3.2780     74.1945     21.7286
  1762.8000      7.8494      2.5954      0.0580      3.3087     70.3276     22.0238
  1762.9000      7.8494      2.6066      0.0569      2.6314     66.6530     22.2293
  1763.0000      7.8506      2.6265      0.0773      1.4243     65.4667     22.0076
  1763.1000      7.8506      2.6367      0.0957      0.8087     70.6714     21.5473
  1763.2000      7.8506      2.6230      0.0927      1.6354     77.7060     21.2875
  1763.3000      7.8498      2.5922      0.0709      3.5044     79.5589     21.5699
  1763.4000      7.8498      2.5636      0.0300      5.2348     76.5548     22.3921
  1763.5000      7.8483      2.5508      0.0410      6.0115     70.8748     23.0133
  1763.6000      7.8483      2.5500      0.0602      6.0581     64.9817     22.7498
  1763.7000      7.8483      2.5532      0.0666      5.8682     61.5533     21.9443
  1763.8000      7.8491      2.5618      0.0438      5.3441     61.0648     21.3128
  1763.9000      7.8491      2.5762      0.0653      4.4730     61.1997     21.0962
  1764.0000      7.8510      2.5848      0.0923      3.9544     59.8542     21.2403
  1764.1000      7.8510      2.5870      0.0431      3.8187     58.6606     21.5382
  1764.2000      7.8510      2.5960      0.0790      3.2741     61.2047     21.6969
  1764.3000      7.8503      2.6072      0.1046      2.5962     66.6134     21.6342
  1764.4000      7.8503      2.6053      0.0831      2.7104     71.3021     21.4956
  1764.5000      7.8491      2.5952      0.0733      3.3224     74.7514     21.4854
  1764.6000      7.8491      2.5957      0.0796      3.2924     77.2810     21.7121
  1764.7000      7.8491      2.6080      0.0818      2.5453     78.1703     22.0922
  1764.8000      7.8494      2.6084      0.1226      2.5237     79.3714     22.3472
  1764.9000      7.8494      2.5840      0.0676      4.0015     82.4947     22.2053
  1765.0000      7.8495      2.5564      0.0595      5.6698     82.0840     21.9622
  1765.1000      7.8495      2.5508      0.0058      6.0134     73.9220     22.0897
  1765.2000      7.8495      2.5660      0.0507      5.0908     63.6756     22.3509
  1765.3000      7.8499      2.5790      0.0674      4.3034     59.0720     22.4043
  1765.4000      7.8499      2.5714      0.0687      4.7647     62.4448     22.3359
  1765.5000      7.8504      2.5529      0.0208      5.8853     69.4355     22.2022
  1765.6000      7.8504      2.5519      0.0662      5.9467     73.8314     21.9788
  1765.7000      7.8504      2.5740      0.0754      4.6039     73.6418     21.8244
  1765.8000      7.8507      2.5959      0.1228      3.2793     71.3013     21.8731
  1765.9000      7.8507      2.5968      0.0988      3.2223     69.2162     21.9976
  1766.0000      7.8498      2.5765      0.0689      4.4546     69.1441     22.0274
  1766.1000      7.8498      2.5470      0.0283      6.2394     72.6288     22.0873
  1766.2000      7.8498      2.5209      0.0224      7.8256     75.8585     22.2738
  1766.3000      7.8510      2.5018      0.0261      8.9833     74.4544     22.3526
  1766.4000      7.8510      2.4886      0.0199      9.7832     72.3499     22.1898
  1766.5000      7.8505      2.4893     -0.0155      9.7394     73.5021     21.9079
  1766.6000      7.8505      2.5100      0.0244      8.4844     76.2239     21.6476
  1766.7000      7.8505      2.5344      0.0720      7.0066     80.2763     21.6197
  1766.8000      7.8508      2.5445      0.0566      6.3926     86.3445     21.9711
  1766.9000      7.8508      2.5462      0.0664      6.2893     90.2083     22.4852
  1767.0000      7.8509      2.5506      0.1010      6.0215     87.1814     22.6663
  1767.1000      7.8509      2.5573      0.0930      5.6170     80.5631     22.3761
  1767.2000      7.8509      2.5655      0.0885      5.1211     76.2928     21.9877
  1767.3000      7.8511      2.5782      0.0869      4.3518     76.7889     21.7904
  1767.4000      7.8511      2.5966      0.0997      3.2374     80.8874     21.8066
  1767.5000      7.8501      2.6131      0.1050      2.2355     82.2760     21.8212
  1767.6000      7.8501      2.6145      0.1253      2.1525     76.0032     21.6570
  1767.7000      7.8501      2.6055      0.0756      2.6970     66.3430     21.5424
  1767.8000      7.8506      2.6050      0.1043      2.7279     60.1008     21.5946
  1767.9000      7.8506      2.6124      0.1504      2.2760     59.7839     21.5363
  1768.0000      7.8529      2.6150      0.1019      2.1192     64.7514     21.0991
