~Version Information
VERS.                      2.0: CWLS Log ASCII Standard - VERSION 2.0
WRAP.                       NO: One line per depth step
~Well Information Block
STRT.FT               664.0000: 
STOP.FT              1615.5000: 
STEP.FT                 0.2500: 
NULL.                -999.2500: 
COMP.          Petrogulf Corporation: COMPANY
WELL.          Great Plains 22-21R: WELL
FLD.           Purgatorie River: FIELD
LOC.           73' FNL & 1992' FWL: LOCATION
PROV.                 Colorado: PROVINCE
CNTY.               Las Animas: COUNTRY
SRVC.                Patterson: SERVICE COMPANY
DATE.          Thu Sep 08 08:05:26 2005: LOG DATE
UWI.                          : UNIQUE WELL ID
~Curve Information Block
DEPT.FT            0 000 00 00: Depth
SP.mV                         : DIL Spontaneous Potential
RILD.Ohm-m                    : DIL Deep Resistivity
RILM.Ohm-m                    : DIL Medium Resistivity
RLL3.Ohm-m                    : DIL Shallow Resistivity
GR.GAPI                       : Gamma Ray
~Parameter Information Block
~A  Depth        SP         RILD        RILM        RLL3         GR     
# ...
  1476.0000    199.9940     12.5390     13.2898     18.1516   -999.2500
  1476.2500    199.9940     12.6580     12.9218     13.6921   -999.2500
  1476.5000    199.9940     12.5099     12.6808     12.9970   -999.2500
  1476.7500    199.9940     12.3815     12.4746     13.6455   -999.2500
  1477.0000    199.9940     12.2403     12.3073     13.9270   -999.2500
  1477.2500    199.9940     12.2603     12.3134     13.9343   -999.2500
  1477.5000    199.9940     12.1397     12.3039     13.5911   -999.2500
  1477.7500    199.9940     11.9028     12.4140     14.1943   -999.2500
  1478.0000    199.9940     12.0109     12.5906     16.0537   -999.2500
  1478.2500    199.9940     11.9942     12.6650     17.9234   -999.2500
  1478.5000    199.9940     12.2086     12.9226     17.4861   -999.2500
  1478.7500    199.9940     12.3362     13.1359     17.4699   -999.2500
  1479.0000    199.9940     12.5187     13.4046     18.3897   -999.2500
  1479.2500    199.9940     12.7516     13.9922     19.6200   -999.2500
  1479.5000    199.9940     13.0103     14.5220     22.5356   -999.2500
  1479.7500    199.9940     13.0899     14.8572     25.0302   -999.2500
  1480.0000    199.9940     13.6187     14.8277     23.6736   -999.2500
  1480.2500    199.9940     13.8257     14.9208     20.9202   -999.2500
  1480.5000    199.9940     14.0284     15.0876     17.8091   -999.2500
  1480.7500    199.9940     14.1692     15.0263     17.0808   -999.2500
  1481.0000    199.9940     14.4585     15.0339     18.0268   -999.2500
  1481.2500    199.9940     14.8209     15.2104     20.7400   -999.2500
  1481.5000    199.9940     15.2072     15.0688     21.6314   -999.2500
  1481.7500    199.9940     15.5016     15.4168     18.4251   -999.2500
  1482.0000    199.9940     15.8248     15.4868     15.8367   -999.2500
  1482.2500    199.9940     15.8660     16.0226     15.2768   -999.2500
  1482.5000    199.9940     16.2182     16.8834     16.8121   -999.2500
  1482.7500    199.9940     16.7463     17.7703     22.3630   -999.2500
  1483.0000    199.9940     17.2156     18.9152     31.6358   -999.2500
  1483.2500    199.9939     17.6387     19.9014     36.3329   -999.2500
  1483.5000    199.9554     18.2880     20.2107     31.4387   -999.2500
  1483.7500    199.5960     18.5704     21.0485     27.4629   -999.2500
  1484.0000    198.9204     18.8486     21.5630     27.6995   -999.2500
  1484.2500    198.2138     19.6592     22.8731     30.9616   -999.2500
  1484.5000    197.5300     20.3074     24.2738     38.8173   -999.2500
  1484.7500    196.9214     21.2477     24.4945     48.3938   -999.2500
  1485.0000    196.4488     21.4999     26.2742     51.2898   -999.2500
  1485.2500    196.1028     21.8837     25.8510     46.8061   -999.2500
  1485.5000    195.8829     22.1612     26.0983     35.9380   -999.2500
  1485.7500    195.7024     22.8337     25.9625     28.3932   -999.2500
  1486.0000    195.5714     23.6078     26.4436     29.2409   -999.2500
  1486.2500    195.5132     23.4031     26.7002     32.1971   -999.2500
  1486.5000    195.5032     23.7031     27.1581     32.0979   -999.2500
  1486.7500    195.5093     22.9956     27.6831     31.4542   -999.2500
  1487.0000    195.5393     22.8051     28.0579     34.0760   -999.2500
  1487.2500    195.6745     22.7871     28.2098     43.5230   -999.2500
  1487.5000    195.8947     22.0672     27.6542     52.6809   -999.2500
  1487.7500    196.2446     22.1356     26.1406     49.4677   -999.2500
  1488.0000    196.7365     21.7565     24.7059     40.2008   -999.2500
  1488.2500    197.3037     21.8257     23.5992     28.8634   -999.2500
  1488.5000    197.8805     22.4775     22.5964     22.3677   -999.2500
  1488.7500    198.4003     22.6622     22.3507     22.8008   -999.2500
  1489.0000    198.9024     23.7295     22.7077     24.4476   -999.2500
  1489.2500    199.3562     24.3524     23.6483     23.3433   -999.2500
  1489.5000    199.7252     24.3936     25.3238     22.1962   -999.2500
  1489.7500    199.9666     24.0958     26.6541     28.0702   -999.2500
  1490.0000    199.9940     24.4506     29.0934     43.6127   -999.2500
  1490.2500    199.9940     24.8355     31.7212     66.7759   -999.2500
  1490.5000    199.9940     24.3396     33.1065     81.5654   -999.2500
  1490.7500    199.9940     24.5401     34.0051     86.6336   -999.2500
  1491.0000    199.9940     25.2328     34.8098     81.6219   -999.2500
  1491.2500    199.9940     25.5760     33.6010     70.9168   -999.2500
  1491.5000    199.9940     25.8438     33.2153     60.2349   -999.2500
  1491.7500    199.9940     26.2253     32.6582     51.0465   -999.2500
  1492.0000    199.9940     26.4753     31.5759     43.6793   -999.2500
  1492.2500    199.9940     26.5406     30.8851     37.9032   -999.2500
  1492.5000    199.9940     26.0369     30.4613     33.6161   -999.2500
  1492.7500    199.9940     26.0029     29.3923     30.7757   -999.2500
  1493.0000    199.9940     25.5785     29.1744     30.6530   -999.2500
  1493.2500    199.9940     24.2308     29.7347     32.8960   -999.2500
  1493.5000    199.9940     23.0698     28.2329     37.4510   -999.2500
  1493.7500    199.9940     22.5930     26.6115     42.8328   -999.2500
  1494.0000    199.9940     22.6567     25.9112     44.2318   -999.2500
  1494.2500    199.9940     22.1949     23.7937     38.1484   -999.2500
  1494.5000    199.9940     21.5182     22.4409     27.3923   -999.2500
  1494.7500    199.9940     21.8207     21.8264     18.1653   -999.2500
  1495.0000    199.9940     21.3363     21.6664     16.9813   -999.2500
  1495.2500    199.9940     20.7050     22.7302     24.2132   -999.2500
  1495.5000    199.9940     20.8060     23.5721     38.6555   -999.2500
  1495.7500    199.9940     20.3514     24.3152     52.6397   -999.2500
  1496.0000    199.9940     20.2117     24.2483     52.5609   -999.2500
  1496.2500    199.9940     19.8415     22.3443     43.5289   -999.2500
  1496.5000    199.9940     19.5196     21.9739     31.1788   -999.2500
  1496.7500    199.9940     19.4821     20.9471     21.3957   -999.2500
  1497.0000    199.9940     19.4311     20.2245     20.3431   -999.2500
  1497.2500    199.9940     19.3965     19.8303     22.5246   -999.2500
  1497.5000    199.9940     19.8431     20.2443     22.5336   -999.2500
  1497.7500    199.9940     20.2775     20.5305     23.4690   -999.2500
  1498.0000    199.9940     19.8203     21.1163     24.9667   -999.2500
  1498.2500    199.9940     19.2771     21.2327     26.5042   -999.2500
  1498.5000    199.9940     19.2129     21.4176     30.0355   -999.2500
  1498.7500    199.9940     18.9928     21.0255     29.1364   -999.2500
  1499.0000    199.9940     19.1765     21.0165     23.5886   -999.2500
  1499.2500    199.9940     19.1374     20.7867     23.2576   -999.2500
  1499.5000    199.9940     19.0817     21.0089     25.8424   -999.2500
  1499.7500    199.9940     19.2568     20.7911     24.7594   -999.2500
  1500.0000    199.9940     18.4873     21.3637     23.4691   -999.2500
  1500.2500    199.9940     18.1276     21.7574     26.1566   -999.2500
  1500.5000    199.9940     17.9318     21.3667     32.2809   -999.2500
  1500.7500    199.9940     17.6064     20.5531     36.2102   -999.2500
  1501.0000    199.9940     17.5843     19.9503     31.4220   -999.2500
  1501.2500    199.9940     17.0125     18.8902     23.2704   -999.2500
  1501.5000    199.9940     16.8004     18.0380     20.5071   -999.2500
  1501.7500    199.9940     16.4310     16.7968     22.0445   -999.2500
  1502.0000    199.9940     16.2513     16.3544     20.4938   -999.2500
  1502.2500    199.9940     16.1409     16.0175     17.2089   -999.2500
  1502.5000    199.9940     15.7744     15.9076     16.2457   -999.2500
  1502.7500    199.9940     15.4346     15.7238     16.5174   -999.2500
  1503.0000    199.9940     14.9833     15.7803     17.0682   -999.2500
  1503.2500    199.9940     14.3229     16.0118     18.1409   -999.2500
  1503.5000    199.9940     13.8547     15.9753     20.7140   -999.2500
  1503.7500    199.9940     13.2664     15.7012     24.3678   -999.2500
