~Version Information
 VERS.                                  2.0 : CWLS LAS VERSION
 WRAP.                                   NO : WRAPING MODE
 SWARE .                 MController 2.5.0N : SOFTWARE VERSION
~Well Information
 WELL.                          Cluck 21-25 : WELL
 COMP.    PIONEER NATURAL RESOURCES USA INC : COMPANY
 FLD.                      PURGATOIRE RIVER : FIELD
 LOC.                  NE/NW Sec 25 32S 67W : LOCATION
 DATE.                           6/5-6/2005 : DATE(S) LOGGED
 SRVC.       BLANCO GEOLOGICAL SERVICES LLC : SERVICE COMPANY
 STAT.                                   CO : STATE
 CNTY.                           LAS ANIMAS : COUNTY
 CTRY.                                  USA : COUNTRY
 API.                       05-071-08397-00 : API NUMBER
 STRT.FT                             296.00 : START DEPTH
 STOP.FT                            2730.00 : STOP DEPTH
 STEP.FT                               1.00 : DEPTH INCREMENT
 NULL.                                -9999 : NULL VALUE
~Curve information
 DEPTH.FT                                   :
 ROP.MIN/FT                                 :
 GAS.UNITS                                  :
~ASCII Log data
# ...
       696.0         0.43          3.1 
       697.0         0.40          3.3 
       698.0         0.43          2.8 
       699.0         0.47          3.2 
       700.0         0.50          3.0 
       701.0         0.48          2.9 
       702.0         0.43          2.5 
       703.0         0.57          3.0 
       704.0         0.67          3.9 
       705.0         0.47          3.5 
       706.0         0.40          3.6 
       707.0         0.45          2.9 
       708.0         0.50          2.7 
       709.0         0.50          2.6 
       710.0         0.47          2.9 
       711.0         0.47          2.6 
       712.0         0.53          2.7 
       713.0         0.57          2.8 
       714.0         0.65          3.3 
       715.0         0.57          3.3 
       716.0         0.43          2.8 
       717.0         0.50          2.9 
       718.0         0.53          2.9 
       719.0         0.50          2.4 
       720.0         0.68          3.2 
       721.0        12.92          4.8 
       722.0         2.88          5.1 
       723.0         1.48          4.7 
       724.0         0.57          4.4 
       725.0         0.57          4.5 
       726.0         0.63          4.2 
       727.0         0.60          4.5 
       728.0         0.78          4.3 
       729.0         0.63          4.3 
       730.0         0.50          4.5 
       731.0         0.50          5.8 
       732.0         0.50          6.0 
       733.0         0.55          6.1 
       734.0         0.43          8.1 
       735.0         0.40          8.1 
       736.0         0.43          8.4 
       737.0         0.57         10.6 
       738.0         0.57          9.5 
       739.0         0.57          8.9 
       740.0         0.48          8.5 
       741.0         0.47          8.8 
       742.0         0.47          8.7 
       743.0         0.53          9.1 
       744.0         0.50          8.1 
       745.0         0.57          7.8 
       746.0         0.60          7.5 
       747.0         0.65          7.2 
       748.0         0.60          6.3 
       749.0         0.53          6.7 
       750.0         0.53          5.6 
       751.0         7.27          6.1 
       752.0         0.82          5.4 
       753.0         0.43          5.4 
       754.0         0.37          5.0 
       755.0         0.37          4.8 
       756.0         0.33          4.9 
       757.0         0.23          5.2 
       758.0         0.23          5.3 
       759.0         0.30          5.2 
       760.0         0.30          5.2 
       761.0         0.23          5.0 
       762.0         0.25          4.8 
       763.0         0.23          4.9 
       764.0         0.23          5.4 
       765.0         0.20          5.4 
       766.0         0.20          5.4 
       767.0         0.17          4.8 
       768.0         0.27          5.9 
       769.0         0.27          8.2 
       770.0         0.20         15.3 
       771.0         0.27         17.4 
       772.0         0.27         19.2 
       773.0         0.30         19.4 
       774.0         0.33         21.2 
       775.0         0.48         17.9 
       776.0         0.30         15.6 
       777.0         0.30         11.4 
       778.0         0.37          9.5 
       779.0         0.30          9.3 
       780.0         0.37         15.4 
       781.0         7.30        852.7 
       782.0         0.67        521.3 
       783.0         0.42         79.0 
       784.0         0.30         29.4 
       785.0         0.40         24.8 
       786.0         0.33         14.6 
       787.0         0.30         10.5 
       788.0         0.30          8.2 
       789.0         0.33          8.7 
       790.0         0.30          7.6 
       791.0         0.37          8.4 
       792.0         0.40          8.1 
       793.0         0.42          6.5 
       794.0         0.40          7.4 
       795.0         0.30          7.3 
       796.0         0.23          7.3 
       797.0         0.23          7.3 
       798.0         0.27          7.2 
       799.0         0.37          6.7 
       800.0         0.33          7.0 
       801.0         0.37          7.5 
       802.0         0.33          6.5 
       803.0         0.33          6.9 
       804.0         0.35          6.3 
       805.0         0.33          6.3 
       806.0         0.37          5.9 
       807.0         0.30          6.8 
       808.0         0.30          5.7 
       809.0         0.33          5.8 
       810.0         0.33          5.9 
       811.0        16.55         32.8 
       812.0         0.47         40.9 
       813.0         0.70         43.2 
       814.0         0.62         15.0 
       815.0         0.73          6.7 
       816.0         0.60          6.7 
       817.0         0.73          6.9 
       818.0         0.53          8.6 
       819.0         0.38          8.7 
       820.0         0.30          8.0 
       821.0         0.37          7.9 
       822.0         0.13          7.7 
       823.0         0.33          7.8 
       824.0         0.30          7.1 
       825.0         0.23          7.1 
       826.0         0.47          7.6 
       827.0         0.57          8.6 
       828.0         0.27          8.0 
       829.0         0.28          8.5 
       830.0         0.20          8.5 
       831.0         0.13          8.3 
       832.0         0.10          8.3 
       833.0         0.27          8.3 
       834.0         0.20          8.5 
       835.0         0.13          9.2 
       836.0         0.23          8.9 
       837.0         0.20          8.5 
       838.0         0.27          9.6 
       839.0         0.20         12.2 
       840.0         0.20         17.0 
       841.0         0.30         21.0 
       842.0         7.27         63.4 
       843.0         0.65         13.5 
       844.0         0.37          9.6 
       845.0         0.40          8.9 
       846.0         0.33          8.5 
       847.0         0.37          7.4 
       848.0         0.40         10.2 
       849.0         0.45          8.8 
       850.0         0.37          9.0 
       851.0         0.37          8.1 
       852.0         0.37          8.5 
       853.0         0.37          9.1 
       854.0         0.37          8.2 
       855.0         0.37          8.3 
       856.0         0.30          8.2 
       857.0         0.53          9.2 
       858.0         0.28          8.1 
       859.0         0.30          8.6 
       860.0         0.37          8.2 
       861.0         0.33          8.8 
       862.0         0.20         10.2 
       863.0         0.20          9.3 
       864.0         0.17          9.3 
       865.0         0.17          9.3 
       866.0         0.23          9.2 
       867.0         0.20          9.1 
       868.0         0.23          9.1 
       869.0         0.30          9.6 
       870.0         0.23          8.8 
       871.0        23.22         51.7 
       872.0         0.48          9.8 
       873.0         0.13          9.7 
       874.0         0.27          9.1 
       875.0         0.50          9.9 
       876.0         0.43         10.0 
       877.0         0.23         11.5 
       878.0         0.13         11.6 
       879.0         0.23         11.1 
       880.0         0.27         11.5 
       881.0         0.13         10.6 
       882.0         0.17          9.7 
       883.0         0.13         10.4 
       884.0         0.17         10.0 
       885.0         0.27          9.4 
       886.0         0.55          9.7 
       887.0         0.27          9.9 
       888.0         0.27         10.2 
       889.0         0.27         11.8 
       890.0         0.23         15.1 
       891.0         0.17         17.5 
       892.0         0.17         17.5 
       893.0         0.20         18.9 
       894.0         0.23         17.0 
       895.0         0.13         14.0 
