~Version Information
VERS.                      2.0: CWLS Log ASCII Standard - VERSION 2.0
WRAP.                       NO: One line per depth step
~Well Information Block
STRT.FT                -7.5000: 
STOP.FT              2226.0000: 
STEP.FT                 0.2500: 
NULL.                -999.2500: 
COMP.          Pioneer Natural Resources: COMPANY
WELL.              Tonto 42-23: WELL
FLD.           Purgatorie River: FIELD
LOC.           2217' FNL & 423' FEL----: LOCATION
PROV.                       CO: PROVINCE
CNTY.               Las Animas: COUNTRY
SRVC.          Patterson Wireline: SERVICE COMPANY
DATE.          Fri Apr 22 11:40:07 2005: LOG DATE
UWI.           05 071 08335 00: UNIQUE WELL ID
~Curve Information Block
DEPT.FT            0 000 00 00: Depth
CCL.                          : Casing Collar Locator
TT3.usec                      : CBL 3' Travel Time
AMP3.mV                       : CBL 3' Amplitude
GR.GAPI                       : Gamma Ray
~Parameter Information Block
~A  Depth       CCL         TT3         AMP3         GR     
# ...
   428.0000      0.0000    725.7264      7.1149     62.6724
   428.2500      0.0000    737.1898      7.1830     60.0939
   428.5000      0.0000    748.0151      7.2649     58.2148
   428.7500      0.0000    757.5031      7.3517     55.8355
   429.0000      0.0000    765.4672      7.4399     52.6094
   429.2500      0.0000    772.4787      7.5251     48.9397
   429.5000      0.0000    778.4937      7.5978     45.6493
   429.7500      0.0000    780.9798      7.6459     43.8592
   430.0000      0.0000    776.7938      7.6598     44.6042
   430.2500      0.0000    766.6326      7.6365     48.1444
   430.5000      0.0000    755.5631      7.5804     53.7193
   430.7500      0.0000    748.5199      7.5001     60.0737
   431.0000      0.0000    746.5558      7.4034     66.2518
   431.2500      0.0000    747.2990      7.2941     71.9257
   431.5000      0.0000    748.2086      7.1688     77.0685
   431.7500      0.0000    749.6068      7.0164     81.5309
   432.0000      0.0000    754.2563      6.8259     84.9955
   432.2500      0.0000    763.1911      6.6007     87.0855
   432.5000      0.0000    772.9813      6.3648     87.5285
   432.7500      0.0000    778.6818      6.1530     86.6127
   433.0000      0.0000    778.9721      5.9982     85.4148
   433.2500      0.0000    777.1815      5.9211     85.1925
   433.5000      0.0000    777.5590      5.9236     86.4500
   433.7500      0.0000    781.4752      5.9872     88.6814
   434.0000      0.0000    787.1284      6.0824     90.8149
   434.2500      0.0000    791.7103      6.1800     91.8968
   434.5000      0.0000    792.9673      6.2597     91.6843
   434.7500      0.0000    789.2509      6.3157     90.6337
   435.0000      0.0000    779.8731      6.3594     88.9868
   435.2500      0.0000    766.9167      6.4146     86.0433
   435.5000      0.0000    756.4186      6.5028     81.0877
   435.7500      0.0000    755.6628      6.6299     75.0583
   436.0000      0.0000    767.4082      6.7804     70.4632
   436.2500      0.0000    786.6114      6.9226     69.3506
   436.5000      0.0000    803.7344      7.0227     71.7467
   436.7500      0.0000    811.8912      7.0589     75.8562
   437.0000      0.0000    811.3377      7.0284     79.2729
   437.2500      0.0000    807.8484      6.9434     80.3377
   437.5000      0.0000    807.0748      6.8233     79.0240
   437.7500      0.0000    809.8091      6.6870     76.8537
   438.0000      0.0000    811.7213      6.5488     75.8796
   438.2500      0.0000    807.2267      6.4179     77.3011
   438.5000      0.0000    794.1720      6.2991     80.5018
   438.7500      0.0000    775.8849      6.1913     83.4300
   439.0000      0.0000    759.2309      6.0881     84.2519
   439.2500      0.0000    750.3297      5.9817     82.8259
   439.5000      0.0000    751.1317      5.8688     80.5192
   439.7500      0.0000    758.8961      5.7553     78.7163
   440.0000      0.0000    768.3090      5.6567     77.7396
   440.2500      0.0000    774.5001      5.5911     77.0374
   440.5000      0.0000    774.8282      5.5670     75.9516
   440.7500      0.0000    768.3549      5.5766     74.2886
   441.0000      0.0000    754.6073      5.6023     72.5594
   441.2500      0.0000    734.3100      5.6283     71.7611
   441.5000      0.0000    711.4772      5.6471     72.5150
   441.7500      0.0000    693.1735      5.6549     74.1329
   442.0000      0.0000    685.9924      5.6425     74.8993
   442.2500      0.0000    692.1448      5.5873     73.6925
   442.5000      0.0000    707.8262      5.4656     71.0425
   442.7500      0.0000    725.0008      5.2873     68.2849
   443.0000      0.0000    736.7671      5.1074     66.0309
   443.2500      0.0000    742.8525      4.9690     63.8843
   443.5000      0.0000    749.2579      4.8460     61.4632
   443.7500      0.0000    761.4395      4.6848     59.3826
   444.0000      0.0000    778.4012      4.4943     58.9742
   444.2500      0.0000    794.1938      4.3447     60.8598
   444.5000     -2.0000    803.9999      4.2863     63.9480
   444.7500     -2.0000    807.0354      4.3069     66.2731
   445.0000     -2.0000    804.6061      4.3639     66.7452
   445.2500      0.0000    797.4750      4.4404     65.7183
   445.5000      0.0000    785.0907      4.5750     64.0755
   445.7500      0.0000    766.6802      4.8287     62.4201
   446.0000      0.0000    743.6524      5.2012     61.2097
   446.2500      0.0000    720.5087      5.5979     61.1560
   446.5000      0.0000    702.2067      5.9097     63.1096
   446.7500      0.0000    691.6256      6.1052     67.4200
   447.0000      0.0000    690.6246      6.2193     73.2998
   447.2500      0.0000    701.1320      6.2933     79.0121
   447.5000      0.0000    722.6667      6.3545     82.9761
   447.7500      0.0000    749.9014      6.4233     84.7038
   448.0000      0.0000    774.9280      6.5087     84.7475
   448.2500      0.0000    792.3405      6.6056     84.2002
   448.5000      0.0000    801.6953      6.7011     84.2479
   448.7500      0.0000    805.7515      6.7786     85.4854
   449.0000      0.0000    807.5901      6.8192     87.1855
   449.2500      0.0000    809.2589      6.8164     87.6858
   449.5000      0.0000    811.8409      6.7867     85.8520
   449.7500      0.0000    815.4052      6.7613     82.0167
   450.0000      0.0000    818.2644      6.7631     77.7463
   450.2500      0.0000    816.7828      6.7940     75.2004
   450.5000      0.0000    807.4930      6.8407     76.1885
   450.7500      0.0000    791.0305      6.8877     80.8145
   451.0000      0.0000    773.7103      6.9281     87.0485
   451.2500      0.0000    763.6245      6.9680     92.2134
   451.5000      0.0000    764.5576      7.0204     94.9156
   451.7500      0.0000    774.1858      7.0904     95.3103
   452.0000      0.0000    787.0684      7.1675     94.0139
   452.2500      0.0000    797.6608      7.2314     91.6395
   452.5000      0.0000    801.9153      7.2645     89.1863
   452.7500      0.0000    799.4931      7.2605     87.8145
   453.0000      0.0000    794.9854      7.2296     87.9109
   453.2500      0.0000    794.7977      7.1963     88.9141
   453.5000      0.0000    801.7626      7.1840     90.1653
   453.7500      0.0000    812.8414      7.1950     91.5308
   454.0000      0.0000    821.7873      7.2109     93.0310
   454.2500      0.0000    824.0225      7.2167     94.2299
   454.5000      0.0000    819.7987      7.2210     94.4500
   454.7500      0.0000    813.4356      7.2480     93.5153
   455.0000      0.0000    809.4077      7.3096     91.9405
   455.2500      0.0000    808.2347      7.3926     90.4570
   455.5000      0.0000    805.1130      7.4713     89.6490
   455.7500      0.0000    793.1229      7.5287     89.8422
   456.0000      0.0000    769.7544      7.5646     90.8706
   456.2500      0.0000    741.3452      7.5895     91.9125
   456.5000      0.0000    720.0903      7.6131     92.0696
   456.7500      0.0000    715.4854      7.6383     91.2867
   457.0000      0.0000    727.9794      7.6609     90.4266
   457.2500      0.0000    749.9023      7.6750     90.4410
   457.5000      0.0000    771.5078      7.6798     91.6402
   457.7500      0.0000    786.1273      7.6814     93.5600
   458.0000      0.0000    791.2319      7.6864     95.1437
   458.2500      0.0000    787.0234      7.6954     95.0930
   458.5000      0.0000    775.3899      7.7055     92.4659
   458.7500      0.0000    759.8584      7.7199     87.1299
   459.0000      0.0000    745.1789      7.7474     79.7401
   459.2500      0.0000    735.6066      7.7920     71.6558
   459.5000      0.0000    732.9482      7.8471     64.8752
   459.7500      0.0000    735.7599      7.9011     61.3241
   460.0000      0.0000    739.9772      7.9466     61.5857
   460.2500      0.0000    741.2122      7.9809     64.3971
   460.5000      0.0000    737.9327      8.0006     67.6860
   460.7500      0.0000    732.5389      8.0024     70.1201
   461.0000      0.0000    728.7895      7.9909     71.6924
   461.2500      0.0000    728.4632      7.9838     73.0383
