~Version Information
VERS.                      2.0: CWLS Log ASCII Standard - VERSION 2.0
WRAP.                       NO: One line per depth step
~Well Information Block
STRT.FT               620.0000: 
STOP.FT              2663.2500: 
STEP.FT                 0.2500: 
NULL.                -999.2500: 
COMP.          Evergreen Operating Corporation: COMPANY
WELL.             Carbon 34-21: WELL
FLD.           Purgatoire River: FIELD
LOC.           56' FSL & 2304' FEL: LOCATION
PROV.                 Colorado: PROVINCE
CNTY.               Las Animas: COUNTRY
SRVC.                Patterson: SERVICE COMPANY
DATE.          Mon Sep 13 11:41:04 2004: LOG DATE
UWI.           05 071 08117 00: UNIQUE WELL ID
~Curve Information Block
DEPT.FT            0 000 00 00: Depth
DIR.Ohm-m                     : IEL Induction Resistivity
SN.Ohm-m                      : IEL Short Normal
SP.mV                         : IEL Spontaneous Potential
GR.GAPI                       : Gamma Ray
~Parameter Information Block
~A  Depth       DIR          SN          SP          GR     
# ...
   888.0000     21.7020   2000.0000   2000.0000    117.7285
   888.2500     20.9902   2000.0000   2000.0000    121.1392
   888.5000     20.3891   2000.0000   2000.0000    128.7992
   888.7500     19.9022   2000.0000   2000.0000    134.5407
   889.0000     19.5165   2000.0000   2000.0000    141.6805
   889.2500     19.2119   2000.0000   2000.0000    144.6043
   889.5000     18.9754   2000.0000   2000.0000    146.3987
   889.7500     18.8149   2000.0000   2000.0000    146.4116
   890.0000     18.7648   2000.0000   2000.0000    145.0040
   890.2500     18.8796   2000.0000   2000.0000    142.8846
   890.5000     19.2136   2000.0000   2000.0000    137.7655
   890.7500     19.7941   2000.0000   2000.0000    133.4206
   891.0000     20.6003   2000.0000   2000.0000    126.4960
   891.2500     21.5577   2000.0000   2000.0000    122.0778
   891.5000     22.5597   2000.0000   2000.0000    116.2486
   891.7500     23.5100   2000.0000   2000.0000    113.0205
   892.0000     24.3658   2000.0000   2000.0000    108.9808
   892.2500     25.1478   2000.0000   2000.0000    106.5406
   892.5000     25.9061   2000.0000   2000.0000    102.9324
   892.7500     26.6651   2000.0000   2000.0000    100.6223
   893.0000     27.3925   2000.0000   2000.0000     97.5554
   893.2500     28.0159   2000.0000   2000.0000     95.8597
   893.5000     28.4815   2000.0000   2000.0000     94.1334
   893.7500     28.8045   2000.0000   2000.0000     93.9443
   894.0000     29.0538   2000.0000   2000.0000     95.8688
   894.2500     29.2706   2000.0000   2000.0000     98.5991
   894.5000     29.3816   2000.0000   2000.0000    103.5280
   894.7500     29.1949   2000.0000   2000.0000    106.3345
   895.0000     28.5257   2000.0000   2000.0000    109.4514
   895.2500     27.3660   2000.0000   2000.0000    111.7214
   895.5000     25.9139   2000.0000   2000.0000    117.0462
   895.7500     24.4274   2000.0000   2000.0000    121.6127
   896.0000     23.0762   2000.0000   2000.0000    127.6737
   896.2500     21.9080   2000.0000   2000.0000    130.0327
   896.5000     20.8955   2000.0000   2000.0000    131.0427
   896.7500     19.9926   2000.0000   2000.0000    130.9268
   897.0000     19.1670   2000.0000   2000.0000    131.2677
   897.2500     18.4052   2000.0000   2000.0000    132.4460
   897.5000     17.7059   2000.0000   2000.0000    135.8422
   897.7500     17.0706   2000.0000   2000.0000    138.8666
   898.0000     16.4989   2000.0000   2000.0000    143.4082
   898.2500     15.9857   2000.0000   2000.0000    145.6790
   898.5000     15.5229   2000.0000   2000.0000    147.3242
   898.7500     15.1018   2000.0000   2000.0000    147.6395
   899.0000     14.7182   2000.0000   2000.0000    148.4579
   899.2500     14.3773   2000.0000   2000.0000    149.8742
   899.5000     14.0939   2000.0000   2000.0000    153.2183
   899.7500     13.8879   2000.0000   2000.0000    155.8116
   900.0000     13.7782   2000.0000   2000.0000    159.6189
   900.2500     13.7799   2000.0000   2000.0000    161.8775
   900.5000     13.9036   2000.0000   2000.0000    164.2966
   900.7500     14.1564   2000.0000   2000.0000    164.6344
   901.0000     14.5417   2000.0000   2000.0000    161.6252
   901.2500     15.0611   2000.0000   2000.0000    156.4628
   901.5000     15.7169   2000.0000   2000.0000    144.0631
   901.7500     16.5180   2000.0000   2000.0000    133.8722
   902.0000     17.4842   2000.0000   2000.0000    118.5795
   902.2500     18.6454   2000.0000   2000.0000    109.5869
   902.5000     20.0353   2000.0000   2000.0000     98.1863
   902.7500     21.6770   2000.0000   2000.0000     91.4339
   903.0000     23.5659   2000.0000   2000.0000     81.8576
   903.2500     25.6551   2000.0000   2000.0000     75.9747
   903.5000     27.8551   2000.0000   2000.0000     68.6874
   903.7500     30.0488   2000.0000   2000.0000     65.2418
   904.0000     32.1147   2000.0000   2000.0000     62.3495
   904.2500     33.9456   2000.0000   2000.0000     61.7251
   904.5000     35.4559   2000.0000   2000.0000     62.2338
   904.7500     36.5833   2000.0000   2000.0000     63.4188
   905.0000     37.2841   2000.0000   2000.0000     66.4804
   905.2500     37.5232   2000.0000   2000.0000     69.2016
   905.5000     37.2651   2000.0000   2000.0000     73.5279
   905.7500     36.4804   2000.0000   2000.0000     76.0666
   906.0000     35.1800   2000.0000   2000.0000     78.7488
   906.2500     33.4585   2000.0000   2000.0000     79.6736
   906.5000     31.5040   2000.0000   2000.0000     80.3648
   906.7500     29.5552   2000.0000   2000.0000     81.3592
   907.0000     27.8292   2000.0000   2000.0000     85.7564
   907.2500     26.4697   2000.0000   2000.0000     91.0960
   907.5000     25.5303   2000.0000   2000.0000    101.1849
   907.7500     24.9854   2000.0000   2000.0000    107.5736
   908.0000     24.7524   2000.0000   2000.0000    114.0014
   908.2500     24.7199   2000.0000   2000.0000    115.2143
   908.5000     24.7811   2000.0000   2000.0000    111.8786
   908.7500     24.8652   2000.0000   2000.0000    106.7674
   909.0000     24.9544   2000.0000   2000.0000     97.3344
   909.2500     25.0760   2000.0000   2000.0000     91.7945
   909.5000     25.2686   2000.0000   2000.0000     87.1725
   909.7500     25.5423   2000.0000   2000.0000     87.1112
   910.0000     25.8497   2000.0000   2000.0000     90.7872
   910.2500     26.0872   2000.0000   2000.0000     94.5822
   910.5000     26.1227   2000.0000   2000.0000    100.1247
   910.7500     25.8393   2000.0000   2000.0000    103.0405
   911.0000     25.1746   2000.0000   2000.0000    106.4540
   911.2500     24.1405   2000.0000   2000.0000    108.6250
   911.5000     22.8194   2000.0000   2000.0000    112.4303
   911.7500     21.3414   2000.0000   2000.0000    115.4334
   912.0000     19.8509   2000.0000   2000.0000    120.3844
   912.2500     18.4712   2000.0000   2000.0000    123.7149
   912.5000     17.2773   2000.0000   2000.0000    128.4271
   912.7500     16.2855   2000.0000   2000.0000    131.3777
   913.0000     15.4641   2000.0000   2000.0000    135.5021
   913.2500     14.7593   2000.0000   2000.0000    137.7498
   913.5000     14.1237   2000.0000   2000.0000    139.6784
   913.7500     13.5348   2000.0000   2000.0000    140.0820
   914.0000     12.9953   2000.0000   2000.0000    140.7601
   914.2500     12.5211   2000.0000   2000.0000    142.2899
   914.5000     12.1286   2000.0000   2000.0000    146.8894
   914.7500     11.8288   2000.0000   2000.0000    150.8640
   915.0000     11.6275   2000.0000   2000.0000    155.8778
   915.2500     11.5281   2000.0000   2000.0000    157.3505
   915.5000     11.5321   2000.0000   2000.0000    156.2228
   915.7500     11.6370   2000.0000   2000.0000    153.8910
   916.0000     11.8319   2000.0000   2000.0000    149.4287
   916.2500     12.0951   2000.0000   2000.0000    146.1086
   916.5000     12.3965   2000.0000   2000.0000    140.3004
   916.7500     12.7058   2000.0000   2000.0000    135.7806
   917.0000     13.0005   2000.0000   2000.0000    128.6249
   917.2500     13.2677   2000.0000   2000.0000    124.2428
   917.5000     13.5000   2000.0000   2000.0000    119.2870
   917.7500     13.6921   2000.0000   2000.0000    117.4630
   918.0000     13.8424   2000.0000   2000.0000    117.0522
   918.2500     13.9562   2000.0000   2000.0000    117.9662
   918.5000     14.0425   2000.0000   2000.0000    120.0584
   918.7500     14.1051   2000.0000   2000.0000    121.4039
   919.0000     14.1341   2000.0000   2000.0000    122.9175
   919.2500     14.1071   2000.0000   2000.0000    123.5092
   919.5000     14.0006   2000.0000   2000.0000    123.8135
   919.7500     13.8064   2000.0000   2000.0000    123.9005
   920.0000     13.5394   2000.0000   2000.0000    124.7572
   920.2500     13.2317   2000.0000   2000.0000    126.2862
   920.5000     12.9181   2000.0000   2000.0000    130.1788
   920.7500     12.6218   2000.0000   2000.0000    133.5643
   921.0000     12.3487   2000.0000   2000.0000    139.0161
   921.2500     12.0903   2000.0000   2000.0000    142.3343
