~Version Information
VERS.                      2.0: CWLS Log ASCII Standard - VERSION 2.0
WRAP.                       NO: One line per depth step
~Well Information Block
STRT.FT               758.7500: 
STOP.FT              2420.7500: 
STEP.FT                 0.2500: 
NULL.                -999.2500: 
COMP.          Petrogulf Corporation: COMPANY
WELL.            Montoya 7-21V: WELL
FLD.           Purgatorie River: FIELD
LOC.           738' FSL & 2070' FWL: LOCATION
CNTY.               Las Animas: COUNTY
SRVC.                         : SERVICE COMPANY
DATE.          Fri Aug 20 07:13:07 2004: LOG DATE
UWI.           05 071 08018 00: UNIQUE WELL ID
STAT.                 Colorado: STATE
~Curve Information Block
DEPT.FT            0 000 00 00: Depth
SP.mV                         : DIL Spontaneous Potential
RILD.Ohm-m                    : DIL Deep Resistivity
RILM.Ohm-m                    : DIL Medium Resistivity
RLL3.Ohm-m                    : DIL Shallow Resistivity
GR.GAPI                       : Gamma Ray
~Parameter Information Block
~A  Depth        SP         RILD        RILM        RLL3         GR     
# ...
  1850.7500     -0.8718     16.6001     15.0670     18.3099    167.2658
  1851.0000     -0.9571     16.6234     15.0077     18.4978    168.7732
  1851.2500     -1.0362     16.6494     14.9732     18.5999    169.8822
  1851.5000     -1.1060     16.6830     14.9651     18.5902    172.1989
  1851.7500     -1.1679     16.7301     14.9851     18.5125    173.9346
  1852.0000     -1.2279     16.7970     15.0343     18.4554    176.3269
  1852.2500     -1.2953     16.8890     15.1129     18.4998    177.5972
  1852.5000     -1.3802     17.0113     15.2194     18.6731    178.2655
  1852.7500     -1.4907     17.1682     15.3515     18.9374    177.2055
  1853.0000     -1.6305     17.3637     15.5065     19.2149    173.1976
  1853.2500     -1.7981     17.5990     15.6831     19.4267    169.9158
  1853.5000     -1.9865     17.8709     15.8822     19.5236    166.4173
  1853.7500     -2.1852     18.1685     16.1081     19.4997    165.6125
  1854.0000     -2.3816     18.4712     16.3684     19.3964    165.9179
  1854.2500     -2.5634     18.7496     16.6728     19.3082    166.3896
  1854.5000     -2.7199     18.9691     17.0317     19.3878    166.8265
  1854.7500     -2.8431     19.0994     17.4541     19.8320    166.8470
  1855.0000     -2.9292     19.1273     17.9457     20.8340    166.2614
  1855.2500     -2.9790     19.0672     18.5072     22.5078    165.0369
  1855.5000     -2.9983     18.9618     19.1334     24.8165    160.2881
  1855.7500     -2.9974     18.8720     19.8130     27.5437    153.9078
  1856.0000     -2.9895     18.8601     20.5297     30.3311    138.6518
  1856.2500     -2.9881     18.9740     21.2647     32.7745    125.6644
  1856.5000     -3.0043     19.2376     21.9997     34.5458    105.0063
  1856.7500     -3.0444     19.6460     22.7198     35.4896     91.8976
  1857.0000     -3.1089     20.1676     23.4161     35.6523     74.6643
  1857.2500     -3.1929     20.7492     24.0857     35.2297     65.4608
  1857.5000     -3.2879     21.3271     24.7311     34.4667     56.0431
  1857.7500     -3.3848     21.8396     25.3583     33.5690     52.8173
  1858.0000     -3.4761     22.2411     25.9742     32.6654     51.9560
  1858.2500     -3.5573     22.5099     26.5857     31.8240     53.5074
  1858.5000     -3.6278     22.6518     27.1974     31.0924     58.3978
  1858.7500     -3.6889     22.6948     27.8112     30.5369     63.2389
  1859.0000     -3.7425     22.6797     28.4257     30.2610     72.9532
  1859.2500     -3.7890     22.6461     29.0352     30.3930     81.0515
  1859.5000     -3.8258     22.6213     29.6308     31.0384     94.7454
  1859.7500     -3.8476     22.6155     30.2028     32.2130    103.5976
  1860.0000     -3.8473     22.6257     30.7432     33.7879    113.5248
  1860.2500     -3.8181     22.6445     31.2505     35.4790    116.7910
  1860.5000     -3.7556     22.6684     31.7315     36.9084    117.2548
  1860.7500     -3.6600     22.7017     32.2015     37.7406    116.1534
  1861.0000     -3.5362     22.7551     32.6810     37.8438    114.9828
  1861.2500     -3.3931     22.8425     33.1898     37.3776    115.0111
  1861.5000     -3.2420     22.9793     33.7404     36.7218    115.1735
  1861.7500     -3.0939     23.1798     34.3339     36.2711    114.2209
  1862.0000     -2.9569     23.4549     34.9575     36.2351    109.5968
  1862.2500     -2.8359     23.8074     35.5880     36.5806    104.0262
  1862.5000     -2.7319     24.2270     36.1972     37.1330     92.6476
  1862.7500     -2.6429     24.6885     36.7596     37.7278     84.1922
  1863.0000     -2.5650     25.1533     37.2592     38.2922     72.5186
  1863.2500     -2.4939     25.5754     37.6924     38.8273     66.2374
  1863.5000     -2.4252     25.9100     38.0659     39.3483     59.0761
  1863.7500     -2.3561     26.1240     38.3917     39.8556     55.4215
  1864.0000     -2.2855     26.2064     38.6799     40.3457     51.2590
  1864.2500     -2.2150     26.1783     38.9330     40.8246     49.3751
  1864.5000     -2.1489     26.0950     39.1429     41.2902     47.7446
  1864.7500     -2.0938     26.0373     39.2926     41.6974     47.1263
  1865.0000     -2.0573     26.0960     39.3599     41.9448     46.1361
  1865.2500     -2.0459     26.3534     39.3254     41.9049     45.1200
  1865.5000     -2.0641     26.8703     39.1785     41.4857     43.1253
  1865.7500     -2.1123     27.6754     38.9222     40.6868     41.9499
  1866.0000     -2.1865     28.7539     38.5737     39.6207     41.6770
  1866.2500     -2.2789     30.0362     38.1609     38.4840     43.0484
  1866.5000     -2.3791     31.3949     37.7178     37.4887     47.1237
  1866.7500     -2.4762     32.6631     37.2798     36.7842     50.1886
  1867.0000     -2.5610     33.6815     36.8791     36.4069     53.3175
  1867.2500     -2.6282     34.3540     36.5425     36.2784     53.8538
  1867.5000     -2.6766     34.6776     36.2887     36.2518     52.7347
  1867.7500     -2.7097     34.7237     36.1256     36.1861     51.3871
  1868.0000     -2.7340     34.5909     36.0478     36.0182     49.5778
  1868.2500     -2.7578     34.3604     36.0362     35.7994     48.8535
  1868.5000     -2.7897     34.0786     36.0587     35.6748     48.3247
  1868.7500     -2.8371     33.7620     36.0752     35.8100     47.9407
  1869.0000     -2.9050     33.4150     36.0465     36.3077     46.8697
  1869.2500     -2.9949     33.0463     35.9431     37.1599     46.0538
  1869.5000     -3.1041     32.6774     35.7546     38.2536     45.6767
  1869.7500     -3.2247     32.3391     35.4928     39.4184     46.4176
  1870.0000     -3.3446     32.0647     35.1885     40.4875     48.8186
  1870.2500     -3.4485     31.8823     34.8844     41.3501     50.7911
  1870.5000     -3.5215     31.8114     34.6239     41.9824     53.8575
  1870.7500     -3.5509     31.8611     34.4426     42.4531     56.2204
  1871.0000     -3.5294     32.0307     34.3620     42.9026     60.8173
  1871.2500     -3.4562     32.3125     34.3870     43.4956     64.4013
  1871.5000     -3.3363     32.7003     34.5057     44.3448     69.2632
  1871.7500     -3.1801     33.1965     34.6926     45.4238     71.3015
  1872.0000     -3.0010     33.8147     34.9129     46.5142     71.6283
  1872.2500     -2.8136     34.5693     35.1279     47.2430     69.9584
  1872.5000     -2.6324     35.4587     35.3016     47.2315     65.4092
  1872.7500     -2.4700     36.4490     35.4061     46.2942     61.8180
  1873.0000     -2.3369     37.4718     35.4249     44.5665     56.8297
  1873.2500     -2.2404     38.4356     35.3536     42.4655     54.1535
  1873.5000     -2.1845     39.2501     35.1976     40.5034     51.3055
  1873.7500     -2.1694     39.8525     34.9677     39.0767     50.1556
  1874.0000     -2.1910     40.2256     34.6766     38.3456     49.3005
  1874.2500     -2.2415     40.3987     34.3355     38.2250     49.0516
  1874.5000     -2.3094     40.4324     33.9534     38.4376     48.6685
  1874.7500     -2.3816     40.3892     33.5386     38.6002     48.2077
  1875.0000     -2.4450     40.3096     33.1010     38.3512     47.1062
  1875.2500     -2.4889     40.2003     32.6536     37.5073     46.1484
  1875.5000     -2.5070     40.0439     32.2133     36.1748     44.5809
  1875.7500     -2.4974     39.8210     31.7990     34.7223     43.6303
  1876.0000     -2.4629     39.5325     31.4287     33.6086     42.6897
  1876.2500     -2.4089     39.2073     31.1154     33.1655     42.5265
  1876.5000     -2.3424     38.8921     30.8652     33.4655     43.0480
  1876.7500     -2.2705     38.6289     30.6761     34.3324     43.9152
  1877.0000     -2.2004     38.4376     30.5395     35.4527     46.2049
  1877.2500     -2.1402     38.3093     30.4423     36.5056     48.6767
  1877.5000     -2.0991     38.2147     30.3714     37.2554     54.1206
  1877.7500     -2.0869     38.1205     30.3168     37.5963     58.5891
  1878.0000     -2.1124     38.0063     30.2740     37.5554     64.9186
  1878.2500     -2.1812     37.8708     30.2448     37.2577     67.6707
  1878.5000     -2.2929     37.7236     30.2355     36.8588     68.1717
