~Version Information
VERS.                      2.0: CWLS Log ASCII Standard - VERSION 2.0
WRAP.                       NO: One line per depth step
~Well Information Block
STRT.FT               647.0000: 
STOP.FT              1166.0000: 
STEP.FT                 0.1000: 
NULL.                -999.2500: 
COMP.          Pioneer Natural Resources: COMPANY
WELL.             Linda T 32-3: WELL
FLD.           Purgatoire River: FIELD
LOC.           1350' FNL & 2290' FEL: LOCATION
PROV.                 Colorado: PROVINCE
CNTY.               Las Animas: COUNTRY
SRVC.                Patterson: SERVICE COMPANY
DATE.          Sat Feb 05 08:06:50 2005: LOG DATE
UWI.           05 071 08215 00: UNIQUE WELL ID
~Curve Information Block
DEPT.FT            0 000 00 00: Depth
DCAL.in                       : CDL Caliper
RHOB.g/cc                     : CDL Bulk Density
RHOC.g/cc                     : CDL Density Correction
DPOR.pu                       : CDL Density Porosity
GR.GAPI                       : Gamma Ray
NPOR.pu                       : Neutron Porosity
~Parameter Information Block
~A  Depth       DCAL        RHOB        RHOC        DPOR         GR         NPOR    
# ...
   983.0000      8.0501      2.5238      0.0838      7.6491     99.4150     18.8914
   983.1000      8.0501      2.5315      0.0743      7.1801     98.9270     18.5823
   983.2000      8.0501      2.5316      0.0706      7.1762     99.4708     18.3259
   983.3000      8.0494      2.5155      0.0664      8.1522     99.7405     18.6360
   983.4000      8.0494      2.4867      0.0381      9.8996     97.4682     19.0976
   983.5000      8.0480      2.4612      0.0250     11.4404     95.6947     19.3481
   983.6000      8.0480      2.4513      0.0329     12.0396     96.6417     19.7217
   983.7000      8.0480      2.4575      0.0145     11.6650     97.6698     20.0798
   983.8000      8.0437      2.4726      0.0511     10.7540     97.4167     20.1070
   983.9000      8.0437      2.4833      0.0727     10.1036     96.4880     20.1463
   984.0000      8.0315      2.4746      0.0939     10.6298     92.5773     20.4210
   984.1000      8.0315      2.4425      0.0527     12.5782     88.9472     20.6023
   984.2000      8.0315      2.4053      0.0300     14.8289     90.9254     20.6714
   984.3000      8.0574      2.3886     -0.0002     15.8420     93.2289     20.5101
   984.4000      8.0574      2.4014      0.0050     15.0672     91.6921     19.5320
   984.5000      8.0561      2.4276      0.0496     13.4779     90.6947     18.3526
   984.6000      8.0561      2.4442      0.0774     12.4717     91.0455     18.1193
   984.7000      8.0561      2.4452      0.0883     12.4149     92.5740     18.6221
   984.8000      8.0543      2.4397      0.0681     12.7465     97.7498     19.1842
   984.9000      8.0543      2.4375      0.0654     12.8790    105.0584     19.6590
   985.0000      8.0573      2.4381      0.0686     12.8409    109.9316     19.8621
   985.1000      8.0573      2.4396      0.0771     12.7537    112.3794     19.5859
   985.2000      8.0573      2.4462      0.0188     12.3543    115.0989     19.0354
   985.3000      8.0510      2.4553      0.0747     11.8015    115.1772     18.6091
   985.4000      8.0510      2.4574      0.0901     11.6721    110.4548     18.2846
   985.5000      8.0393      2.4533      0.0802     11.9241    106.4425     17.8946
   985.6000      8.0393      2.4449      0.0956     12.4281    105.3086     18.0031
   985.7000      8.0393      2.4339      0.0527     13.0971    104.2939     18.8258
   985.8000      8.0416      2.4290      0.0679     13.3928    105.3358     19.3452
   985.9000      8.0416      2.4333      0.0854     13.1339    109.2344     19.2307
   986.0000      8.0426      2.4422      0.0603     12.5950    112.3066     19.0152
   986.1000      8.0426      2.4517      0.0652     12.0184    111.8586     18.8047
   986.2000      8.0426      2.4582      0.0701     11.6267    109.6126     18.6930
   986.3000      8.0488      2.4628      0.0690     11.3428    109.9640     18.6542
   986.4000      8.0488      2.4658      0.0728     11.1659    113.3275     18.4116
   986.5000      8.0524      2.4594      0.0619     11.5501    114.2875     17.9831
   986.6000      8.0524      2.4413      0.0691     12.6486    109.2643     17.7127
   986.7000      8.0524      2.4189      0.0430     14.0090    102.9661     18.0833
   986.8000      8.0421      2.4020      0.0528     15.0292    102.5378     19.1469
   986.9000      8.0421      2.3976      0.0221     15.2963    105.9559     19.8018
   987.0000      8.0347      2.4113      0.0175     14.4642    106.7673     19.3397
   987.1000      8.0347      2.4400      0.0348     12.7278    106.3211     18.5151
   987.2000      8.0347      2.4666      0.0499     11.1143    104.1934     18.3252
   987.3000      8.0265      2.4834      0.0589     10.0948     96.9048     18.9452
   987.4000      8.0265      2.5008      0.0651      9.0439     89.5219     19.4351
   987.5000      8.0292      2.5189      0.1154      7.9465     88.2242     19.0535
   987.6000      8.0292      2.5221      0.1098      7.7520     90.9535     18.2141
   987.7000      8.0292      2.5117      0.0550      8.3791     91.4513     17.6387
   987.8000      8.0351      2.5082      0.0474      8.5918     86.7065     17.7014
   987.9000      8.0351      2.5131      0.0927      8.2976     80.9680     18.0140
   988.0000      8.0358      2.5153      0.0430      8.1637     77.9864     17.9633
   988.1000      8.0358      2.5190      0.0805      7.9397     75.8623     17.7509
   988.2000      8.0358      2.5239      0.0695      7.6417     73.8225     17.8071
   988.3000      8.0401      2.5244      0.0590      7.6098     76.0055     18.0378
   988.4000      8.0401      2.5264      0.0446      7.4930     82.0756     17.9988
   988.5000      8.0389      2.5335      0.1039      7.0634     87.4901     17.8476
   988.6000      8.0389      2.5388      0.0696      6.7389     90.4179     17.7199
   988.7000      8.0389      2.5381      0.0966      6.7848     89.5000     17.1165
   988.8000      8.0395      2.5322      0.0689      7.1397     83.6521     16.1100
   988.9000      8.0395      2.5248      0.0613      7.5895     74.7275     15.1275
   989.0000      8.0374      2.5156      0.0605      8.1475     67.4004     14.4207
   989.1000      8.0374      2.5006      0.0916      9.0518     66.1761     14.0954
   989.2000      8.0374      2.4855      0.0276      9.9668     70.3829     14.0375
   989.3000      8.0429      2.4761      0.0704     10.5409     73.9450     14.3145
   989.4000      8.0429      2.4629      0.0588     11.3412     73.9209     14.9535
   989.5000      8.0334      2.4435      0.0255     12.5142     73.4685     15.6644
   989.6000      8.0334      2.4325     -0.0050     13.1827     74.9122     16.2844
   989.7000      8.0334      2.4367      0.0445     12.9282     77.4971     16.3435
   989.8000      8.0415      2.4443      0.0253     12.4675     80.6604     15.6109
   989.9000      8.0415      2.4415      0.0460     12.6362     83.5334     15.2978
   990.0000      8.0279      2.4266      0.0347     13.5386     83.4093     16.1783
   990.1000      8.0279      2.4139     -0.0110     14.3111     80.4552     17.3348
   990.2000      8.0279      2.4143      0.0364     14.2863     78.3505     17.6764
   990.3000      8.0414      2.4169      0.0576     14.1268     78.3260     17.4865
   990.4000      8.0414      2.4087      0.0195     14.6233     80.2102     17.4270
   990.5000      8.0280      2.3955     -0.0030     15.4270     83.2328     17.4469
   990.6000      8.0280      2.3892      0.0014     15.8060     86.8112     17.3838
   990.7000      8.0280      2.3888      0.0351     15.8278     90.7680     17.4010
   990.8000      8.0654      2.3878      0.0454     15.8934     92.3298     17.6813
   990.9000      8.0654      2.3901      0.0058     15.7503     90.5403     18.0121
   991.0000      8.0700      2.4012      0.0437     15.0770     86.8912     18.3605
   991.1000      8.0700      2.4132      0.0382     14.3515     83.3045     19.1761
   991.2000      8.0700      2.4132      0.0543     14.3534     81.5154     20.3753
   991.3000      8.0992      2.4055      0.0332     14.8175     80.3195     21.0953
   991.4000      8.0992      2.4106      0.0172     14.5099     81.3058     20.8158
   991.5000      8.1075      2.4323      0.0447     13.1918     86.2991     19.7847
   991.6000      8.1075      2.4559      0.0411     11.7623     90.3570     18.8603
   991.7000      8.1075      2.4721      0.0557     10.7788     90.9678     18.2861
   991.8000      8.1087      2.4790      0.0741     10.3656     90.1406     17.8514
   991.9000      8.1087      2.4809      0.0439     10.2483     88.4525     17.6158
   992.0000      8.0903      2.4876      0.0754      9.8432     87.6752     17.5211
   992.1000      8.0903      2.4988      0.0646      9.1650     88.6683     17.5112
   992.2000      8.0903      2.5061      0.0727      8.7184     88.0858     17.2821
   992.3000      8.0764      2.5004      0.0615      9.0664     84.7764     16.6812
   992.4000      8.0764      2.4788      0.0281     10.3731     80.9406     16.3523
   992.5000      8.0623      2.4514      0.0065     12.0371     79.1962     16.6940
