~Version Information
 VERS.                                  2.0 : CWLS LAS VERSION
 WRAP.                                   NO : WRAPING MODE
 SWARE .                 MController 2.5.0J : SOFTWARE VERSION
~Well Information
 WELL.                         State 16-24R : WELL
 COMP.                Petrogulf Corporation : COMPANY
 FLD.                      Purgatoire River : FIELD
 LOC.                SE/SW Sec 16 T33S R67W : LOCATION
 DATE.                            8/9-11/05 : DATE(S) LOGGED
 SRVC.       BLANCO Geological Services LLC : SERVICE COMPANY
 STAT.                                   CO : STATE
 CNTY.                           Las Animas : COUNTY
 CTRY.                                  USA : COUNTRY
 API.                       05-071-08312-00 : API NUMBER
 STRT.FT                              27.00 : START DEPTH
 STOP.FT                            1870.00 : STOP DEPTH
 STEP.FT                               1.00 : DEPTH INCREMENT
 NULL.                                -9999 : NULL VALUE
~Curve information
 DEPTH.FT                                   :
 ROP.MIN/FT                                 :
 GAS.UNITS                                  :
~ASCII Log data
# ...
      1427.0         0.90         45.9 
      1428.0         0.70         54.0 
      1429.0         0.82         56.3 
      1430.0         0.77         48.2 
      1431.0         0.77         40.7 
      1432.0         0.73         36.9 
      1433.0         0.73         35.8 
      1434.0         0.75         34.6 
      1435.0         0.93         34.5 
      1436.0         0.93         33.8 
      1437.0         0.75         33.7 
      1438.0         0.63         33.0 
      1439.0         0.67         25.6 
      1440.0         2.72        227.6 
      1441.0         0.67        204.6 
      1442.0         0.43        165.3 
      1443.0         0.37        160.8 
      1444.0         0.80        160.5 
      1445.0         0.75        123.5 
      1446.0         0.70         70.9 
      1447.0         0.63         42.9 
      1448.0         0.87         35.0 
      1449.0         0.82         34.8 
      1450.0         0.67         35.7 
      1451.0         0.73         35.4 
      1452.0         0.63         34.9 
      1453.0         0.57         34.0 
      1454.0         0.82         33.9 
      1455.0         0.93         33.5 
      1456.0         0.70         33.9 
      1457.0         0.73         33.9 
      1458.0         0.65         33.6 
      1459.0         0.67         33.5 
      1460.0         0.60         34.2 
      1461.0         0.57         35.1 
      1462.0         0.47         35.2 
      1463.0         1.22         35.0 
      1464.0         0.70         34.6 
      1465.0         0.77         33.6 
      1466.0         0.92         33.1 
      1467.0         1.10         33.2 
      1468.0         1.22         33.6 
      1469.0         0.90         30.3 
      1470.0         3.35        237.0 
      1471.0         0.77        173.6 
      1472.0         1.17        171.3 
      1473.0         0.65        127.4 
      1474.0         0.77         74.0 
      1475.0         0.87         44.1 
      1476.0         1.45         36.7 
      1477.0         0.83         35.8 
      1478.0         0.57         35.5 
      1479.0         0.50         36.6 
      1480.0         0.63         36.6 
      1481.0         1.02         35.2 
      1482.0         1.37         34.2 
      1483.0         0.83         34.0 
      1484.0         0.65         36.1 
      1485.0         0.73         36.0 
      1486.0         0.53         34.2 
      1487.0         0.57         34.9 
      1488.0         0.70         34.4 
      1489.0         0.65         35.1 
      1490.0         0.67         34.6 
      1491.0         0.63         34.7 
      1492.0         0.60         34.8 
      1493.0         0.63         34.6 
      1494.0         0.52         35.9 
      1495.0         0.37         36.4 
      1496.0         0.50         35.4 
      1497.0         0.50         34.0 
      1498.0         0.43         32.7 
      1499.0         0.67         29.0 
      1500.0         3.38        281.2 
      1501.0         0.47        241.2 
      1502.0         0.62        203.0 
      1503.0         0.43        186.9 
      1504.0         0.73        187.4 
      1505.0         0.40        161.4 
      1506.0         1.20        135.6 
      1507.0         1.25         56.0 
      1508.0         0.67         53.9 
      1509.0         0.93         52.9 
      1510.0         0.75         50.4 
      1511.0         0.60         66.3 
      1512.0         0.53         79.4 
      1513.0         0.77         81.9 
      1514.0         0.90         75.8 
      1515.0         1.08         53.7 
      1516.0         1.13         47.4 
      1517.0         0.63         64.0 
      1518.0         0.82         70.8 
      1519.0         0.80         73.5 
      1520.0         0.77         60.1 
      1521.0         0.70         62.3 
      1522.0         0.88         64.5 
      1523.0         0.70         51.7 
      1524.0         0.67         60.4 
      1525.0         0.70         60.7 
      1526.0         0.77         47.6 
      1527.0         0.68         65.9 
      1528.0         0.53         70.0 
      1529.0         0.83         68.8 
      1530.0         4.52        284.4 
      1531.0         0.75        204.5 
      1532.0         0.57        182.7 
      1533.0         0.60        163.5 
      1534.0         0.60        142.7 
      1535.0         0.50        146.7 
      1536.0         0.58        155.2 
      1537.0         0.87        154.4 
      1538.0         0.98        135.0 
      1539.0         0.97        112.3 
      1540.0         0.40        103.5 
      1541.0         0.45         98.2 
      1542.0         0.47         96.1 
      1543.0         0.40         90.7 
      1544.0         1.33         92.4 
      1545.0         0.63         92.4 
      1546.0         0.42         90.2 
      1547.0         0.50         89.0 
      1548.0         0.70         85.6 
      1549.0         0.67         81.8 
      1550.0         0.72         79.6 
      1551.0         0.60         80.4 
      1552.0         0.60         78.5 
      1553.0         0.37         80.3 
      1554.0         0.43         90.4 
      1555.0         0.57         95.5 
      1556.0         0.55         97.1 
      1557.0         0.57         96.6 
      1558.0         0.53         71.4 
      1559.0         0.40         44.0 
      1560.0         0.37         35.0 
      1561.0         4.43        204.2 
      1562.0         0.50        154.7 
      1563.0         0.53        132.1 
      1564.0         3.28        155.0 
      1565.0         0.63         60.9 
      1566.0         1.03         93.4 
      1567.0         0.78         97.9 
      1568.0         0.60        102.3 
      1569.0         0.67        102.5 
      1570.0         0.77        103.7 
      1571.0         0.70        109.0 
      1572.0         1.08        109.0 
      1573.0         1.27         96.5 
      1574.0         0.90         53.9 
      1575.0         1.15         62.0 
      1576.0         0.93         47.2 
      1577.0         0.87         42.5 
      1578.0         0.92         41.4 
      1579.0         0.83         41.1 
      1580.0         0.73         45.7 
      1581.0         0.93         45.4 
      1582.0         0.88         43.2 
      1583.0         1.17         50.1 
      1584.0         1.12         42.5 
      1585.0         1.07         40.4 
      1586.0         0.90         40.2 
      1587.0         0.67         39.6 
      1588.0         1.08         38.8 
      1589.0         1.00         37.1 
      1590.0         4.07        234.1 
      1591.0         1.20        143.5 
      1592.0         0.60        121.0 
      1593.0         0.95        103.3 
      1594.0         0.70         76.8 
      1595.0         0.50         53.6 
      1596.0         0.53         47.5 
      1597.0         0.60         54.5 
      1598.0         0.63         54.9 
      1599.0         0.48         53.4 
      1600.0         0.47         52.3 
      1601.0         0.77         52.3 
      1602.0         0.53         57.5 
      1603.0         0.47         69.4 
      1604.0         0.75         79.4 
      1605.0         0.57         83.0 
      1606.0         0.47         85.1 
      1607.0         0.43         87.4 
      1608.0         0.43         87.6 
      1609.0         0.67         87.9 
      1610.0         0.95         87.6 
      1611.0         0.80         81.2 
      1612.0         0.47         57.2 
      1613.0         0.80         97.5 
      1614.0         0.75        110.6 
      1615.0         0.83        112.2 
      1616.0         0.63        109.0 
      1617.0         0.67        102.6 
      1618.0         0.72         98.0 
      1619.0         0.53         84.8 
      1620.0         4.42        346.5 
      1621.0         1.23        204.0 
      1622.0         0.85        179.8 
      1623.0         0.87        164.3 
      1624.0         0.80        141.4 
      1625.0         0.73        122.9 
      1626.0         0.75        153.4 
