~Version Information
VERS.                      2.0: CWLS Log ASCII Standard - VERSION 2.0
WRAP.                       NO: One line per depth step
~Well Information Block
STRT.FT               520.0000: 
STOP.FT              1105.5000: 
STEP.FT                 0.1000: 
NULL.                -999.2500: 
COMP.          Pioneer Natural Resources: COMPANY
WELL.            Redland 23-24: WELL
FLD.           Purgatoire River: FIELD
LOC.           2356' FSL & 1880' FWL: LOCATION
PROV.                 Colorado: PROVINCE
CNTY.               Las Animas: COUNTRY
SRVC.                Patterson: SERVICE COMPANY
DATE.          Mon Mar 21 07:08:20 2005: LOG DATE
UWI.           05 071 08221 00: UNIQUE WELL ID
~Curve Information Block
DEPT.FT            0 000 00 00: Depth
DCAL.in                       : CDL Caliper
RHOB.g/cc                     : CDL Bulk Density
RHOC.g/cc                     : CDL Density Correction
DPOR.pu                       : CDL Density Porosity
GR.GAPI                       : Gamma Ray
NPOR.pu                       : Neutron Porosity
~Parameter Information Block
~A  Depth       DCAL        RHOB        RHOC        DPOR         GR         NPOR    
# ...
  1009.6000      7.8570      2.5034      0.1302      8.8869     69.3741     24.6640
  1009.7000      7.8570      2.5101      0.0860      8.4814     65.8596     25.1172
  1009.8000      7.8262      2.5148      0.0962      8.1961     62.6304     25.0887
  1009.9000      7.8262      2.5203      0.1015      7.8588     57.7580     23.8900
  1010.0000      7.8070      2.5238      0.0725      7.6501     53.4773     22.3232
  1010.1000      7.8070      2.5170      0.0293      8.0631     54.1194     21.1472
  1010.2000      7.8070      2.5047      0.0315      8.8068     58.8440     20.4262
  1010.3000      7.8174      2.4916      0.0885      9.6029     61.7603     19.8846
  1010.4000      7.8174      2.4735      0.0546     10.6951     61.3657     19.4545
  1010.5000      7.8361      2.4546      0.0525     11.8411     61.0888     19.5589
  1010.6000      7.8361      2.4358      0.0927     12.9795     61.6118     20.1275
  1010.7000      7.8361      2.4214      0.0309     13.8550     61.8507     20.5057
  1010.8000      7.7860      2.4273      0.0242     13.4994     62.0959     20.3740
  1010.9000      7.7860      2.4450      0.0942     12.4246     62.6606     19.9649
  1011.0000      7.7705      2.4447      0.0860     12.4442     63.6151     19.2849
  1011.1000      7.7705      2.4221      0.0637     13.8145     63.5371     18.4585
  1011.2000      7.7705      2.3964      0.0308     15.3701     60.6035     18.1911
  1011.3000      7.8121      2.3820     -0.0031     16.2411     56.9879     18.7093
  1011.4000      7.8121      2.3828      0.0216     16.1952     56.6874     19.4025
  1011.5000      7.8607      2.3928     -0.0079     15.5907     58.9435     19.9677
  1011.6000      7.8607      2.3999      0.0404     15.1551     60.2498     20.5503
  1011.7000      7.8607      2.3960      0.0336     15.3962     60.6665     20.5479
  1011.8000      7.8667      2.3908      0.0033     15.7119     61.6062     19.8242
  1011.9000      7.8667      2.4054      0.0254     14.8259     62.3629     19.4758
  1012.0000      7.8705      2.4425      0.0495     12.5766     62.5837     19.9528
  1012.1000      7.8705      2.4751      0.0987     10.6025     62.8720     20.6859
  1012.2000      7.8705      2.4782      0.0734     10.4092     63.9800     21.4176
  1012.3000      7.8676      2.4597      0.0598     11.5319     65.9910     22.0155
  1012.4000      7.8676      2.4369      0.0582     12.9177     68.1211     22.1617
  1012.5000      7.8644      2.4225     -0.0172     13.7873     71.4496     22.0984
  1012.6000      7.8644      2.4277      0.0428     13.4745     77.5232     22.1562
  1012.7000      7.8644      2.4426      0.0443     12.5690     84.6055     22.4403
  1012.8000      7.8557      2.4518      0.0279     12.0131     90.6887     22.7877
  1012.9000      7.8557      2.4577      0.0174     11.6545     93.9572     22.8797
  1013.0000      7.8620      2.4637      0.0454     11.2897     94.1347     22.7174
  1013.1000      7.8620      2.4663      0.0312     11.1329     94.3512     22.4211
  1013.2000      7.8620      2.4702      0.0111     10.8944     94.3575     21.9002
  1013.3000      7.8471      2.4728      0.0423     10.7402     91.0983     20.9132
  1013.4000      7.8471      2.4676     -0.0569     11.0541     87.5243     20.1347
  1013.5000      7.8483      2.4725     -0.0553     10.7563     89.0062     20.2292
  1013.6000      7.8483      2.4983      0.0070      9.1935     95.2988     20.9113
  1013.7000      7.8483      2.5258      0.0069      7.5301    101.2543     21.9132
  1013.8000      7.8604      2.5312      0.0513      7.1978    102.2966     22.4720
  1013.9000      7.8604      2.5050      0.0160      8.7875     98.0870     21.8554
  1014.0000      7.8657      2.4622     -0.0207     11.3835     94.8240     21.1599
  1014.1000      7.8657      2.4277      0.0057     13.4716     96.2369     21.7720
  1014.2000      7.8657      2.4163     -0.0480     14.1638     97.9236     23.2919
  1014.3000      7.8650      2.4334     -0.0039     13.1302     96.5065     24.0206
  1014.4000      7.8650      2.4681      0.0162     11.0260     92.6944     23.3885
  1014.5000      7.8784      2.5030      0.0308      8.9075     86.3854     22.4606
  1014.6000      7.8784      2.5272      0.0703      7.4449     77.6980     22.1430
  1014.7000      7.8784      2.5439      0.0622      6.4295     72.5071     22.5539
  1014.8000      7.8789      2.5730      0.1116      4.6640     75.0513     23.1368
  1014.9000      7.8789      2.6099      0.1867      2.4294     81.8299     23.2206
  1015.0000      7.8987      2.6269      0.1884      1.3971     87.9197     23.1986
  1015.1000      7.8987      2.6182      0.1939      1.9285     90.2636     23.8978
  1015.2000      7.8987      2.5894      0.1709      3.6727     87.4480     24.8674
  1015.3000      7.8479      2.5379      0.1620      6.7952     83.5335     25.2460
  1015.4000      7.8479      2.4738      0.0658     10.6764     83.9601     25.2208
  1015.5000      7.8261      2.4227      0.0966     13.7735     88.1814     25.2698
  1015.6000      7.8261      2.3902      0.0638     15.7426     93.2137     25.2190
  1015.7000      7.8261      2.3659      0.0407     17.2162     96.6075     25.0607
  1015.8000      7.8041      2.3491     -0.0187     18.2346     95.0132     25.1159
  1015.9000      7.8041      2.3427      0.0494     18.6264     88.2660     25.1861
  1016.0000      7.8023      2.3493      0.0427     18.2244     80.1809     24.9380
  1016.1000      7.8023      2.3877      0.0948     15.8992     75.0852     24.8634
  1016.2000      7.8023      2.4652      0.1474     11.2016     74.3768     25.3478
  1016.3000      7.7733      2.5456      0.2942      6.3263     74.7290     26.0324
  1016.4000      7.7733      2.5866      0.2446      3.8428     73.2864     26.3165
  1016.5000      7.8023      2.5939      0.2134      3.4018     71.5414     25.3430
  1016.6000      7.8023      2.5921      0.2032      3.5079     71.9013     23.4827
  1016.7000      7.8023      2.5909      0.1787      3.5827     73.4576     22.2507
  1016.8000      7.8374      2.6001      0.1932      3.0270     73.9680     22.0020
  1016.9000      7.8374      2.6179      0.2343      1.9453     74.1266     21.8580
  1017.0000      7.8190      2.6175      0.1895      1.9697     77.8259     21.2069
  1017.1000      7.8190      2.5857      0.0872      3.8969     85.7074     20.4181
  1017.2000      7.8190      2.5385      0.0802      6.7604     90.6032     20.3527
  1017.3000      7.7938      2.4937      0.0004      9.4718     87.5029     20.8712
  1017.4000      7.7938      2.4613      0.0613     11.4358     80.9653     21.1881
  1017.5000      7.8246      2.4399      0.0132     12.7328     77.4410     21.0672
  1017.6000      7.8246      2.4288     -0.0207     13.4059     78.6274     20.4470
  1017.7000      7.8246      2.4334      0.0396     13.1255     81.6070     19.7161
  1017.8000      7.7849      2.4617     -0.0404     11.4119     84.8312     19.6881
  1017.9000      7.7849      2.5109      0.1198      8.4317     88.5378     20.1523
  1018.0000      7.7810      2.5542      0.1193      5.8058     94.1918     20.3443
  1018.1000      7.7810      2.5720      0.1395      4.7290    102.1013     20.2999
  1018.2000      7.7810      2.5678      0.1232      4.9799    106.0417     20.5107
  1018.3000      7.7790      2.5521      0.1467      5.9357    103.2602     21.2062
  1018.4000      7.7790      2.5270      0.1419      7.4532     98.7625     22.2579
  1018.5000      7.7326      2.4933      0.1196      9.4950     95.9803     23.3087
  1018.6000      7.7326      2.4611      0.1034     11.4482     96.2519     24.1968
  1018.7000      7.7326      2.4519      0.0497     12.0084    101.5636     24.9990
  1018.8000      7.6810      2.4768      0.0981     10.4940    111.0860     25.7789
  1018.9000      7.6810      2.5165      0.1643      8.0934    117.7926     26.2790
  1019.0000      7.6620      2.5455      0.1780      6.3331    115.7456     26.3323
  1019.1000      7.6620      2.5592      0.1954      5.5023    107.3216     26.2256
