~Version Information
VERS.                      2.0: CWLS Log ASCII Standard - VERSION 2.0
WRAP.                       NO: One line per depth step
~Well Information Block
STRT.FT               780.0000: 
STOP.FT              1557.5000: 
STEP.FT                 0.1000: 
NULL.                -999.2500: 
COMP.          Pioneer Natural Resources: COMPANY
WELL.          Bunner's 13-26 Tr: WELL
FLD.           Purgatoire River: FIELD
LOC.           1843' FSL & 456' FWL----: LOCATION
PROV.                 Colorado: PROVINCE
CNTY.               Las Animas: COUNTRY
SRVC.                Patterson: SERVICE COMPANY
DATE.          Tue Mar 29 07:41:16 2005: LOG DATE
UWI.           05 071 08331 00: UNIQUE WELL ID
~Curve Information Block
DEPT.FT            0 000 00 00: Depth
DCAL.in                       : CDL Caliper
RHOB.g/cc                     : CDL Bulk Density
RHOC.g/cc                     : CDL Density Correction
DPOR.pu                       : CDL Density Porosity
NPOR.pu                       : Neutron Porosity
GR.GAPI                       : Gamma Ray
~Parameter Information Block
~A  Depth       DCAL        RHOB        RHOC        DPOR        NPOR         GR     
# ...
  1375.2000      7.9184      2.5831      0.0364      4.0534     23.8874    114.2874
  1375.3000      7.9183      2.5677     -0.0168      4.9902     24.1022    104.3657
  1375.4000      7.9183      2.5691      0.0494      4.9033     23.8681     94.6408
  1375.5000      7.9198      2.5636      0.0145      5.2350     23.4602     95.4751
  1375.6000      7.9198      2.5503      0.0218      6.0448     23.2379    106.0393
  1375.7000      7.9198      2.5495      0.0145      6.0936     22.8819    115.2741
  1375.8000      7.9203      2.5647      0.0464      5.1708     22.3199    119.3559
  1375.9000      7.9203      2.5799      0.0591      4.2464     22.0123    120.8268
  1376.0000      7.9182      2.5844      0.0526      3.9739     22.1302    119.4203
  1376.1000      7.9182      2.5883      0.0276      3.7397     22.4849    115.0828
  1376.2000      7.9182      2.6065      0.0275      2.6379     22.5499    107.6710
  1376.3000      7.9157      2.6318      0.0743      1.1047     22.3532     97.9581
  1376.4000      7.9157      2.6410      0.0511      0.5439     22.4723     91.1345
  1376.5000      7.9168      2.6266      0.0525      1.4179     22.8880     92.0072
  1376.6000      7.9168      2.6006      0.0370      2.9944     23.2766     96.5761
  1376.7000      7.9168      2.5807      0.0276      4.1994     23.5207     97.6784
  1376.8000      7.9186      2.5853      0.0081      3.9190     23.5874     96.4518
  1376.9000      7.9186      2.6149      0.0574      2.1275     23.4955     96.6694
  1377.0000      7.9165      2.6374      0.1175      0.7664     23.2876     97.8923
  1377.1000      7.9165      2.6311      0.0465      1.1447     23.2722     99.1430
  1377.2000      7.9165      2.6134      0.0284      2.2196     23.8083    101.0817
  1377.3000      7.9119      2.5979      0.0658      3.1570     24.7470    104.1482
  1377.4000      7.9119      2.5813      0.0090      4.1618     25.6989    106.3431
  1377.5000      7.9113      2.5664      0.0427      5.0689     26.4056    106.5133
  1377.6000      7.9113      2.5544      0.0136      5.7943     26.6809    107.4165
  1377.7000      7.9113      2.5412      0.0056      6.5932     26.5723    113.6958
  1377.8000      7.9131      2.5295     -0.0245      7.3012     26.3929    124.6941
  1377.9000      7.9131      2.5269     -0.0163      7.4617     26.4049    133.0047
  1378.0000      7.9151      2.5274      0.0056      7.4273     26.5051    136.3945
  1378.1000      7.9151      2.5222     -0.0281      7.7426     26.6835    138.1461
  1378.2000      7.9151      2.5149      0.0176      8.1905     27.1058    139.7091
  1378.3000      7.9165      2.5078      0.0238      8.6180     27.4790    143.7072
  1378.4000      7.9165      2.5008     -0.0050      9.0404     27.3735    148.4189
  1378.5000      7.9158      2.4951      0.0167      9.3886     26.7845    150.8166
  1378.6000      7.9158      2.4858      0.0303      9.9517     25.9483    152.0191
  1378.7000      7.9158      2.4636      0.0304     11.2989     25.1061    151.1897
  1378.8000      7.9153      2.4203      0.0264     13.9212     24.5040    148.3560
  1378.9000      7.9153      2.3601      0.0013     17.5668     24.0831    146.5488
  1379.0000      7.9154      2.3018     -0.0312     21.1002     23.5898    148.6936
  1379.1000      7.9154      2.2622     -0.0321     23.5051     22.8596    154.0225
  1379.2000      7.9154      2.2464     -0.0180     24.4587     21.7106    156.6130
  1379.3000      7.9148      2.2549     -0.0384     23.9460     20.4805    152.5890
  1379.4000      7.9148      2.2816      0.0293     22.3250     19.8763    145.3956
  1379.5000      7.9137      2.3136      0.0686     20.3867     19.7312    141.0149
  1379.6000      7.9137      2.3436      0.1019     18.5727     19.2818    146.0468
  1379.7000      7.9137      2.3719      0.1379     16.8552     18.4746    161.7271
  1379.8000      7.9132      2.4046      0.1282     14.8750     17.8677    177.3571
  1379.9000      7.9132      2.4479      0.1404     12.2481     18.1002    181.7127
  1380.0000      7.9122      2.4939      0.1624      9.4595     19.1649    176.5621
  1380.1000      7.9122      2.5240      0.1073      7.6348     20.3830    171.4809
  1380.2000      7.9122      2.5344      0.0585      7.0084     21.6078    170.5900
  1380.3000      7.9129      2.5442      0.0517      6.4131     22.8755    170.7704
  1380.4000      7.9129      2.5733      0.0580      4.6511     23.5982    169.0204
  1380.5000      7.9166      2.6147      0.0979      2.1381     23.7648    164.0693
  1380.6000      7.9166      2.6415      0.1053      0.5138     24.2013    155.1461
  1380.7000      7.9166      2.6410      0.1128      0.5429     25.0050    146.4374
  1380.8000      7.9184      2.6263      0.0509      1.4371     25.5942    144.4324
  1380.9000      7.9184      2.6084      0.0717      2.5206     25.7968    147.6947
  1381.0000      7.9155      2.5860      0.0702      3.8774     25.7738    151.2141
  1381.1000      7.9155      2.5676      0.0725      4.9919     25.7681    154.0551
  1381.2000      7.9155      2.5658      0.0975      5.1040     26.0020    155.1613
  1381.3000      7.9122      2.5711      0.0989      4.7811     26.6895    153.1639
  1381.4000      7.9122      2.5697      0.0580      4.8684     27.7367    148.9447
  1381.5000      7.9121      2.5694      0.0124      4.8844     28.7737    144.7455
  1381.6000      7.9121      2.5802      0.0719      4.2331     29.5484    143.2122
  1381.7000      7.9121      2.5934      0.1034      3.4325     29.9158    145.8837
  1381.8000      7.9132      2.5920      0.1467      3.5174     30.1347    153.9738
  1381.9000      7.9132      2.5680      0.0909      4.9723     30.4538    165.8849
  1382.0000      7.9139      2.5402      0.0458      6.6564     30.5381    174.7279
  1382.1000      7.9139      2.5209      0.1226      7.8214     30.2268    176.0096
  1382.2000      7.9139      2.4915      0.1084      9.6034     29.8249    172.8511
  1382.3000      7.9141      2.4408      0.0798     12.6790     29.3169    169.0000
  1382.4000      7.9141      2.3762      0.0210     16.5969     28.5110    166.3073
  1382.5000      7.9201      2.3000      0.0197     21.2121     27.3773    164.8856
  1382.6000      7.9201      2.2106     -0.0312     26.6323     25.4495    161.0267
  1382.7000      7.9201      2.1066      0.0007     32.9317     22.1126    152.7974
  1382.8000      7.9332      1.9782     -0.0768     40.7176     17.6653    141.4915
  1382.9000      7.9332      1.8190     -0.1069     50.3645     13.2898    129.7077
  1383.0000      7.9564      1.6364     -0.1383     61.4316     10.0788    118.5857
  1383.1000      7.9564      1.4448     -0.1687     73.0395      7.9099    107.2376
  1383.2000      7.9564      1.2733     -0.2070     83.4354      6.1835     96.3114
  1383.3000      8.0283      1.1672     -0.1868     89.8637      4.8769     86.3720
  1383.4000      8.0283      1.1476     -0.0471     91.0537      4.1480     79.3084
  1383.5000      8.2174      1.1787      0.1387     89.1673      3.9984     76.9358
  1383.6000      8.2174      1.2086      0.1963     87.3589      4.2752     75.7077
  1383.7000      8.2174      1.2157      0.2499     86.9262      4.6754     73.3469
  1383.8000      8.5026      1.2022      0.2212     87.7453      4.9669     70.4928
  1383.9000      8.5026      1.1804      0.1470     89.0657      5.1198     65.6463
  1384.0000      8.6639      1.1694      0.1013     89.7348      5.2171     59.7202
  1384.1000      8.6639      1.1828      0.0571     88.9199      5.3391     57.2442
  1384.2000      8.6639      1.2217      0.0162     86.5623      5.4304     59.0382
  1384.3000      8.6004      1.2805     -0.0109     82.9979      5.5147     60.1815
  1384.4000      8.6004      1.3493      0.0326     78.8283      5.5771     57.9508
  1384.5000      8.4897      1.4035      0.1437     75.5433      5.5854     56.1981
  1384.6000      8.4897      1.4190      0.1894     74.6084      5.7809     58.6246
  1384.7000      8.4897      1.4083      0.1674     75.2523      6.1979     65.0044
