~Version Information
VERS.                      2.0: CWLS Log ASCII Standard - VERSION 2.0
WRAP.                       NO: One line per depth step
~Well Information Block
STRT.FT               702.7000: 
STOP.FT              2529.2000: 
STEP.FT                 0.1000: 
NULL.                -999.2500: 
COMP.          Pioneer Natural Resources: COMPANY
WELL.          Aztec Federal 41-15: WELL
FLD.           Purgatorie River: FIELD
LOC.           706' FNL & 1253' FEL: LOCATION
CNTY.               Las Animas: COUNTY
SRVC.          Superior Well Services: SERVICE COMPANY
DATE.          Tue Mar 18 09-36-47 2008: LOG DATE
UWI.           05-071-08342-00: UNIQUE WELL ID
STAT.                       CO: STATE
~Curve Information Block
DEPT.FT            0 000 00 00: Depth
DCAL.in                       : CDL Caliper
DPOR.pu                       : CDL Density Porosity
GR.GAPI                       : Gamma Ray
RHOB.g/cc                     : CDL Bulk Density
RHOC.g/cc                     : CDL Density Correction
~Parameter Information Block
~A  Depth       DCAL        DPOR         GR         RHOB        RHOC    
# ...
  1318.7000      7.8963      1.6043     91.8392      2.6235      0.0971
  1318.8000      7.8868      2.1108     91.6967      2.6152      0.0963
  1318.9000      7.8807      2.7344     93.5438      2.6049      0.0924
  1319.0000      7.8776      3.3339     95.5011      2.5950      0.0829
  1319.1000      7.8770      4.7269     94.7221      2.5720      0.0638
  1319.2000      7.8779      6.3625     92.7485      2.5450      0.0463
  1319.3000      7.8797      7.2638     94.6552      2.5301      0.0439
  1319.4000      7.8814      6.8440    100.2760      2.5371      0.0567
  1319.5000      7.8825      4.9773    102.8058      2.5679      0.0783
  1319.6000      7.8825      3.7324     99.6537      2.5884      0.0893
  1319.7000      7.8816      5.0622     96.3692      2.5665      0.0703
  1319.8000      7.8802      7.4115     94.9556      2.5277      0.0326
  1319.9000      7.8791      8.5945     92.4514      2.5082      0.0069
  1320.0000      7.8791      9.0425     91.1023      2.5008      0.0023
  1320.1000      7.8806      9.0534     93.8744      2.5006      0.0092
  1320.2000      7.8836      7.7534     98.8090      2.5221      0.0235
  1320.3000      7.8874      6.0276    104.0367      2.5505      0.0325
  1320.4000      7.8918      5.6154    109.3644      2.5573      0.0211
  1320.5000      7.8965      5.7900    112.9885      2.5545      0.0045
  1320.6000      7.9019      4.9397    112.3679      2.5685      0.0058
  1320.7000      7.9079      3.5992    108.3249      2.5906      0.0175
  1320.8000      7.9146      3.2753    106.4803      2.5960      0.0194
  1320.9000      7.9213      4.3929    110.1469      2.5775      0.0092
  1321.0000      7.9272      6.0457    113.7632      2.5502     -0.0028
  1321.1000      7.9316      6.9512    110.5941      2.5353     -0.0052
  1321.2000      7.9341      5.9013    104.1082      2.5526      0.0137
  1321.3000      7.9344      3.5336    101.9741      2.5917      0.0411
  1321.4000      7.9323      2.1258    103.6113      2.6149      0.0508
  1321.5000      7.9275      1.8681    103.5409      2.6192      0.0491
  1321.6000      7.9200      1.4849    100.5746      2.6255      0.0505
  1321.7000      7.9102      0.8646     98.3084      2.6357      0.0530
  1321.8000      7.8991      0.7619     97.0491      2.6374      0.0500
  1321.9000      7.8882      1.5451     95.2842      2.6245      0.0409
  1322.0000      7.8788      2.4599     95.8333      2.6094      0.0316
  1322.1000      7.8719      2.8650    101.0573      2.6027      0.0282
  1322.2000      7.8677      2.7733    107.5551      2.6042      0.0413
  1322.3000      7.8660      1.9169    109.9709      2.6184      0.0745
  1322.4000      7.8664      0.8038    106.6057      2.6367      0.1073
  1322.5000      7.8684      0.3032    100.2568      2.6450      0.1195
  1322.6000      7.8715      0.1203     94.2401      2.6480      0.1177
  1322.7000      7.8752      0.1638     91.2543      2.6473      0.1125
  1322.8000      7.8792      1.5392     90.9954      2.6246      0.0955
  1322.9000      7.8830      4.1880     89.6878      2.5809      0.0691
  1323.0000      7.8860      5.5621     86.3452      2.5582      0.0657
  1323.1000      7.8877      4.7702     82.8145      2.5713      0.0914
  1323.2000      7.8878      4.1676     81.7564      2.5812      0.1055
  1323.3000      7.8863      4.3503     85.6185      2.5782      0.0915
  1323.4000      7.8838      3.8848     94.1787      2.5859      0.0702
  1323.5000      7.8811      3.1157    104.2349      2.5986      0.0512
  1323.6000      7.8789      2.8904    109.4889      2.6023      0.0328
  1323.7000      7.8777      1.8536    107.5834      2.6194      0.0258
  1323.8000      7.8777     -0.5513    103.8542      2.6591      0.0272
  1323.9000      7.8785     -1.9895    103.7052      2.6828      0.0122
  1324.0000      7.8796     -0.5965    106.7868      2.6598     -0.0302
  1324.1000      7.8805      1.5822    110.5827      2.6239     -0.0715
  1324.2000      7.8812      1.1662    113.7758      2.6308     -0.0711
  1324.3000      7.8817     -2.0295    113.5521      2.6835     -0.0280
  1324.4000      7.8827     -6.1615    108.5701      2.7517      0.0286
  1324.5000      7.8850    -10.0187    102.4572      2.8153      0.0741
  1324.6000      7.8899    -13.0283     98.3729      2.8650      0.0998
  1324.7000      7.8979    -13.8136     98.1759      2.8779      0.0988
  1324.8000      7.9091    -10.9634    102.4327      2.8309      0.0650
  1324.9000      7.9225     -5.2996    107.2430      2.7374      0.0146
  1325.0000      7.9365     -0.5271    109.4338      2.6587     -0.0190
  1325.1000      7.9493      0.8526    109.0957      2.6359     -0.0199
  1325.2000      7.9595      0.7383    106.9544      2.6378     -0.0089
  1325.3000      7.9670      1.1119    104.0311      2.6317     -0.0071
  1325.4000      7.9720      0.5459    101.8447      2.6410      0.0025
  1325.5000      7.9755     -1.8410    101.4200      2.6804      0.0366
  1325.6000      7.9785     -4.0640    103.3379      2.7171      0.0747
  1325.7000      7.9812     -5.1821    105.6985      2.7355      0.1011
  1325.8000      7.9830     -5.6613    105.9102      2.7434      0.1224
  1325.9000      7.9827     -4.9869    106.3937      2.7323      0.1396
  1326.0000      7.9793     -2.8965    109.3443      2.6978      0.1457
  1326.1000      7.9728     -0.0331    110.9700      2.6505      0.1398
  1326.2000      7.9647      2.7580    109.7093      2.6045      0.1246
  1326.3000      7.9571      4.8122    110.7238      2.5706      0.1054
  1326.4000      7.9518      5.8827    116.8458      2.5529      0.0918
  1326.5000      7.9495      6.0660    122.7961      2.5499      0.0853
  1326.6000      7.9502      6.0698    122.0604      2.5498      0.0757
  1326.7000      7.9530      6.6252    117.0066      2.5407      0.0620
  1326.8000      7.9571      7.8500    113.2783      2.5205      0.0510
  1326.9000      7.9616      8.9042    111.2637      2.5031      0.0458
  1327.0000      7.9659      8.9947    109.1885      2.5016      0.0449
  1327.1000      7.9698      8.3887    107.3484      2.5116      0.0440
  1327.2000      7.9730      7.3284    105.5345      2.5291      0.0467
  1327.3000      7.9756      5.9950    104.0784      2.5511      0.0613
  1327.4000      7.9774      5.2024    105.7686      2.5642      0.0815
  1327.5000      7.9787      5.8522    109.6122      2.5534      0.0926
  1327.6000      7.9797      7.7348    111.7844      2.5224      0.0966
  1327.7000      7.9805      9.7767    112.3638      2.4887      0.0988
  1327.8000      7.9813     11.0374    111.9903      2.4679      0.0954
  1327.9000      7.9824     10.9850    110.3998      2.4687      0.0972
  1328.0000      7.9837     11.1346    108.8578      2.4663      0.0988
  1328.1000      7.9852     12.7533    108.8909      2.4396      0.0795
  1328.2000      7.9868     14.4913    108.9455      2.4109      0.0535
  1328.3000      7.9883     15.4336    107.1357      2.3953      0.0417
  1328.4000      7.9895     16.3561    105.0228      2.3801      0.0320
  1328.5000      7.9902     16.9501    104.9282      2.3703      0.0175
  1328.6000      7.9903     15.7506    108.0704      2.3901      0.0134
  1328.7000      7.9898     12.3666    111.9916      2.4460      0.0270
  1328.8000      7.9890      7.7758    113.5550      2.5217      0.0530
  1328.9000      7.9881      3.9778    112.8700      2.5844      0.0744
  1329.0000      7.9872      2.5283    111.6025      2.6083      0.0738
  1329.1000      7.9864      2.5683    111.7547      2.6076      0.0547
  1329.2000      7.9858      1.9476    113.8584      2.6179      0.0372
  1329.3000      7.9854      0.2695    114.8216      2.6456      0.0341
  1329.4000      7.9850     -0.5522    113.5150      2.6591      0.0300
  1329.5000      7.9845      0.2413    113.3691      2.6460      0.0111
  1329.6000      7.9838      1.2794    114.7357      2.6289     -0.0095
  1329.7000      7.9828      1.9203    116.4450      2.6183     -0.0161
  1329.8000      7.9817      2.0216    117.7304      2.6166     -0.0005
