~Version Information
VERS.                      2.0: CWLS Log ASCII Standard - VERSION 2.0
WRAP.                       NO: One line per depth step
~Well Information Block
STRT.FT               360.0000: 
STOP.FT              2515.2000: 
STEP.FT                 0.1000: 
NULL.                -999.2500: 
COMP.          Pioneer Natural Resources: COMPANY
WELL.            Rancher 12-35: WELL
FLD.           Purgatoire River: FIELD
LOC.           2131' FNL & 297' FWL: LOCATION
PROV.                 Colorado: PROVINCE
CNTY.               Las Animas: COUNTRY
SRVC.                Patterson: SERVICE COMPANY
DATE.          Tue Oct 12 09:11:02 2004: LOG DATE
UWI.           05 071 08179 00: UNIQUE WELL ID
~Curve Information Block
DEPT.FT            0 000 00 00: Depth
DCAL.in                       : CDL Caliper
RHOB.g/cc                     : CDL Bulk Density
RHOC.g/cc                     : CDL Density Correction
DPOR.pu                       : CDL Density Porosity
NPOR.pu                       : Neutron Porosity
GR.GAPI                       : Gamma Ray
~Parameter Information Block
~A  Depth       DCAL        RHOB        RHOC        DPOR        NPOR         GR     
# ...
  1771.2000      8.4569      2.4676      0.2043     11.0520     29.9306    147.0475
  1771.3000      8.5433      2.4502      0.1841     12.1087     29.2055    140.8839
  1771.4000      8.5433      2.4557      0.1992     11.7762     28.2760    139.8759
  1771.5000      8.5708      2.4887      0.2115      9.7773     27.8985    143.2081
  1771.6000      8.5708      2.5271      0.2179      7.4460     28.0038    143.0712
  1771.7000      8.5708      2.5459      0.2168      6.3110     28.2873    140.9144
  1771.8000      8.5555      2.5491      0.1359      6.1154     28.7764    143.9316
  1771.9000      8.5555      2.5604      0.1542      5.4299     29.3422    151.3276
  1772.0000      8.5198      2.5790      0.1789      4.3009     29.3439    158.0881
  1772.1000      8.5198      2.5893      0.1853      3.6808     28.8485    160.2892
  1772.2000      8.5198      2.5903      0.1699      3.6199     28.8091    158.6803
  1772.3000      8.4776      2.5936      0.1485      3.4153     29.3854    155.1710
  1772.4000      8.4776      2.6021      0.1713      2.9031     29.9257    148.7213
  1772.5000      8.3952      2.5979      0.1590      3.1557     30.0551    143.2900
  1772.6000      8.3952      2.5726      0.0860      4.6887     29.8899    144.7307
  1772.7000      8.3952      2.5472      0.0552      6.2321     29.6155    149.9935
  1772.8000      8.2680      2.5399      0.0414      6.6710     29.1503    154.4099
  1772.9000      8.2680      2.5426      0.1051      6.5065     28.2021    155.7719
  1773.0000      8.1901      2.5417      0.0510      6.5610     27.3184    152.0998
  1773.1000      8.1901      2.5380      0.0321      6.7863     27.3636    146.8760
  1773.2000      8.1901      2.5408     -0.0066      6.6166     28.2061    145.9502
  1773.3000      8.1715      2.5509      0.0486      6.0043     29.0422    147.8867
  1773.4000      8.1715      2.5533      0.0449      5.8596     29.1985    146.8007
  1773.5000      8.1641      2.5498      0.0016      6.0716     28.7149    143.3555
  1773.6000      8.1641      2.5585      0.0375      5.5431     28.2233    143.8820
  1773.7000      8.1641      2.5781      0.0572      4.3596     27.9981    147.0583
  1773.8000      8.1541      2.5983      0.0435      3.1323     27.9889    147.3974
  1773.9000      8.1541      2.6160      0.0525      2.0611     28.2214    146.1646
  1774.0000      8.1485      2.6191      0.1043      1.8703     28.6215    147.0148
  1774.1000      8.1485      2.5973      0.0477      3.1937     28.8617    148.0760
  1774.2000      8.1485      2.5658      0.0063      5.1004     28.8035    145.1150
  1774.3000      8.1470      2.5461      0.0297      6.2945     28.8642    139.0067
  1774.4000      8.1470      2.5456     -0.0172      6.3272     29.2702    135.8168
  1774.5000      8.1459      2.5624      0.0193      5.3101     29.5858    139.6149
  1774.6000      8.1459      2.5788      0.0122      4.3145     29.3745    145.4197
  1774.7000      8.1459      2.5733      0.0397      4.6464     28.7110    146.9097
  1774.8000      8.1443      2.5484      0.0016      6.1588     28.1214    144.3046
  1774.9000      8.1443      2.5274      0.0136      7.4282     27.9771    144.0721
  1775.0000      8.1371      2.5208      0.0082      7.8307     28.1410    149.0875
  1775.1000      8.1371      2.5218     -0.0252      7.7711     28.3771    151.6203
  1775.2000      8.1371      2.5310     -0.0318      7.2122     28.4980    147.9567
  1775.3000      8.1265      2.5443      0.0193      6.4072     28.6158    147.7691
  1775.4000      8.1265      2.5422      0.0373      6.5312     28.7984    153.5807
  1775.5000      8.1294      2.5230      0.0140      7.6998     28.4499    156.5598
  1775.6000      8.1294      2.5117     -0.0105      8.3816     27.5783    155.4271
  1775.7000      8.1294      2.5246      0.0316      7.6023     26.9233    154.4856
  1775.8000      8.1386      2.5484      0.0301      6.1566     27.0125    152.0806
  1775.9000      8.1386      2.5627      0.0465      5.2935     27.5885    146.0928
  1776.0000      8.1312      2.5685      0.0262      4.9367     27.9444    143.7185
  1776.1000      8.1312      2.5797      0.0567      4.2617     27.5050    148.5544
  1776.2000      8.1312      2.5858      0.0899      3.8904     26.4674    154.4682
  1776.3000      8.1201      2.5733      0.0469      4.6486     25.8214    155.2859
  1776.4000      8.1201      2.5543      0.0453      5.7982     25.7528    151.3540
  1776.5000      8.1173      2.5438      0.0230      6.4384     25.6413    146.7634
  1776.6000      8.1173      2.5417      0.0543      6.5610     25.1637    142.9832
  1776.7000      8.1173      2.5375      0.0826      6.8177     24.6904    138.8835
  1776.8000      8.1179      2.5235      0.0434      7.6691     24.6895    134.0641
  1776.9000      8.1179      2.5076      0.0176      8.6290     25.0067    130.4264
  1777.0000      8.1173      2.5017      0.0197      8.9880     25.2459    131.2824
  1777.1000      8.1173      2.5034     -0.0050      8.8864     25.2270    136.8918
  1777.2000      8.1173      2.5146     -0.0003      8.2069     25.0493    141.2459
  1777.3000      8.1163      2.5481      0.0378      6.1785     24.7692    139.8340
  1777.4000      8.1163      2.5931      0.1256      3.4480     24.3242    137.1277
  1777.5000      8.1187      2.6188      0.1236      1.8910     24.2712    136.1325
  1777.6000      8.1187      2.6176      0.1072      1.9612     24.6018    135.0527
  1777.7000      8.1187      2.6066      0.0686      2.6317     24.4107    133.5676
  1777.8000      8.1205      2.5938      0.0748      3.4087     24.0483    131.8525
  1777.9000      8.1205      2.5730      0.0844      4.6656     24.4998    126.4059
  1778.0000      8.1197      2.5477      0.0150      6.2014     25.0354    117.2129
  1778.1000      8.1197      2.5312      0.0389      7.1974     24.6744    111.7808
  1778.2000      8.1197      2.5267      0.0217      7.4736     23.8403    114.9384
  1778.3000      8.1203      2.5358     -0.0179      6.9185     23.2264    121.8933
  1778.4000      8.1203      2.5558      0.0302      5.7073     22.4437    122.1825
  1778.5000      8.1214      2.5706      0.0243      4.8129     20.8849    111.6736
  1778.6000      8.1214      2.5753      0.0486      4.5272     19.3469    101.4131
  1778.7000      8.1214      2.5745      0.0371      4.5740     18.9604     99.4315
  1778.8000      8.1198      2.5698      0.0216      4.8611     19.4468     98.5011
  1778.9000      8.1198      2.5674      0.0040      5.0043     19.9782     93.5750
  1779.0000      8.1175      2.5699      0.0060      4.8542     20.3213     87.7366
  1779.1000      8.1175      2.5652      0.0167      5.1374     20.3269     86.8032
  1779.2000      8.1175      2.5461     -0.0150      6.2967     19.8062     92.4983
  1779.3000      8.1178      2.5239     -0.0192      7.6415     19.1803     97.6192
  1779.4000      8.1178      2.5128     -0.0396      8.3125     19.1693     95.2421
  1779.5000      8.1190      2.5105      0.0227      8.4537     19.8997     89.3057
  1779.6000      8.1190      2.5068     -0.0100      8.6772     21.0137     87.3950
  1779.7000      8.1190      2.5084     -0.0101      8.5845     22.0258     90.7141
  1779.8000      8.1195      2.5224      0.0252      7.7360     22.6088     94.8871
  1779.9000      8.1195      2.5387      0.0598      6.7461     22.7702     97.6538
  1780.0000      8.1199      2.5480      0.0308      6.1806     22.9613    103.6781
  1780.1000      8.1199      2.5557      0.0226      5.7159     23.6257    116.2127
  1780.2000      8.1199      2.5690      0.0503      4.9100     24.3018    127.8657
  1780.3000      8.1162      2.5810      0.0783      4.1823     24.3522    132.7243
  1780.4000      8.1162      2.5746      0.1199      4.5716     24.0527    135.9757
  1780.5000      8.1087      2.5563      0.0457      5.6799     23.9635    142.0984
  1780.6000      8.1087      2.5505      0.0865      6.0286     24.1890    150.6336
  1780.7000      8.1087      2.5554      0.1010      5.7307     24.3907    156.0633
