~Version Information
VERS.                      2.0: CWLS Log ASCII Standard - VERSION 2.0
WRAP.                       NO: One line per depth step
~Well Information Block
STRT.FT                 0.0000: 
STOP.FT              2025.0000: 
STEP.FT                 0.2500: 
NULL.                -999.2500: 
COMP.          Petrogulf Corporation: COMPANY
WELL.          Robinson 15-12V: WELL
FLD.           Purgatorie River: FIELD
LOC.           1788' FNL & 466' FWL: LOCATION
PROV.                 Colorado: PROVINCE
CNTY.               Las Animas: COUNTRY
SRVC.                Patterson: SERVICE COMPANY
DATE.          Tue Oct 04 11:57:31 2005: LOG DATE
UWI.                          : UNIQUE WELL ID
~Curve Information Block
DEPT.FT            0 000 00 00: Depth
GR.GAPI                       : Gamma Ray
CCL.                          : Casing Collar Locator
TT3.usec                      : CBL 3' Travel Time
AMP3.mV                       : CBL 3' Amplitude
~Parameter Information Block
~A  Depth        GR         CCL         TT3         AMP3    
# ...
   402.0000     70.2729      0.0000    264.6599     79.8697
   402.2500     64.3013      0.0000    264.6609     79.8500
   402.5000     59.8437      0.0000    264.6198     79.7638
   402.7500     57.3364      0.0000    264.5555     79.6365
   403.0000     57.0745      0.0000    264.5164     79.5642
   403.2500     59.0479      0.0000    264.5393     79.5983
   403.5000     62.6908      0.0000    264.6119     79.6921
   403.7500     66.9992      0.0000    264.6891     79.8057
   404.0000     71.0333      0.0000    264.7337     79.9402
   404.2500     74.1028      0.0000    264.7330     80.0423
   404.5000     75.5302      0.0000    264.6980     80.0206
   404.7500     74.8036      0.0000    264.6588     79.8769
   405.0000     72.2785      0.0000    264.6457     79.7238
   405.2500     69.4722      0.0000    264.6641     79.6485
   405.5000     68.2671      0.0000    264.7005     79.6404
   405.7500     69.5514      0.0000    264.7415     79.6555
   406.0000     72.5913      0.0000    264.7716     79.6682
   406.2500     76.0507      0.0000    264.7806     79.6759
   406.5000     79.7560      0.0000    264.7792     79.6887
   406.7500     84.9188      0.0000    264.7861     79.6928
   407.0000     92.2127      0.0000    264.8023     79.6392
   407.2500    100.0514      0.0000    264.8147     79.5125
   407.5000    105.2931      0.0000    264.8227     79.3969
   407.7500    105.5963      0.0000    264.8431     79.4061
   408.0000    101.0423      0.0000    264.8841     79.5613
   408.2500     93.8877      0.0000    264.9319     79.7776
   408.5000     87.0555      0.0000    264.9646     79.9551
   408.7500     82.4891      0.0000    264.9686     80.0482
   409.0000     80.4224      0.0000    264.9420     80.0388
   409.2500     80.0692      0.0000    264.8961     79.8046
   409.5000     80.8977      0.0000    264.8955     78.9302
   409.7500     82.9716      0.0000    265.1378     76.8717
   410.0000     85.9898      0.0000    265.9148     73.8129
   410.2500     88.5000      0.0000    267.3344     70.8897
   410.5000     88.8113      0.0000    269.0861     68.7083
   410.7500     86.8271      0.0000    270.6277     66.8395
   411.0000     84.4034      0.0000    271.6118     65.2217
   411.2500     83.6969      0.0000    272.0605     64.2905
   411.5000     85.5006      0.0000    272.1876     64.0711
   411.7500     88.9952      2.0000    272.2152     64.1649
   412.0000     92.4016      0.0000    272.4314     64.1547
   412.2500     93.8163      0.0000    273.4381     63.7878
   412.5000     92.1090      0.0000    275.9844     63.0641
   412.7500     87.5018      0.0000    279.3987     62.5484
   413.0000     81.3072      0.0000    280.6358     63.4004
   413.2500     75.1229      0.0000    277.6367     66.2527
   413.5000     70.2416      0.0000    272.4819     70.3767
   413.7500     67.4583      0.0000    268.3747     74.6038
   414.0000     66.9428      0.0000    266.1885     78.1442
   414.2500     68.1463      0.0000    265.2620     80.4854
   414.5000     70.1506      0.0000    264.9359     81.5760
   414.7500     72.2879      0.0000    264.8479     81.8758
   415.0000     74.2721      0.0000    264.8296     81.8897
   415.2500     75.7255      0.0000    264.8195     81.8745
   415.5000     75.9944      0.0000    264.8015     81.8783
   415.7500     74.8020      0.0000    264.7714     81.8647
   416.0000     72.8346      0.0000    264.7299     81.8036
   416.2500     71.1049      0.0000    264.6818     81.7072
   416.5000     69.7935      0.0000    264.6343     81.6048
   416.7500     68.4033      0.0000    264.6019     81.5138
   417.0000     67.1375      0.0000    264.6036     81.4663
   417.2500     67.2385      0.0000    264.6371     81.4991
   417.5000     69.4077      0.0000    264.6720     81.5928
   417.7500     72.4642      0.0000    264.6873     81.6749
   418.0000     74.2751      0.0000    264.6883     81.6761
   418.2500     73.7924      0.0000    264.6877     81.5951
   418.5000     71.6685      0.0000    264.6976     81.5104
   418.7500     69.0830      0.0000    264.7226     81.4908
   419.0000     66.6298      0.0000    264.7508     81.5212
   419.2500     64.4960      0.0000    264.7700     81.5434
   419.5000     63.1034      0.0000    264.7864     81.5483
   419.7500     62.9806      0.0000    264.8120     81.5802
   420.0000     64.1430      0.0000    264.8427     81.6587
   420.2500     66.1488      0.0000    264.8640     81.7518
   420.5000     68.7729      0.0000    264.8630     81.7991
   420.7500     72.0998      0.0000    264.8346     81.7562
   421.0000     75.7456      0.0000    264.7900     81.6468
   421.2500     78.4984      0.0000    264.7544     81.5391
   421.5000     79.1171      0.0000    264.7371     81.4675
   421.7500     77.3239      0.0000    264.7246     81.4100
   422.0000     73.9376      0.0000    264.7065     81.3305
   422.2500     70.2657      0.0000    264.6869     81.2268
   422.5000     67.3717      0.0000    264.6696     81.1372
   422.7500     65.5567      0.0000    264.6548     81.0931
   423.0000     64.3220      0.0000    264.6450     81.0885
   423.2500     62.9254      0.0000    264.6430     81.1122
   423.5000     61.0532      0.0000    264.6493     81.1490
   423.7500     59.0205      0.0000    264.6578     81.1380
   424.0000     57.4307      0.0000    264.6559     81.0350
   424.2500     56.7409      0.0000    264.6367     80.9029
   424.5000     57.1700      0.0000    264.6096     80.8408
   424.7500     58.8207      0.0000    264.5895     80.8612
   425.0000     61.4216      0.0000    264.5796     80.9051
   425.2500     63.9747      0.0000    264.5733     80.9315
   425.5000     65.2127      0.0000    264.5699     80.9453
   425.7500     64.5949      0.0000    264.5753     80.9528
   426.0000     62.5302      0.0000    264.5895     80.9334
   426.2500     59.7067      0.0000    264.6035     80.8714
   426.5000     56.7200      0.0000    264.6120     80.7900
   426.7500     54.3068      0.0000    264.6190     80.7232
   427.0000     53.3551      0.0000    264.6215     80.6601
   427.2500     54.3664      0.0000    264.6122     80.5754
   427.5000     56.9632      0.0000    264.5974     80.4935
   427.7500     60.0116      0.0000    264.5894     80.4412
   428.0000     62.2916      0.0000    264.5937     80.3960
   428.2500     63.1949      0.0000    264.6156     80.3430
   428.5000     62.9941      0.0000    264.6579     80.3134
   428.7500     62.5897      0.0000    264.7068     80.3363
   429.0000     62.8432      0.0000    264.7395     80.3816
   429.2500     63.9384      0.0000    264.7478     80.3855
   429.5000     65.4222      0.0000    264.7462     80.3438
   429.7500     66.9309      0.0000    264.7517     80.3082
   430.0000     68.5755      0.0000    264.7616     80.2952
   430.2500     70.4195      0.0000    264.7643     80.2684
   430.5000     71.8949      0.0000    264.7579     80.2007
   430.7500     72.0562      0.0000    264.7446     80.1285
   431.0000     70.4135      0.0000    264.7301     80.1406
   431.2500     67.5069      0.0000    264.7252     80.2888
   431.5000     64.6581      0.0000    264.7315     80.5175
   431.7500     62.9593      0.0000    264.7383     80.7226
   432.0000     62.3208      0.0000    264.7408     80.8648
   432.2500     61.5943      0.0000    264.7516     80.9695
   432.5000     59.6994      0.0000    264.7829     81.0550
   432.7500     56.5378      0.0000    264.8251     81.1223
   433.0000     52.8758      0.0000    264.8592     81.1764
   433.2500     49.6188      0.0000    264.8808     81.2200
   433.5000     47.1888      0.0000    264.8891     81.2429
   433.7500     45.4053      0.0000    264.8750     81.2324
   434.0000     43.9727      0.0000    264.8388     81.1919
   434.2500     43.0514      0.0000    264.7984     81.1444
   434.5000     43.1010      0.0000    264.7708     81.1062
   434.7500     44.1672      0.0000    264.7588     81.0709
   435.0000     45.6681      0.0000    264.7606     81.0270
   435.2500     47.0298      0.0000    264.7757     80.9781
