~Version Information
VERS.                      2.0: CWLS Log ASCII Standard - VERSION 2.0
WRAP.                       NO: One line per depth step
~Well Information Block
STRT.FT               250.0000: 
STOP.FT              2600.7500: 
STEP.FT                 0.2500: 
NULL.                -999.2500: 
COMP.          Pioneer Natural Resources: COMPANY
WELL.              Quack 22-24: WELL
FLD.           Purgatoire River: FIELD
LOC.           2492' FNL & 2459' FWL--: LOCATION
PROV.                 Colorado: PROVINCE
CNTY.               Las Animas: COUNTRY
SRVC.                Patterson: SERVICE COMPANY
DATE.          Sun Jun 12 09:02:01 2005: LOG DATE
UWI.            05 071 0840200: UNIQUE WELL ID
~Curve Information Block
DEPT.FT            0 000 00 00: Depth
SN.Ohm-m                      : IEL Short Normal
SP.mV                         : IEL Spontaneous Potential
DIR.Ohm-m                     : IEL Induction Resistivity
GR.GAPI                       : Gamma Ray
~Parameter Information Block
~A  Depth        SN          SP         DIR          GR     
   250.0000   2000.0000   1983.0000      1.5108     82.6048
   250.2500   2000.0000   1983.0000      1.5384     91.2243
   250.5000   2000.0000   1983.0000      1.6253    102.1460
   250.7500   2000.0000   1983.0000      1.8188    105.6962
   251.0000   2000.0000   1983.0000      2.1937    104.7254
   251.2500   2000.0000   1983.0000      2.8680    101.6478
   251.5000   2000.0000   1983.0000      3.9988     97.1741
   251.7500   2000.0000   1983.0000      5.6666     95.4368
   252.0000   2000.0000   1983.0000      7.5994     94.7397
   252.2500   2000.0000   1983.0000      9.1982     95.2197
   252.5000   2000.0000   1983.0000     10.0213     96.9286
   252.7500   2000.0000   1983.0000      9.6112     98.4727
   253.0000   2000.0000   1983.0000      7.7198    100.9072
   253.2500   2000.0000   1983.0000      5.4027    102.4580
   253.5000   2000.0000   1983.0000      3.7490    104.8284
   253.7500   2000.0000   1983.0000      2.8711    106.5712
   254.0000   2000.0000   1983.0000      2.5692    109.0660
   254.2500   2000.0000   1983.0000      2.7743    109.9503
   254.5000   2000.0000   1983.0000      3.7551    108.8362
   254.7500   2000.0000   1983.0000      7.1295    106.3513
   255.0000   2000.0000   1983.0000     45.3967    101.2395
   255.2500   2000.0000   1983.0000 100000.0000     97.9783
   255.5000   2000.0000   1983.0000 100000.0000     94.7149
   255.7500   2000.0000   1983.0000 100000.0000     94.0749
   256.0000   2000.0000   1983.0000 100000.0000     95.8888
   256.2500   2000.0000   1983.0000 100000.0000     99.2118
   256.5000   2000.0000   1983.0000 100000.0000    107.8409
   256.7500   2000.0000   1983.0000 100000.0000    116.1480
   257.0000   2000.0000   1983.0000     88.4725    131.7482
   257.2500   2000.0000   1983.0000     36.2086    143.0201
   257.5000   2000.0000   1983.0000     27.2056    158.1076
   257.7500   2000.0000   1983.0000     24.1613    165.3021
   258.0000   2000.0000   1983.0000     22.8371    170.6591
   258.2500   2000.0000   1983.0000     22.0022    170.9533
   258.5000   2000.0000   1983.0000     21.1375    167.7032
   258.7500   2000.0000   1983.0000     20.0411    163.6797
   259.0000   2000.0000   1983.0000     18.8136    155.7010
   259.2500   2000.0000   1983.0000     17.7763    149.6206
   259.5000   2000.0000   1983.0000     17.2676    140.4743
   259.7500   2000.0000   1983.0000     17.5033    135.0766
   260.0000   2000.0000   1983.0000     18.5165    128.8299
   260.2500   2000.0000   1983.0000     20.0469    125.6609
   260.5000   2000.0000   1983.0000     21.4116    120.7681
   260.7500   2000.0000   1983.0000     21.7735    116.4735
   261.0000   2000.0000   1983.0000     20.9020    108.4227
   261.2500   2000.0000   1983.0000     19.3681    102.8462
   261.5000   2000.0000   1983.0000     17.8720     95.6763
   261.7500   2000.0000   1983.0000     16.7945     91.9393
   262.0000   2000.0000   1983.0000     16.2446     87.5399
   262.2500   2000.0000   1983.0000     16.2050     85.2513
   262.5000   2000.0000   1983.0000     16.5976     82.6904
   262.7500   2000.0000   1983.0000     17.2988     81.2926
   263.0000   2000.0000   1983.0000     18.1549     78.6894
   263.2500   2000.0000   1983.0000     19.0243     76.1770
   263.5000   2000.0000   1983.0000     19.8210     71.6358
   263.7500   2000.0000   1983.0000     20.5229     68.9749
   264.0000   2000.0000   1983.0000     21.1436     66.9767
   264.2500   2000.0000   1983.0000     21.7007     67.0750
   264.5000   2000.0000   1983.0000     22.2001     68.1043
   264.7500   2000.0000   1983.0000     22.6331     68.3802
   265.0000   2000.0000   1983.0000     22.9797     67.3821
   265.2500   2000.0000   1983.0000     23.2177     66.1223
   265.5000   2000.0000   1983.0000     23.3351     64.6365
   265.7500   2000.0000   1983.0000     23.3405     64.4597
   266.0000   2000.0000   1983.0000     23.2641     65.3443
   266.2500   2000.0000   1983.0000     23.1453     66.1542
   266.5000   2000.0000   1983.0000     23.0150     66.6006
   266.7500   2000.0000   1983.0000     22.8844     66.1377
   267.0000   2000.0000   1983.0000     22.7506     64.9673
   267.2500   2000.0000   1983.0000     22.6109     64.5742
   267.5000   2000.0000   1983.0000     22.4737     65.0744
   267.7500   2000.0000   1983.0000     22.3551     65.6764
   268.0000   2000.0000   1983.0000     22.2690     65.6686
   268.2500   2000.0000   1983.0000     22.2227     64.7811
   268.5000   2000.0000   1983.0000     22.2202     63.0672
   268.7500   2000.0000   1983.0000     22.2658     62.4826
   269.0000   2000.0000   1983.0000     22.3595     62.7225
   269.2500   2000.0000   1983.0000     22.4920     62.9748
   269.5000   2000.0000   1983.0000     22.6466     62.3615
   269.7500   2000.0000   1983.0000     22.8108     61.4234
   270.0000   2000.0000   1983.0000     22.9860     60.6513
   270.2500   2000.0000   1983.0000     23.1854     61.2848
   270.5000   2000.0000   1983.0000     23.4213     63.8225
   270.7500   2000.0000   1983.0000     23.6962     65.7957
   271.0000   2000.0000   1983.0000     24.0044     67.8735
   271.2500   2000.0000   1983.0000     24.3412     68.4278
   271.5000   2000.0000   1983.0000     24.7067     68.3802
   271.7500   2000.0000   1983.0000     25.0997     68.1864
   272.0000   2000.0000   1983.0000     25.5061     68.6026
   272.2500   2000.0000   1983.0000     25.8962     69.8449
   272.5000   2000.0000   1983.0000     26.2405     73.0566
   272.7500   2000.0000   1983.0000     26.5315     75.3217
   273.0000   2000.0000   1983.0000     26.7901     77.3036
   273.2500   2000.0000   1983.0000     27.0470     77.2843
   273.5000   2000.0000   1983.0000     27.3209     75.8355
   273.7500   2000.0000   1983.0000     27.6130     74.5661
   274.0000   2000.0000   1983.0000     27.9176     72.7805
   274.2500   2000.0000   1983.0000     28.2326     71.5326
   274.5000   2000.0000   1983.0000     28.5592     69.1500
   274.7500   2000.0000   1983.0000     28.8958     67.2584
   275.0000   2000.0000   1983.0000     29.2346     64.6176
   275.2500   2000.0000   1983.0000     29.5644     63.4764
   275.5000   2000.0000   1983.0000     29.8818     63.2245
   275.7500   2000.0000   1983.0000     30.2042     63.9858
   276.0000   2000.0000   1983.0000     30.5708     65.7859
   276.2500   2000.0000   1983.0000     31.0259     66.7899
   276.5000   2000.0000   1983.0000     31.5913     67.1826
   276.7500   2000.0000   1983.0000     32.2450     66.6698
   277.0000   2000.0000   1983.0000     32.9195     65.4126
   277.2500   2000.0000   1983.0000     33.5276     64.6924
   277.5000   2000.0000   1983.0000     34.0073     63.9779
   277.7500   2000.0000   1983.0000     34.3593     63.5861
   278.0000   2000.0000   1983.0000     34.6467     62.9748
   278.2500   2000.0000   1983.0000     34.9540     62.6666
   278.5000   2000.0000   1983.0000     35.3366     62.5572
   278.7500   2000.0000   1983.0000     35.7953     62.6110
   279.0000   2000.0000   1983.0000     36.2874     62.2475
   279.2500   2000.0000   1983.0000     36.7588     61.2914
   279.5000   2000.0000   1983.0000     37.1632     58.6065
   279.7500   2000.0000   1983.0000     37.4581     56.3937
   280.0000   2000.0000   1983.0000     37.5972     53.6427
   280.2500   2000.0000   1983.0000     37.5439     52.6508
   280.5000   2000.0000   1983.0000     37.3004     52.2363
   280.7500   2000.0000   1983.0000     36.9146     52.2726
   281.0000   2000.0000   1983.0000     36.4509     52.5760
   281.2500   2000.0000   1983.0000     35.9482     53.2317
   281.5000   2000.0000   1983.0000     35.3997     55.4673
   281.7500   2000.0000   1983.0000     34.7644     57.8124
   282.0000   2000.0000   1983.0000     33.9955     62.1502
   282.2500   2000.0000   1983.0000     33.0632     65.3363
   282.5000   2000.0000   1983.0000     31.9601     70.5152
   282.7500   2000.0000   1983.0000     30.6938     74.3573
   283.0000   2000.0000   1983.0000     29.2842     80.9247
   283.2500   2000.0000   1983.0000     27.7724     85.9394
