~Version Information
VERS.                      2.0: CWLS Log ASCII Standard - VERSION 2.0
WRAP.                       NO: One line per depth step
~Well Information Block
STRT.FT               475.0000: 
STOP.FT              2336.7500: 
STEP.FT                 0.2500: 
NULL.                -999.2500: 
COMP.          Pioneer Natural Resources: COMPANY
WELL.              Bobsy 34-11: WELL
FLD.           Purgatoire River: FIELD
LOC.           1937' FEL & 451' FSL----: LOCATION
PROV.                 Colorado: PROVINCE
CNTY.               Las Animas: COUNTRY
SRVC.                Patterson: SERVICE COMPANY
DATE.          Fri Apr 08 05:21:25 2005: LOG DATE
UWI.           05 071 08330 00: UNIQUE WELL ID
~Curve Information Block
DEPT.FT            0 000 00 00: Depth
SN.Ohm-m                      : IEL Short Normal
SP.mV                         : IEL Spontaneous Potential
DIR.Ohm-m                     : IEL Induction Resistivity
GR.GAPI                       : Gamma Ray
~Parameter Information Block
~A  Depth        SN          SP         DIR          GR     
# ...
  2083.0000     35.2999   -122.0906     22.9047     80.5684
  2083.2500     36.1646   -123.7726     23.9317     70.9677
  2083.5000     37.1859   -125.3375     25.0111     57.2686
  2083.7500     38.3562   -126.6356     26.0899     49.3771
  2084.0000     39.5494   -127.5309     27.0966     40.1686
  2084.2500     40.5496   -127.9249     27.9439     36.2526
  2084.5000     41.1450   -127.7742     28.5481     34.8550
  2084.7500     41.2210   -127.0961     28.8576     37.4710
  2085.0000     40.7863   -125.9620     28.8772     46.5271
  2085.2500     39.9345   -124.4811     28.6676     54.9917
  2085.5000     38.7958   -122.7799     28.3180     68.9259
  2085.7500     37.5109   -120.9845     27.9082     77.9857
  2086.0000     36.2230   -119.2094     27.4863     90.5502
  2086.2500     35.0646   -117.5536     27.0733     98.1430
  2086.5000     34.1360   -116.1010     26.6859    107.8640
  2086.7500     33.4815   -114.9221     26.3564    112.8178
  2087.0000     33.0824   -114.0735     26.1354    117.7716
  2087.2500     32.8745   -113.5946     26.0765    119.6640
  2087.5000     32.7786   -113.5019     26.2121    120.4133
  2087.7500     32.7259   -113.7850     26.5355    119.0358
  2088.0000     32.6734   -114.4060     26.9964    113.6053
  2088.2500     32.6080   -115.3038     27.5144    108.3483
  2088.5000     32.5428   -116.4040     28.0042    100.1655
  2088.7500     32.5060   -117.6307     28.4011     95.3877
  2089.0000     32.5243   -118.9174     28.6740     89.2208
  2089.2500     32.6095   -120.2138     28.8269     85.4131
  2089.5000     32.7556   -121.4871     28.8908     80.1030
  2089.7500     32.9454   -122.7173     28.9079     77.0820
  2090.0000     33.1589   -123.8892     28.9138     73.4926
  2090.2500     33.3791   -124.9836     28.9278     71.5274
  2090.5000     33.5954   -125.9726     28.9564     68.8203
  2090.7500     33.8059   -126.8207     29.0028     67.1836
  2091.0000     34.0136   -127.4928     29.0705     65.3075
  2091.2500     34.2170   -127.9663     29.1606     64.5358
  2091.5000     34.4006   -128.2439     29.2689     63.8922
  2091.7500     34.5340   -128.3619     29.3897     63.6806
  2092.0000     34.5815   -128.3892     29.5221     63.8254
  2092.2500     34.5198   -128.4175     29.6705     64.4193
  2092.5000     34.3506   -128.5446     29.8359     66.0961
  2092.7500     34.0968   -128.8558     29.9995     67.4579
  2093.0000     33.7863   -129.4102     30.1105     69.1772
  2093.2500     33.4386   -130.2360     30.0896     69.9303
  2093.5000     33.0632   -131.3340     29.8522     70.9532
  2093.7500     32.6694   -132.6882     29.3478     72.2374
  2094.0000     32.2788   -134.2767     28.5965     76.3222
  2094.2500     31.9319   -136.0797     27.6994     80.8660
  2094.5000     31.6858   -138.0814     26.8091     89.8772
  2094.7500     31.6027   -140.2659     26.0777     96.2958
  2095.0000     31.7385   -142.6105     25.6140    103.9938
  2095.2500     32.1389   -145.0756     25.4699    106.3543
  2095.5000     32.8496   -147.5991     25.6512    103.9124
  2095.7500     33.9436   -150.0936     26.1386     97.9749
  2096.0000     35.5525   -152.4504     26.9079     83.8244
  2096.2500     37.8687   -154.5500     27.9441     72.5212
  2096.5000     41.0819   -156.2765     29.2456     55.9448
  2096.7500     45.2385   -157.5350     30.8143     46.5560
  2097.0000     50.0981   -158.2668     32.6347     36.1729
  2097.2500     55.1166   -158.4583     34.6509     31.8321
  2097.5000     59.6212   -158.1416     36.7583     28.7973
  2097.7500     63.0615   -157.3852     38.8069     28.8154
  2098.0000     65.1478   -156.2768     40.6061     31.7441
  2098.2500     65.8209   -154.9026     41.9306     35.6045
  2098.5000     65.1521   -153.3276     42.5547     43.7988
  2098.7500     63.2859   -151.5823     42.3303     50.3655
  2099.0000     60.4311   -149.6597     41.2568     61.4367
  2099.2500     56.8492   -147.5243     39.4804     69.9562
  2099.5000     52.8074   -145.1295     37.2257     85.5953
  2099.7500     48.5258   -142.4394     34.7173     98.3870
  2100.0000     44.1719   -139.4476     32.1366    120.6387
  2100.2500     39.9015   -136.1882     29.6167    136.1542
  2100.5000     35.8847   -132.7356     27.2537    156.2258
  2100.7500     32.2764   -129.1940     25.1160    164.5608
  2101.0000     29.1680   -125.6811     23.2437    166.3551
  2101.2500     26.5743   -122.3100     21.6472    160.9965
  2101.5000     24.4620   -119.1746     20.3098    148.1285
  2101.7500     22.7843   -116.3405     19.1960    139.8318
  2102.0000     21.4926   -113.8419     18.2605    131.3561
  2102.2500     20.5300   -111.6840     17.4573    128.4851
  2102.5000     19.8267   -109.8495     16.7501    126.5457
  2102.7500     19.3090   -108.3062     16.1207    125.5462
  2103.0000     18.9139   -107.0149     15.5693    123.2957
  2103.2500     18.5959   -105.9373     15.1058    121.4321
  2103.5000     18.3240   -105.0403     14.7398    118.8583
  2103.7500     18.0804   -104.2994     14.4752    117.3665
  2104.0000     17.8661   -103.6983     14.3109    114.7819
  2104.2500     17.7095   -103.2280     14.2447    112.4135
  2104.5000     17.6662   -102.8837     14.2757    107.7711
  2104.7500     17.8057   -102.6629     14.4059    104.0670
  2105.0000     18.1895   -102.5627     14.6411     97.5342
  2105.2500     18.8506   -102.5790     14.9925     92.3690
  2105.5000     19.7837   -102.7058     15.4763     83.6103
  2105.7500     20.9522   -102.9352     16.1113     77.7132
  2106.0000     22.3055   -103.2589     16.9146     70.2470
  2106.2500     23.7955   -103.6680     17.8988     66.8065
  2106.5000     25.3815   -104.1555     19.0693     64.0359
  2106.7500     27.0257   -104.7173     20.4214     63.3580
  2107.0000     28.6830   -105.3533     21.9330     63.3248
  2107.2500     30.2942   -106.0679     23.5569     63.8297
  2107.5000     31.7926   -106.8692     25.2153     65.4666
  2107.7500     33.1204   -107.7665     26.8081     66.9960
  2108.0000     34.2414   -108.7657     28.2362     69.1723
  2108.2500     35.1404   -109.8641     29.4299     70.0751
  2108.5000     35.8177   -111.0460     30.3654     70.2968
  2108.7500     36.2844   -112.2807     31.0606     69.9220
  2109.0000     36.5614   -113.5253     31.5621     69.5504
  2109.2500     36.6757   -114.7321     31.9348     69.9980
  2109.5000     36.6552   -115.8592     32.2495     71.8684
  2109.7500     36.5235   -116.8802     32.5628     73.4273
  2110.0000     36.2996   -117.7904     32.8927     74.9843
  2110.2500     35.9985   -118.6059     33.2072     74.9577
  2110.5000     35.6337   -119.3578     33.4429     73.2751
  2110.7500     35.2211   -120.0813     33.5455     71.6255
  2111.0000     34.7831   -120.8073     33.5065     69.8965
  2111.2500     34.3481   -121.5571     33.3657     70.0052
  2111.5000     33.9443   -122.3424     33.1807     72.4393
  2111.7500     33.5873   -123.1691     32.9921     75.1326
  2112.0000     33.2712   -124.0417     32.8151     79.3021
  2112.2500     32.9700   -124.9663     32.6564     81.3721
  2112.5000     32.6502   -125.9493     32.5290     82.9790
  2112.7500     32.2856   -126.9941     32.4486     83.3843
  2113.0000     31.8669   -128.0964     32.4165     83.7758
  2113.2500     31.4042   -129.2405     32.4111     84.0039
  2113.5000     30.9218   -130.3992     32.3930     84.0330
  2113.7500     30.4474   -131.5367     32.3190     83.9004
  2114.0000     30.0021   -132.6154     32.1561     84.1825
  2114.2500     29.5940   -133.6020     31.8943     85.0285
  2114.5000     29.2138   -134.4733     31.5538     87.0077
  2114.7500     28.8338   -135.2179     31.1756     88.3045
  2115.0000     28.4153   -135.8335     30.7956     89.5753
  2115.2500     27.9220   -136.3222     30.4188     89.9478
  2115.5000     27.3339   -136.6856     30.0147     90.2852
  2115.7500     26.6521   -136.9218     29.5351     90.7817
  2116.0000     25.8953   -137.0262     28.9383     92.3116
  2116.2500     25.0915   -136.9949     28.2004     93.6044
