~Version Information
VERS.                      2.0: CWLS Log ASCII Standard - VERSION 2.0
WRAP.                       NO: One line per depth step
~Well Information Block
STRT.FT               292.0000: 
STOP.FT               801.0000: 
STEP.FT                 0.1000: 
NULL.                -999.2500: 
COMP.          Pioneer Natural Resources: COMPANY
WELL.          HG Duran 34-27 Tr: WELL
FLD.           Purgatoire River: FIELD
LOC.           1076' FSL & 1465' FEL: LOCATION
PROV.                 Colorado: PROVINCE
CNTY.               Las Animas: COUNTRY
SRVC.                Patterson: SERVICE COMPANY
DATE.          Wed Apr 13 08:36:06 2005: LOG DATE
UWI.           05 071 08218 00: UNIQUE WELL ID
~Curve Information Block
DEPT.FT            0 000 00 00: Depth
DCAL.in                       : CDL Caliper
RHOB.g/cc                     : CDL Bulk Density
RHOC.g/cc                     : CDL Density Correction
DPOR.pu                       : CDL Density Porosity
GR.GAPI                       : Gamma Ray
NPOR.pu                       : Neutron Porosity
~Parameter Information Block
~A  Depth       DCAL        RHOB        RHOC        DPOR         GR         NPOR    
# ...
   724.0000      7.8834      2.3469      0.0082     18.3713     85.6524     17.2910
   724.1000      7.8834      2.3879      0.0008     15.8860     80.8634     17.0421
   724.2000      7.8834      2.4261      0.1094     13.5709     75.6015     16.7334
   724.3000      7.8879      2.4442      0.0454     12.4720     72.5574     16.4375
   724.4000      7.8879      2.4447      0.0282     12.4426     70.7276     16.5228
   724.5000      7.8890      2.4338      0.0661     13.1005     69.6341     16.9799
   724.6000      7.8890      2.4139      0.0214     14.3115     71.6829     17.5991
   724.7000      7.8890      2.3946      0.0583     15.4767     74.6184     18.1061
   724.8000      7.8897      2.3815      0.0451     16.2750     72.6175     18.2523
   724.9000      7.8897      2.3731      0.0304     16.7819     67.4349     18.0270
   725.0000      7.8905      2.3691      0.0055     17.0216     63.7932     17.7359
   725.1000      7.8905      2.3633      0.0352     17.3764     61.1468     17.6476
   725.2000      7.8905      2.3442     -0.0125     18.5331     60.0230     17.5448
   725.3000      7.8934      2.3235     -0.0748     19.7889     62.4145     17.1808
   725.4000      7.8934      2.3241     -0.0082     19.7494     66.4202     16.8827
   725.5000      7.8968      2.3435      0.0084     18.5776     67.7365     16.9913
   725.6000      7.8968      2.3671      0.0296     17.1429     64.5756     17.3140
   725.7000      7.8968      2.3894      0.0167     15.7921     59.5484     17.4960
   725.8000      7.9005      2.3964      0.0876     15.3671     56.8845     17.2548
   725.9000      7.9005      2.3730      0.0038     16.7888     58.5006     16.6261
   726.0000      7.8950      2.3354      0.0079     19.0646     63.2972     16.1233
   726.1000      7.8950      2.3148     -0.0409     20.3178     67.8147     16.0051
   726.2000      7.8950      2.3229     -0.0133     19.8250     70.1169     16.0467
   726.3000      7.9027      2.3418     -0.0078     18.6778     70.9848     16.1485
   726.4000      7.9027      2.3473      0.0105     18.3426     71.8645     16.4000
   726.5000      7.9003      2.3433     -0.0512     18.5904     72.6683     16.7419
   726.6000      7.9003      2.3483     -0.0000     18.2859     71.4335     16.9997
   726.7000      7.9003      2.3589      0.0463     17.6397     68.9409     17.0592
   726.8000      7.9050      2.3627      0.0384     17.4135     66.8772     16.7208
   726.9000      7.9050      2.3618      0.0104     17.4692     64.4481     16.2361
   727.0000      7.9064      2.3649     -0.0122     17.2797     62.2234     16.2389
   727.1000      7.9064      2.3697      0.0150     16.9904     60.6968     16.5892
   727.2000      7.9064      2.3661      0.0064     17.2032     58.0012     16.7055
   727.3000      7.9152      2.3615     -0.0290     17.4864     54.9911     16.5101
   727.4000      7.9152      2.3667      0.0353     17.1720     53.6768     16.2408
   727.5000      7.9189      2.3740      0.0338     16.7265     54.4602     16.0240
   727.6000      7.9189      2.3806      0.0344     16.3263     56.3764     15.9444
   727.7000      7.9189      2.3885      0.0286     15.8511     56.9440     15.9409
   727.8000      7.9032      2.3909      0.0252     15.7026     55.3878     15.8275
   727.9000      7.9032      2.3916     -0.0047     15.6633     53.5434     15.6606
   728.0000      7.8801      2.4024     -0.0227     15.0072     54.7937     15.7024
   728.1000      7.8801      2.4078      0.1540     14.6769     59.8565     15.9928
   728.2000      7.8801      2.3840      0.0389     16.1193     65.9417     16.1800
   728.3000      7.8892      2.3475      0.0424     18.3331     70.2841     15.9784
   728.4000      7.8892      2.3252     -0.0278     19.6874     70.7458     15.6832
   728.5000      7.8944      2.3301     -0.0198     19.3908     66.6471     15.6970
   728.6000      7.8944      2.3556      0.0328     17.8407     61.0263     15.8562
   728.7000      7.8944      2.3761      0.0180     16.5991     57.2310     15.8705
   728.8000      7.8962      2.3832     -0.0006     16.1667     56.9408     15.8967
   728.9000      7.8962      2.3881      0.0264     15.8740     59.9937     16.0692
   729.0000      7.8953      2.3898      0.0922     15.7670     63.0438     16.1272
   729.1000      7.8953      2.3768     -0.0039     16.5560     62.2723     15.8466
   729.2000      7.8953      2.3544     -0.0089     17.9140     57.8606     15.3943
   729.3000      7.8948      2.3333     -0.0067     19.1930     54.0120     15.1629
   729.4000      7.8948      2.3170     -0.0237     20.1845     54.0935     15.3520
   729.5000      7.8961      2.3162     -0.0220     20.2306     55.8493     15.7604
   729.6000      7.8961      2.3361     -0.0033     19.0222     55.4375     16.0862
   729.7000      7.8961      2.3558      0.0449     17.8299     54.1103     16.1256
   729.8000      7.9000      2.3512      0.0533     18.1111     55.1756     15.8594
   729.9000      7.9000      2.3351      0.0022     19.0844     56.7261     15.5882
   730.0000      7.9059      2.3421      0.0160     18.6584     56.6949     15.5416
   730.1000      7.9059      2.3719      0.0559     16.8546     58.1280     15.6417
   730.2000      7.9059      2.3915      0.0937     15.6673     62.2426     15.8187
   730.3000      7.9006      2.3879      0.0357     15.8825     64.2011     16.2119
   730.4000      7.9006      2.3837     -0.0239     16.1397     61.2976     16.9101
   730.5000      7.8734      2.4021      0.0075     15.0231     57.3981     17.5267
   730.6000      7.8734      2.4365      0.1020     12.9408     57.0459     17.5454
   730.7000      7.8734      2.4651      0.0679     11.2052     59.5754     17.1306
   730.8000      7.8671      2.4769      0.0703     10.4922     62.2727     17.0321
   730.9000      7.8671      2.4664      0.0361     11.1266     64.0824     17.6534
   731.0000      7.8544      2.4437     -0.0107     12.5059     64.9236     18.4818
   731.1000      7.8544      2.4330     -0.0046     13.1502     65.4158     18.7190
   731.2000      7.8544      2.4382      0.0803     12.8356     66.0855     18.3987
   731.3000      7.8774      2.4450      0.0317     12.4267     68.6076     18.1044
   731.4000      7.8774      2.4533     -0.0049     11.9211     73.1564     18.0025
   731.5000      7.8682      2.4690      0.0144     10.9680     75.3252     17.9550
   731.6000      7.8682      2.4751      0.0793     10.5976     71.9963     17.9741
   731.7000      7.8682      2.4544      0.0099     11.8545     66.5021     17.8995
   731.8000      7.8436      2.4187     -0.0088     14.0193     64.0152     17.6275
   731.9000      7.8436      2.3846     -0.0068     16.0843     64.8283     17.5308
   732.0000      7.8552      2.3590     -0.0344     17.6376     65.9921     17.9582
   732.1000      7.8552      2.3587     -0.0860     17.6541     65.8534     18.5217
   732.2000      7.8552      2.3968     -0.0362     15.3444     65.0529     18.6488
   732.3000      7.8585      2.4476      0.0636     12.2676     66.2696     18.6005
   732.4000      7.8585      2.4814      0.0248     10.2199     71.3284     18.8154
   732.5000      7.8451      2.5021      0.0606      8.9610     79.4014     19.0127
   732.6000      7.8451      2.5158      0.0764      8.1308     88.3712     18.9207
   732.7000      7.8451      2.5218      0.0309      7.7716     94.0882     18.7733
   732.8000      7.8586      2.5150      0.0785      8.1826     94.0732     18.7576
   732.9000      7.8586      2.4889      0.0194      9.7648     93.2837     18.6773
   733.0000      7.8540      2.4538      0.0630     11.8899     94.5778     18.2905
   733.1000      7.8540      2.4166      0.0078     14.1474     93.8119     17.9325
   733.2000      7.8540      2.3753      0.0202     16.6473     90.7137     17.8687
   733.3000      7.8483      2.3448     -0.0308     18.4978     89.1267     17.8167
   733.4000      7.8483      2.3461     -0.0559     18.4189     90.8991     17.6375
   733.5000      7.8418      2.3763     -0.0365     16.5861     95.8014     17.7128
