~Version Information
VERS.                      2.0: CWLS Log ASCII Standard - VERSION 2.0
WRAP.                       NO: One line per depth step
~Well Information Block
STRT.FT               -12.5000: 
STOP.FT              2742.5000: 
STEP.FT                 0.2500: 
NULL.                -999.2500: 
COMP.          Pioneer Natural Resources: COMPANY
WELL.            Rangely 22-28: WELL
FLD.           Purgatorie River: FIELD
LOC.           720' FSL & 1036' FEL--: LOCATION
PROV.                       CO: PROVINCE
CNTY.               Las Animas: COUNTRY
SRVC.                         : SERVICE COMPANY
DATE.          Wed Nov 10 08:59:10 2004: LOG DATE
UWI.                          : UNIQUE WELL ID
~Curve Information Block
DEPT.FT            0 000 00 00: Depth
GR.GAPI                       : Gamma Ray
CCL.                          : Casing Collar Locator
TT3.usec                      : CBL 3' Travel Time
AMP3.mV                       : CBL 3' Amplitude
~Parameter Information Block
~A  Depth        GR         CCL         TT3         AMP3    
# ...
  2332.5000    101.0300      0.0000    499.0052     32.8957
  2332.7500     93.3011      0.0000    398.8253     40.3854
  2333.0000     89.3028      0.0000    326.4228     47.3866
  2333.2500     89.2869      0.0000    285.6399     53.1483
  2333.5000     92.4770      0.0000    267.6841     57.3792
  2333.7500     97.3238      0.0000    261.4890     60.2135
  2334.0000    101.3626      0.0000    259.8054     62.0036
  2334.2500    102.2038      0.0000    259.4451     63.1193
  2334.5000     99.4202      0.0000    259.3795     63.8406
  2334.7500     94.7287      0.0000    259.3705     64.3398
  2335.0000     89.9609      0.0000    259.3614     64.7069
  2335.2500     85.7693      0.0000    259.3505     64.9796
  2335.5000     82.6200      0.0000    259.3408     65.1699
  2335.7500     81.7615      0.0000    259.3339     65.2938
  2336.0000     84.2776      0.0000    259.3276     65.3849
  2336.2500     89.7675      0.0000    259.3188     65.4796
  2336.5000     96.5843      0.0000    259.3078     65.5932
  2336.7500    103.1314      0.0000    259.2996     65.7205
  2337.0000    108.5577      0.0000    259.2991     65.8543
  2337.2500    112.4465      0.0000    259.3077     65.9992
  2337.5000    114.4810      0.0000    259.3220     66.1653
  2337.7500    114.9254      0.0000    259.3367     66.3560
  2338.0000    115.3234      0.0000    259.3480     66.5692
  2338.2500    117.9333      0.0000    259.3561     66.8114
  2338.5000    123.7136      0.0000    259.3662     67.0935
  2338.7500    130.8900      0.0000    259.3846     67.4049
  2339.0000    136.0991      0.0000    259.4129     67.6985
  2339.2500    137.1611      0.0000    259.4470     67.9166
  2339.5000    134.5520      0.0000    259.4808     68.0281
  2339.7500    130.1833      0.0000    259.5126     68.0343
  2340.0000    125.1305      0.0000    259.5462     67.9457
  2340.2500    118.8105      0.0000    259.5863     67.7673
  2340.5000    110.1350      0.0000    259.6355     67.5075
  2340.7500     99.0526      0.0000    259.6931     67.1958
  2341.0000     87.0146      0.0000    259.7560     66.8881
  2341.2500     76.4375      0.0000    259.8172     66.6569
  2341.5000     69.7673      0.0000    259.8657     66.5615
  2341.7500     68.4609      0.0000    259.8900     66.6125
  2342.0000     72.3589      0.0000    259.8847     66.7638
  2342.2500     79.9083      0.0000    259.8537     66.9439
  2342.5000     88.8689      0.0000    259.8046     67.0952
  2342.7500     96.9512      0.0000    259.7419     67.1811
  2343.0000    102.4483      0.0000    259.6668     67.1631
  2343.2500    104.8120      0.0000    259.5836     66.9898
  2343.5000    104.7788      0.0000    259.5007     66.6205
  2343.7500    103.7657      0.0000    259.4268     66.0429
  2344.0000    102.9320      0.0000    259.3714     65.2510
  2344.2500    102.7634      0.0000    259.3491     64.2178
  2344.5000    103.5195      0.0000    259.3775     62.9161
  2344.7500    105.6947      0.0000    259.4641     61.3688
  2345.0000    109.6022      0.0000    259.5968     59.6654
  2345.2500    114.5654      0.0000    259.7516     57.9229
  2345.5000    118.8394      0.0000    259.9091     56.2243
  2345.7500    120.4922      0.0000    260.0656     54.5887
  2346.0000    118.5229      0.0000    260.2332     52.9920
  2346.2500    113.5286      0.0000    260.4330     51.4092
  2346.5000    107.4205      0.0000    260.6894     49.8307
  2346.7500    102.2211      0.0000    261.0226     48.2559
  2347.0000     98.7945      0.0000    261.4307     46.7086
  2347.2500     96.6663      0.0000    261.8718     45.2693
  2347.5000     95.0906      0.0000    262.2735     44.0635
  2347.7500     94.1013      0.0000    262.5727     43.1881
  2348.0000     94.3087      0.0000    262.7535     42.6416
  2348.2500     95.7873      0.0000    262.8536     42.3207
  2348.5000     97.4882      0.0000    262.9427     42.0839
  2348.7500     97.8411      0.0000    263.1204     41.8292
  2349.0000     95.8932      0.0000    263.5841     41.5304
  2349.2500     92.1222      0.0000    264.7814     41.2051
  2349.5000     88.3356      0.0000    267.4761     40.8523
  2349.7500     86.5192      0.0000    272.4106     40.4262
  2350.0000     87.4003      0.0000    279.5564     39.8736
  2350.2500     90.0241      0.0000    287.6647     39.1901
  2350.5000     92.7707      0.0000    294.8590     38.4381
  2350.7500     94.8329      0.0000    299.8552     37.7112
  2351.0000     96.7822      0.0000    302.5775     37.0849
  2351.2500     99.7694      0.0000    303.7433     36.5895
  2351.5000    104.0889      0.0000    304.1339     36.2057
  2351.7500    108.3989      0.0000    304.2355     35.8751
  2352.0000    110.3932      0.0000    304.2603     35.5327
  2352.2500    108.5991      0.0000    304.2716     35.1468
  2352.5000    103.7469      0.0000    304.2741     34.7278
  2352.7500     98.3234      0.0000    304.2646     34.2943
  2353.0000     94.7613      0.0000    304.2516     33.8410
  2353.2500     93.9390      0.0000    304.2535     33.3406
  2353.5000     94.9237      0.0000    304.2797     32.7690
  2353.7500     95.9389      0.0000    304.3185     32.1265
  2354.0000     95.8011      0.0000    304.3482     31.4364
  2354.2500     94.4391      0.0000    304.3618     30.7195
  2354.5000     92.0547      0.0000    304.3778     29.9702
  2354.7500     88.4958      0.0000    304.4239     29.1617
  2355.0000     83.9640      0.0000    304.5145     28.2708
  2355.2500     79.6473      0.0000    304.6454     27.2957
  2355.5000     76.8805      0.0000    304.8090     26.2574
  2355.7500     75.9694      0.0000    305.0162     25.1929
  2356.0000     76.2200      0.0000    305.3069     24.1398
  2356.2500     76.5979      0.0000    305.7286     23.1285
  2356.5000     76.0715      0.0000    306.2775     22.1928
  2356.7500     74.1588      0.0000    306.8517     21.3823
  2357.0000     71.6495      0.0000    307.2776     20.7462
  2357.2500     70.0526      0.0000    307.4116     20.2997
  2357.5000     69.9188      0.0000    307.2341     20.0117
  2357.7500     70.3051      0.0000    306.8564     19.8256
  2358.0000     70.1095      0.0000    306.4363     19.6945
  2358.2500     69.3140      0.0000    306.0796     19.6049
  2358.5000     68.6557      0.0000    305.8048     19.5849
  2358.7500     68.5697      0.0000    305.5748     19.7027
  2359.0000     68.8381      0.0000    305.3444     20.0583
  2359.2500     69.0886      0.0000    305.0918     20.7622
  2359.5000     69.1720      0.0000    304.8213     21.8972
  2359.7500     69.0653      0.0000    304.5415     23.4761
  2360.0000     68.8729      0.0000    304.2086     25.4232
  2360.2500     69.0593      0.0000    303.6309     27.6196
  2360.5000     70.2777      0.0000    302.3333     30.0125
  2360.7500     72.7700      0.0000    299.5138     32.7096
  2361.0000     76.0670      0.0000    294.3906     35.9370
  2361.2500     79.1218      0.0000    286.9680     39.8480
  2361.5000     80.5474      0.0000    278.5258     44.3128
  2361.7500     79.0983      0.0000    271.0577     48.8414
  2362.0000     74.4318      0.0000    266.0234     52.7286
  2362.2500     67.5179      0.0000    263.6359     55.4062
  2362.5000     60.2833      0.0000    263.1790     56.7846
  2362.7500     54.6350      0.0000    263.7261     57.2661
  2363.0000     51.4304      0.0000    264.5800     57.3843
  2363.2500     50.2567      0.0000    265.3541     57.4201
  2363.5000     50.2309      0.0000    265.8980     57.3692
  2363.7500     50.8583      0.0000    266.2014     57.2113
  2364.0000     52.0577      0.0000    266.3134     57.0694
  2364.2500     53.6042      2.0000    266.2933     57.0611
  2364.5000     54.7716      0.0000    266.1747     57.0923
  2364.7500     54.6233      0.0000    265.9377     56.9132
  2365.0000     52.6863      0.0000    265.5014     56.4503
  2365.2500     49.3118      0.0000    264.7653     56.1209
  2365.5000     45.3847      0.0000    263.7062     56.7158
  2365.7500     41.7568      0.0000    262.4569     58.7941
