~Version Information
VERS.                      2.0: CWLS Log ASCII Standard - VERSION 2.0
WRAP.                       NO: One line per depth step
~Well Information Block
STRT.FT                 0.5000: 
STOP.FT              1575.0000: 
STEP.FT                 0.2500: 
NULL.                -999.2500: 
COMP.          Evergreen Operating Corporation: COMPANY
WELL.                Eric 42-9: WELL
FLD.           Purgatorie River: FIELD
LOC.           2050' FNL & 850' FEL: LOCATION
PROV.                 Colorado: PROVINCE
CNTY.               Las Animas: COUNTRY
SRVC.                         : SERVICE COMPANY
DATE.          Tue Nov 09 16:28:59 2004: LOG DATE
UWI.           05 071 07999 00: UNIQUE WELL ID
~Curve Information Block
DEPT.FT            0 000 00 00: Depth
LTEN.lb                       : Surface Line Tension
TT3.usec                      : CBL 3' Travel Time
AMP3.mV                       : CBL 3' Amplitude
ATT3.db/ft                    : CBL 3' Attenuation
GR.GAPI                       : Gamma Ray
CCL.                          : Casing Collar Locator
~Parameter Information Block
~A  Depth       LTEN        TT3         AMP3        ATT3         GR         CCL     
     0.5000   -999.2500   -999.2500   -999.2500   -999.2500   -999.2500   -999.2500
     0.7500   -999.2500   -999.2500   -999.2500   -999.2500   -999.2500     -3.0000
     1.0000   -999.2500   -999.2500   -999.2500   -999.2500   -999.2500     -3.0000
     1.2500   -999.2500   -999.2500   -999.2500   -999.2500   -999.2500      0.0000
     1.5000   -999.2500   -999.2500   -999.2500   -999.2500   -999.2500      0.0000
     1.7500   -999.2500   -999.2500   -999.2500   -999.2500   -999.2500      0.0000
     2.0000   -999.2500   -999.2500   -999.2500   -999.2500   -999.2500      0.0000
     2.2500   -999.2500   -999.2500   -999.2500   -999.2500   -999.2500      0.0000
     2.5000   -999.2500   -999.2500   -999.2500   -999.2500   -999.2500      0.0000
     2.7500   -999.2500   -999.2500   -999.2500   -999.2500   -999.2500      0.0000
     3.0000   -999.2500   -999.2500   -999.2500   -999.2500   -999.2500      0.0000
     3.2500   -999.2500   -999.2500   -999.2500   -999.2500   -999.2500      0.0000
     3.5000   -999.2500   -999.2500   -999.2500   -999.2500   -999.2500      0.0000
     3.7500   -999.2500   -999.2500   -999.2500   -999.2500     56.6611      0.0000
     4.0000   -999.2500   -999.2500   -999.2500   -999.2500     55.8222      0.0000
     4.2500   -999.2500   -999.2500   -999.2500   -999.2500     54.7720      0.0000
     4.5000   -999.2500   -999.2500   -999.2500   -999.2500     53.7873      0.0000
     4.7500   -999.2500   -999.2500   -999.2500   -999.2500     53.0275      0.0000
     5.0000   -999.2500   -999.2500   -999.2500   -999.2500     52.5521      0.0000
     5.2500   -999.2500   -999.2500   -999.2500   -999.2500     52.3243      0.0000
     5.5000   -999.2500   -999.2500   -999.2500   -999.2500     52.2611      0.0000
     5.7500   -999.2500   -999.2500   -999.2500   -999.2500     52.4221      0.0000
     6.0000   -999.2500   -999.2500   -999.2500   -999.2500     53.1229      0.0000
     6.2500   -999.2500   -999.2500   -999.2500   -999.2500     54.7181      0.0000
     6.5000   -999.2500   -999.2500   -999.2500   -999.2500     57.1812      0.0000
     6.7500   -999.2500   -999.2500   -999.2500   -999.2500     59.8938      0.0000
     7.0000   -999.2500   -999.2500   -999.2500   -999.2500     61.8428      0.0000
     7.2500   -999.2500   -999.2500   -999.2500   -999.2500     62.0696      0.0000
     7.5000   -999.2500   -999.2500   -999.2500   -999.2500     60.2480      0.0000
     7.7500   -999.2500   -999.2500   -999.2500   -999.2500     57.1175      0.0000
     8.0000   -999.2500   -999.2500   -999.2500   -999.2500     54.1860      0.0000
     8.2500   -999.2500   -999.2500   -999.2500   -999.2500     52.6968      0.0000
     8.5000   -999.2500   -999.2500   -999.2500   -999.2500     52.9291      0.0000
     8.7500   -999.2500   -999.2500   -999.2500   -999.2500     54.5372      0.0000
     9.0000   -999.2500   -999.2500   -999.2500   -999.2500     57.0763      0.0000
     9.2500   -999.2500   -999.2500   -999.2500   -999.2500     59.8701      0.0000
     9.5000   -999.2500   -999.2500   -999.2500   -999.2500     61.8703      0.0000
     9.7500   -999.2500   -999.2500   -999.2500   -999.2500     62.2884      0.0000
    10.0000   -999.2500   -999.2500   -999.2500   -999.2500     61.2803      0.0000
    10.2500   -999.2500    298.9226     76.5490     -0.6194     59.7059      0.0000
    10.5000   -999.2500    296.5800     70.0864     -0.8748     58.3751      0.0000
    10.7500   -999.2500    296.9057     62.7538     -1.1948     57.7542      0.0000
    11.0000   -999.2500    298.8635     55.1925     -1.5665     58.0378      0.0000
    11.2500   -999.2500    303.6097     47.8062     -1.9825     59.0849      0.0000
    11.5000   -999.2500    314.1531     40.8791     -2.4357     60.3640      0.0000
    11.7500   -999.2500    336.0036     34.6274     -2.9162     61.1663      0.0000
    12.0000   -999.2500    376.9410     29.1809     -3.4117     60.9806      0.0000
    12.2500   -999.2500    443.0096     24.5601     -3.9108     59.8327      0.0000
    12.5000   -999.2500    530.3027     20.7152     -4.4038     58.4234      0.0000
    12.7500   -999.2500    619.6627     17.6026     -4.8752     57.8521      0.0000
    13.0000   -999.2500    683.8588     15.2195     -5.2964     58.9563      0.0000
    13.2500   -999.2500    705.4058     13.5578     -5.6311     61.8958      0.0000
    13.5000   -999.2500    690.4290     12.5321     -5.8589     66.4472      0.0000
    13.7500   -999.2500    665.6924     11.9667     -5.9925     72.4472      0.0000
    14.0000   -999.2500    660.0952     11.6568     -6.0685     79.5687      0.0000
    14.2500   -999.2500    685.7230     11.4465     -6.1212     86.7841      0.0000
    14.5000   -999.2500    733.7916     11.2594     -6.1689     92.5312      0.0000
    14.7500   -999.2500    785.8007     11.0781     -6.2159     95.6731      0.0000
    15.0000   -999.2500    827.0979     10.9108     -6.2600     96.2629      0.0000
    15.2500   -999.2500    852.6989     10.7647     -6.2990     95.3311      0.0000
    15.5000   -999.2500    865.8871     10.6277     -6.3361     93.9232      0.0000
    15.7500   -999.2500    874.4568     10.4702     -6.3793     92.3782      0.0000
    16.0000   -999.2500    886.2457     10.2781     -6.4329     90.5169      0.0000
    16.2500   -999.2500    904.5685     10.0910     -6.4862     88.3104      0.0000
    16.5000   -999.2500    926.6307      9.9957     -6.5136     86.1094      0.0000
    16.7500   -999.2500    946.7031     10.0585     -6.4955     84.3501      0.0000
    17.0000   -999.2500    960.6740     10.2444     -6.4425     83.2862      0.0000
    17.2500   -999.2500    967.0963     10.4137     -6.3950     82.9099      0.0000
    17.5000    373.8597    965.2065     10.4288     -6.3908     82.9252      0.0000
    17.7500    378.9866    954.2926     10.2772     -6.4332     82.9426      0.0000
    18.0000    382.5995    936.4336     10.0694     -6.4923     82.9112      0.0000
    18.2500    383.6143    919.0641      9.9186     -6.5360     83.2631      0.0000
    18.5000    382.4408    912.1182      9.8492     -6.5564     84.5332      0.0000
    18.7500    380.2163    920.3829      9.8147     -6.5665     87.0216      0.0000
    19.0000    377.8805    938.8771      9.7691     -6.5800     90.8138      0.0000
    19.2500    376.1335    956.6024      9.7128     -6.5967     95.6887      0.0000
    19.5000    375.7800    964.4093      9.6922     -6.6029    100.8459      0.0000
    19.7500    377.3311    958.2694      9.7584     -6.5832    105.1780      0.0000
    20.0000    380.1656    936.1975      9.9110     -6.5382    108.0782      0.0000
    20.2500    382.6051    895.9627     10.0833     -6.4884    109.7369      0.0000
    20.5000    382.9147    839.1628     10.1944     -6.4566    110.5812      0.0000
    20.7500    380.1683    777.5525     10.2129     -6.4514    110.7252      0.0000
    21.0000    374.6789    732.8444     10.1591     -6.4667    109.9892      0.0000
    21.2500    368.0795    727.4509     10.0603     -6.4950    108.0865      0.0000
    21.5000    362.5322    771.3115      9.9264     -6.5338    104.7063      0.0000
    21.7500    359.3359    854.3098      9.7627     -6.5819     99.8423      0.0000
    22.0000    358.1819    951.8649      9.5811     -6.6363     94.3187      0.0000
    22.2500    357.6671   1038.7200      9.3971     -6.6924     89.7649      0.0000
    22.5000    356.3869   1097.3823      9.2211     -6.7472     87.6907      0.0000
    22.7500    353.7455   1119.3167      9.0519     -6.8008     88.3323      0.0000
    23.0000    350.0786   1107.1055      8.8790     -6.8566     90.3093      0.0000
    23.2500    346.2707   1075.3265      8.6965     -6.9167     91.5591      0.0000
    23.5000    343.4018   1042.4902      8.5173     -6.9770     90.8452      0.0000
    23.7500    342.6981   1019.6338      8.3658     -7.0290     88.4375      0.0000
    24.0000    345.1869   1007.1786      8.2528     -7.0684     85.4048      0.0000
    24.2500    350.5985   1000.0606      8.1626     -7.1002     82.6237      0.0000
