~Version Information
VERS.                      2.0: CWLS Log ASCII Standard - VERSION 2.0
WRAP.                       NO: One line per depth step
~Well Information Block
STRT.FT               380.0000: 
STOP.FT               899.2000: 
STEP.FT                 0.1000: 
NULL.                -999.2500: 
COMP.          Pioneer Natural Resources: COMPANY
WELL.          Prospector 12-19: WELL
FLD.           Purgatoire River: FIELD
LOC.           2262' FNL & 634' FWL: LOCATION
PROV.                 Colorado: PROVINCE
CNTY.               Las Animas: COUNTRY
SRVC.                Patterson: SERVICE COMPANY
DATE.          Mon Apr 25 09:33:09 2005: LOG DATE
UWI.           05 071 08191 00: UNIQUE WELL ID
~Curve Information Block
DEPT.FT            0 000 00 00: Depth
DCAL.in                       : CDL Caliper
RHOB.g/cc                     : CDL Bulk Density
RHOC.g/cc                     : CDL Density Correction
DPOR.pu                       : CDL Density Porosity
GR.GAPI                       : Gamma Ray
NPOR.pu                       : Neutron Porosity
~Parameter Information Block
~A  Depth       DCAL        RHOB        RHOC        DPOR         GR         NPOR    
# ...
   581.6000      7.8889      2.3759      0.0718     16.6104     37.4152     12.8312
   581.7000      7.8889      2.3659      0.0879     17.2204     36.4377     12.6140
   581.8000      7.8546      2.3623      0.0976     17.4349     35.0572     12.5933
   581.9000      7.8546      2.3579      0.1047     17.7029     31.4689     12.6697
   582.0000      7.8063      2.3573      0.0918     17.7396     29.7954     12.5516
   582.1000      7.8063      2.3604      0.1599     17.5520     32.5231     12.2772
   582.2000      7.8063      2.3532      0.1478     17.9875     35.4471     12.1703
   582.3000      7.8592      2.3247      0.1136     19.7166     34.8229     12.4113
   582.4000      7.8592      2.2851      0.0422     22.1164     33.9845     12.5627
   582.5000      7.8800      2.2548      0.0797     23.9545     36.4642     12.1851
   582.6000      7.8800      2.2431      0.0185     24.6579     38.5233     11.6351
   582.7000      7.8800      2.2481      0.0395     24.3577     35.7763     11.2492
   582.8000      7.9228      2.2638      0.0497     23.4040     30.2272     11.1065
   582.9000      7.9228      2.2973      0.0492     21.3759     24.9824     11.2351
   583.0000      7.9713      2.3606      0.0900     17.5372     21.3453     11.4108
   583.1000      7.9713      2.4417      0.1619     12.6244     21.1335     11.0703
   583.2000      7.9713      2.5089      0.2091      8.5507     24.8144     10.1679
   583.3000      7.9355      2.5409      0.2508      6.6130     27.7333      9.1496
   583.4000      7.9355      2.5398      0.1724      6.6789     24.6388      8.2187
   583.5000      7.8930      2.5188      0.1495      7.9486     17.9691      7.5739
   583.6000      7.8930      2.4844      0.0774     10.0353     14.8994      7.4116
   583.7000      7.8930      2.4440      0.0133     12.4869     17.1420      7.5588
   583.8000      7.8829      2.4088      0.0009     14.6208     20.4784      7.6484
   583.9000      7.8829      2.3781      0.0514     16.4803     22.7682      7.5981
   584.0000      7.9186      2.3572     -0.0721     17.7467     25.1784      7.6909
   584.1000      7.9186      2.3683     -0.0447     17.0749     27.4142      8.1068
   584.2000      7.9186      2.4069      0.0431     14.7332     28.1947      8.5284
   584.3000      7.9395      2.4480      0.0400     12.2412     28.6335      8.7245
   584.4000      7.9395      2.4833      0.0881     10.1036     31.1041      8.9996
   584.5000      7.9377      2.5161      0.0913      8.1156     36.1277      9.6645
   584.6000      7.9377      2.5408      0.1810      6.6198     40.3750     10.5746
   584.7000      7.9377      2.5369      0.2098      6.8539     40.9678     11.4002
   584.8000      7.9419      2.5032      0.1194      8.8986     40.7269     11.9403
   584.9000      7.9419      2.4628      0.0971     11.3454     43.3756     12.1406
   585.0000      7.9231      2.4289      0.0519     13.3996     47.1303     12.2971
   585.1000      7.9231      2.3954      0.0020     15.4304     47.0885     12.8628
   585.2000      7.9231      2.3577     -0.0230     17.7142     44.2214     13.8714
   585.3000      7.9467      2.3313     -0.0190     19.3169     43.5730     14.7822
   585.4000      7.9467      2.3343      0.0458     19.1361     43.5166     15.5026
   585.5000      7.9725      2.3554      0.0558     17.8553     42.9696     16.3904
   585.6000      7.9725      2.3646      0.0778     17.2987     46.2108     16.7246
   585.7000      7.9725      2.3590      0.0262     17.6363     50.2008     16.2322
   585.8000      7.9640      2.3646      0.0327     17.2984     48.7728     15.9712
   585.9000      7.9640      2.3928      0.1112     15.5900     43.6930     15.9896
   586.0000      7.9439      2.4252      0.1298     13.6215     40.6979     15.5452
   586.1000      7.9439      2.4385      0.1209     12.8201     41.8875     14.6546
   586.2000      7.9439      2.4289      0.1282     13.3977     43.9171     13.9942
   586.3000      7.9325      2.4128      0.0817     14.3728     43.2375     13.7205
   586.4000      7.9325      2.4059      0.0522     14.7944     39.5192     13.5518
   586.5000      7.9162      2.4030      0.0628     14.9678     35.2694     13.5507
   586.6000      7.9162      2.3919      0.0849     15.6403     32.5675     13.6785
   586.7000      7.9162      2.3758      0.0599     16.6196     31.6543     13.6702
   586.8000      7.9135      2.3623      0.1006     17.4373     32.2383     13.4927
   586.9000      7.9135      2.3504      0.0619     18.1596     33.1221     13.1944
   587.0000      7.9517      2.3383      0.0368     18.8883     33.0581     12.9957
   587.1000      7.9517      2.3276      0.0530     19.5404     33.2552     13.3583
   587.2000      7.9517      2.3181      0.0422     20.1154     35.1938     14.3931
   587.3000      7.9575      2.3155      0.0204     20.2723     37.4559     15.1973
   587.4000      7.9575      2.3274      0.0442     19.5505     38.4471     15.2360
   587.5000      8.0023      2.3422      0.1357     18.6536     38.8084     15.4740
   587.6000      8.0023      2.3456      0.1111     18.4514     39.0259     16.1508
   587.7000      8.0023      2.3451      0.1212     18.4816     39.9085     16.5732
   587.8000      7.9609      2.3539      0.0892     17.9463     42.4978     17.2655
   587.9000      7.9609      2.3814      0.0771     16.2792     46.1737     19.0157
   588.0000      7.9249      2.4263      0.1021     13.5564     49.3122     20.6291
   588.1000      7.9249      2.4675      0.1528     11.0610     50.5636     21.0444
   588.2000      7.9249      2.4894      0.1023      9.7335     49.9205     21.1969
   588.3000      7.9364      2.4993      0.1436      9.1332     51.0431     21.9723
   588.4000      7.9364      2.5056      0.0943      8.7488     57.5880     23.2509
   588.5000      7.9710      2.5143      0.0525      8.2224     66.7055     24.4413
   588.6000      7.9710      2.5274      0.0609      7.4295     73.9628     25.2844
   588.7000      7.9710      2.5368      0.0533      6.8586     81.7214     26.0374
   588.8000      7.9237      2.5377      0.0499      6.8081     88.9187     26.5562
   588.9000      7.9237      2.5329      0.0986      7.0964     86.4743     26.3737
   589.0000      7.9166      2.5222      0.1283      7.7462     76.9381     26.1644
   589.1000      7.9166      2.5127      0.0864      8.3222     72.8867     26.8594
   589.2000      7.9166      2.5194      0.1073      7.9174     77.1812     27.8100
   589.3000      7.8953      2.5342      0.1500      7.0202     83.1618     27.9428
   589.4000      7.8953      2.5437      0.0768      6.4430     86.2854     27.3160
   589.5000      7.8601      2.5552      0.0934      5.7464     86.0915     26.8526
   589.6000      7.8601      2.5706      0.1378      4.8140     83.9557     26.9329
   589.7000      7.8601      2.5833      0.1116      4.0428     82.2757     27.2619
   589.8000      7.8740      2.5967      0.0555      3.2331     81.2606     28.0011
   589.9000      7.8740      2.6093      0.1340      2.4694     78.3955     29.2955
   590.0000      7.9195      2.6074      0.1370      2.5840     75.4646     30.3809
   590.1000      7.9195      2.5847      0.0987      3.9589     76.0777     30.2174
   590.2000      7.9195      2.5473      0.0935      6.2272     78.3226     28.8756
   590.3000      7.9547      2.5136      0.0155      8.2640     78.8202     27.7170
   590.4000      7.9547      2.4971      0.0124      9.2655     79.9792     27.3638
   590.5000      7.9641      2.4888      0.0597      9.7675     85.4538     27.0445
   590.6000      7.9641      2.4795      0.0453     10.3361     92.5849     26.4775
   590.7000      7.9641      2.4716      0.0362     10.8120     95.5757     26.3104
   590.8000      7.9675      2.4650      0.0574     11.2097     94.3824     26.9860
   590.9000      7.9675      2.4491      0.0570     12.1759     92.7931     27.8006
   591.0000      7.9461      2.4141      0.0477     14.2995     92.5988     27.7028
   591.1000      7.9461      2.3664      0.0706     17.1858     96.9557     27.2781
