~Version Information
VERS.                      2.0: CWLS Log ASCII Standard - VERSION 2.0
WRAP.                       NO: One line per depth step
~Well Information Block
STRT.FT                -7.2500: 
STOP.FT              2827.7500: 
STEP.FT                 0.2500: 
NULL.                -999.2500: 
COMP.          Pioneer Natural Resources: COMPANY
WELL.           Ei-ei-oh 31-24: WELL
FLD.           Purgatorie River: FIELD
LOC.           235' FNL & 2001' FEL--: LOCATION
PROV.                       CO: PROVINCE
CNTY.               Las Animas: COUNTRY
SRVC.          Patterson Wireline: SERVICE COMPANY
DATE.          Tue Aug 23 12:06:00 2005: LOG DATE
UWI.           05 071 08403 00: UNIQUE WELL ID
~Curve Information Block
DEPT.FT            0 000 00 00: Depth
CCL.                          : Casing Collar Locator
TT3.usec                      : CBL 3' Travel Time
AMP3.mV                       : CBL 3' Amplitude
GR.GAPI                       : Gamma Ray
~Parameter Information Block
~A  Depth       CCL         TT3         AMP3         GR     
# ...
  2438.2500      0.0000    676.2120      5.1695     83.9905
  2438.5000      0.0000    678.7446      5.4182     79.1126
  2438.7500      0.0000    675.9119      5.6041     76.6253
  2439.0000      0.0000    670.8971      5.6229     76.9409
  2439.2500      0.0000    667.4432      5.4490     79.7926
  2439.5000      0.0000    667.7958      5.1766     84.3224
  2439.7500      0.0000    671.8675      4.9353     89.6540
  2440.0000      0.0000    677.6766      4.7857     95.4590
  2440.2500      0.0000    682.7241      4.7092    101.8005
  2440.5000      0.0000    685.0338      4.6596    108.3312
  2440.7500      0.0000    683.2199      4.5984    113.7440
  2441.0000      0.0000    676.8220      4.5004    116.3757
  2441.2500      0.0000    667.2374      4.3569    115.6242
  2441.5000      0.0000    657.2170      4.1829    112.5246
  2441.7500      0.0000    648.8024      4.0126    108.7710
  2442.0000      0.0000    642.5349      3.8804    105.6858
  2442.2500      0.0000    638.7106      3.8002    104.3625
  2442.5000      0.0000    638.2465      3.7621    105.6751
  2442.7500      0.0000    641.8157      3.7483    109.1915
  2443.0000      0.0000    648.3864      3.7493    112.8702
  2443.2500      0.0000    654.8578      3.7646    114.7462
  2443.5000      0.0000    657.6144      3.7923    114.3628
  2443.7500      0.0000    655.1310      3.8231    112.1904
  2444.0000      0.0000    649.2608      3.8444    108.6693
  2444.2500      0.0000    643.7498      3.8513    104.4318
  2444.5000      0.0000    641.3378      3.8515    100.5238
  2444.7500      0.0000    642.2018      3.8587     97.6968
  2445.0000      0.0000    644.9074      3.8766     95.9295
  2445.2500      0.0000    648.2477      3.8944     94.9517
  2445.5000      0.0000    651.5953      3.8978     94.6737
  2445.7500      0.0000    653.8033      3.8830     94.9482
  2446.0000      0.0000    652.9153      3.8543     95.4751
  2446.2500      0.0000    647.5233      3.8144     96.1976
  2446.5000      0.0000    638.1605      3.7642     97.3499
  2446.7500      0.0000    627.4028      3.7140     98.7951
  2447.0000      0.0000    618.6885      3.6884     99.5090
  2447.2500      0.0000    614.5046      3.7161     98.1434
  2447.5000      0.0000    615.0765      3.8153     94.3204
  2447.7500      0.0000    618.6471      3.9922     89.3190
  2448.0000      0.0000    623.1107      4.2476     85.2938
  2448.2500      0.0000    627.5956      4.5779     83.7468
  2448.5000      0.0000    632.6234      4.9705     84.8652
  2448.7500      0.0000    638.6818      5.4073     88.0365
  2449.0000      0.0000    644.7175      5.8735     92.2207
  2449.2500      0.0000    648.6135      6.3558     95.6483
  2449.5000      0.0000    649.5195      6.8325     96.0142
  2449.7500      0.0000    649.0368      7.2652     91.8456
  2450.0000      0.0000    649.5193      7.6012     83.6962
  2450.2500      0.0000    651.6692      7.7867     73.7624
  2450.5000      0.0000    654.3439      7.7842     64.4576
  2450.7500      0.0000    656.3018      7.5808     57.4657
  2451.0000      0.0000    657.2831      7.1892     53.6886
  2451.2500      0.0000    657.0605      6.6517     53.3922
  2451.5000      0.0000    654.4390      6.0445     56.0394
  2451.7500      0.0000    648.5471      5.4604     60.0305
  2452.0000      0.0000    640.6678      4.9727     63.0611
  2452.2500      0.0000    633.5133      4.6114     63.4834
  2452.5000      0.0000    628.8653      4.3702     61.6457
  2452.7500      0.0000    626.6640      4.2268     59.4048
  2453.0000      0.0000    625.9241      4.1524     58.0871
  2453.2500      0.0000    625.7554      4.1154     57.4564
  2453.5000      0.0000    625.5958      4.0911     56.8957
  2453.7500      0.0000    624.9939      4.0706     56.8789
  2454.0000      0.0000    623.4507      4.0543     58.5712
  2454.2500      0.0000    620.5944      4.0378     62.0691
  2454.5000      0.0000    616.5294      4.0093     65.6785
  2454.7500      0.0000    611.7233      3.9642     67.4284
  2455.0000      0.0000    606.3687      3.9149     67.0831
  2455.2500      0.0000    600.3755      3.8803     66.2101
  2455.5000      0.0000    594.5924      3.8671     66.2729
  2455.7500      0.0000    591.3695      3.8658     66.9467
  2456.0000      0.0000    592.6249      3.8622     66.5592
  2456.2500      0.0000    597.4393      3.8534     64.1963
  2456.5000      0.0000    602.7357      3.8508     60.9189
  2456.7500      0.0000    606.4047      3.8673     58.5600
  2457.0000      0.0000    608.7829      3.9009     57.8918
  2457.2500      0.0000    611.0000      3.9331     58.4314
  2457.5000      0.0000    612.9966      3.9448     59.3415
  2457.7500      0.0000    613.8069      3.9363     59.7638
  2458.0000      0.0000    613.3242      3.9336     58.8188
  2458.2500      0.0000    613.0506      3.9724     56.1638
  2458.5000      0.0000    615.0067      4.0701     52.5447
  2458.7500      0.0000    620.1956      4.2048     49.5082
  2459.0000      0.0000    627.9384      4.3244     48.6694
  2459.2500      0.0000    636.1439      4.3808     51.1044
  2459.5000      0.0000    642.4497      4.3609     56.8440
  2459.7500      0.0000    645.9670      4.2885     64.7178
  2460.0000      0.0000    648.1564      4.2031     73.0469
  2460.2500      0.0000    651.7161      4.1386     80.7529
  2460.5000      0.0000    658.6463      4.1149     87.6450
  2460.7500      0.0000    669.1395      4.1350     93.5641
  2461.0000      0.0000    681.2040      4.1828     97.6215
  2461.2500      0.0000    691.0145      4.2253     98.6615
  2461.5000      0.0000    695.0882      4.2274     96.4123
  2461.7500      0.0000    693.4009      4.1710     92.1318
  2462.0000      0.0000    689.9305      4.0636     88.2714
  2462.2500      0.0000    689.1536      3.9336     87.3131
  2462.5000      0.0000    691.9885      3.8173     90.2722
  2462.7500      0.0000    695.6031      3.7451     95.8419
  2463.0000      0.0000    696.9258      3.7296    101.1563
  2463.2500      0.0000    695.4045      3.7629    103.8130
  2463.5000      0.0000    692.0005      3.8255    103.3151
  2463.7500      0.0000    686.7113      3.8974    100.7649
  2464.0000      0.0000    678.7902      3.9648     97.6936
  2464.2500      0.0000    669.0948      4.0235     95.4185
  2464.5000      0.0000    660.4327      4.0788     95.0207
  2464.7500      0.0000    655.2213      4.1371     97.1785
  2465.0000      0.0000    653.7078      4.1956    101.5820
  2465.2500      0.0000    654.3479      4.2427    106.7626
  2465.5000      0.0000    655.4452      4.2692    111.1876
  2465.7500      0.0000    656.8336      4.2747    114.6989
  2466.0000      0.0000    660.0345      4.2670    118.3418
  2466.2500      0.0000    666.4280      4.2566    122.6656
  2466.5000      0.0000    675.7493      4.2524    126.7781
  2466.7500      0.0000    686.5086      4.2567    129.2779
  2467.0000      0.0000    696.7528      4.2632    129.6055
  2467.2500      0.0000    704.3252      4.2621    128.0304
  2467.5000      0.0000    707.9109      4.2479    124.5047
  2467.7500      0.0000    708.4916      4.2215    118.4388
  2468.0000      0.0000    708.8540      4.1862    110.2225
  2468.2500      0.0000    711.0185      4.1445    102.2967
  2468.5000      0.0000    714.4507      4.0992     97.7344
  2468.7500      0.0000    716.7468      4.0548     97.7623
  2469.0000      0.0000    715.3361      4.0168    101.0573
  2469.2500      0.0000    708.5380      3.9884    105.2833
  2469.5000      0.0000    696.3727      3.9673    108.9794
  2469.7500      0.0000    681.5267      3.9487    112.0502
  2470.0000      0.0000    669.0477      3.9326    114.7597
  2470.2500      0.0000    663.5615      3.9261    116.4711
  2470.5000      0.0000    665.8518      3.9363    115.7844
  2470.7500      0.0000    672.3434      3.9596    112.1698
  2471.0000      0.0000    678.2294      3.9818    107.1704
  2471.2500      0.0000    680.8821      3.9903    103.5204
  2471.5000      0.0000    680.2963      3.9857    103.0146
