~Version Information
VERS.                      2.0: CWLS Log ASCII Standard - VERSION 2.0
WRAP.                       NO: One line per depth step
~Well Information Block
STRT.FT               590.0000: 
STOP.FT              1563.5000: 
STEP.FT                 0.1000: 
NULL.                -999.2500: 
COMP.          Petrogulf Corporation: COMPANY
WELL.             State 16-43R: WELL
FLD.           Purgatorie River: FIELD
LOC.           2538' FSL & 716' FEL: LOCATION
PROV.                 Colorado: PROVINCE
CNTY.               Las Animas: COUNTRY
SRVC.                Patterson: SERVICE COMPANY
DATE.          Tue Aug 09 14:21:37 2005: LOG DATE
UWI.                          : UNIQUE WELL ID
~Curve Information Block
DEPT.FT            0 000 00 00: Depth
DCAL.in                       : CDL Caliper
RHOB.g/cc                     : CDL Bulk Density
RHOC.g/cc                     : CDL Density Correction
DPOR.pu                       : CDL Density Porosity
GR.GAPI                       : Gamma Ray
NPOR.pu                       : Neutron Porosity
~Parameter Information Block
~A  Depth       DCAL        RHOB        RHOC        DPOR         GR         NPOR    
# ...
  1406.0000      8.1048      2.4607      0.1485     11.4720    148.3767     25.7428
  1406.1000      8.1048      2.4493      0.0987     12.1663    145.2023     25.3568
  1406.2000      8.1048      2.4449      0.0722     12.4292    144.5039     25.0326
  1406.3000      8.0392      2.4514      0.0864     12.0350    146.9596     25.0404
  1406.4000      8.0392      2.4683      0.0821     11.0141    150.4320     25.4163
  1406.5000      7.9799      2.4881      0.1112      9.8122    153.2400     26.0434
  1406.6000      7.9799      2.5011      0.1115      9.0258    154.7484     26.5268
  1406.7000      7.9799      2.5093      0.0947      8.5256    154.6175     26.7827
  1406.8000      7.9925      2.5160      0.1381      8.1185    153.0485     27.0058
  1406.9000      7.9925      2.5122      0.1301      8.3497    150.1904     27.2009
  1407.0000      8.0023      2.4980      0.0598      9.2106    146.3698     27.2969
  1407.1000      8.0023      2.4863      0.0854      9.9186    142.8161     27.3677
  1407.2000      8.0023      2.4798      0.0818     10.3126    140.8645     27.5706
  1407.3000      7.9789      2.4777      0.0787     10.4453    140.6582     27.8032
  1407.4000      7.9789      2.4857      0.0773      9.9587    140.1635     27.8805
  1407.5000      7.9647      2.5075      0.0846      8.6343    138.9321     27.8210
  1407.6000      7.9647      2.5357      0.1442      6.9252    139.8045     27.8347
  1407.7000      7.9647      2.5552      0.1352      5.7455    141.4663     27.9524
  1407.8000      7.9519      2.5597      0.1316      5.4707    139.8075     27.9830
  1407.9000      7.9519      2.5553      0.0998      5.7411    135.7231     27.9876
  1408.0000      7.9590      2.5489      0.1061      6.1265    132.5039     28.1589
  1408.1000      7.9590      2.5392      0.1150      6.7130    131.6469     28.5079
  1408.2000      7.9590      2.5258      0.0493      7.5292    134.3565     28.8604
  1408.3000      7.9439      2.5199      0.0050      7.8840    137.5683     29.0798
  1408.4000      7.9439      2.5233      0.0710      7.6806    135.7554     29.2017
  1408.5000      7.9786      2.5247      0.0419      7.5928    131.6537     29.3093
  1408.6000      7.9786      2.5276      0.0571      7.4186    131.7007     29.2985
  1408.7000      7.9786      2.5387      0.0660      6.7440    136.0705     29.1285
  1408.8000      7.9496      2.5472      0.1002      6.2285    140.9037     28.7519
  1408.9000      7.9496      2.5404      0.0708      6.6403    144.2227     27.9706
  1409.0000      7.9204      2.5233      0.0952      7.6767    146.8186     27.1083
  1409.1000      7.9204      2.5131      0.0369      8.2970    148.4501     26.7009
  1409.2000      7.9204      2.5158      0.0864      8.1343    147.4921     26.5869
  1409.3000      7.9104      2.5158      0.0833      8.1362    145.1058     26.4273
  1409.4000      7.9104      2.5018      0.0822      8.9830    143.2489     26.3058
  1409.5000      7.9377      2.4771      0.0616     10.4817    141.5138     26.2203
  1409.6000      7.9377      2.4433      0.0919     12.5267    140.5125     25.9572
  1409.7000      7.9377      2.4046      0.0440     14.8736    141.3089     25.6069
  1409.8000      7.9529      2.3770      0.0236     16.5457    143.1745     25.4571
  1409.9000      7.9529      2.3693      0.0453     17.0091    144.8173     25.4749
  1410.0000      7.9670      2.3795      0.0195     16.3938    145.5507     25.3674
  1410.1000      7.9670      2.4084      0.0670     14.6445    145.8538     25.0146
  1410.2000      7.9670      2.4477      0.1513     12.2588    146.7027     24.7116
  1410.3000      7.9332      2.4816      0.1901     10.2066    149.3697     24.6460
  1410.4000      7.9332      2.5083      0.2052      8.5852    154.3967     24.6355
  1410.5000      7.8847      2.5288      0.2554      7.3455    159.1924     24.5323
  1410.6000      7.8847      2.5300      0.2638      7.2717    161.6682     24.3116
  1410.7000      7.8847      2.5059      0.2184      8.7316    163.4635     24.1007
  1410.8000      7.8207      2.4703      0.1712     10.8922    164.7413     23.9283
  1410.9000      7.8207      2.4342      0.1418     13.0791    163.8271     23.7098
  1411.0000      7.9294      2.3903      0.0945     15.7408    161.7038     23.7075
  1411.1000      7.9294      2.3238      0.0859     19.7711    159.7715     24.0606
  1411.2000      7.9294      2.2408      0.0108     24.8004    157.0488     24.2497
  1411.3000      7.9957      2.1765     -0.0029     28.6980    152.7929     23.8090
  1411.4000      7.9957      2.1529     -0.0055     30.1248    148.8744     23.0332
  1411.5000      8.0454      2.1578      0.0437     29.8279    147.2595     22.4868
  1411.6000      8.0454      2.1749      0.0194     28.7942    146.8972     22.3653
  1411.7000      8.0454      2.1981      0.0830     27.3877    145.2211     22.6327
  1411.8000      8.0220      2.2207      0.1054     26.0186    143.9973     23.2281
  1411.9000      8.0220      2.2427      0.1055     24.6841    145.5868     24.0630
  1412.0000      8.0729      2.2688      0.1969     23.1007    145.7385     24.8284
  1412.1000      8.0729      2.2960      0.2124     21.4560    142.8331     25.2139
  1412.2000      8.0729      2.3241      0.0900     19.7499    139.8220     25.4885
  1412.3000      8.1189      2.3578      0.0632     17.7075    138.0098     25.9135
  1412.4000      8.1189      2.3966      0.0573     15.3555    138.0354     26.3364
  1412.5000      8.0758      2.4412      0.1045     12.6527    139.1513     26.6446
  1412.6000      8.0758      2.4932      0.1108      9.5043    141.4509     26.7770
  1412.7000      8.0758      2.5401      0.2189      6.6591    145.1556     26.7210
  1412.8000      7.9978      2.5538      0.2811      5.8290    147.9022     26.6495
  1412.9000      7.9978      2.5234      0.2154      7.6723    149.2843     26.5875
  1413.0000      7.9873      2.4750      0.1469     10.6059    150.1773     26.4600
  1413.1000      7.9873      2.4415      0.1084     12.6371    150.6498     26.3991
  1413.2000      7.9873      2.4354      0.0489     13.0055    151.1334     26.2887
  1413.3000      8.0079      2.4497      0.1115     12.1382    151.0923     25.9030
  1413.4000      8.0079      2.4721      0.0874     10.7797    149.8662     25.5135
  1413.5000      7.9933      2.4939      0.1412      9.4589    148.0367     25.3705
  1413.6000      7.9933      2.5061      0.1443      8.7232    148.1697     25.2282
  1413.7000      7.9933      2.5057      0.1450      8.7472    150.2365     25.0134
  1413.8000      7.9997      2.4959      0.1174      9.3364    151.6550     25.1240
  1413.9000      7.9997      2.4797      0.1244     10.3233    152.9399     25.5644
  1414.0000      8.0465      2.4588      0.1232     11.5855    154.2024     25.8425
  1414.1000      8.0465      2.4436      0.0676     12.5069    154.7760     25.8423
  1414.2000      8.0465      2.4447      0.0769     12.4397    155.5304     25.6898
  1414.3000      8.1184      2.4550      0.0643     11.8210    154.8700     25.3789
  1414.4000      8.1184      2.4611      0.1026     11.4459    152.0541     25.0192
  1414.5000      8.0947      2.4638      0.0505     11.2874    151.1369     24.9086
  1414.6000      8.0947      2.4729      0.0651     10.7349    153.1949     25.1242
  1414.7000      8.0947      2.4864      0.1138      9.9123    154.6531     25.4003
  1414.8000      8.0522      2.4944      0.0707      9.4283    152.9444     25.5884
  1414.9000      8.0522      2.4982      0.0886      9.2017    148.9740     25.8537
  1415.0000      7.9989      2.5061      0.0840      8.7189    147.2135     26.1330
  1415.1000      7.9989      2.5218      0.1118      7.7672    149.2102     26.0827
  1415.2000      7.9989      2.5409      0.1519      6.6123    151.6927     25.7641
  1415.3000      7.9478      2.5591      0.1537      5.5075    153.2252     25.6514
  1415.4000      7.9478      2.5732      0.1783      4.6524    153.6204     25.9205
  1415.5000      7.9041      2.5764      0.1924      4.4606    150.6419     26.2898
