~Version Information
VERS.                      2.0: CWLS Log ASCII Standard - VERSION 2.0
WRAP.                       NO: One line per depth step
~Well Information Block
STRT.FT                -8.5000: 
STOP.FT              2286.0000: 
STEP.FT                 0.2500: 
NULL.                -999.2500: 
COMP.          Pioneer Natural Resources: COMPANY
WELL.             Culver 14-12: WELL
FLD.           Purgatorie River: FIELD
LOC.           913' FSL & 1140' FWL--: LOCATION
PROV.                       CO: PROVINCE
CNTY.               Las Animas: COUNTRY
SRVC.          Patterson Wireline: SERVICE COMPANY
DATE.          Wed Jun 15 13:05:36 2005: LOG DATE
UWI.           05 071 08386 00: UNIQUE WELL ID
~Curve Information Block
DEPT.FT            0 000 00 00: Depth
CCL.                          : Casing Collar Locator
TT3.usec                      : CBL 3' Travel Time
AMP3.mV                       : CBL 3' Amplitude
GR.GAPI                       : Gamma Ray
~Parameter Information Block
~A  Depth       CCL         TT3         AMP3         GR     
# ...
   460.5000      0.0000    764.0820      3.7390     73.5555
   460.7500      0.0000    759.4136      3.7156     74.6080
   461.0000      0.0000    758.0669      3.8215     77.3909
   461.2500      0.0000    757.6238      4.0291     82.0727
   461.5000      0.0000    757.5999      4.2851     87.7691
   461.7500      0.0000    760.1564      4.5277     92.3938
   462.0000      0.0000    767.7316      4.7098     93.7893
   462.2500      0.0000    780.1868      4.8158     91.4275
   462.5000      0.0000    794.0689      4.8598     87.0941
   462.7500      0.0000    804.7545      4.8665     83.7342
   463.0000      0.0000    809.9016      4.8492     83.3322
   463.2500      0.0000    810.9089      4.7975     85.6983
   463.5000      0.0000    810.8405      4.6824     89.0538
   463.7500      0.0000    811.5004      4.4765     91.5504
   464.0000      0.0000    812.9765      4.1835     92.2316
   464.2500      0.0000    815.2422      3.8551     90.9420
   464.5000      0.0000    819.1740      3.5778     87.7545
   464.7500      0.0000    825.7747      3.4302     82.7562
   465.0000      0.0000    834.4456      3.4396     76.4383
   465.2500      0.0000    842.2068      3.5734     70.0842
   465.5000      0.0000    845.2422      3.7678     65.2936
   465.7500      0.0000    841.8563      3.9605     62.8491
   466.0000      0.0000    833.9303      4.1007     62.2196
   466.2500      0.0000    825.3250      4.1458     62.2315
   466.5000      0.0000    819.0007      4.0658     62.0426
   466.7500      0.0000    815.6285      3.8625     61.5236
   467.0000      0.0000    814.3447      3.5917     61.0021
   467.2500      0.0000    814.2051      3.3588     60.7668
   467.5000      0.0000    814.9973      3.2692     60.6864
   467.7500      0.0000    817.0609      3.3619     60.3064
   468.0000      0.0000    820.3859      3.5857     59.3686
   468.2500      0.0000    823.8151      3.8348     58.1663
   468.5000      0.0000    825.4997      4.0023     57.3892
   468.7500      0.0000    824.6408      4.0171     57.8345
   469.0000      0.0000    822.6859      3.8653     60.1799
   469.2500      0.0000    822.5403      3.6064     64.5155
   469.5000      0.0000    826.6163      3.3590     69.8195
   469.7500      0.0000    835.3470      3.2423     74.1706
   470.0000      0.0000    846.9088      3.3046     75.8766
   470.2500      0.0000    858.2664      3.4953     74.5733
   470.5000      0.0000    866.9523      3.7030     71.3286
   470.7500      0.0000    872.1714      3.8186     67.7572
   471.0000      0.0000    874.2576      3.7814     64.9556
   471.2500      0.0000    873.0782      3.5951     63.0831
   471.5000      0.0000    867.1166      3.3273     61.7983
   471.7500      0.0000    854.3314      3.0890     60.9149
   472.0000      0.0000    834.0098      2.9884     60.4488
   472.2500      0.0000    807.8036      3.0733     60.2850
   472.5000      0.0000    779.5200      3.3033     60.1391
   472.7500      0.0000    754.2420      3.5754     59.8226
   473.0000      0.0000    736.3864      3.7790     59.3835
   473.2500      0.0000    726.9821      3.8405     59.0583
   473.5000      0.0000    722.8885      3.7437     59.1764
   473.7500      0.0000    719.5746      3.5368     59.9844
   474.0000      0.0000    714.7630      3.3218     61.3953
   474.2500      0.0000    709.2184      3.2138     62.9484
   474.5000      0.0000    704.6936      3.2766     64.1717
   474.7500      0.0000    701.9903      3.4819     64.9212
   475.0000      0.0000    700.7871      3.7276     65.2841
   475.2500      0.0000    700.4233      3.8958     65.1953
   475.5000      0.0000    700.4245      3.9094     64.2158
   475.7500      0.0000    700.5335      3.7650     61.9030
   476.0000      0.0000    700.6254      3.5374     58.5214
   476.2500      0.0000    700.7028      3.3489     55.2175
   476.5000      0.0000    701.0270      3.3022     53.2959
   476.7500      0.0000    702.3411      3.4172     53.3818
   477.0000      0.0000    706.0594      3.6209     55.2052
   477.2500      0.0000    713.7989      3.7987     57.8607
   477.5000      0.0000    725.5737      3.8599     60.1244
   477.7500      0.0000    737.7996      3.7765     60.8769
   478.0000      0.0000    744.3378      3.5921     59.6315
   478.2500      0.0000    741.4365      3.4027     56.8250
   478.5000      0.0000    731.7107      3.3112     53.5877
   478.7500      0.0000    722.4891      3.3691     51.1264
   479.0000      0.0000    720.6881      3.5436     50.2572
   479.2500      0.0000    729.2047      3.7367     51.4143
   479.5000      0.0000    746.0291      3.8414     54.6479
   479.7500      0.0000    765.3603      3.8009     59.1711
   480.0000      0.0000    780.9716      3.6452     63.3661
   480.2500      0.0000    790.2700      3.4831     66.2666
   480.5000      0.0000    795.1188      3.4386     68.9922
   480.7500      0.0000    798.5117      3.5663     73.8105
   481.0000      0.0000    801.3765      3.8117     81.4889
   481.2500      0.0000    802.9839      4.0506     90.0499
   481.5000      0.0000    803.2541      4.1674     96.4615
   481.7500      0.0000    803.4166      4.1219     99.4459
   482.0000      0.0000    804.6067      3.9756    100.3489
   482.2500      0.0000    806.6619      3.8617    101.4485
   482.5000      0.0000    808.4370      3.8944    103.8817
   482.7500      0.0000    808.7471      4.0765    107.1493
   483.0000      0.0000    806.8972      4.2947    110.1165
   483.2500      0.0000    803.0635      4.4094    112.3254
   483.5000      0.0000    798.6351      4.3583    114.4526
   483.7500      0.0000    795.5635      4.1967    117.3989
   484.0000      0.0000    794.5599      4.0544    120.8686
   484.2500      0.0000    793.9135      4.0391    123.2516
   484.5000      0.0000    790.2582      4.1534    123.3935
   484.7500      0.0000    780.5809      4.2917    122.3026
   485.0000      0.0000    764.4745      4.3236    122.5131
   485.2500      0.0000    745.5275      4.1995    125.8101
   485.5000      0.0000    730.2435      3.9915    131.8838
   485.7500      0.0000    724.6872      3.8326    138.7728
   486.0000      0.0000    731.4141      3.8016    144.2353
   486.2500      0.0000    748.3784      3.8596    147.3156
   486.5000      0.0000    769.8937      3.8915    149.0387
   486.7500      0.0000    789.3803      3.8112    151.1720
   487.0000      0.0000    802.5373      3.6365    154.1071
   487.2500      0.0000    808.4357      3.4740    156.2631
   487.5000      0.0000    808.1742      3.4326    155.5319
   487.7500      0.0000    803.4562      3.5413    151.1526
   488.0000      0.0000    796.5795      3.7365    144.4960
   488.2500      0.0000    790.8071      3.9085    138.2004
   488.5000      0.0000    789.5742      3.9549    134.1751
   488.7500      0.0000    794.6456      3.8327    132.1830
   489.0000      0.0000    804.4189      3.6031    130.3943
   489.2500      0.0000    814.0005      3.4098    127.1160
   489.5000      0.0000    818.1383      3.3675    121.9729
   489.7500      0.0000    815.3416      3.4631    116.0342
   490.0000      0.0000    808.8578      3.5761    111.0753
   490.2500      0.0000    802.6812      3.5954    108.1268
   490.5000      0.0000    797.2509      3.5188    106.4690
   490.7500      0.0000    790.4138      3.4598    104.4894
   491.0000      0.0000    781.6892      3.5513    101.5800
   491.2500      0.0000    773.4791      3.8152     98.6604
   491.5000      0.0000    768.5220      4.1177     97.0323
   491.7500      0.0000    768.0225      4.2763     97.4165
   492.0000      0.0000    771.8814      4.2222     99.8226
   492.2500      0.0000    779.0844      4.0565    103.5288
   492.5000      0.0000    787.8145      3.9549    107.2458
   492.7500      0.0000    796.1411      4.0219    109.9327
   493.0000      0.0000    802.7955      4.2158    111.7054
   493.2500      0.0000    807.3925      4.3894    113.8178
   493.5000      0.0000    810.1899      4.4003    117.5175
   493.7500      0.0000    811.7446      4.2104    122.7727
