~Version Information
VERS.                      2.0: CWLS Log ASCII Standard - VERSION 2.0
WRAP.                       NO: One line per depth step
~Well Information Block
STRT.FT               298.0000: 
STOP.FT              1325.5000: 
STEP.FT                 0.2500: 
NULL.                -999.2500: 
COMP.          Pioneer Natural Resources: COMPANY
WELL.          Santa Fe 43-27 Tr: WELL
FLD.           Purgatoire River: FIELD
LOC.           2018' FSL & 534' FEL: LOCATION
PROV.                 Colorado: PROVINCE
CNTY.               Las Animas: COUNTRY
SRVC.                Patterson: SERVICE COMPANY
DATE.          Tue Mar 08 10:44:11 2005: LOG DATE
UWI.           05 071 08303 00: UNIQUE WELL ID
~Curve Information Block
DEPT.FT            0 000 00 00: Depth
SN.Ohm-m                      : IEL Short Normal
SP.mV                         : IEL Spontaneous Potential
DIR.Ohm-m                     : IEL Induction Resistivity
GR.GAPI                       : Gamma Ray
~Parameter Information Block
~A  Depth        SN          SP         DIR          GR     
# ...
   365.0000   2000.0000   2000.0000     46.5082     80.8389
   365.2500   2000.0000   2000.0000     47.9619     78.0167
   365.5000   2000.0000   2000.0000     48.9991     74.0013
   365.7500   2000.0000   2000.0000     49.5117     71.7187
   366.0000   2000.0000   2000.0000     49.6217     68.6119
   366.2500   2000.0000   2000.0000     49.5962     66.5239
   366.5000   2000.0000   2000.0000     49.6511     63.6903
   366.7500   2000.0000   2000.0000     49.8156     62.5733
   367.0000   2000.0000   2000.0000     49.9439     62.8658
   367.2500   2000.0000   2000.0000     49.8481     64.3291
   367.5000   2000.0000   2000.0000     49.4492     67.4742
   367.7500   2000.0000   2000.0000     48.8290     69.5063
   368.0000   2000.0000   2000.0000     48.1496     71.5731
   368.2500   2000.0000   2000.0000     47.5400     71.9939
   368.5000   2000.0000   2000.0000     47.0528     71.0055
   368.7500   2000.0000   2000.0000     46.6887     69.4762
   369.0000   2000.0000   2000.0000     46.4333     66.8781
   369.2500   2000.0000   2000.0000     46.2589     65.6234
   369.5000   2000.0000   2000.0000     46.1081     64.9720
   369.7500   2000.0000   2000.0000     45.9069     65.1179
   370.0000   2000.0000   2000.0000     45.6174     65.4149
   370.2500   2000.0000   2000.0000     45.2890     65.4227
   370.5000   2000.0000   2000.0000     45.0525     65.4292
   370.7500   2000.0000   2000.0000     45.0555     65.7818
   371.0000   2000.0000   2000.0000     45.3809     66.9749
   371.2500   2000.0000   2000.0000     45.9948     67.8001
   371.5000   2000.0000   2000.0000     46.7505     68.0374
   371.7500   2000.0000   2000.0000     47.4557     67.2194
   372.0000   2000.0000   2000.0000     47.9775     64.7957
   372.2500   2000.0000   2000.0000     48.3069     62.7348
   372.5000   2000.0000   2000.0000     48.5373     59.6208
   372.7500   2000.0000   2000.0000     48.7853     58.0007
   373.0000   2000.0000   2000.0000     49.1348     57.0330
   373.2500   2000.0000   2000.0000     49.6311     57.4386
   373.5000   2000.0000   2000.0000     50.2868     58.9400
   373.7500   2000.0000   2000.0000     51.0844     60.1044
   374.0000   2000.0000   2000.0000     51.9780     62.1304
   374.2500   2000.0000   2000.0000     52.9027     64.0626
   374.5000   2000.0000   2000.0000     53.7814     68.2707
   374.7500   2000.0000   2000.0000     54.5201     71.6538
   375.0000   2000.0000   2000.0000     55.0179     76.1041
   375.2500   2000.0000   2000.0000     55.2219     77.6435
   375.5000   2000.0000   2000.0000     55.1864     76.9134
   375.7500   2000.0000   2000.0000     55.0748     74.5942
   376.0000   2000.0000   2000.0000     55.0900     69.4428
   376.2500   2000.0000   2000.0000     55.4026     65.5851
   376.5000   2000.0000   2000.0000     56.1093     60.1797
   376.7500   2000.0000   2000.0000     57.2089     57.2989
   377.0000   2000.0000   2000.0000     58.5790     54.5067
   377.2500   2000.0000   2000.0000     59.9773     53.6095
   377.5000   2000.0000   2000.0000     61.1036     53.1494
   377.7500   2000.0000   2000.0000     61.7162     53.0213
   378.0000   2000.0000   2000.0000     61.7630     52.5923
   378.2500   2000.0000   2000.0000     61.4207     52.0594
   378.5000   2000.0000   2000.0000     60.9904     51.0934
   378.7500   2000.0000   2000.0000     60.7206     50.6051
   379.0000   2000.0000   2000.0000     60.6781     50.5256
   379.2500   2000.0000   2000.0000     60.7622     50.9138
   379.5000   2000.0000   2000.0000     60.8311     51.5999
   379.7500   2000.0000   2000.0000     60.8113     51.6771
   380.0000   2000.0000   2000.0000     60.7012     50.8974
   380.2500   2000.0000   2000.0000     60.4793     50.0457
   380.5000   2000.0000   2000.0000     60.0584     49.2024
   380.7500   2000.0000   2000.0000     59.3509     49.3700
   381.0000   2000.0000   2000.0000     58.3612     50.7675
   381.2500   2000.0000   2000.0000     57.1805     52.1442
   381.5000   2000.0000   2000.0000     55.8533     54.3457
   381.7500   2000.0000   2000.0000     54.2530     55.8912
   382.0000   2000.0000   2000.0000     52.1115     58.6823
   382.2500   2000.0000   2000.0000     49.2364     61.0124
   382.5000   2000.0000   2000.0000     45.7241     65.3209
   382.7500   2000.0000   2000.0000     41.9402     68.9884
   383.0000   2000.0000   2000.0000     38.3027     76.6429
   383.2500   2000.0000   2000.0000     35.0908     83.6410
   383.5000   2000.0000   2000.0000     32.3967     96.5909
   383.7500   2000.0000   2000.0000     30.1711    105.8994
   384.0000   2000.0000   2000.0000     28.2945    119.1096
   384.2500   2000.0000   2000.0000     26.6423    126.9198
   384.5000   2000.0000   2000.0000     25.1239    137.0590
   384.7500   2000.0000   2000.0000     23.6920    142.6238
   385.0000   2000.0000   2000.0000     22.3341    148.3883
   385.2500   2000.0000   2000.0000     21.0616    150.0667
   385.5000   2000.0000   2000.0000     19.9032    149.2531
   385.7500   2000.0000   2000.0000     18.8961    146.8722
   386.0000   2000.0000   2000.0000     18.0730    141.7544
   386.2500   2000.0000   2000.0000     17.4507    138.2212
   386.5000   2000.0000   2000.0000     17.0296    134.1818
   386.7500   2000.0000   2000.0000     16.8016    132.8490
   387.0000   2000.0000   2000.0000     16.7626    133.0970
   387.2500   2000.0000   2000.0000     16.9177    134.5314
   387.5000   2000.0000   2000.0000     17.2765    137.5886
   387.7500   2000.0000   2000.0000     17.8389    139.3273
   388.0000   2000.0000   2000.0000     18.5817    139.6101
   388.2500   2000.0000   2000.0000     19.4545    137.1702
   388.5000   2000.0000   2000.0000     20.3872    128.4437
   388.7500   2000.0000   2000.0000     21.3014    119.5415
   389.0000   2000.0000   2000.0000     22.1220    104.0097
   389.2500   2000.0000   2000.0000     22.7884     94.1820
   389.5000   2000.0000   2000.0000     23.2651     82.8003
   389.7500   2000.0000   2000.0000     23.5494     77.9448
   390.0000   2000.0000   2000.0000     23.6711     74.3509
   390.2500   2000.0000   2000.0000     23.6830     74.1231
   390.5000   2000.0000   2000.0000     23.6425     77.3131
   390.7500   2000.0000   2000.0000     23.5926     82.2107
   391.0000   2000.0000   2000.0000     23.5505     93.5690
   391.2500   2000.0000   2000.0000     23.5093    102.7549
   391.5000   2000.0000   2000.0000     23.4441    115.9915
   391.7500   2000.0000   2000.0000     23.3131    122.8726
   392.0000   2000.0000   2000.0000     23.0605    129.1597
   392.2500   2000.0000   2000.0000     22.6355    131.1419
   392.5000   2000.0000   2000.0000     22.0289    132.5907
   392.7500   2000.0000   2000.0000     21.3010    133.2213
   393.0000   2000.0000   2000.0000     20.5665    133.5621
   393.2500   2000.0000   2000.0000     19.9470    133.2526
   393.5000   2000.0000   2000.0000     19.5266    132.9274
   393.7500   2000.0000   2000.0000     19.3408    133.6680
   394.0000   2000.0000   2000.0000     19.3921    136.3663
   394.2500   2000.0000   2000.0000     19.6717    138.2359
   394.5000   2000.0000   2000.0000     20.1648    138.8895
   394.7500   2000.0000   2000.0000     20.8335    137.1080
   395.0000   2000.0000   2000.0000     21.5954    131.4085
   395.2500   2000.0000   2000.0000     22.3267    126.5603
   395.5000   2000.0000   2000.0000     22.9098    119.6154
   395.7500   2000.0000   2000.0000     23.3016    115.8748
   396.0000   2000.0000   2000.0000     23.5576    111.9476
   396.2500   2000.0000   2000.0000     23.7841    110.4748
   396.5000   2000.0000   2000.0000     24.0586    110.0375
   396.7500   2000.0000   2000.0000     24.3766    111.0429
   397.0000   2000.0000   2000.0000     24.6540    114.6268
   397.2500   2000.0000   2000.0000     24.7754    117.9614
   397.5000   2000.0000   2000.0000     24.6562    122.2512
   397.7500   2000.0000   2000.0000     24.2741    123.2493
   398.0000   2000.0000   2000.0000     23.6604    121.4085
   398.2500   2000.0000   2000.0000     22.8810    119.0630
