~Version Information
VERS.                      2.0: CWLS Log ASCII Standard - VERSION 2.0
WRAP.                       NO: One line per depth step
~Well Information Block
STRT.FT               460.0000: 
STOP.FT               961.2500: 
STEP.FT                 0.2500: 
NULL.                -999.2500: 
COMP.          Pioneer Natural Resources: COMPANY
WELL.                Pug 33-19: WELL
FLD.           Purgatoire River: FIELD
LOC.           1381' FSL & 2140' FEL: LOCATION
PROV.                 Colorado: PROVINCE
CNTY.               Las Animas: COUNTRY
SRVC.                Patterson: SERVICE COMPANY
DATE.          Tue Dec 14 08:25:14 2004: LOG DATE
UWI.           05 071 08193 00: UNIQUE WELL ID
~Curve Information Block
DEPT.FT            0 000 00 00: Depth
SN.Ohm-m                      : IEL Short Normal
SP.mV                         : IEL Spontaneous Potential
DIR.Ohm-m                     : IEL Induction Resistivity
GR.GAPI                       : Gamma Ray
~Parameter Information Block
~A  Depth        SN          SP         DIR          GR     
# ...
   828.5000     26.4980     43.6592     23.4725     75.3509
   828.7500     26.1480     44.2517     23.1797     78.3927
   829.0000     25.7985     44.8769     22.9085     80.2258
   829.2500     25.4729     45.5424     22.6593     79.7669
   829.5000     25.1875     46.2535     22.4216     77.5964
   829.7500     24.9474     47.0098     22.1810     75.8067
   830.0000     24.7461     47.8037     21.9292     73.6815
   830.2500     24.5683     48.6236     21.6720     73.2170
   830.5000     24.3967     49.4573     21.4295     74.4065
   830.7500     24.2196     50.2960     21.2284     76.2886
   831.0000     24.0340     51.1366     21.0899     80.1418
   831.2500     23.8458     51.9800     21.0178     83.0730
   831.5000     23.6662     52.8287     20.9940     87.4005
   831.7500     23.5083     53.6818     20.9821     89.7966
   832.0000     23.3828     54.5311     20.9412     92.0053
   832.2500     23.2950     55.3584     20.8419     92.3686
   832.5000     23.2464     56.1368     20.6796     91.3329
   832.7500     23.2413     56.8351     20.4805     89.9178
   833.0000     23.2903     57.4267     20.2975     87.7482
   833.2500     23.4038     57.8980     20.1947     86.9032
   833.5000     23.5797     58.2534     20.2261     86.8410
   833.7500     23.7953     58.5159     20.4170     87.1069
   834.0000     24.0148     58.7217     20.7545     86.3860
   834.2500     24.2104     58.9130     21.1905     84.3210
   834.5000     24.3807     59.1310     21.6585     78.4899
   834.7500     24.5549     59.4110     22.1008     73.4099
   835.0000     24.7800     59.7782     22.4920     65.9975
   835.2500     25.0978     60.2450     22.8411     62.3472
   835.5000     25.5161     60.8104     23.1720     59.9835
   835.7500     25.9914     61.4613     23.4968     60.4968
   836.0000     26.4386     62.1783     23.8015     63.2067
   836.2500     26.7688     62.9420     24.0473     65.1256
   836.5000     26.9266     63.7379     24.1836     66.2887
   836.7500     26.9041     64.5583     24.1658     65.5336
   837.0000     26.7290     65.3994     23.9752     63.1566
   837.2500     26.4450     66.2588     23.6349     61.9566
   837.5000     26.0956     67.1335     23.2104     62.4574
   837.7500     25.7147     68.0196     22.7885     64.6936
   838.0000     25.3248     68.9136     22.4414     70.5566
   838.2500     24.9408     69.8123     22.2008     75.4748
   838.5000     24.5742     70.7131     22.0564     82.4987
   838.7500     24.2389     71.6146     21.9811     85.7967
   839.0000     23.9530     72.5172     21.9573     87.9299
   839.2500     23.7397     73.4234     21.9838     88.0782
   839.5000     23.6203     74.3372     22.0581     88.0009
   839.7500     23.6028     75.2624     22.1584     88.1008
   840.0000     23.6724     76.2004     22.2444     87.8050
   840.2500     23.7935     77.1486     22.2777     86.8237
   840.5000     23.9244     78.1005     22.2452     84.2557
   840.7500     24.0333     79.0473     22.1626     82.3676
   841.0000     24.1059     79.9821     22.0605     80.2572
   841.2500     24.1405     80.9032     21.9647     79.5567
   841.5000     24.1383     81.8155     21.8852     79.4850
   841.7500     24.0950     82.7280     21.8174     80.0825
   842.0000     23.9986     83.6496     21.7477     82.0591
   842.2500     23.8342     84.5846     21.6615     83.9534
   842.5000     23.5959     85.5326     21.5496     86.7711
   842.7500     23.2945     86.4918     21.4126     88.0168
   843.0000     22.9534     87.4645     21.2637     88.5676
   843.2500     22.5966     88.4602     21.1262     88.4109
   843.5000     22.2376     89.4952     21.0229     88.3644
   843.7500     21.8770     90.5855     20.9605     88.7272
   844.0000     21.5063     91.7377     20.9205     89.4435
   844.2500     21.1154     92.9396     20.8642     89.5374
   844.5000     20.7014     94.1573     20.7533     88.6027
   844.7500     20.2784     95.3401     20.5707     87.3960
   845.0000     19.8814     96.4346     20.3277     85.3898
   845.2500     19.5549     97.4015     20.0565     84.2358
   845.5000     19.3318     98.2274     19.7975     82.7823
   845.7500     19.2212     98.9270     19.5903     81.8046
   846.0000     19.2114     99.5313     19.4669     80.1771
   846.2500     19.2831    100.0706     19.4434     79.0998
   846.5000     19.4145    100.5592     19.5152     77.6841
   846.7500     19.5778    100.9892     19.6595     76.7739
   847.0000     19.7398    101.3375     19.8490     75.0287
   847.2500     19.8731    101.5801     20.0724     73.5021
   847.5000     19.9721    101.7074     20.3501     71.0375
   847.7500     20.0581    101.7319     20.7310     69.6146
   848.0000     20.1679    101.6865     21.2712     67.9455
   848.2500     20.3332    101.6143     22.0055     67.0113
   848.5000     20.5638    101.5568     22.9233     66.0504
   848.7500     20.8429    101.5442     23.9551     66.1530
   849.0000     21.1398    101.5908     24.9744     67.9842
   849.2500     21.4305    101.6968     25.8212     70.0820
   849.5000     21.7105    101.8525     26.3499     73.4479
   849.7500     21.9878    102.0437     26.4869     75.3492
   850.0000     22.2651    102.2561     26.2620     77.6122
   850.2500     22.5269    102.4762     25.7854     78.8770
   850.5000     22.7424    102.6913     25.1885     80.3979
   850.7500     22.8794    102.8890     24.5722     81.0094
   851.0000     22.9191    103.0577     23.9889     81.2067
   851.2500     22.8650    103.1885     23.4523     80.9322
   851.5000     22.7418    103.2769     22.9576     80.0211
   851.7500     22.5847    103.3234     22.4968     79.0388
   852.0000     22.4246    103.3324     22.0664     76.9022
   852.2500     22.2792    103.3101     21.6693     75.1099
   852.5000     22.1545    103.2620     21.3146     72.4718
   852.7500     22.0522    103.1922     21.0143     71.4077
   853.0000     21.9727    103.1020     20.7799     71.9887
   853.2500     21.9132    102.9913     20.6180     73.9720
   853.5000     21.8666    102.8594     20.5264     78.2973
   853.7500     21.8237    102.7061     20.4900     81.0776
   854.0000     21.7774    102.5322     20.4801     83.7605
   854.2500     21.7241    102.3403     20.4591     84.3655
   854.5000     21.6630    102.1350     20.3927     84.0461
   854.7500     21.5948    101.9248     20.2664     83.5077
   855.0000     21.5225    101.7232     20.0938     82.9074
   855.2500     21.4512    101.5481     19.9091     82.9537
   855.5000     21.3846    101.4193     19.7479     84.0048
   855.7500     21.3229    101.3538     19.6314     85.2566
   856.0000     21.2651    101.3624     19.5620     87.2761
   856.2500     21.2137    101.4486     19.5321     88.2907
   856.5000     21.1737    101.6084     19.5354     88.9592
   856.7500     21.1466    101.8328     19.5700     88.8356
   857.0000     21.1280    102.1095     19.6330     88.0247
   857.2500     21.1119    102.4239     19.7115     87.3572
   857.5000     21.0966    102.7598     19.7823     86.7921
   857.7500     21.0857    103.0987     19.8233     86.9337
   858.0000     21.0834    103.4214     19.8262     87.8238
   858.2500     21.0917    103.7083     19.7998     88.5332
   858.5000     21.1121    103.9417     19.7600     88.8392
   858.7500     21.1473    104.1059     19.7197     87.9979
   859.0000     21.2021    104.1867     19.6882     84.8509
   859.2500     21.2812    104.1706     19.6748     81.8962
   859.5000     21.3880    104.0454     19.6896     77.6964
   859.7500     21.5237    103.8041     19.7405     76.0067
   860.0000     21.6863    103.4503     19.8329     75.9054
   860.2500     21.8690    103.0034     19.9709     77.1535
   860.5000     22.0607    102.4991     20.1556     79.6545
   860.7500     22.2482    101.9863     20.3798     81.0023
   861.0000     22.4205    101.5166     20.6240     81.9812
   861.2500     22.5703    101.1324     20.8618     81.9926
   861.5000     22.6926    100.8558     21.0692     81.5028
   861.7500     22.7844    100.6838     21.2305     81.2355
