~Version Information
VERS.                      2.0: CWLS Log ASCII Standard - VERSION 2.0
WRAP.                       NO: One line per depth step
~Well Information Block
STRT.FT               300.0000: 
STOP.FT               871.2000: 
STEP.FT                 0.1000: 
NULL.                -999.2500: 
COMP.          Pioneer Natural Resources: COMPANY
WELL.            Hustler 12-17: WELL
FLD.           Purgatoire River: FIELD
LOC.           2150' FNL & 450' FWL: LOCATION
PROV.                 Colorado: PROVINCE
CNTY.               Las Animas: COUNTRY
SRVC.                Patterson: SERVICE COMPANY
DATE.          Mon Dec 20 11:14:19 2004: LOG DATE
UWI.           05 071 08236 00: UNIQUE WELL ID
~Curve Information Block
DEPT.FT            0 000 00 00: Depth
DCAL.in                       : CDL Caliper
RHOB.g/cc                     : CDL Bulk Density
RHOC.g/cc                     : CDL Density Correction
DPOR.pu                       : CDL Density Porosity
NPOR.pu                       : Neutron Porosity
GR.GAPI                       : Gamma Ray
~Parameter Information Block
~A  Depth       DCAL        RHOB        RHOC        DPOR        NPOR         GR     
# ...
   338.4000      8.0742      2.4924      0.0519      9.5517     16.9591     73.2682
   338.5000      8.0701      2.4694      0.0512     10.9469     16.6530     70.6302
   338.6000      8.0701      2.4520      0.0323     12.0003     16.6708     76.1137
   338.7000      8.0701      2.4525      0.0159     11.9722     16.9849     84.0567
   338.8000      8.0702      2.4720      0.0129     10.7868     17.3018     85.3727
   338.9000      8.0702      2.4904      0.0695      9.6730     17.5193     81.6865
   339.0000      8.0692      2.4906      0.0360      9.6613     17.4757     79.7397
   339.1000      8.0692      2.4858     -0.0065      9.9540     17.1634     80.5240
   339.2000      8.0692      2.4889      0.0631      9.7661     16.7963     82.5378
   339.3000      8.0611      2.4806      0.0968     10.2693     16.4439     85.4001
   339.4000      8.0611      2.4548      0.0319     11.8323     16.1188     88.0122
   339.5000      8.0495      2.4424     -0.0072     12.5839     15.8980     88.2142
   339.6000      8.0495      2.4543      0.0498     11.8622     15.7967     84.5488
   339.7000      8.0495      2.4605      0.0794     11.4878     15.8169     78.8809
   339.8000      8.0410      2.4411      0.0423     12.6613     15.9317     75.4156
   339.9000      8.0410      2.4172      0.0157     14.1084     16.0811     74.8936
   340.0000      8.0368      2.4161      0.0154     14.1733     16.3536     75.4917
   340.1000      8.0368      2.4290      0.0654     13.3960     16.6750     76.0341
   340.2000      8.0368      2.4299      0.0599     13.3416     16.7875     75.6752
   340.3000      8.0360      2.4173      0.0351     14.1038     16.6566     73.5669
   340.4000      8.0360      2.4076      0.0127     14.6932     16.4207     71.0497
   340.5000      8.0364      2.4085      0.0003     14.6388     16.2810     71.5708
   340.6000      8.0364      2.4141      0.0198     14.2987     16.5669     75.7572
   340.7000      8.0364      2.4170      0.0168     14.1201     17.2506     78.2979
   340.8000      8.0383      2.4173     -0.0014     14.1025     17.7806     76.9872
   340.9000      8.0383      2.4228      0.0216     13.7690     17.9920     75.2116
   341.0000      8.0396      2.4387      0.0297     12.8067     18.2786     74.0467
   341.1000      8.0396      2.4601      0.0290     11.5067     18.6385     73.9595
   341.2000      8.0396      2.4752      0.0753     10.5914     18.8318     77.3266
   341.3000      8.0401      2.4754      0.0553     10.5805     18.8373     84.3777
   341.4000      8.0401      2.4680      0.0320     11.0304     18.7195     91.6294
   341.5000      8.0405      2.4636      0.0456     11.2956     18.7215     92.6489
   341.6000      8.0405      2.4670      0.0244     11.0910     19.2101     87.8178
   341.7000      8.0405      2.4774      0.0712     10.4593     20.0585     83.9921
   341.8000      8.0409      2.4864      0.0491      9.9124     20.7463     81.5777
   341.9000      8.0409      2.4929      0.0611      9.5222     21.1087     79.0904
   342.0000      8.0413      2.5044      0.0533      8.8222     21.3724     80.9339
   342.1000      8.0413      2.5185      0.0679      7.9711     21.8583     89.6087
   342.2000      8.0413      2.5266      0.0565      7.4770     22.6967    100.0828
   342.3000      8.0418      2.5270      0.0805      7.4551     23.5232    107.5023
   342.4000      8.0418      2.5251      0.0080      7.5708     23.8629    112.6073
   342.5000      8.0425      2.5331      0.0210      7.0874     23.9135    116.0729
   342.6000      8.0425      2.5537      0.0444      5.8347     24.2192    118.1349
   342.7000      8.0425      2.5791      0.0544      4.2978     24.8378    120.2152
   342.8000      8.0434      2.6005      0.0294      3.0028     25.4239    123.1245
   342.9000      8.0434      2.6079      0.0511      2.5536     25.9772    125.1227
   343.0000      8.0447      2.5983      0.0406      3.1314     26.6967    124.1605
   343.1000      8.0447      2.5868      0.0141      3.8316     27.4619    121.3941
   343.2000      8.0447      2.5880      0.0412      3.7580     28.1131    120.3637
   343.3000      8.0444      2.5973      0.0345      3.1916     28.5652    123.4809
   343.4000      8.0444      2.6019      0.0798      2.9143     28.8315    130.5517
   343.5000      8.0435      2.5954      0.0296      3.3071     29.0534    140.7917
   343.6000      8.0435      2.5922     -0.0164      3.5031     29.2124    148.1705
   343.7000      8.0435      2.6070     -0.0025      2.6062     29.2975    147.4268
   343.8000      8.0429      2.6237      0.0718      1.5930     29.3465    143.8173
   343.9000      8.0429      2.6216      0.0173      1.7192     29.2183    143.5533
   344.0000      8.0406      2.6031      0.0366      2.8413     28.9136    145.7230
   344.1000      8.0406      2.5786      0.0133      4.3266     28.6977    146.5707
   344.2000      8.0406      2.5573     -0.0064      5.6177     28.6464    143.9433
   344.3000      8.0355      2.5418      0.0210      6.5550     28.5744    140.7884
   344.4000      8.0355      2.5338     -0.0119      7.0396     28.4215    139.7056
   344.5000      8.0301      2.5434      0.0060      6.4592     28.2282    137.0624
   344.6000      8.0301      2.5720      0.0129      4.7280     27.7701    133.2831
   344.7000      8.0301      2.6001      0.0701      3.0255     27.0265    134.8053
   344.8000      8.0317      2.6076      0.0233      2.5701     26.6845    140.3212
   344.9000      8.0317      2.5952      0.0101      3.3201     27.0233    142.9515
   345.0000      8.0420      2.5716      0.0247      4.7510     27.3178    139.7159
   345.1000      8.0420      2.5505     -0.0182      6.0283     27.1134    132.4032
   345.2000      8.0420      2.5464      0.0015      6.2791     26.6249    126.6613
   345.3000      8.0497      2.5476      0.0319      6.2047     25.8822    125.4035
   345.4000      8.0497      2.5364     -0.0260      6.8851     25.0256    126.1700
   345.5000      8.0471      2.5166      0.0242      8.0831     24.4912    126.7517
   345.6000      8.0471      2.5001     -0.0042      9.0866     24.3345    125.7898
   345.7000      8.0471      2.4876      0.0044      9.8430     24.2068    122.1581
   345.8000      8.0431      2.4732     -0.0323     10.7170     23.9579    116.8943
   345.9000      8.0431      2.4666     -0.0269     11.1124     23.6484    110.6439
   346.0000      8.0408      2.4766      0.0258     10.5090     23.3706    103.2834
   346.1000      8.0408      2.4874      0.0617      9.8574     23.1189     95.4845
   346.2000      8.0408      2.4858      0.0101      9.9497     22.5644     90.9164
   346.3000      8.0398      2.4800      0.0338     10.3024     21.6915     91.8608
   346.4000      8.0398      2.4820      0.0338     10.1821     21.0152     95.2122
   346.5000      8.0411      2.4943      0.0678      9.4338     20.6713     96.8395
   346.6000      8.0411      2.5092      0.0370      8.5355     20.3641     95.5312
   346.7000      8.0411      2.5154      0.0697      8.1567     20.1400     95.1834
   346.8000      8.0424      2.5061      0.0462      8.7232     20.1609     97.9300
   346.9000      8.0424      2.4905      0.0343      9.6684     20.2505     97.6272
   347.0000      8.0428      2.4879      0.0239      9.8236     20.3493     91.7898
   347.1000      8.0428      2.5065      0.0420      8.6989     20.7140     87.6931
   347.2000      8.0428      2.5311      0.0674      7.2064     21.2209     90.7482
   347.3000      8.0420      2.5369      0.1024      6.8547     21.2895     98.3338
   347.4000      8.0420      2.5257      0.0326      7.5305     20.8856    104.3264
   347.5000      8.0411      2.5274      0.0225      7.4308     20.5711    105.1507
   347.6000      8.0411      2.5460      0.0710      6.3045     20.5429    101.6841
   347.7000      8.0411      2.5559      0.0530      5.7007     20.6561     98.4625
   347.8000      8.0408      2.5514      0.0762      5.9770     20.7395     98.1651
   347.9000      8.0408      2.5440      0.0530      6.4267     20.6388     96.6781
