~Version Information
VERS.                      2.0: CWLS Log ASCII Standard - VERSION 2.0
WRAP.                       NO: One line per depth step
~Well Information Block
STRT.FT               240.0000: 
STOP.FT              1452.5000: 
STEP.FT                 0.1000: 
NULL.                -999.2500: 
COMP.          Petrogulf Corporation: COMPANY
WELL.          Robinson 15-12R: WELL
FLD.           Purgatorie River: FIELD
LOC.           1752' FNL & 561' FWL: LOCATION
PROV.                 Colorado: PROVINCE
CNTY.               Las Animas: COUNTRY
SRVC.                Patterson: SERVICE COMPANY
DATE.          Tue Sep 13 15:07:52 2005: LOG DATE
UWI.                          : UNIQUE WELL ID
~Curve Information Block
DEPT.FT            0 000 00 00: Depth
DCAL.in                       : CDL Caliper
RHOB.g/cc                     : CDL Bulk Density
RHOC.g/cc                     : CDL Density Correction
DPOR.pu                       : CDL Density Porosity
GR.GAPI                       : Gamma Ray
NPOR.pu                       : Neutron Porosity
~Parameter Information Block
~A  Depth       DCAL        RHOB        RHOC        DPOR         GR         NPOR    
# ...
  1276.8000      7.9191      2.5518      0.0690      5.9487    171.5726     25.6268
  1276.9000      7.9191      2.5435      0.0103      6.4562    176.9535     25.9423
  1277.0000      7.9364      2.5381     -0.0028      6.7808    184.4202     25.8897
  1277.1000      7.9364      2.5461      0.0367      6.2962    186.7928     25.7152
  1277.2000      7.9364      2.5566      0.0756      5.6582    182.3652     25.7720
  1277.3000      7.9436      2.5577      0.0325      5.5933    177.7480     26.4514
  1277.4000      7.9436      2.5542      0.0518      5.8077    179.8036     27.6907
  1277.5000      7.9431      2.5485      0.0384      6.1525    187.4738     28.7792
  1277.6000      7.9431      2.5385      0.0522      6.7555    194.8340     28.9625
  1277.7000      7.9431      2.5316      0.0288      7.1762    197.5874     28.2598
  1277.8000      7.9418      2.5374      0.0213      6.8226    196.5781     27.4232
  1277.9000      7.9418      2.5521      0.0239      5.9360    195.1682     27.1505
  1278.0000      7.9399      2.5593      0.0602      5.4957    194.7917     27.4045
  1278.1000      7.9399      2.5549      0.0144      5.7632    196.0740     27.5956
  1278.2000      7.9399      2.5493      0.0318      6.1030    198.1886     27.4138
  1278.3000      7.9346      2.5436      0.0402      6.4469    199.2065     27.0666
  1278.4000      7.9346      2.5341      0.0668      7.0227    198.8005     26.7975
  1278.5000      7.9344      2.5282     -0.0057      7.3819    195.0564     26.5606
  1278.6000      7.9344      2.5310      0.0491      7.2097    189.0261     26.3608
  1278.7000      7.9344      2.5335      0.0363      7.0631    187.3329     26.4179
  1278.8000      7.9393      2.5335      0.0355      7.0589    188.7948     26.6032
  1278.9000      7.9393      2.5372      0.0319      6.8384    188.9576     26.6250
  1279.0000      7.9435      2.5345      0.0625      6.9995    190.1835     26.6956
  1279.1000      7.9435      2.5153      0.0232      8.1640    193.8709     26.9022
  1279.2000      7.9435      2.4954     -0.0025      9.3694    195.2329     27.2194
  1279.3000      7.9346      2.4941      0.0266      9.4476    192.8701     27.7290
  1279.4000      7.9346      2.5084      0.0615      8.5813    194.6303     28.1780
  1279.5000      7.9468      2.5237      0.0468      7.6565    203.8206     28.1724
  1279.6000      7.9468      2.5326      0.0803      7.1161    211.1673     27.9107
  1279.7000      7.9468      2.5353      0.0979      6.9543    210.4751     27.8469
  1279.8000      7.9491      2.5352      0.0856      6.9604    205.9181     27.9322
  1279.9000      7.9491      2.5385      0.0599      6.7597    201.9612     28.0319
  1280.0000      7.9365      2.5453      0.0985      6.3435    199.2664     28.1912
  1280.1000      7.9365      2.5508      0.0925      6.0128    198.7117     28.3412
  1280.2000      7.9365      2.5556      0.1244      5.7182    200.6764     28.3186
  1280.3000      7.9243      2.5582      0.1291      5.5644    200.5980     28.0968
  1280.4000      7.9243      2.5494      0.1346      6.0992    196.1606     27.8189
  1280.5000      7.9244      2.5333      0.0567      7.0712    192.3326     27.6273
  1280.6000      7.9244      2.5326      0.0537      7.1139    192.0329     27.5754
  1280.7000      7.9244      2.5521      0.0992      5.9362    193.2312     27.5873
  1280.8000      7.9007      2.5715      0.1088      4.7579    192.0526     27.4995
  1280.9000      7.9007      2.5762      0.0937      4.4715    189.5824     27.3219
  1281.0000      7.9075      2.5682      0.0791      4.9593    191.5771     27.1029
  1281.1000      7.9075      2.5670      0.0697      5.0303    194.0049     26.7328
  1281.2000      7.9075      2.5912      0.1146      3.5651    189.1648     26.3017
  1281.3000      7.9089      2.6288      0.1320      1.2841    180.8537     26.0678
  1281.4000      7.9089      2.6470      0.1694      0.1817    175.2244     26.0492
  1281.5000      7.9113      2.6324      0.1048      1.0683    171.3708     26.1712
  1281.6000      7.9113      2.6059      0.0315      2.6708    166.3998     26.4301
  1281.7000      7.9113      2.5880      0.0698      3.7557    158.1785     26.4121
  1281.8000      7.9275      2.5817      0.0473      4.1392    148.7717     25.7932
  1281.9000      7.9275      2.5856      0.0907      3.9011    144.6502     25.0529
  1282.0000      7.9199      2.5913      0.0858      3.5576    146.2221     24.5335
  1282.1000      7.9199      2.5889      0.0190      3.7014    149.1470     23.9215
  1282.2000      7.9199      2.5760      0.0538      4.4864    150.0163     23.0417
  1282.3000      7.9188      2.5645     -0.0229      5.1845    146.4534     22.1461
  1282.4000      7.9188      2.5742      0.0093      4.5924    139.3644     21.5262
  1282.5000      7.8889      2.5940      0.1054      3.3937    131.4560     21.1045
  1282.6000      7.8889      2.5947      0.0842      3.3517    127.0052     20.5804
  1282.7000      7.8889      2.5796      0.0879      4.2645    128.4116     19.8663
  1282.8000      7.8117      2.5716      0.0921      4.7504    132.4518     19.1298
  1282.9000      7.8117      2.5778      0.0609      4.3780    133.7810     18.8330
  1283.0000      7.7819      2.5926      0.0398      3.4799    131.1008     19.2183
  1283.1000      7.7819      2.6108      0.0772      2.3776    128.9926     19.7429
  1283.2000      7.7819      2.6327      0.0953      1.0511    128.1136     19.6515
  1283.3000      7.7934      2.6558      0.1452     -0.3544    125.0627     18.9134
  1283.4000      7.7934      2.6678      0.1088     -1.0792    119.9248     18.2267
  1283.5000      7.8163      2.6624      0.0933     -0.7492    114.3321     18.1283
  1283.6000      7.8163      2.6448      0.1196      0.3140    110.2682     18.5718
  1283.7000      7.8163      2.6268      0.0442      1.4032    109.1358     19.2129
  1283.8000      7.8083      2.6166      0.0824      2.0244    108.8180     19.5445
  1283.9000      7.8083      2.6108      0.0348      2.3771    107.5882     19.2929
  1284.0000      7.8065      2.6105      0.0342      2.3952    108.1008     18.8069
  1284.1000      7.8065      2.6140      0.0778      2.1809    111.5632     18.5591
  1284.2000      7.8065      2.6134      0.0575      2.2200    114.4186     18.6584
  1284.3000      7.8410      2.6080      0.0682      2.5454    114.5974     18.9250
  1284.4000      7.8410      2.6046      0.0024      2.7485    115.6479     19.1758
  1284.5000      7.8453      2.6083      0.0408      2.5254    120.8027     19.4321
  1284.6000      7.8453      2.6120      0.0694      2.3032    124.3826     19.9581
  1284.7000      7.8453      2.6100      0.0472      2.4223    120.9360     20.7630
  1284.8000      7.8389      2.6055      0.0880      2.6970    117.3784     21.4063
  1284.9000      7.8389      2.6025      0.0673      2.8807    119.8297     21.7465
  1285.0000      7.8138      2.6062      0.0676      2.6540    123.2542     22.1953
  1285.1000      7.8138      2.6161      0.0747      2.0548    122.5762     22.7133
  1285.2000      7.8138      2.6226      0.1096      1.6613    120.9276     22.8147
  1285.3000      7.8122      2.6198      0.0904      1.8292    122.2173     22.7324
  1285.4000      7.8122      2.6177      0.1042      1.9574    125.5903     22.9348
  1285.5000      7.8189      2.6299      0.0550      1.2206    129.2904     23.3445
  1285.6000      7.8189      2.6549      0.1037     -0.2998    132.4269     23.9202
  1285.7000      7.8189      2.6714      0.1382     -1.2989    133.0093     24.4633
  1285.8000      7.8296      2.6639      0.1068     -0.8447    131.2393     24.5065
  1285.9000      7.8296      2.6460      0.0508      0.2446    128.9221     24.2365
  1286.0000      7.8284      2.6292      0.0690      1.2619    128.1681     24.0551
  1286.1000      7.8284      2.6032      0.0459      2.8350    131.7856     23.8092
  1286.2000      7.8284      2.5656      0.0344      5.1177    136.9516     23.3473
  1286.3000      7.8272      2.5372     -0.0192      6.8393    138.8342     22.8930
