~Version Information
VERS.                      2.0: CWLS Log ASCII Standard - VERSION 2.0
WRAP.                       NO: One line per depth step
~Well Information Block
STRT.FT               -11.2500: 
STOP.FT              1934.7500: 
STEP.FT                 0.2500: 
NULL.                -999.2500: 
COMP.          Pioneer Natural Resources: COMPANY
WELL.          Commander 43-26 Tr: WELL
FLD.           Purgatorie River: FIELD
LOC.           2439' FSL  & 446' FEL--------: LOCATION
PROV.                       CO: PROVINCE
CNTY.               Las Animas: COUNTRY
SRVC.          Patterson Wireline: SERVICE COMPANY
DATE.          Tue Apr 26 09:07:23 2005: LOG DATE
UWI.           05 071 08341 00: UNIQUE WELL ID
~Curve Information Block
DEPT.FT            0 000 00 00: Depth
CCL.                          : Casing Collar Locator
TT3.usec                      : CBL 3' Travel Time
AMP3.mV                       : CBL 3' Amplitude
GR.GAPI                       : Gamma Ray
~Parameter Information Block
~A  Depth       CCL         TT3         AMP3         GR     
# ...
  1764.2500      0.0000    621.5182      3.3702    128.8696
  1764.5000      0.0000    597.1901      3.3813    130.9512
  1764.7500      0.0000    579.7345      3.4088    133.0900
  1765.0000      0.0000    577.4734      3.4414    133.5400
  1765.2500      0.0000    588.4080      3.4740    130.3601
  1765.5000      0.0000    600.5607      3.5096    122.9852
  1765.7500      0.0000    602.7460      3.5476    112.9332
  1766.0000      0.0000    593.9326      3.5749    103.1542
  1766.2500      0.0000    581.1502      3.5773     96.6497
  1766.5000      0.0000    569.7186      3.5592     95.1995
  1766.7500      0.0000    558.8879      3.5381     98.7286
  1767.0000      0.0000    548.2496      3.5267    105.5355
  1767.2500      0.0000    544.2271      3.5290    113.2013
  1767.5000      0.0000    555.2049      3.5457    119.7090
  1767.7500      0.0000    581.0818      3.5785    124.2137
  1768.0000      0.0000    611.8118      3.6313    126.8955
  1768.2500      0.0000    636.4532      3.7094    128.0561
  1768.5000      0.0000    650.9294      3.8096    127.6007
  1768.7500      0.0000    657.5708      3.9090    125.5491
  1769.0000      0.0000    660.6335      3.9715    122.5960
  1769.2500      0.0000    663.3135      3.9736    119.7530
  1769.5000      0.0000    667.1203      3.9239    117.7057
  1769.7500      0.0000    672.1945      3.8560    116.7776
  1770.0000      0.0000    677.9244      3.7974    117.0707
  1770.2500      0.0000    683.5421      3.7406    118.1251
  1770.5000      0.0000    688.2567      3.6564    118.8024
  1770.7500      0.0000    691.1895      3.5467    118.2002
  1771.0000      0.0000    691.7654      3.4598    116.6665
  1771.2500      0.0000    690.2532      3.4397    115.3148
  1771.5000      0.0000    687.4435      3.4750    114.4331
  1771.7500      0.0000    683.7205      3.5151    112.8866
  1772.0000      0.0000    678.9786      3.5221    109.4947
  1772.2500      0.0000    673.5596      3.4994    104.7952
  1772.5000      0.0000    668.5870      3.4791    100.9793
  1772.7500      0.0000    665.0181      3.4829     99.9621
  1773.0000      0.0000    662.6306      3.4920    101.8826
  1773.2500      0.0000    659.7535      3.4646    105.5560
  1773.5000      0.0000    653.2858      3.3861    109.8064
  1773.7500      0.0000    639.3112      3.2896    114.0386
  1774.0000      0.0000    616.1397      3.2159    118.1139
  1774.2500      0.0000    589.0839      3.1671    122.3960
  1774.5000      0.0000    570.9120      3.1104    127.7946
  1774.7500      0.0000    573.4070      3.0170    135.1042
  1775.0000      0.0000    596.9833      2.8870    143.8649
  1775.2500      0.0000    630.6277      2.7422    152.0487
  1775.5000      0.0000    662.1988      2.6095    157.2659
  1775.7500      0.0000    686.3644      2.5195    158.4367
  1776.0000      0.0000    703.0460      2.5050    156.2639
  1776.2500      0.0000    712.4550      2.5789    152.3315
  1776.5000      0.0000    714.4984      2.7163    147.9702
  1776.7500      0.0000    711.3813      2.8750    143.7170
  1777.0000      0.0000    707.4833      3.0290    139.4597
  1777.2500      0.0000    705.8502      3.1696    134.8035
  1777.5000      0.0000    706.2020      3.2829    129.3904
  1777.7500      0.0000    706.7484      3.3478    123.3872
  1778.0000      2.0000    706.6833      3.3583    117.8726
  1778.2500      2.0000    706.2172      3.3300    114.0600
  1778.5000      0.0000    705.0992      3.2828    111.8227
  1778.7500      0.0000    702.2517      3.2285    109.7635
  1779.0000      0.0000    697.1510      3.1748    107.1026
  1779.2500      0.0000    690.9507      3.1217    104.6519
  1779.5000      0.0000    685.4140      3.0620    103.4246
  1779.7500      0.0000    680.7958      3.0026    103.1583
  1780.0000      0.0000    675.7253      2.9727    102.9446
  1780.2500      0.0000    669.3674      2.9896    102.8947
  1780.5000      0.0000    663.0016      3.0359    104.5284
  1780.7500      0.0000    659.2139      3.0843    109.5727
  1781.0000      0.0000    659.6778      3.1282    118.6072
  1781.2500      0.0000    663.4688      3.1685    130.6426
  1781.5000      0.0000    667.3093      3.1921    143.5470
  1781.7500      0.0000    667.5679      3.1810    154.7800
  1782.0000      0.0000    662.4183      3.1341    162.2552
  1782.2500      0.0000    652.8448      3.0686    165.1786
  1782.5000      0.0000    642.2390      3.0075    164.3641
  1782.7500      0.0000    634.5024      2.9745    161.7845
  1783.0000      0.0000    631.8833      2.9907    159.6770
  1783.2500      0.0000    634.7723      3.0620    159.4644
  1783.5000      0.0000    643.1047      3.1678    160.8164
  1783.7500      0.0000    656.6525      3.2723    161.7216
  1784.0000      0.0000    673.5496      3.3480    159.9134
  1784.2500      0.0000    689.4295      3.3923    154.3530
  1784.5000      0.0000    698.9753      3.4238    145.4275
  1784.7500      0.0000    699.0758      3.4588    134.3795
  1785.0000      0.0000    691.1725      3.4973    122.9584
  1785.2500      0.0000    680.6558      3.5300    113.0482
  1785.5000      0.0000    673.5527      3.5514    105.8033
  1785.7500      0.0000    673.3786      3.5653    101.0656
  1786.0000      0.0000    680.2668      3.5867     97.9239
  1786.2500      0.0000    691.5662      3.6323     95.7727
  1786.5000      0.0000    702.6501      3.6986     94.6590
  1786.7500      0.0000    707.9518      3.7518     94.9835
  1787.0000      0.0000    702.8076      3.7532     97.1819
  1787.2500      0.0000    685.6019      3.6913    101.2875
  1787.5000      0.0000    658.6143      3.5873    106.4818
  1787.7500      0.0000    626.7871      3.4752    111.5172
  1788.0000      0.0000    595.9559      3.3863    116.0124
  1788.2500      0.0000    571.6900      3.3438    121.1304
  1788.5000      0.0000    556.8665      3.3605    128.4823
  1788.7500      0.0000    548.3702      3.4283    138.0135
  1789.0000      0.0000    538.9344      3.5154    147.1524
  1789.2500      0.0000    524.8058      3.5824    152.6893
  1789.5000      0.0000    509.2783      3.6149    153.6121
  1789.7500      0.0000    497.3334      3.6419    151.5328
  1790.0000      0.0000    489.9647      3.7161    148.4378
  1790.2500      0.0000    484.8396      3.8742    145.0432
  1790.5000      0.0000    480.2604      4.1197    141.5305
  1790.7500      0.0000    477.8271      4.4409    138.6966
  1791.0000      0.0000    481.4190      4.8414    137.5209
  1791.2500      0.0000    491.9164      5.3495    138.0603
  1791.5000      0.0000    502.6517      5.9974    139.3400
  1791.7500      0.0000    502.5853      6.7933    140.2857
  1792.0000      0.0000    485.8963      7.7071    140.5685
  1792.2500      0.0000    457.9772      8.6754    140.4130
  1792.5000      0.0000    431.6019      9.6123    139.6754
  1792.7500      0.0000    417.6864     10.4236    137.5786
  1793.0000      0.0000    419.0760     11.0295    133.7219
  1793.2500      0.0000    430.9152     11.3915    129.0462
  1793.5000      0.0000    446.3084     11.5301    125.3673
  1793.7500      0.0000    462.9223     11.5237    124.1146
  1794.0000      0.0000    483.6950     11.4771    125.7071
  1794.2500      0.0000    509.2059     11.4664    129.4713
  1794.5000      0.0000    530.8524     11.5030    133.6260
  1794.7500      0.0000    535.5526     11.5524    135.9803
  1795.0000      0.0000    518.0924     11.5811    135.3878
  1795.2500      0.0000    486.4395     11.5788    132.4705
  1795.5000      0.0000    454.3845     11.5565    128.8562
  1795.7500      0.0000    430.8566     11.5427    126.0703
  1796.0000      0.0000    416.3829     11.5728    125.0004
  1796.2500      0.0000    406.8872     11.6597    125.5978
  1796.5000      0.0000    398.7921     11.7783    126.7927
  1796.7500      0.0000    391.2601     11.8893    127.1896
  1797.0000      0.0000    385.5513     11.9682    126.1755
  1797.2500      0.0000    383.2687     12.0035    124.1775
  1797.5000      0.0000    385.0285     11.9860    121.8136
