~Version Information
VERS.                      2.0: CWLS Log ASCII Standard - VERSION 2.0
WRAP.                       NO: One line per depth step
~Well Information Block
STRT.FT                -6.5000: 
STOP.FT              1719.0000: 
STEP.FT                 0.5000: 
NULL.                -999.2500: 
COMP.          Pioneer Natural Resources: COMPANY
WELL.             Tami J 23-18: WELL
FLD.           Purgatorie River: FIELD
LOC.           2250' FSL & 2400' FWL: LOCATION
PROV.                 Colorado: PROVINCE
CNTY.               Las Animas: COUNTRY
SRVC.          Patterson Wireline: SERVICE COMPANY
DATE.          Fri Dec 17 13:50:12 2004: LOG DATE
UWI.           05-071-08073-00: UNIQUE WELL ID
~Curve Information Block
DEPT.FT            0 000 00 00: Depth
CCL.                          : Casing Collar Locator
TT3.usec                      : CBL 3' Travel Time
AMP3.mV                       : CBL 3' Amplitude
GR.GAPI                       : Gamma Ray
~Parameter Information Block
~A  Depth       CCL         TT3         AMP3         GR     
# ...
   864.5000      0.0000    737.0618      5.9896    130.5056
   865.0000      0.0000    737.3113      6.0410    130.0508
   865.5000      0.0000    737.1520      6.1219    129.3214
   866.0000      0.0000    736.8773      6.1900    126.4114
   866.5000      0.0000    737.7369      6.2902    132.6096
   867.0000      0.0000    742.5635      6.4653    139.4820
   867.5000      0.0000    752.6346      6.6187    135.4731
   868.0000      0.0000    763.7321      6.7815    126.1166
   868.5000      0.0000    768.1860      6.9633    124.3487
   869.0000      0.0000    765.1829      7.1297    124.1904
   869.5000      0.0000    766.9421      7.2352    121.7213
   870.0000      0.0000    777.1403      7.1606    122.7484
   870.5000      0.0000    783.9412      6.9365    125.3484
   871.0000      0.0000    781.3533      6.6457    121.2472
   871.5000      0.0000    778.0439      6.3403    113.4349
   872.0000      0.0000    778.9224      6.1565    112.1935
   872.5000      0.0000    784.8732      6.0046    116.7779
   873.0000      0.0000    793.1533      5.6714    115.9225
   873.5000      0.0000    789.5720      5.1810    107.1531
   874.0000      0.0000    771.4126      4.7678     96.0283
   874.5000      0.0000    761.2610      4.6462     86.4538
   875.0000      0.0000    762.6177      4.8554     89.4965
   875.5000      0.0000    759.5900      5.2200     95.0639
   876.0000      0.0000    749.2927      5.7001     92.8866
   876.5000      0.0000    749.3473      6.4588     88.5173
   877.0000      0.0000    756.0282      7.4104     88.0699
   877.5000      0.0000    748.1174      7.9745     88.7881
   878.0000      0.0000    735.1752      7.9758     84.7956
   878.5000      0.0000    739.4393      7.7526     81.4804
   879.0000      0.0000    758.0682      7.4943     80.3438
   879.5000      0.0000    764.9320      7.3051     78.3543
   880.0000      0.0000    753.9178      7.2073     81.8426
   880.5000      0.0000    745.6270      7.1896     90.5410
   881.0000      0.0000    748.3015      7.1048     98.2200
   881.5000      0.0000    752.5869      6.9525    102.0107
   882.0000      0.0000    749.9227      6.8821    107.1472
   882.5000      0.0000    747.3458      6.8194    110.9011
   883.0000      0.0000    745.6821      6.7154    108.6816
   883.5000      0.0000    741.2897      6.6791    105.9500
   884.0000      0.0000    731.5752      6.6935    105.9236
   884.5000      0.0000    723.1006      6.5851    111.5887
   885.0000      0.0000    724.4121      6.3607    115.7218
   885.5000      0.0000    737.7047      6.0798    116.8622
   886.0000      0.0000    733.0811      5.6080    122.4156
   886.5000      0.0000    707.2692      5.0942    133.1497
   887.0000      0.0000    698.1695      4.9562    139.3377
   887.5000      0.0000    722.2423      4.9187    129.3030
   888.0000      0.0000    770.3641      4.8565    105.2514
   888.5000      0.0000    804.9965      4.8710     84.9675
   889.0000      0.0000    815.8171      5.0988     84.9621
   889.5000      0.0000    818.9752      5.6899     97.9709
   890.0000      0.0000    815.4000      6.2321    112.2161
   890.5000      0.0000    803.2938      6.7315    123.5013
   891.0000      0.0000    786.5582      7.2867    129.9489
   891.5000      0.0000    784.0282      7.4586    130.1110
   892.0000      0.0000    790.6078      7.0756    122.2138
   892.5000      0.0000    782.9296      6.2645    117.3055
   893.0000      0.0000    774.8440      5.3594    123.3105
   893.5000      0.0000    783.3875      4.5441    132.5114
   894.0000      0.0000    800.9655      3.9202    127.5932
   894.5000      0.0000    820.5169      3.6722    104.1586
   895.0000      0.0000    838.2711      3.8680     87.1408
   895.5000      0.0000    833.0836      4.3166     90.9650
   896.0000      0.0000    810.2364      4.8025    107.3074
   896.5000      0.0000    790.6109      5.3077    119.6895
   897.0000      0.0000    779.6072      5.7973    124.3696
   897.5000      0.0000    772.3454      6.0817    130.9504
   898.0000      0.0000    777.4744      6.0911    133.0603
   898.5000      0.0000    797.0819      5.9928    130.0900
   899.0000      0.0000    808.9519      5.8870    129.0054
   899.5000      0.0000    805.0145      5.7910    128.7907
   900.0000      0.0000    793.9283      5.8330    128.8879
   900.5000      0.0000    780.2773      5.9951    131.9326
   901.0000      0.0000    773.1030      6.0521    134.5439
   901.5000      0.0000    769.7999      5.9531    130.2717
   902.0000      0.0000    755.2963      5.8522    123.7526
   902.5000      0.0000    722.1104      5.8023    125.3042
   903.0000      0.0000    683.2820      5.7629    135.0196
   903.5000      0.0000    661.5693      5.7683    144.7551
   904.0000      0.0000    659.7809      5.8913    145.6723
   904.5000      0.0000    668.1411      6.2803    140.1209
   905.0000      0.0000    670.9573      7.0552    131.8308
   905.5000      0.0000    685.5480      8.0955    125.8145
   906.0000      0.0000    695.7762      9.2016    123.8297
   906.5000      0.0000    647.2642     10.1800    124.1569
   907.0000      0.0000    597.8638     10.9338    127.4769
   907.5000      0.0000    612.1470     10.9253    131.7103
   908.0000      0.0000    688.1422      9.5357    130.9049
   908.5000      0.0000    776.6689      7.3598    116.8936
   909.0000      0.0000    832.6607      5.5128     94.3247
   909.5000      0.0000    849.7358      4.3742     76.7261
   910.0000      0.0000    835.5605      3.8300     76.0767
   910.5000      0.0000    803.7977      3.6889     88.7833
   911.0000      0.0000    767.5917      3.8364    102.2066
   911.5000      0.0000    750.0876      4.2827    110.7393
   912.0000      0.0000    758.9116      4.9643    113.8460
   912.5000      0.0000    774.2231      5.5226    108.8614
   913.0000      0.0000    777.5507      5.6493    105.7963
   913.5000      0.0000    771.5151      5.5367    109.8911
   914.0000      0.0000    768.0655      5.5041    108.6396
   914.5000      0.0000    767.7148      5.6120    106.3224
   915.0000      0.0000    767.8489      5.7355    112.9464
   915.5000      0.0000    766.9242      5.8512    124.7972
   916.0000      0.0000    760.6440      5.9554    135.1062
   916.5000      0.0000    747.2566      5.9694    138.1105
   917.0000      0.0000    736.4659      5.9401    140.3351
   917.5000      0.0000    732.5135      5.8910    146.4320
   918.0000      0.0000    732.0709      5.8633    146.3142
   918.5000      0.0000    739.4398      5.8983    145.5439
   919.0000      0.0000    750.2565      5.8125    151.7793
   919.5000      0.0000    750.2467      5.6470    157.3428
   920.0000      0.0000    756.9244      5.6747    153.3132
   920.5000      0.0000    765.6417      5.8605    139.1714
   921.0000      0.0000    752.1689      6.0505    127.2092
   921.5000      0.0000    734.6631      6.1734    125.6366
   922.0000      0.0000    729.9711      6.1302    126.7784
   922.5000      0.0000    732.2388      5.8970    126.0583
   923.0000      0.0000    737.9370      5.7233    117.2993
   923.5000      0.0000    743.4291      5.7740    103.5838
   924.0000      0.0000    744.5627      5.9186     98.2430
   924.5000      0.0000    743.0710      6.0918    105.1729
   925.0000      0.0000    744.0227      6.2268    121.1762
   925.5000      0.0000    745.9199      6.1885    134.4100
   926.0000      0.0000    741.4838      6.1109    140.9563
   926.5000      0.0000    735.4886      6.0502    148.7128
   927.0000      0.0000    732.9962      5.9450    157.1504
   927.5000      0.0000    733.5952      5.8734    157.5614
   928.0000      0.0000    734.2227      5.8874    148.8979
   928.5000      0.0000    729.1411      5.8479    148.9063
   929.0000      0.0000    721.7417      5.7051    157.3978
   929.5000      0.0000    716.2464      5.6088    158.2333
   930.0000      0.0000    712.9809      5.5682    152.1423
   930.5000      0.0000    723.8759      5.3655    150.7544
   931.0000      0.0000    742.1724      5.2051    151.4018
