~Version Information
VERS.                      2.0: CWLS Log ASCII Standard - VERSION 2.0
WRAP.                       NO: One line per depth step
~Well Information Block
STRT.FT               745.0000: 
STOP.FT              2945.7500: 
STEP.FT                 0.2500: 
NULL.                -999.2500: 
COMP.          Pioneer Natural Resources: COMPANY
WELL.          Old Yeller 31-32: WELL
FLD.           Purgatoire River: FIELD
LOC.           1832' FEL & 793' FNL--: LOCATION
STAT.                 Colorado: State
CNTY.               Las Animas: COUNTY
CTRY. USA : Country
SECT. 32 : Section
TOWN. 32S : Township
RANG. 67W : Range
SRVC.                Patterson: SERVICE COMPANY
DATE.          Sun Aug 28 20:20:00 2005: LOG DATE
API.           05 071 08356 00: UNIQUE WELL ID
~Curve Information Block
DEPT.FT            0 000 00 00: Depth
SN.Ohm-m                      : IEL Short Normal
SP.mV                         : IEL Spontaneous Potential
DIR.Ohm-m                     : IEL Induction Resistivity
GR.GAPI                       : Gamma Ray
~Parameter Information Block
~A  Depth        SN          SP         DIR          GR     
# ...
  1616.0000     23.3555    133.4057     21.9842    113.4619
  1616.2500     21.9928    134.6658     20.5490    117.6672
  1616.5000     20.8117    135.7982     19.3144    124.8538
  1616.7500     19.8017    136.7960     18.2804    129.6149
  1617.0000     18.9333    137.6596     17.4135    135.4258
  1617.2500     18.1785    138.3961     16.6714    137.7878
  1617.5000     17.5217    139.0183     16.0225    138.6341
  1617.7500     16.9620    139.5422     15.4528    137.5096
  1618.0000     16.5079    139.9850     14.9624    133.9919
  1618.2500     16.1652    140.3628     14.5565    131.2348
  1618.5000     15.9251    140.6895     14.2355    128.4224
  1618.7500     15.7601    140.9749     13.9897    128.3482
  1619.0000     15.6333    141.2250     13.7983    130.9723
  1619.2500     15.5115    141.4419     13.6334    133.5900
  1619.5000     15.3761    141.6250     13.4670    136.7202
  1619.7500     15.2260    141.7716     13.2790    137.5991
  1620.0000     15.0744    141.8782     13.0640    137.4416
  1620.2500     14.9401    141.9416     12.8356    137.1002
  1620.5000     14.8346    141.9591     12.6207    137.3397
  1620.7500     14.7497    141.9297     12.4486    138.0869
  1621.0000     14.6543    141.8532     12.3389    139.4067
  1621.2500     14.5040    141.7313     12.2956    139.9730
  1621.5000     14.2615    141.5666     12.3086    139.9413
  1621.7500     13.9235    141.3628     12.3611    139.1376
  1622.0000     13.5405    141.1245     12.4388    136.2672
  1622.2500     13.2145    140.8565     12.5375    133.1496
  1622.5000     13.0705    140.5638     12.6654    127.7391
  1622.7500     13.2107    140.2510     12.8391    124.9973
  1623.0000     13.6713    139.9217     13.0740    124.2607
  1623.2500     14.3985    139.5788     13.3757    126.0868
  1623.5000     15.2582    139.2238     13.7332    130.1638
  1623.7500     16.0780    138.8574     14.1172    132.0666
  1624.0000     16.7077    138.4792     14.4860    132.0395
  1624.2500     17.0676    138.0889     14.7990    130.4011
  1624.5000     17.1612    137.6875     15.0308    127.4007
  1624.7500     17.0520    137.2789     15.1779    125.9117
  1625.0000     16.8297    136.8718     15.2540    124.3977
  1625.2500     16.5855    136.4809     15.2801    123.3604
  1625.5000     16.3978    136.1259     15.2752    121.8250
  1625.7500     16.3209    135.8284     15.2519    121.6607
  1626.0000     16.3728    135.6075     15.2164    123.9661
  1626.2500     16.5291    135.4732     15.1718    126.9373
  1626.5000     16.7300    135.4203     15.1210    131.8031
  1626.7500     16.9048    135.4261     15.0669    134.5635
  1627.0000     17.0034    135.4508     15.0121    137.9145
  1627.2500     17.0151    135.4442     14.9599    139.7977
  1627.5000     16.9654    135.3549     14.9175    141.8423
  1627.7500     16.8971    135.1419     14.8951    142.3787
  1628.0000     16.8493    134.7829     14.9022    141.8426
  1628.2500     16.8461    134.2789     14.9428    140.7778
  1628.5000     16.8973    133.6525     15.0140    138.6084
  1628.7500     17.0030    132.9410     15.1095    137.2612
  1629.0000     17.1563    132.1866     15.2238    136.5629
  1629.2500     17.3434    131.4271     15.3554    137.4524
  1629.5000     17.5445    130.6898     15.5057    140.4637
  1629.7500     17.7361    129.9886     15.6758    142.7833
  1630.0000     17.8984    129.3257     15.8622    145.2496
  1630.2500     18.0282    128.6946     16.0558    145.7046
  1630.5000     18.1514    128.0853     16.2462    144.4948
  1630.7500     18.3257    127.4868     16.4307    142.7985
  1631.0000     18.6255    126.8902     16.6209    140.2259
  1631.2500     19.1127    126.2884     16.8428    139.3034
  1631.5000     19.8053    125.6761     17.1281    139.4430
  1631.7500     20.6611    125.0495     17.5042    139.9045
  1632.0000     21.5980    124.4051     17.9864    139.5356
  1632.2500     22.5398    123.7404     18.5761    138.0331
  1632.5000     23.4556    123.0535     19.2618    133.9678
  1632.7500     24.3714    122.3432     20.0246    130.4304
  1633.0000     25.3578    121.6089     20.8477    124.5013
  1633.2500     26.5114    120.8498     21.7264    120.2859
  1633.5000     27.9303    120.0644     22.6710    113.6329
  1633.7500     29.6844    119.2499     23.7011    109.2293
  1634.0000     31.7944    118.4020     24.8363    103.7746
  1634.2500     34.2354    117.5152     26.0935    101.5865
  1634.5000     36.9539    116.5830     27.4892    100.6155
  1634.7500     39.8787    115.5992     29.0383    100.7989
  1635.0000     42.9229    114.5581     30.7406    100.6428
  1635.2500     46.0025    113.4562     32.5597     99.7350
  1635.5000     49.0689    112.2939     34.4103     97.5568
  1635.7500     52.1301    111.0772     36.1746     96.1176
  1636.0000     55.2310    109.8196     37.7488     94.5321
  1636.2500     58.3937    108.5447     39.0927     93.8030
  1636.5000     61.5517    107.2870     40.2330     92.6327
  1636.7500     64.5177    106.0930     41.2086     91.3091
  1637.0000     67.0008    105.0213     42.0057     87.8914
  1637.2500     68.6666    104.1401     42.5368     84.8379
  1637.5000     69.2244    103.5244     42.6771     80.4715
  1637.7500     68.5015    103.2491     42.3230     78.6778
  1638.0000     66.4738    103.3810     41.4273     78.4692
  1638.2500     63.2580    103.9688     40.0027     79.6638
  1638.5000     59.0929    105.0343     38.1095     82.2277
  1638.7500     54.3182    106.5650     35.8488     84.1024
  1639.0000     49.3248    108.5115     33.3594     87.9372
  1639.2500     44.4649    110.7900     30.8017     91.9994
  1639.5000     39.9654    113.2903     28.3243    100.9709
  1639.7500     35.9089    115.8875     26.0317    108.4373
  1640.0000     32.2881    118.4561     23.9747    120.2350
  1640.2500     29.0777    120.8832     22.1665    127.4382
  1640.5000     26.2762    123.0787     20.6027    135.7388
  1640.7500     23.9082    124.9816     19.2721    139.0949
  1641.0000     22.0028    126.5619     18.1582    140.9064
  1641.2500     20.5687    127.8175     17.2399    140.4648
  1641.5000     19.5766    128.7688     16.4957    138.5013
  1641.7500     18.9540    129.4516     15.9095    136.9496
  1642.0000     18.5963    129.9097     15.4717    135.0738
  1642.2500     18.3963    130.1882     15.1756    134.4102
  1642.5000     18.2751    130.3284     15.0113    134.2795
  1642.7500     18.1962    130.3639     14.9622    134.4812
  1643.0000     18.1542    130.3200     15.0043    134.6977
  1643.2500     18.1528    130.2128     15.1101    134.6880
  1643.5000     18.1914    130.0513     15.2532    134.6751
  1643.7500     18.2647    129.8398     15.4128    134.9714
  1644.0000     18.3696    129.5811     15.5751    136.2485
  1644.2500     18.5071    129.2803     15.7330    137.3715
  1644.5000     18.6791    128.9470     15.8845    138.1225
  1644.7500     18.8828    128.5973     16.0296    137.4888
  1645.0000     19.1074    128.2538     16.1686    135.4888
  1645.2500     19.3324    127.9444     16.3003    134.2634
  1645.5000     19.5250    127.6995     16.4194    133.0815
  1645.7500     19.6382    127.5495     16.5121    132.3060
  1646.0000     19.6168    127.5215     16.5528    130.1637
  1646.2500     19.4205    127.6360     16.5087    127.8515
  1646.5000     19.0524    127.9050     16.3554    123.4561
  1646.7500     18.5700    128.3282     16.0930    120.4837
  1647.0000     18.0667    128.8918     15.7493    117.2762
  1647.2500     17.6372    129.5667     15.3659    116.7026
  1647.5000     17.3480    130.3093     14.9804    118.6928
  1647.7500     17.2210    131.0656     14.6150    121.4418
  1648.0000     17.2320    131.7760     14.2769    125.6304
  1648.2500     17.3268    132.3824     13.9672    127.0828
  1648.5000     17.4569    132.8333     13.6907    126.0363
  1648.7500     17.6131    133.0868     13.4641    123.6230
  1649.0000     17.8339    133.1103     13.3177    119.4912
  1649.2500     18.1849    132.8773     13.2893    117.3468
