~Version Information
VERS.                      2.0: CWLS Log ASCII Standard - VERSION 2.0
WRAP.                       NO: One line per depth step
~Well Information Block
STRT.FT                 0.0000: 
STOP.FT              2159.0000: 
STEP.FT                 0.2500: 
NULL.                -999.2500: 
COMP.          Petrogulf Corporation: COMPANY
WELL.               Furu 6-23R: WELL
FLD.           Purgatoire River: FIELD
LOC.           2211' FSL & 1780' FWL: LOCATION
CNTY.               Las Animas: COUNTY
SRVC.                         : SERVICE COMPANY
DATE.          Fri Jul 14 16:00:32 2006: LOG DATE
UWI.           05 071 08266 00: UNIQUE WELL ID
STAT.                       CO: STATE
~Curve Information Block
DEPT.FT            0 000 00 00: Depth
GR.GAPI                       : Gamma Ray
CCL.                          : Casing Collar Locator
TT3.usec                      : CBL 3' Travel Time
AMP3.mV                       : CBL 3' Amplitude
~Parameter Information Block
~A  Depth        GR         CCL         TT3         AMP3    
# ...
   971.5000    154.9594      0.0000    257.2999     74.9494
   971.7500    155.9739      0.0000    257.3225     75.0878
   972.0000    155.8140      0.0000    257.3365     75.2147
   972.2500    152.6849      0.0000    257.3345     75.3370
   972.5000    146.9669      0.0000    257.3159     75.4538
   972.7500    140.7877      0.0000    257.2861     75.5595
   973.0000    136.1135      0.0000    257.2491     75.6471
   973.2500    133.7083      0.0000    257.2079     75.7105
   973.5000    133.6286      0.0000    257.1685     75.7445
   973.7500    135.6600      0.0000    257.1417     75.7471
   974.0000    138.9494      0.0000    257.1369     75.7216
   974.2500    142.1392      0.0000    257.1547     75.6788
   974.5000    144.3976      0.0000    257.1872     75.6344
   974.7500    145.9334      0.0000    257.2220     75.6030
   975.0000    147.2478      0.0000    257.2470     75.5927
   975.2500    148.1694      0.0000    257.2568     75.6029
   975.5000    147.8820      0.0000    257.2548     75.6270
   975.7500    145.8299      0.0000    257.2485     75.6565
   976.0000    142.2636      0.0000    257.2417     75.6843
   976.2500    137.7223      0.0000    257.2320     75.7052
   976.5000    132.2523      0.0000    257.2180     75.7142
   976.7500    125.5356      0.0000    257.2048     75.7034
   977.0000    117.8404      0.0000    257.2009     75.6608
   977.2500    110.5526      0.0000    257.2088     75.5701
   977.5000    105.5134      0.0000    257.2220     75.4134
   977.7500    103.8652      0.0000    257.2324     75.1756
   978.0000    105.3898      0.0000    257.2379     74.8454
   978.2500    108.6166      0.0000    257.2431     74.4124
   978.5000    111.6896      0.0000    257.2528     73.8520
   978.7500    113.6976      0.0000    257.2739     73.1060
   979.0000    115.2173      0.0000    257.3351     72.0639
   979.2500    117.4464      0.0000    257.5424     70.5619
   979.5000    121.1386      0.0000    258.1851     68.4148
   979.7500    126.6414      0.0000    259.8339     65.4842
   980.0000    134.1584      0.0000    263.2315     61.7622
   980.2500    142.9726      0.0000    268.7201     57.4330
   980.5000    150.6740      0.0000    275.4659     52.8658
   980.7500    154.2809      0.0000    281.4513     48.5271
   981.0000    152.7716      0.0000    284.7356     44.8445
   981.2500    148.3689      0.0000    284.9140     42.0868
   981.5000    144.7668      0.0000    283.2835     40.3226
   981.7500    143.8434      0.0000    281.7477     39.4713
   982.0000    144.4069     -2.0000    281.5916     39.4106
   982.2500    144.1107      0.0000    282.8314     40.0772
   982.5000    141.8971      0.0000    284.2536     41.5035
   982.7500    138.4955      0.0000    284.0777     43.7730
   983.0000    135.4235      0.0000    281.0812     46.9210
   983.2500    133.8600      0.0000    275.5779     50.8392
   983.5000    133.6934      0.0000    269.2705     55.2439
   983.7500    133.1965      0.0000    263.9603     59.7343
   984.0000    130.1578      0.0000    260.4467     63.9058
   984.2500    123.5419      0.0000    258.5277     67.4622
   984.5000    113.7147      0.0000    257.6266     70.2705
   984.7500    101.4011      0.0000    257.2499     72.3489
   985.0000     87.3347      0.0000    257.1008     73.8098
   985.2500     72.9928      0.0000    257.0402     74.7975
   985.5000     60.7551      0.0000    257.0136     75.4434
   985.7500     52.7469      0.0000    256.9984     75.8474
   986.0000     49.8274      0.0000    256.9847     76.0782
   986.2500     52.0659      0.0000    256.9706     76.1834
   986.5000     59.8551      0.0000    256.9596     76.1977
   986.7500     73.7448      0.0000    256.9549     76.1500
   987.0000     92.7754      0.0000    256.9568     76.0619
   987.2500    113.3496      0.0000    256.9633     75.9484
   987.5000    130.5059      0.0000    256.9678     75.8185
   987.7500    140.8885      0.0000    256.9575     75.6783
   988.0000    144.6738      0.0000    256.9216     75.5348
   988.2500    144.6247      0.0000    256.8693     75.3965
   988.5000    143.5540      0.0000    256.8306     75.2718
   988.7500    142.7863      0.0000    256.8307     75.1666
   989.0000    142.4737      0.0000    256.8650     75.0834
   989.2500    142.5986      0.0000    256.9059     75.0242
   989.5000    143.4057      0.0000    256.9315     74.9931
   989.7500    144.9480      0.0000    256.9403     74.9975
   990.0000    146.3594      0.0000    256.9459     75.0456
   990.2500    146.1310      0.0000    256.9616     75.1414
   990.5000    143.5614      0.0000    256.9894     75.2819
   990.7500    139.5366      0.0000    257.0187     75.4573
   991.0000    135.5575      0.0000    257.0365     75.6537
   991.2500    132.4312      0.0000    257.0394     75.8567
   991.5000    129.9703      0.0000    257.0334     76.0540
   991.7500    127.3504      0.0000    257.0222     76.2356
   992.0000    123.7186      0.0000    256.9999     76.3952
   992.2500    119.0770      0.0000    256.9608     76.5300
   992.5000    114.7623      0.0000    256.9142     76.6414
   992.7500    112.6226      0.0000    256.8832     76.7324
   993.0000    113.4761      0.0000    256.8817     76.8054
   993.2500    116.4484      0.0000    256.9010     76.8605
   993.5000    119.7504      0.0000    256.9221     76.8952
   993.7500    122.1818      0.0000    256.9375     76.9065
   994.0000    123.9567      0.0000    256.9513     76.8914
   994.2500    125.7516      0.0000    256.9659     76.8461
   994.5000    126.9033      0.0000    256.9766     76.7654
   994.7500    125.5485      0.0000    256.9805     76.6439
   995.0000    120.9956      0.0000    256.9815     76.4803
   995.2500    114.9705      0.0000    256.9865     76.2819
   995.5000    110.0734      0.0000    257.0019     76.0654
   995.7500    107.7994      0.0000    257.0326     75.8527
   996.0000    108.1699      0.0000    257.0782     75.6629
   996.2500    110.4455      0.0000    257.1297     75.5066
   996.5000    113.8662      0.0000    257.1747     75.3842
   996.7500    117.8860      0.0000    257.2081     75.2903
   997.0000    121.8018      0.0000    257.2339     75.2192
   997.2500    124.4474      0.0000    257.2579     75.1683
   997.5000    124.7237      0.0000    257.2807     75.1400
   997.7500    122.5873      0.0000    257.2979     75.1399
   998.0000    119.2759      0.0000    257.3044     75.1733
   998.2500    116.4825      0.0000    257.3010     75.2399
   998.5000    115.3730      0.0000    257.2942     75.3304
   998.7500    116.3408      0.0000    257.2906     75.4248
   999.0000    119.1237      0.0000    257.2928     75.4966
   999.2500    122.6579      0.0000    257.3011     75.5223
   999.5000    125.2006      0.0000    257.3174     75.4901
   999.7500    125.4667      0.0000    257.3426     75.4052
  1000.0000    123.8421      0.0000    257.3720     75.2860
  1000.2500    121.9119      0.0000    257.3960     75.1560
  1000.5000    120.7051      0.0000    257.4055     75.0342
  1000.7500    119.9646      0.0000    257.3988     74.9309
  1001.0000    119.1483      0.0000    257.3827     74.8474
  1001.2500    118.3601      0.0000    257.3654     74.7802
  1001.5000    117.9693      0.0000    257.3510     74.7253
  1001.7500    117.6941      0.0000    257.3394     74.6811
  1002.0000    116.4286      0.0000    257.3322     74.6488
  1002.2500    113.1072      0.0000    257.3326     74.6310
  1002.5000    107.7243      0.0000    257.3393     74.6301
  1002.7500    101.3730      0.0000    257.3431     74.6464
  1003.0000     95.2504      0.0000    257.3339     74.6775
  1003.2500     89.8248      0.0000    257.3114     74.7191
  1003.5000     84.8866      0.0000    257.2873     74.7653
  1003.7500     80.0568      0.0000    257.2769     74.8104
  1004.0000     75.1236      0.0000    257.2908     74.8495
  1004.2500     70.0902      0.0000    257.3280     74.8801
  1004.5000     65.1827      0.0000    257.3743     74.9016
  1004.7500     60.9664      0.0000    257.4101     74.9157
