~Version Information
VERS.                      2.0: CWLS Log ASCII Standard - VERSION 2.0
WRAP.                       NO: One line per depth step
~Well Information Block
STRT.FT               665.0000: 
STOP.FT              1972.0000: 
STEP.FT                 0.2500: 
NULL.                -999.2500: 
COMP.          Petrogulf Corporation: COMPANY
WELL.          Great Plains 22-21V: WELL
FLD.           Purgatorie River: FIELD
LOC.           63' FNL & 1895' FWL: LOCATION
PROV.                 Colorado: PROVINCE
CNTY.               Las Animas: COUNTRY
SRVC.                Patterson: SERVICE COMPANY
DATE.          Thu Sep 01 07:36:33 2005: LOG DATE
UWI.                          : UNIQUE WELL ID
~Curve Information Block
DEPT.FT            0 000 00 00: Depth
SP.mV                         : DIL Spontaneous Potential
RILD.Ohm-m                    : DIL Deep Resistivity
RILM.Ohm-m                    : DIL Medium Resistivity
RLL3.Ohm-m                    : DIL Shallow Resistivity
GR.GAPI                       : Gamma Ray
~Parameter Information Block
~A  Depth        SP         RILD        RILM        RLL3         GR     
# ...
   917.0000   2000.0000      6.8726      8.1428   2000.0000     58.0995
   917.2500   2000.0000      6.7610      7.8886   2000.0000     50.3115
   917.5000   2000.0000      6.6648      7.5488   2000.0000     80.1165
   917.7500   2000.0000      6.6557      7.2050   2000.0000     94.6590
   918.0000   2000.0000      6.5875      6.7603   2000.0000     94.3445
   918.2500   2000.0000      6.5019      6.4828   2000.0000     94.6555
   918.5000   2000.0000      6.6297      6.3120   2000.0000    104.6428
   918.7500   2000.0000      6.6605      6.1458   2000.0000    110.6127
   919.0000   2000.0000      6.6439      6.0811   2000.0000    126.6777
   919.2500   2000.0000      6.5250      5.9457   2000.0000    118.3366
   919.5000   2000.0000      6.3519      5.9674   2000.0000    123.8314
   919.7500   2000.0000      6.3176      5.8493   2000.0000    121.6563
   920.0000   2000.0000      6.1886      5.7674   2000.0000    128.6298
   920.2500   2000.0000      6.1489      5.7038   2000.0000    123.3270
   920.5000   2000.0000      6.0878      5.6610   2000.0000    108.4482
   920.7500   2000.0000      6.0261      5.6416   2000.0000    123.8425
   921.0000   2000.0000      6.1184      5.6212   2000.0000    133.9254
   921.2500   2000.0000      6.1898      5.6854   2000.0000    117.8457
   921.5000   2000.0000      6.1721      5.7437   2000.0000    120.0798
   921.7500   2000.0000      6.3758      5.8773   2000.0000    106.0589
   922.0000   2000.0000      6.5830      6.0339   2000.0000    111.7820
   922.2500   2000.0000      6.7290      6.1033   2000.0000    120.4007
   922.5000   2000.0000      6.8759      6.2289   2000.0000    124.7595
   922.7500   2000.0000      7.1933      6.4434   2000.0000    127.7059
   923.0000   2000.0000      7.4647      6.6461   2000.0000    128.7548
   923.2500   2000.0000      7.5732      6.7970   2000.0000    128.4503
   923.5000   2000.0000      7.9625      7.0068   2000.0000    132.0826
   923.7500   2000.0000      8.3122      7.3340   2000.0000    121.5759
   924.0000   2000.0000      8.5770      7.6966   2000.0000    120.3820
   924.2500   2000.0000      8.8106      8.0920   2000.0000    112.5691
   924.5000   2000.0000      9.2252      8.6213   2000.0000    117.9980
   924.7500   2000.0000      9.4592      8.9639   2000.0000    111.0451
   925.0000   2000.0000      9.5957      9.7066   2000.0000    102.3476
   925.2500   2000.0000      9.7862     10.5534   2000.0000    109.4043
   925.5000   2000.0000      9.8462     11.0378   2000.0000    106.4748
   925.7500   2000.0000      9.9002     11.4647   2000.0000     92.7662
   926.0000   2000.0000     10.0660     11.6716   2000.0000    112.3404
   926.2500   2000.0000     10.1701     11.2968   2000.0000    103.5066
   926.5000   2000.0000     10.5032     10.5987   2000.0000     96.1631
   926.7500   2000.0000     10.8799     10.0070   2000.0000    111.4673
   927.0000   2000.0000     10.9885      9.8795   2000.0000    117.3804
   927.2500   2000.0000     10.5782      9.9191   2000.0000    124.6633
   927.5000   2000.0000     10.3828     10.0354   2000.0000    101.7803
   927.7500   2000.0000      9.9957     10.3013   2000.0000    104.9166
   928.0000   2000.0000      9.4950     10.3552   2000.0000    110.0373
   928.2500   2000.0000      9.2756      9.7169   2000.0000    110.0494
   928.5000   2000.0000      8.8152      9.1046   2000.0000    118.6142
   928.7500   2000.0000      8.4569      8.4255   2000.0000    136.1185
   929.0000   2000.0000      8.2228      7.8512   2000.0000    131.0320
   929.2500   2000.0000      8.1875      7.4928   2000.0000    129.6849
   929.5000   2000.0000      8.2470      7.3690   2000.0000    129.4125
   929.7500   2000.0000      8.4704      7.3580   2000.0000    133.0981
   930.0000   2000.0000      8.7553      7.4038   2000.0000    115.2771
   930.2500   2000.0000      8.8142      7.4655   2000.0000    117.2301
   930.5000   2000.0000      9.0148      7.5578   2000.0000    102.1747
   930.7500   2000.0000      9.2510      7.9228   2000.0000    113.9345
   931.0000   2000.0000      9.2156      8.5700   2000.0000    108.5421
   931.2500   2000.0000      9.3919      9.2654   2000.0000     86.6717
   931.5000   2000.0000      9.2936     10.0125   2000.0000     88.2958
   931.7500   2000.0000      9.3214     10.8475   2000.0000     68.5210
   932.0000   2000.0000      8.9962     11.1807   2000.0000     72.7934
   932.2500   2000.0000      8.8634     11.3778   2000.0000     83.7725
   932.5000   2000.0000      8.7525     11.0042   2000.0000    106.8461
   932.7500   2000.0000      8.9965     10.4055   2000.0000    115.1946
   933.0000   2000.0000      9.2970      9.7371   2000.0000     98.9982
   933.2500   2000.0000      9.5688      8.8933   2000.0000    102.6917
   933.5000   2000.0000      9.7173      8.4222   2000.0000    108.8374
   933.7500   2000.0000     10.1891      7.9171   2000.0000    105.9485
   934.0000   2000.0000     10.2838      7.7500   2000.0000    110.2792
   934.2500   2000.0000     10.6474      7.8321   2000.0000    101.6212
   934.5000   2000.0000     11.1917      7.9974   2000.0000    118.8749
   934.7500   2000.0000     11.0575      8.4626   2000.0000    121.0284
   935.0000   2000.0000     11.2038      9.0808   2000.0000    101.4968
   935.2500   2000.0000     11.6948     10.1895   2000.0000     93.9097
   935.5000   2000.0000     11.8554     11.2341   2000.0000     78.8729
   935.7500   2000.0000     12.1119     12.8953   2000.0000     67.5887
   936.0000   2000.0000     12.4487     14.4664   2000.0000     58.1587
   936.2500   2000.0000     13.3151     16.1556   2000.0000     43.1842
   936.5000   2000.0000     13.9998     18.3780   2000.0000     26.1186
   936.7500   2000.0000     14.8185     20.3063   2000.0000     20.7508
   937.0000   2000.0000     15.7512     22.4783   2000.0000     20.1875
   937.2500   2000.0000     16.4438     24.9752   2000.0000     22.7727
   937.5000   2000.0000     16.5937     25.2799   2000.0000     30.8321
   937.7500   2000.0000     16.3193     23.5442   2000.0000     38.6410
   938.0000   2000.0000     16.2435     21.0619   2000.0000     46.2094
   938.2500   2000.0000     15.7301     17.7618   2000.0000     66.9918
   938.5000   2000.0000     15.4634     16.3361   2000.0000     81.3064
   938.7500   2000.0000     14.6860     14.0505   2000.0000     94.0750
   939.0000   2000.0000     13.8980     12.3011   2000.0000    111.5922
   939.2500   2000.0000     13.4115     11.2972   2000.0000    115.9936
   939.5000   2000.0000     12.7119     10.7120   2000.0000    111.6771
   939.7500   2000.0000     12.6684     10.4387   2000.0000    106.9863
   940.0000   2000.0000     12.2104     10.3087   2000.0000    121.4469
   940.2500   2000.0000     11.9188     10.4715   2000.0000    107.9560
   940.5000   2000.0000     11.6910     10.4443   2000.0000    104.6873
   940.7500   2000.0000     11.4832     10.2743   2000.0000    107.1492
   941.0000   2000.0000     11.1570     10.3385   2000.0000     91.1158
   941.2500   2000.0000     10.9339     10.4921   2000.0000     92.1024
   941.5000   2000.0000     10.9351     10.5591   2000.0000    103.0310
   941.7500   2000.0000     10.5838     10.5466   2000.0000    101.5410
   942.0000   2000.0000     10.8107     10.7422   2000.0000    110.1195
   942.2500   2000.0000     11.0193     10.4646   2000.0000    119.3039
   942.5000   2000.0000     11.0403     10.2576   2000.0000    127.2655
   942.7500   2000.0000     10.9915     10.1552   2000.0000    121.6556
   943.0000   2000.0000     10.9996     10.0672   2000.0000    102.9316
   943.2500   2000.0000     10.8075     10.0608   2000.0000    116.4434
   943.5000   2000.0000     10.7431      9.8286   2000.0000    102.3021
   943.7500   2000.0000     10.4384      9.8041   2000.0000    104.5446
   944.0000   2000.0000     10.2500      9.5622   2000.0000    123.6635
   944.2500   2000.0000     10.1105      9.2990   2000.0000    116.5514
   944.5000   2000.0000      9.8339      8.9276   2000.0000    101.0438
   944.7500   2000.0000      9.9358      8.5506   2000.0000    110.3513
