~Version Information
VERS.                      2.0: CWLS Log ASCII Standard - VERSION 2.0
WRAP.                       NO: One line per depth step
~Well Information Block
STRT.FT               679.2000: 
STOP.FT              2289.5000: 
STEP.FT                 0.1000: 
NULL.                -999.2500: 
COMP.          Petrogulf Corporation: COMPANY
WELL.          Anderson 18-43V: WELL
FLD.           Purgatorie River: FIELD
LOC.           1782' FSL & 887' FEL: LOCATION
CNTY.               Las Animas: COUNTY
SRVC.                         : SERVICE COMPANY
DATE.          Thu Sep 02 08:33:50 2004: LOG DATE
UWI.           05 071 08156 00: UNIQUE WELL ID
STAT.                 Colorado: STATE
~Curve Information Block
DEPT.FT            0 000 00 00: Depth
GR.GAPI                       : Gamma Ray
DCAL.in                       : CDL Caliper
DPOR.pu                       : CDL Density Porosity
NPOR.pu                       : Neutron Porosity
RHOB.g/cc                     : CDL Bulk Density
RHOC.g/cc                     : CDL Density Correction
~Parameter Information Block
~A  Depth        GR         DCAL        DPOR        NPOR        RHOB        RHOC    
# ...
  1850.4000    134.7904      7.9675      4.2343     21.7255      2.5801      0.0532
  1850.5000    134.6886      7.9676      4.8151     21.6304      2.5706      0.0185
  1850.6000    134.4651      7.9676      5.2895     22.1744      2.5627      0.0271
  1850.7000    134.0857      7.9676      5.2896     22.8499      2.5627      0.0403
  1850.8000    133.5341      7.9676      5.0672     23.0346      2.5664      0.0421
  1850.9000    132.8147      7.9676      4.8366     22.4829      2.5702      0.0540
  1851.0000    131.9500      7.9678      4.8472     21.5851      2.5700      0.0247
  1851.1000    130.9764      7.9678      5.3475     20.9267      2.5618      0.0395
  1851.2000    129.9388      7.9678      6.0494     20.5081      2.5502      0.0127
  1851.3000    128.8853      7.9677      6.5160     20.2222      2.5425      0.0021
  1851.4000    127.8649      7.9677      6.7384     20.3752      2.5388     -0.0201
  1851.5000    126.9276      7.9549      6.9030     21.1738      2.5361      0.0023
  1851.6000    126.1257      7.9549      7.3815     22.3068      2.5282      0.0079
  1851.7000    125.5101      7.9549      7.8332     22.8409      2.5208      0.0066
  1851.8000    125.1274      7.9445      7.3175     22.7268      2.5293     -0.0077
  1851.9000    125.0165      7.9445      5.9298     22.8354      2.5522      0.0365
  1852.0000    125.1990      7.9443      4.6222     23.0090      2.5737      0.0373
  1852.1000    125.6722      7.9443      3.8729     22.6765      2.5861      0.0460
  1852.2000    126.4020      7.9443      3.6042     21.7532      2.5905      0.0754
  1852.3000    127.3279      7.9433      3.4841     20.6760      2.5925      0.0480
  1852.4000    128.3614      7.9433      3.2628     20.2009      2.5962      0.0540
  1852.5000    129.3985      7.9431      3.1992     20.4485      2.5972      0.0667
  1852.6000    130.3289      7.9431      3.9022     20.6074      2.5856      0.0684
  1852.7000    131.0471      7.9431      5.2999     20.1477      2.5626      0.0011
  1852.8000    131.4645      7.9425      6.4205     19.8270      2.5441      0.0121
  1852.9000    131.5091      7.9425      6.8138     20.0918      2.5376     -0.0091
  1853.0000    131.1373      7.9428      6.8513     20.2219      2.5370      0.0411
  1853.1000    130.3280      7.9428      6.9399     19.9657      2.5355      0.0218
  1853.2000    129.0872      7.9428      7.1418     20.1648      2.5322      0.0442
  1853.3000    127.4438      7.9410      7.3666     20.9347      2.5285     -0.0012
  1853.4000    125.4507      7.9410      7.2551     21.4085      2.5303     -0.0030
  1853.5000    123.1814      7.9436      6.6894     21.3702      2.5396      0.0526
  1853.6000    120.7267      7.9436      5.7625     21.4592      2.5549     -0.0087
  1853.7000    118.1908      7.9436      4.3290     21.6984      2.5786      0.0310
  1853.8000    115.6822      7.9455      3.1309     21.6213      2.5983      0.0728
  1853.9000    113.3034      7.9455      3.1224     21.3588      2.5985      0.0247
  1854.0000    111.1431      7.9432      4.1412     21.0806      2.5817      0.0388
  1854.1000    109.2636      7.9432      5.3693     20.7171      2.5614      0.0155
  1854.2000    107.6955      7.9432      5.8161     20.6484      2.5540      0.0180
  1854.3000    106.4347      7.9414      5.2733     21.0319      2.5630      0.0152
  1854.4000    105.4420      7.9414      4.5767     21.1313      2.5745      0.0241
  1854.5000    104.6544      7.9439      4.3319     20.6358      2.5785      0.0237
  1854.6000    103.9896      7.9439      4.3599     20.0873      2.5781      0.0482
  1854.7000    103.3609      7.9439      4.2951     19.7445      2.5791      0.0582
  1854.8000    102.6927      7.9451      4.0350     19.6089      2.5834      0.0507
  1854.9000    101.9310      7.9451      3.7723     19.7296      2.5878      0.0685
  1855.0000    101.0529      7.9458      3.7584     19.7209      2.5880      0.0567
  1855.1000    100.0689      7.9458      3.6901     19.0871      2.5891      0.0433
  1855.2000     99.0190      7.9458      3.2156     18.3897      2.5969      0.0887
  1855.3000     97.9664      7.9453      3.0616     18.3230      2.5995      0.0743
  1855.4000     96.9787      7.9453      3.9712     18.2873      2.5845      0.0454
  1855.5000     96.1145      7.9462      5.2384     17.5957      2.5636     -0.0011
  1855.6000     95.4095      7.9462      5.9481     16.8540      2.5519      0.0501
  1855.7000     94.8672      7.9462      6.7471     16.9148      2.5387      0.0080
  1855.8000     94.4602      7.9482      8.2190     17.4440      2.5144      0.0008
  1855.9000     94.1348      7.9482      9.2064     17.7757      2.4981     -0.0359
  1856.0000     93.8204      7.9472      8.6642     18.1560      2.5070     -0.0018
  1856.1000     93.4433      7.9472      7.4147     18.9484      2.5277      0.0367
  1856.2000     92.9380      7.9472      6.4928     19.6770      2.5429      0.0148
  1856.3000     92.2524      7.9326      6.1080     19.8975      2.5492      0.0346
  1856.4000     91.3482      7.9326      6.2792     19.6845      2.5464      0.0301
  1856.5000     90.2028      7.9284      6.7835     19.3001      2.5381      0.0203
  1856.6000     88.8031      7.9284      7.2582     18.9397      2.5302      0.0200
  1856.7000     87.1451      7.9284      7.0822     18.5426      2.5331      0.0220
  1856.8000     85.2329      7.9302      5.8275     18.0605      2.5538      0.0434
  1856.9000     83.0798      7.9302      4.4336     17.7536      2.5768      0.0931
  1857.0000     80.7166      7.9305      4.0829     17.7379      2.5826      0.0460
  1857.1000     78.1891      7.9305      4.7361     17.7441      2.5719      0.0694
  1857.2000     75.5670      7.9305      5.7437     17.5132      2.5552      0.0534
  1857.3000     72.9335      7.9302      6.4316     17.3038      2.5439      0.0366
  1857.4000     70.3852      7.9302      6.4749     17.2425      2.5432      0.0312
  1857.5000     68.0169      7.9312      5.9556     16.8524      2.5517      0.0393
  1857.6000     65.9145      7.9312      5.2273     16.2620      2.5637      0.0411
  1857.7000     64.1403      7.9312      4.9089     15.9745      2.5690      0.0832
  1857.8000     62.7286      7.9306      5.1586     15.7167      2.5649      0.0355
  1857.9000     61.6815      7.9306      5.6065     15.2263      2.5575      0.0926
  1858.0000     60.9754      7.9301      5.9393     14.8680      2.5520      0.0373
  1858.1000     60.5629      7.9301      6.0888     14.6685      2.5495      0.1030
  1858.2000     60.3903      7.9301      6.4759     14.3004      2.5431      0.0524
  1858.3000     60.4032      7.9300      6.6511     14.0498      2.5403      0.0425
  1858.4000     60.5571      7.9300      5.7204     14.4613      2.5556      0.0871
  1858.5000     60.8215      7.9296      4.1430     14.8660      2.5816      0.0811
  1858.6000     61.1840      7.9296      3.1629     14.5446      2.5978      0.1342
  1858.7000     61.6452      7.9296      3.5360     14.2003      2.5917      0.0749
  1858.8000     62.2152      7.9295      4.9260     14.3875      2.5687      0.1026
  1858.9000     62.9045      7.9295      6.2548     14.8739      2.5468      0.0547
  1859.0000     63.7217      7.9288      6.7322     15.2382      2.5389      0.0748
  1859.1000     64.6666      7.9288      6.7957     15.4095      2.5379      0.0731
  1859.2000     65.7276      7.9288      6.9948     15.8194      2.5346      0.0510
  1859.3000     66.8798      7.9295      7.1142     16.6678      2.5326      0.0687
  1859.4000     68.0834      7.9295      7.0980     17.5208      2.5329      0.0563
  1859.5000     69.2885      7.9299      7.2103     17.9077      2.5310      0.0474
  1859.6000     70.4356      7.9299      7.3330     17.8566      2.5290      0.0503
  1859.7000     71.4640      7.9299      7.0418     17.6659      2.5338      0.0570
  1859.8000     72.3142      7.9296      6.8060     17.5108      2.5377      0.1381
  1859.9000     72.9359      7.9296      7.3177     17.4610      2.5293      0.0402
