~Version Information
VERS.                      2.0: CWLS Log ASCII Standard - VERSION 2.0
WRAP.                       NO: One line per depth step
~Well Information Block
STRT.FT               430.0000: 
STOP.FT              2826.2500: 
STEP.FT                 0.2500: 
NULL.                -999.2500: 
COMP.          Pioneer Natural Resources: COMPANY
WELL.           Ei-ei-oh 31-24: WELL
FLD.           Purgatoire River: FIELD
LOC.           235' FNL & 2001' FEL--: LOCATION
PROV.                 Colorado: PROVINCE
CNTY.               Las Animas: COUNTRY
SRVC.                Patterson: SERVICE COMPANY
DATE.          Thu Jun 16 06:46:37 2005: LOG DATE
UWI.           05 071 08403 00: UNIQUE WELL ID
~Curve Information Block
DEPT.FT            0 000 00 00: Depth
DIR.Ohm-m                     : IEL Induction Resistivity
SN.Ohm-m                      : IEL Short Normal
SP.mV                         : IEL Spontaneous Potential
GR.GAPI                       : Gamma Ray
~Parameter Information Block
~A  Depth       DIR          SN          SP          GR     
# ...
  1937.5000     16.2698     16.9205     61.4025    139.2751
  1937.7500     15.9370     16.6089     62.1886    134.4710
  1938.0000     15.6217     16.3111     62.6875    128.6600
  1938.2500     15.3364     16.0346     62.9241    126.6442
  1938.5000     15.1008     15.7941     62.9348    125.9164
  1938.7500     14.9309     15.6095     62.7575    126.2245
  1939.0000     14.8321     15.4983     62.4243    127.3960
  1939.2500     14.7987     15.4664     61.9596    128.8161
  1939.5000     14.8197     15.5038     61.3803    131.6470
  1939.7500     14.8834     15.5877     60.6985    133.1199
  1940.0000     14.9784     15.6921     59.9236    132.7935
  1940.2500     15.0931     15.8007     59.0634    130.4241
  1940.5000     15.2210     15.9166     58.1218    124.7703
  1940.7500     15.3673     16.0635     57.0951    120.9670
  1941.0000     15.5507     16.2738     55.9683    117.0660
  1941.2500     15.7962     16.5703     54.7150    115.8311
  1941.5000     16.1236     16.9522     53.3008    115.0031
  1941.7500     16.5386     17.3916     51.6925    114.4557
  1942.0000     17.0315     17.8441     49.8698    113.3430
  1942.2500     17.5799     18.2741     47.8360    112.6640
  1942.5000     18.1562     18.6777     45.6237    112.0184
  1942.7500     18.7365     19.0842     43.2942    111.6104
  1943.0000     19.3077     19.5319     40.9306    110.3966
  1943.2500     19.8679     20.0373     38.6263    109.1003
  1943.5000     20.4188     20.5795     36.4718    106.9690
  1943.7500     20.9550     21.1089     34.5427    105.8977
  1944.0000     21.4572     21.5744     32.8891    105.4084
  1944.2500     21.8966     21.9498     31.5281    106.0021
  1944.5000     22.2506     22.2430     30.4414    108.4282
  1944.7500     22.5162     22.4875     29.5783    110.9628
  1945.0000     22.7115     22.7250     28.8655    115.1100
  1945.2500     22.8634     22.9873     28.2221    117.0437
  1945.5000     22.9948     23.2809     27.5772    117.2615
  1945.7500     23.1170     23.5799     26.8832    115.6806
  1946.0000     23.2296     23.8353     26.1235    112.2657
  1946.2500     23.3218     23.9960     25.3097    110.3280
  1946.5000     23.3771     24.0322     24.4715    108.7617
  1946.7500     23.3814     23.9485     23.6428    108.3946
  1947.0000     23.3308     23.7811     22.8502    107.8552
  1947.2500     23.2330     23.5810     22.1067    107.1048
  1947.5000     23.1011     23.3904     21.4123    105.8008
  1947.7500     22.9436     23.2257     20.7592    105.5796
  1948.0000     22.7599     23.0767     20.1381    107.5390
  1948.2500     22.5433     22.9184     19.5428    110.6357
  1948.5000     22.2903     22.7266     18.9718    116.8862
  1948.7500     22.0090     22.4932     18.4264    120.6834
  1949.0000     21.7174     22.2345     17.9105    123.6608
  1949.2500     21.4368     21.9856     17.4292    123.8520
  1949.5000     21.1844     21.7830     16.9902    123.4606
  1949.7500     20.9733     21.6477     16.6066    123.6731
  1950.0000     20.8140     21.5755     16.2987    123.9781
  1950.2500     20.7099     21.5349     16.0958    122.9615
  1950.5000     20.6480     21.4702     16.0347    118.7716
  1950.7500     20.5934     21.3152     16.1568    115.0443
  1951.0000     20.4956     21.0181     16.5027    110.4702
  1951.2500     20.3044     20.5654     17.1062    109.0200
  1951.5000     19.9856     19.9867     17.9882    109.3391
  1951.7500     19.5256     19.3332     19.1508    110.7228
  1952.0000     18.9244     18.6460     20.5741    113.5946
  1952.2500     18.1877     17.9371     22.2155    115.7593
  1952.5000     17.3268     17.1949     24.0113    119.6282
  1952.7500     16.3683     16.4064     25.8824    123.0136
  1953.0000     15.3609     15.5770     27.7406    129.7968
  1953.2500     14.3670     14.7365     29.4984    135.4692
  1953.5000     13.4437     13.9290     31.0780    145.1779
  1953.7500     12.6277     13.1965     32.4202    151.8380
  1954.0000     11.9332     12.5667     33.4917    160.9151
  1954.2500     11.3597     12.0499     34.2904    165.9381
  1954.5000     10.9005     11.6428     34.8454    171.8422
  1954.7500     10.5464     11.3317     35.2132    174.6624
  1955.0000     10.2856     11.0964     35.4680    176.6645
  1955.2500     10.1033     10.9161     35.6876    176.0520
  1955.5000      9.9829     10.7728     35.9375    171.9367
  1955.7500      9.9089     10.6527     36.2570    167.5124
  1956.0000      9.8697     10.5456     36.6511    160.3667
  1956.2500      9.8571     10.4462     37.0922    156.8641
  1956.5000      9.8647     10.3528     37.5299    155.4695
  1956.7500      9.8869     10.2605     37.9068    157.1222
  1957.0000      9.9187     10.1556     38.1762    161.9306
  1957.2500      9.9566     10.0196     38.3141    165.6943
  1957.5000      9.9970      9.8423     38.3238    171.1207
  1957.7500     10.0341      9.6322     38.2331    174.1717
  1958.0000     10.0593      9.4174     38.0846    177.1288
  1958.2500     10.0620      9.2375     37.9255    177.6092
  1958.5000     10.0322      9.1317     37.7982    175.7011
  1958.7500      9.9639      9.1267     37.7342    172.7878
  1959.0000      9.8584      9.2256     37.7517    167.0432
  1959.2500      9.7243      9.4020     37.8558    163.3592
  1959.5000      9.5759      9.6042     38.0389    159.6522
  1959.7500      9.4277      9.7707     38.2829    158.7445
  1960.0000      9.2911      9.8463     38.5615    159.3924
  1960.2500      9.1720      9.7965     38.8430    160.7192
  1960.5000      9.0708      9.6173     39.0940    163.1441
  1960.7500      8.9837      9.3382     39.2824    164.4925
  1961.0000      8.9051      9.0144     39.3801    165.4777
  1961.2500      8.8301      8.7108     39.3647    165.4545
  1961.5000      8.7563      8.4829     39.2193    164.8188
  1961.7500      8.6845      8.3650     38.9334    164.1075
  1962.0000      8.6184      8.3688     38.5025    162.3904
  1962.2500      8.5644      8.4887     37.9298    160.7147
  1962.5000      8.5302      8.7067     37.2273    157.8672
  1962.7500      8.5252      8.9962     36.4183    156.3982
  1963.0000      8.5594      9.3275     35.5395    155.9313
  1963.2500      8.6412      9.6778     34.6427    156.9512
  1963.5000      8.7761     10.0331     33.7963    159.8131
  1963.7500      8.9643     10.3743     33.0848    161.9164
  1964.0000      9.2000     10.6576     32.6065    163.8237
  1964.2500      9.4707     10.8107     32.4682    163.0354
  1964.5000      9.7581     10.7592     32.7767    156.6506
  1964.7500     10.0408     10.4785     33.6256    148.5577
  1965.0000     10.2992     10.0357     35.0811    132.5014
  1965.2500     10.5203      9.5837     37.1665    121.2569
  1965.5000     10.6989      9.2920     39.8516    107.1463
  1965.7500     10.8340      9.2565     43.0480    100.9849
  1966.0000     10.9245      9.4533     46.6149     97.3680
  1966.2500     10.9673      9.7726     50.3739     98.2500
  1966.5000     10.9596     10.1037     54.1316    102.8730
  1966.7500     10.9021     10.4071     57.7038    107.1681
  1967.0000     10.8013     10.7230     60.9377    114.2501
  1967.2500     10.6688     11.1140     63.7264    119.1643
  1967.5000     10.5185     11.5959     66.0135    127.1498
  1967.7500     10.3661     12.1125     67.7886    133.0813
  1968.0000     10.2280     12.5711     69.0763    142.0449
  1968.2500     10.1226     12.9038     69.9213    146.7299
  1968.5000     10.0696     13.1083     70.3757    149.5069
  1968.7500     10.0884     13.2427     70.4886    148.2284
  1969.0000     10.1967     13.3845     70.3014    143.7254
  1969.2500     10.4079     13.5874     69.8480    141.1298
  1969.5000     10.7286     13.8601     69.1575    140.4852
  1969.7500     11.1548     14.1714     68.2598    142.0408
  1970.0000     11.6697     14.4717     67.1904    144.2647
  1970.2500     12.2454     14.7202     65.9945    143.5025
  1970.5000     12.8499     14.9129     64.7292    137.1196
  1970.7500     13.4575     15.1061     63.4625    129.9574
