~Version Information
VERS.                      2.0: CWLS Log ASCII Standard - VERSION 2.0
WRAP.                       NO: One line per depth step
~Well Information Block
STRT.FT               830.0000: 
STOP.FT              3122.7500: 
STEP.FT                 0.2500: 
NULL.                -999.2500: 
COMP.          Pioneer Natural Resources: COMPANY
WELL.              Stones 24-8: WELL
FLD.           Purgatoire River: FIELD
LOC.           648' FSL & 2264' FWL: LOCATION
PROV.                 Colorado: PROVINCE
CNTY.               Las Animas: COUNTRY
SRVC.                Patterson: SERVICE COMPANY
DATE.          Wed Jan 19 12:44:32 2005: LOG DATE
UWI.           05 071 07945 00: UNIQUE WELL ID
~Curve Information Block
DEPT.FT            0 000 00 00: Depth
SN.Ohm-m                      : IEL Short Normal
SP.mV                         : IEL Spontaneous Potential
DIR.Ohm-m                     : IEL Induction Resistivity
GR.GAPI                       : Gamma Ray
~Parameter Information Block
~A  Depth        SN          SP         DIR          GR     
# ...
  1131.5000   2000.0000   2000.0000     28.6294     73.5331
  1131.7500   2000.0000   2000.0000     28.2630     71.5704
  1132.0000   2000.0000   2000.0000     28.0470     69.0285
  1132.2500   2000.0000   2000.0000     28.0051     67.6296
  1132.5000   2000.0000   2000.0000     28.1095     65.5725
  1132.7500   2000.0000   2000.0000     28.2849     64.1210
  1133.0000   2000.0000   2000.0000     28.4371     62.1313
  1133.2500   2000.0000   2000.0000     28.4923     61.2740
  1133.5000   2000.0000   2000.0000     28.4244     61.0325
  1133.7500   2000.0000   2000.0000     28.2523     61.4083
  1134.0000   2000.0000   2000.0000     28.0180     62.0820
  1134.2500   2000.0000   2000.0000     27.7665     62.2703
  1134.5000   2000.0000   2000.0000     27.5347     62.0298
  1134.7500   2000.0000   2000.0000     27.3450     61.6182
  1135.0000   2000.0000   2000.0000     27.2020     60.8561
  1135.2500   2000.0000   2000.0000     27.0965     60.3710
  1135.5000   2000.0000   2000.0000     27.0157     59.7621
  1135.7500   2000.0000   2000.0000     26.9524     59.4109
  1136.0000   2000.0000   2000.0000     26.9043     59.0022
  1136.2500   2000.0000   2000.0000     26.8668     58.9569
  1136.5000   2000.0000   2000.0000     26.8298     59.4950
  1136.7500   2000.0000   2000.0000     26.7832     60.2881
  1137.0000   2000.0000   2000.0000     26.7244     62.1203
  1137.2500   2000.0000   2000.0000     26.6556     63.8584
  1137.5000   2000.0000   2000.0000     26.5691     67.3663
  1137.7500   2000.0000   2000.0000     26.4317     70.1232
  1138.0000   2000.0000   2000.0000     26.1873     74.1192
  1138.2500   2000.0000   2000.0000     25.7820     76.2704
  1138.5000   2000.0000   2000.0000     25.1951     78.7557
  1138.7500   2000.0000   2000.0000     24.4508     80.5321
  1139.0000   2000.0000   2000.0000     23.6035     84.8111
  1139.2500   2000.0000   2000.0000     22.7131     89.0952
  1139.5000   2000.0000   2000.0000     21.8307     96.8843
  1139.7500   2000.0000   2000.0000     20.9979    102.1397
  1140.0000   2000.0000   2000.0000     20.2488    108.9908
  1140.2500   2000.0000   2000.0000     19.6078    112.4678
  1140.5000   2000.0000   2000.0000     19.0844    115.3945
  1140.7500   2000.0000   2000.0000     18.6722    115.3667
  1141.0000   2000.0000   2000.0000     18.3550    111.8202
  1141.2500   2000.0000   2000.0000     18.1190    107.3299
  1141.5000   2000.0000   2000.0000     17.9606     98.9614
  1141.7500   2000.0000   2000.0000     17.8845     93.5597
  1142.0000   2000.0000   2000.0000     17.8904     87.3628
  1142.2500   2000.0000   2000.0000     17.9604     84.7757
  1142.5000   2000.0000   2000.0000     18.0576     82.5825
  1142.7500   2000.0000   2000.0000     18.1417     81.5285
  1143.0000   2000.0000   2000.0000     18.1913     79.4830
  1143.2500   2000.0000   2000.0000     18.2166     77.6428
  1143.5000   2000.0000   2000.0000     18.2498     74.7230
  1143.7500   2000.0000   2000.0000     18.3233     73.1274
  1144.0000   2000.0000   2000.0000     18.4534     71.6589
  1144.2500   2000.0000   2000.0000     18.6355     71.2512
  1144.5000   2000.0000   2000.0000     18.8482     71.0247
  1144.7500   2000.0000   2000.0000     19.0608     70.6887
  1145.0000   2000.0000   2000.0000     19.2435     69.3166
  1145.2500   2000.0000   2000.0000     19.3801     67.8977
  1145.5000   2000.0000   2000.0000     19.4751     65.8950
  1145.7500   2000.0000   2000.0000     19.5504     65.2315
  1146.0000   2000.0000   2000.0000     19.6302     65.6347
  1146.2500   2000.0000   2000.0000     19.7247     66.5771
  1146.5000   2000.0000   2000.0000     19.8211     68.1065
  1146.7500   2000.0000   2000.0000     19.8864     68.7992
  1147.0000   2000.0000   2000.0000     19.8823     69.3048
  1147.2500   2000.0000   2000.0000     19.7840     69.4851
  1147.5000   2000.0000   2000.0000     19.5950     69.5906
  1147.7500   2000.0000   2000.0000     19.3493     69.4051
  1148.0000   2000.0000   2000.0000     19.1019     68.7274
  1148.2500   2000.0000   2000.0000     18.9149     68.2863
  1148.5000   2000.0000   2000.0000     18.8467     68.3071
  1148.7500   2000.0000   2000.0000     18.9428     69.0790
  1149.0000   2000.0000   2000.0000     19.2231     71.5861
  1149.2500   2000.0000   2000.0000     19.6669     74.0497
  1149.5000   2000.0000   2000.0000     20.2057     78.3746
  1149.7500   2000.0000   2000.0000     20.7371     81.2068
  1150.0000   2000.0000   2000.0000     21.1639     84.5142
  1150.2500   2000.0000   2000.0000     21.4379     85.7081
  1150.5000   2000.0000   2000.0000     21.5756     85.8975
  1150.7500   2000.0000   2000.0000     21.6382     85.2926
  1151.0000   2000.0000   2000.0000     21.6968     84.1654
  1151.2500   2000.0000   2000.0000     21.8037     83.6605
  1151.5000   2000.0000   2000.0000     21.9783     83.3849
  1151.7500   2000.0000   2000.0000     22.2049     83.2544
  1152.0000   2000.0000   2000.0000     22.4438     82.5614
  1152.2500   2000.0000   2000.0000     22.6552     81.6785
  1152.5000   2000.0000   2000.0000     22.8216     80.0604
  1152.7500   2000.0000   2000.0000     22.9518     78.9870
  1153.0000   2000.0000   2000.0000     23.0603     77.4415
  1153.2500   2000.0000   2000.0000     23.1385     76.5226
  1153.5000   2000.0000   2000.0000     23.1480     75.9581
  1153.7500   2000.0000   2000.0000     23.0455     76.7512
  1154.0000   2000.0000   2000.0000     22.8198     80.5918
  1154.2500   2000.0000   2000.0000     22.5022     85.0500
  1154.5000   2000.0000   2000.0000     22.1409     93.9997
  1154.7500   2000.0000   2000.0000     21.7656    100.7705
  1155.0000   2000.0000   2000.0000     21.3735    110.6723
  1155.2500   2000.0000   2000.0000     20.9439    116.3692
  1155.5000   2000.0000   2000.0000     20.4648    122.9487
  1155.7500   2000.0000   2000.0000     19.9511    126.0799
  1156.0000   2000.0000   2000.0000     19.4431    129.2657
  1156.2500   2000.0000   2000.0000     18.9897    130.4979
  1156.5000   2000.0000   2000.0000     18.6289    130.7228
  1156.7500   2000.0000   2000.0000     18.3800    129.4102
  1157.0000   2000.0000   2000.0000     18.2455    124.9440
  1157.2500   2000.0000   2000.0000     18.2212    120.6946
  1157.5000   2000.0000   2000.0000     18.3028    113.7632
  1157.7500   2000.0000   2000.0000     18.4840    109.4809
  1158.0000   2000.0000   2000.0000     18.7482    104.3179
  1158.2500   2000.0000   2000.0000     19.0635    101.9993
  1158.5000   2000.0000   2000.0000     19.3913    100.4469
  1158.7500   2000.0000   2000.0000     19.7052    100.5776
  1159.0000   2000.0000   2000.0000     20.0026    101.8556
  1159.2500   2000.0000   2000.0000     20.2941    102.9541
  1159.5000   2000.0000   2000.0000     20.5789    104.4339
  1159.7500   2000.0000   2000.0000     20.8319    105.1813
  1160.0000   2000.0000   2000.0000     21.0144    105.7641
  1160.2500   2000.0000   2000.0000     21.1002    105.7224
  1160.5000   2000.0000   2000.0000     21.0951    105.3767
  1160.7500   2000.0000   2000.0000     21.0326    105.4619
  1161.0000   2000.0000   2000.0000     20.9531    106.8127
  1161.2500   2000.0000   2000.0000     20.8861    108.6500
  1161.5000   2000.0000   2000.0000     20.8443    112.5325
  1161.7500   2000.0000   2000.0000     20.8309    115.4836
  1162.0000   2000.0000   2000.0000     20.8474    119.3726
  1162.2500   2000.0000   2000.0000     20.8966    120.8576
  1162.5000   2000.0000   2000.0000     20.9806    120.5700
  1162.7500   2000.0000   2000.0000     21.0987    118.7530
  1163.0000   2000.0000   2000.0000     21.2469    114.5208
  1163.2500   2000.0000   2000.0000     21.4193    111.2962
  1163.5000   2000.0000   2000.0000     21.6067    106.2021
  1163.7500   2000.0000   2000.0000     21.7923    102.5060
  1164.0000   2000.0000   2000.0000     21.9471     96.6893
  1164.2500   2000.0000   2000.0000     22.0302     93.3728
  1164.5000   2000.0000   2000.0000     21.9987     91.2201
  1164.7500   2000.0000   2000.0000     21.8258     92.5185
