~Version Information
VERS.                      2.0: CWLS Log ASCII Standard - VERSION 2.0
WRAP.                       NO: One line per depth step
~Well Information Block
STRT.FT               665.0000: 
STOP.FT              1972.5000: 
STEP.FT                 0.1000: 
NULL.                -999.2500: 
COMP.          Petrogulf Corporation: COMPANY
WELL.          Great Plains 22-21V: WELL
FLD.           Purgatorie River: FIELD
LOC.           63' FNL & 1895' FWL: LOCATION
PROV.                 Colorado: PROVINCE
CNTY.               Las Animas: COUNTRY
SRVC.                Patterson: SERVICE COMPANY
DATE.          Thu Sep 01 07:39:43 2005: LOG DATE
UWI.                          : UNIQUE WELL ID
~Curve Information Block
DEPT.FT            0 000 00 00: Depth
DCAL.in                       : CDL Caliper
RHOB.g/cc                     : CDL Bulk Density
RHOC.g/cc                     : CDL Density Correction
DPOR.pu                       : CDL Density Porosity
GR.GAPI                       : Gamma Ray
NPOR.pu                       : Neutron Porosity
~Parameter Information Block
~A  Depth       DCAL        RHOB        RHOC        DPOR         GR         NPOR    
# ...
  1701.8000      8.0713      2.4828      0.0475     10.1319    153.0852     25.4861
  1701.9000      8.0713      2.4794      0.0562     10.3397    149.5342     25.3021
  1702.0000      8.0823      2.4781      0.0391     10.4157    147.6263     25.1426
  1702.1000      8.0823      2.4834      0.0711     10.0975    149.4086     25.1877
  1702.2000      8.0823      2.4882      0.0552      9.8068    152.0582     25.3964
  1702.3000      8.1406      2.4849      0.0674     10.0076    151.9152     25.6293
  1702.4000      8.1406      2.4791      0.0747     10.3587    149.3804     25.6449
  1702.5000      8.2371      2.4794      0.0751     10.3382    146.6509     25.5765
  1702.6000      8.2371      2.4793      0.1081     10.3467    146.0103     25.8765
  1702.7000      8.2371      2.4711      0.0620     10.8431    146.0798     26.6618
  1702.8000      8.2885      2.4651      0.0662     11.2072    141.3465     27.6091
  1702.9000      8.2885      2.4703      0.0555     10.8892    132.8860     28.1981
  1703.0000      8.3141      2.4798      0.1078     10.3156    128.2882     28.2790
  1703.1000      8.3141      2.4820      0.0760     10.1818    128.9599     28.2011
  1703.2000      8.3141      2.4771      0.0777     10.4776    130.9978     28.1779
  1703.3000      8.2978      2.4757      0.0442     10.5614    132.6135     28.1675
  1703.4000      8.2978      2.4854      0.0618      9.9776    132.2752     28.2006
  1703.5000      8.2881      2.5007      0.0707      9.0486    127.8792     28.2620
  1703.6000      8.2881      2.5102      0.1046      8.4742    123.4800     28.3203
  1703.7000      8.2881      2.5054      0.0825      8.7658    123.6096     28.5316
  1703.8000      8.0870      2.4741      0.1344     10.6626    125.6028     28.7606
  1703.9000      8.0870      2.4040      0.0800     14.9071    125.0796     28.6284
  1704.0000      8.0632      2.3104      0.0388     20.5795    121.9793     28.1336
  1704.1000      8.0632      2.2208     -0.0345     26.0129    117.9732     27.4899
  1704.2000      8.0632      2.1373     -0.0046     31.0707    113.8203     26.7648
  1704.3000      8.0647      2.0488     -0.0382     36.4388    110.2225     26.0982
  1704.4000      8.0647      1.9683     -0.0550     41.3136    104.3104     25.8495
  1704.5000      8.1515      1.9142     -0.0622     44.5934     93.5884     26.0645
  1704.6000      8.1515      1.8690      0.0407     47.3358     82.9530     26.5406
  1704.7000      8.1515      1.8141      0.0489     50.6621     78.5599     27.3910
  1704.8000      8.1867      1.7718      0.0835     53.2230     80.9029     28.5876
  1704.9000      8.1867      1.7645      0.0943     53.6675     84.6216     29.8082
  1705.0000      8.1458      1.7790      0.1486     52.7899     84.5006     30.8455
  1705.1000      8.1458      1.7885      0.1397     52.2095     81.2139     31.5495
  1705.2000      8.1458      1.7744      0.1560     53.0683     77.6195     31.9735
  1705.3000      8.2156      1.7323      0.0681     55.6162     76.3135     32.4014
  1705.4000      8.2156      1.6765     -0.0239     59.0001     77.9193     32.6842
  1705.5000      8.1984      1.6152     -0.0087     62.7177     80.2868     32.5475
  1705.6000      8.1984      1.5462     -0.0612     66.8969     81.0791     32.4736
  1705.7000      8.1984      1.4849     -0.0832     70.6119     79.4841     32.9975
  1705.8000      8.2580      1.4442     -0.0117     73.0794     77.5335     33.7747
  1705.9000      8.2580      1.4143     -0.0001     74.8902     77.9192     34.1437
  1706.0000      8.2198      1.3976     -0.0315     75.9037     79.5404     33.9558
  1706.1000      8.2198      1.4120      0.0229     75.0285     79.7890     33.5783
  1706.2000      8.2198      1.4636      0.0326     71.9047     78.8148     33.3813
  1706.3000      8.1934      1.5523      0.0629     66.5252     79.8231     33.3949
  1706.4000      8.1934      1.6736      0.0971     59.1731     83.5406     33.5681
  1706.5000      8.2138      1.8087      0.1308     50.9851     87.3097     33.8068
  1706.6000      8.2138      1.9411      0.1777     42.9656     91.5620     33.7737
  1706.7000      8.2138      2.0766      0.2034     34.7518     96.7103     33.3792
  1706.8000      8.2188      2.2270      0.2490     25.6372     98.5762     32.9235
  1706.9000      8.2188      2.3691      0.3180     17.0229     97.0460     32.4221
  1707.0000      8.2613      2.4599      0.2594     11.5193    100.2560     31.8336
  1707.1000      8.2613      2.4899      0.2252      9.7049    110.4362     31.3417
  1707.2000      8.2613      2.4900      0.1427      9.6942    121.0893     30.9705
  1707.3000      8.4926      2.4923      0.1554      9.5547    129.2692     30.5790
  1707.4000      8.4926      2.4947      0.1610      9.4105    136.6908     30.0705
  1707.5000      8.5915      2.4828      0.0963     10.1314    144.3506     29.5988
  1707.6000      8.5915      2.4632      0.0905     11.3216    149.3124     29.5317
  1707.7000      8.5915      2.4542      0.0399     11.8652    148.4678     29.7072
  1707.8000      8.3798      2.4635      0.1024     11.3012    145.0448     29.5300
  1707.9000      8.3798      2.4760      0.1428     10.5457    142.4509     29.0118
  1708.0000      8.2581      2.4786      0.0891     10.3862    139.7990     28.5710
  1708.1000      8.2581      2.4794      0.0879     10.3385    137.6511     28.2473
  1708.2000      8.2581      2.4849      0.1112     10.0077    138.3602     27.9465
  1708.3000      8.2699      2.4935      0.0787      9.4858    139.0392     27.7939
  1708.4000      8.2699      2.5048      0.1037      8.8012    135.9041     27.7011
  1708.5000      8.4502      2.5179      0.0925      8.0065    130.8219     27.4100
  1708.6000      8.4502      2.5328      0.1029      7.1000    126.6951     27.1979
  1708.7000      8.4502      2.5487      0.1321      6.1380    124.2439     27.3005
  1708.8000      8.4417      2.5559      0.1430      5.7040    121.5768     27.2680
  1708.9000      8.4417      2.5440      0.0880      6.4250    116.5003     26.7998
  1709.0000      8.2272      2.5165      0.0795      8.0913    107.4896     26.1018
  1709.1000      8.2272      2.4830      0.0562     10.1240     95.5120     25.4257
  1709.2000      8.2272      2.4541      0.0462     11.8746     87.0923     24.7330
  1709.3000      8.2060      2.4454      0.0159     12.4003     84.4612     23.9271
  1709.4000      8.2060      2.4650      0.0483     11.2137     83.2494     23.4264
  1709.5000      8.2055      2.5012      0.0774      9.0192     82.0696     23.4540
  1709.6000      8.2055      2.5338      0.1167      7.0405     81.6074     23.3157
  1709.7000      8.2055      2.5514      0.1120      5.9730     80.4643     22.5588
  1709.8000      8.1958      2.5613      0.1078      5.3779     76.8296     21.5443
  1709.9000      8.1958      2.5767      0.1452      4.4425     72.4103     20.8211
  1710.0000      8.1971      2.5964      0.1760      3.2492     71.1398     20.5588
  1710.1000      8.1971      2.6130      0.1754      2.2409     72.4574     20.5295
  1710.2000      8.1971      2.6261      0.1723      1.4489     73.3622     20.7427
  1710.3000      8.1786      2.6308      0.1745      1.1645     74.4979     21.4891
  1710.4000      8.1786      2.6176      0.1418      1.9614     76.8251     22.5237
  1710.5000      8.1668      2.5942      0.0540      3.3790     78.8919     23.0365
  1710.6000      8.1668      2.5769      0.1025      4.4305     80.0275     22.6510
  1710.7000      8.1668      2.5663      0.0833      5.0698     80.2497     21.8595
  1710.8000      8.1445      2.5626      0.0664      5.2940     79.7600     21.1974
  1710.9000      8.1445      2.5698      0.0737      4.8628     78.2160     20.8070
  1711.0000      8.1305      2.5779      0.1232      4.3713     75.3320     20.8116
  1711.1000      8.1305      2.5775      0.0528      4.3949     73.3935     21.3521
  1711.2000      8.1305      2.5729      0.0736      4.6733     74.0988     21.9888
  1711.3000      8.1452      2.5602      0.0950      5.4447     76.0031     22.0525
