~Version Information
VERS.                      2.0: CWLS Log ASCII Standard - VERSION 2.0
WRAP.                       NO: One line per depth step
~Well Information Block
STRT.FT               500.0000: 
STOP.FT              2732.5000: 
STEP.FT                 0.2500: 
NULL.                -999.2500: 
COMP.          Pioneer Natural Resources: COMPANY
WELL.          Dude Canyon 22-32: WELL
FLD.           Purgatoire River: FIELD
LOC.           1662' FNL & 2446' FWL----: LOCATION
PROV.                 Colorado: PROVINCE
CNTY.               Las Animas: COUNTRY
SRVC.                Patterson: SERVICE COMPANY
DATE.          Thu Mar 10 07:15:42 2005: LOG DATE
UWI.           05 071 08257 00: UNIQUE WELL ID
~Curve Information Block
DEPT.FT            0 000 00 00: Depth
DIR.Ohm-m                     : IEL Induction Resistivity
GR.GAPI                       : Gamma Ray
SN.Ohm-m                      : IEL Short Normal
SP.mV                         : IEL Spontaneous Potential
~Parameter Information Block
~A  Depth       DIR          GR          SN          SP     
# ...
  2711.0000     10.9136    158.0156     14.4857     86.7609
  2711.2500     10.6878    155.2979     13.7677     87.5284
  2711.5000     10.5461    146.6594     13.2039     88.1522
  2711.7500     10.4801    139.4848     12.8054     88.6839
  2712.0000     10.4816    129.6598     12.5836     89.1657
  2712.2500     10.5375    124.8034     12.5322     89.6302
  2712.5000     10.6288    119.1007     12.6195     90.1009
  2712.7500     10.7352    113.6960     12.7932     90.5929
  2713.0000     10.8415     97.5410     12.9992     91.1126
  2713.2500     10.9423     80.3811     13.1995     91.6544
  2713.5000     11.0412     49.9968     13.3783     92.1960
  2713.7500     11.1476     31.5885     13.5373     92.6946
  2714.0000     11.2762     12.5146     13.6950     93.0863
  2714.2500     11.4484      5.7091     13.8944     93.2923
  2714.5000     11.6937      1.3514     14.2099     93.2298
  2714.7500     12.0465      0.4305     14.7353     92.8250
  2715.0000     12.5383      0.0564     15.5538     92.0264
  2715.2500     13.1879      0.0101     16.7072     90.8152
  2715.5000     13.9910   -999.2500     18.1844     89.2117
  2715.7500     14.9143   -999.2500     19.9410     87.2735
  2716.0000     15.9036   -999.2500     21.9350     85.0874
  2716.2500     16.9074   -999.2500     24.1336     82.7538
  2716.5000     17.9015   -999.2500     26.4683     80.3686
  2716.7500     18.8901   -999.2500     28.7813     78.0086
  2717.0000     19.8759   -999.2500     30.8397     75.7256
  2717.2500     20.8243   -999.2500     32.4206     73.5489
  2717.5000     21.6511   -999.2500     33.3920     71.4936
  2717.7500     22.2464   -999.2500     33.7273     69.5705
  2718.0000     22.5202   -999.2500     33.4687     67.7924
  2718.2500     22.4385   -999.2500     32.6921     66.1766
  2718.5000     22.0325   -999.2500     31.5026     64.7434
  2718.7500     21.3802   -999.2500     30.0424     63.5129
  2719.0000     20.5767   -999.2500     28.4753     62.4990
  2719.2500     20.0041   -999.2500     26.9306     61.7027
  2719.5000     19.0997   -999.2500     25.4460     61.1062
  2719.7500     18.2169   -999.2500     23.9721     60.6695
  2720.0000     17.3622   -999.2500     22.4477     60.3311
  2720.2500     16.5349   -999.2500     20.8821     60.0115
  2720.5000     15.7427   -999.2500     19.3711     59.6179
  2720.7500     15.0109   -999.2500     18.0392     59.0494
  2721.0000     14.3774   -999.2500     16.9739     58.2045
  2721.2500     13.8851   -999.2500     16.2056     56.9918
  2721.5000     13.5807   -999.2500     15.7296     55.3431
  2721.7500     13.5274   -999.2500     15.5259     53.2223
  2722.0000     13.8355   -999.2500     15.5623     50.6278
  2722.2500     14.7146   -999.2500     15.7972     47.5863
  2722.5000     16.5737   -999.2500     16.1904     44.1419
  2722.7500     19.8995   -999.2500     16.6957     40.3504
  2723.0000     27.1586   -999.2500     17.2309     36.2822
  2723.2500     43.7800   -999.2500     17.6734     32.0371
  2723.5000     95.8243   -999.2500     17.9204     27.7625
  2723.7500    940.1038   -999.2500     17.9713     23.6589
  2724.0000 100000.0000   -999.2500     17.9381     19.9634
  2724.2500 100000.0000   -999.2500     17.9705     16.9093
  2724.5000 100000.0000   -999.2500     18.1567     14.6752
  2724.7500 100000.0000   -999.2500     18.4615     13.3499
  2725.0000 100000.0000   -999.2500     18.7303     12.9204
  2725.2500 100000.0000   -999.2500     18.7649     13.2864
  2725.5000 100000.0000   -999.2500     18.4420     14.2802
  2725.7500   1574.5247   -999.2500     17.8017     15.6765
  2726.0000 100000.0000   -999.2500     17.0439     17.1873
  2726.2500 100000.0000   -999.2500     16.4270     18.4609
  2726.5000 100000.0000   -999.2500     16.1126     19.1161
  2726.7500 100000.0000   -999.2500     16.0311     18.8268
  2727.0000 100000.0000   -999.2500     15.8256     17.4369
  2727.2500 100000.0000   -999.2500     14.9334     15.0460
  2727.5000 100000.0000   -999.2500     12.8638     12.0043
  2727.7500 100000.0000   -999.2500      9.6001      8.8016
  2728.0000 100000.0000   -999.2500      5.7840      5.9019
  2728.2500 100000.0000   -999.2500      2.3732      3.6054
  2728.5000 100000.0000   -999.2500      0.0165      2.0003
  2728.7500 100000.0000   -999.2500     -1.2478      1.0054
  2729.0000 100000.0000   -999.2500     -1.7754      0.4568
  2729.2500 100000.0000   -999.2500     -1.9468      0.1873
  2729.5000 100000.0000   -999.2500     -1.9902      0.0691
  2729.7500 100000.0000   -999.2500     -1.9987      0.0228
  2730.0000 100000.0000   -999.2500   -999.2500      0.0065
  2730.2500  26041.7559   -999.2500   -999.2500      0.0014
  2730.5000   2764.3369   -999.2500   -999.2500   -999.2500
  2730.7500   1832.5687   -999.2500   -999.2500   -999.2500
  2731.0000   1575.1040   -999.2500   -999.2500   -999.2500
  2731.2500   1488.6361   -999.2500   -999.2500   -999.2500
  2731.5000   1460.3788   -999.2500   -999.2500   -999.2500
  2731.7500   1452.0961   -999.2500   -999.2500   -999.2500
  2732.0000   1449.9901   -999.2500   -999.2500   -999.2500
  2732.2500 100000.0000   -999.2500   -999.2500   -999.2500
  2732.5000   -999.2500   -999.2500   -999.2500   -999.2500
