~Version Information
VERS.                      2.0: CWLS Log ASCII Standard - VERSION 2.0
WRAP.                       NO: One line per depth step
~Well Information Block
STRT.FT               430.0000: 
STOP.FT              2827.0000: 
STEP.FT                 0.1000: 
NULL.                -999.2500: 
COMP.          Pioneer Natural Resources: COMPANY
WELL.           Ei-ei-oh 31-24: WELL
FLD.           Purgatoire River: FIELD
LOC.           235' FNL & 2001' FEL--: LOCATION
PROV.                 Colorado: PROVINCE
CNTY.               Las Animas: COUNTRY
SRVC.                Patterson: SERVICE COMPANY
DATE.          Thu Jun 16 07:14:41 2005: LOG DATE
UWI.           05 071 08403 00: UNIQUE WELL ID
~Curve Information Block
DEPT.FT            0 000 00 00: Depth
DCAL.in                       : CDL Caliper
DPOR.pu                       : CDL Density Porosity
NPOR.pu                       : Neutron Porosity
RHOB.g/cc                     : CDL Bulk Density
RHOC.g/cc                     : CDL Density Correction
GR.GAPI                       : Gamma Ray
~Parameter Information Block
~A  Depth       DCAL        DPOR        NPOR        RHOB        RHOC         GR     
# ...
   881.2000      8.0673      3.9943     24.0411      2.5841      0.0711     97.6441
   881.3000      8.0670      4.8745     24.1637      2.5696      0.0427    101.5159
   881.4000      8.0670      6.1933     24.4481      2.5478      0.0474    106.4115
   881.5000      8.0681      6.8446     24.7954      2.5371     -0.0107    110.4255
   881.6000      8.0681      5.8865     25.1094      2.5529      0.0606    107.6574
   881.7000      8.0681      4.6355     24.9218      2.5735      0.0537    100.1478
   881.8000      8.0685      4.5645     24.3914      2.5747      0.0491     94.1326
   881.9000      8.0685      5.1262     23.9363      2.5654      0.0125     92.3876
   882.0000      8.0680      5.3133     23.4617      2.5623      0.0616     95.0079
   882.1000      8.0680      5.3334     23.0538      2.5620      0.0564     98.1284
   882.2000      8.0680      5.8811     23.0732      2.5530      0.0437     98.0969
   882.3000      8.0678      7.2353     23.3320      2.5306      0.0408     96.4853
   882.4000      8.0678      8.9066     23.3854      2.5030     -0.0031     95.1963
   882.5000      8.0692      9.7015     23.0929      2.4899     -0.0079     93.2399
   882.6000      8.0692      9.1829     22.6650      2.4985      0.0102     89.6842
   882.7000      8.0692      8.2722     22.4254      2.5135      0.0099     85.5895
   882.8000      8.0718      7.4643     22.2413      2.5268     -0.0089     82.8081
   882.9000      8.0718      6.4679     21.8980      2.5433      0.0411     80.9110
   883.0000      8.0737      5.7516     21.6054      2.5551      0.0728     80.0084
   883.1000      8.0737      5.7528     21.5407      2.5551      0.0152     80.0233
   883.2000      8.0737      6.2141     21.3753      2.5475      0.0695     77.8231
   883.3000      8.0730      6.6837     20.7626      2.5397      0.0026     73.2951
   883.4000      8.0730      6.5392     20.1403      2.5421      0.0344     70.5620
   883.5000      8.0712      6.0919     19.8790      2.5495      0.0329     71.2187
   883.6000      8.0712      6.0972     19.4211      2.5494      0.0305     75.0446
   883.7000      8.0712      6.6612     18.6599      2.5401      0.0216     80.2467
   883.8000      8.0713      7.5400     18.3735      2.5256      0.0212     82.3596
   883.9000      8.0713      8.2638     18.7855      2.5136     -0.0051     81.3192
   884.0000      8.0718      8.4843     19.2764      2.5100      0.0076     78.3786
   884.1000      8.0718      8.2271     19.4528      2.5143     -0.0044     72.5791
   884.2000      8.0718      7.6014     19.5148      2.5246      0.0266     66.7961
   884.3000      8.0701      6.5250     19.5464      2.5423      0.0286     65.8418
   884.4000      8.0701      4.8456     19.4403      2.5700      0.0490     68.0742
   884.5000      8.0674      3.4368     19.4153      2.5933      0.0527     68.6642
   884.6000      8.0674      3.4811     19.7564      2.5926      0.0515     67.3548
   884.7000      8.0674      4.2366     20.3579      2.5801      0.0110     68.7246
   884.8000      8.0664      4.3509     21.1421      2.5782      0.0264     74.9470
   884.9000      8.0664      4.1322     22.3180      2.5818      0.0534     80.0702
   885.0000      8.0672      4.5384     23.7938      2.5751      0.0440     79.2504
   885.1000      8.0672      4.9763     25.1698      2.5679     -0.0112     76.3793
   885.2000      8.0672      4.1869     26.1561      2.5809     -0.0022     75.0657
   885.3000      8.0672      2.7921     26.4140      2.6039      0.0658     72.0338
   885.4000      8.0672      2.1302     26.0785      2.6149      0.0205     66.4802
   885.5000      8.0667      2.3128     25.7626      2.6118      0.0503     64.6894
   885.6000      8.0667      3.5058     25.6865      2.5922      0.0518     68.1659
   885.7000      8.0667      6.0173     25.5939      2.5507      0.0111     71.7145
   885.8000      8.0668      8.6183     25.2224      2.5078     -0.0593     72.5602
   885.9000      8.0668      9.4494     24.6409      2.4941     -0.0546     71.3109
   886.0000      8.0657      8.5155     24.1834      2.5095     -0.0114     68.6266
   886.1000      8.0657      7.2616     23.9831      2.5302      0.0321     66.5957
   886.2000      8.0657      6.7275     23.6776      2.5390      0.0424     66.8106
   886.3000      8.0640      7.1577     23.0665      2.5319      0.0483     67.2680
   886.4000      8.0640      7.7601     22.2832      2.5220     -0.0042     67.1850
   886.5000      8.0638      7.3863     21.2248      2.5281      0.0221     67.3931
   886.6000      8.0638      6.4131     19.9852      2.5442      0.0716     67.4837
   886.7000      8.0638      5.9111     19.0135      2.5525      0.0495     67.1493
   886.8000      8.0648      5.9600     18.5325      2.5517      0.0840     66.9900
   886.9000      8.0648      6.0523     18.5376      2.5501      0.0441     67.0226
   887.0000      8.0673      5.8787     18.7380      2.5530      0.0515     67.9311
   887.1000      8.0673      5.9671     18.8133      2.5515      0.0733     68.9664
   887.2000      8.0673      6.9060     18.9177      2.5361      0.0657     68.3628
   887.3000      8.0694      8.1922     19.1427      2.5148      0.0089     67.6372
   887.4000      8.0694      8.8160     19.0108      2.5045      0.0202     69.4919
   887.5000      8.0684      8.0562     18.3474      2.5171      0.0057     74.4001
   887.6000      8.0684      6.3208     17.9318      2.5457      0.0662     78.9608
   887.7000      8.0684      5.4014     18.2929      2.5609      0.0735     78.0003
   887.8000      8.0658      6.1433     18.8659      2.5486      0.0724     71.7481
   887.9000      8.0658      7.5893     19.0005      2.5248      0.0633     67.6380
   888.0000      8.0649      8.7293     18.6631      2.5060      0.0268     69.6405
   888.1000      8.0649      9.0502     18.2639      2.5007     -0.0072     75.6672
   888.2000      8.0649      8.4913     18.1500      2.5099      0.0203     81.4959
   888.3000      8.0655      7.5277     18.1063      2.5258      0.0223     81.3547
   888.4000      8.0655      7.0902     17.9572      2.5330      0.0628     75.4006
   888.5000      8.0669      7.8350     18.1101      2.5207      0.0414     70.5552
   888.6000      8.0669      9.0012     18.7678      2.5015     -0.0094     70.3084
   888.7000      8.0669      9.4064     19.2252      2.4948     -0.0003     72.3677
   888.8000      8.0672      9.1922     18.9679      2.4983      0.0418     73.2982
   888.9000      8.0672      9.1477     18.5631      2.4991      0.0269     72.7462
   889.0000      8.0674      8.8877     18.4414      2.5034     -0.0045     71.8186
   889.1000      8.0674      7.5007     18.4745      2.5262      0.0309     71.2422
   889.2000      8.0674      5.6594     18.5418      2.5566      0.0906     70.8782
   889.3000      8.0691      4.8615     18.7617      2.5698      0.0577     71.7578
   889.4000      8.0691      5.1327     19.3876      2.5653      0.0453     75.3696
   889.5000      8.0704      5.4380     20.2202      2.5603      0.0492     78.9820
   889.6000      8.0704      5.3082     20.7342      2.5624      0.0790     79.7239
   889.7000      8.0704      4.9180     20.8411      2.5689      0.0646     81.4707
   889.8000      8.0698      4.2851     20.5661      2.5793      0.0441     86.1461
   889.9000      8.0698      3.6783     20.1931      2.5893      0.0678     87.5674
   890.0000      8.0696      3.5088     20.2503      2.5921      0.0204     82.5887
   890.1000      8.0696      3.7857     20.6189      2.5875      0.0592     76.0801
   890.2000      8.0696      4.5247     21.0121      2.5753      0.0271     74.1980
   890.3000      8.0700      5.3410     21.3155      2.5619      0.0207     75.4745
   890.4000      8.0700      5.8652     21.4867      2.5532      0.0452     76.1585
   890.5000      8.0703      6.1587     21.7206      2.5484      0.0169     77.0868
   890.6000      8.0703      6.3240     21.9093      2.5457      0.0521     77.6461
   890.7000      8.0703      6.5883     21.5442      2.5413      0.0446     76.7738
