~Version Information
VERS.                      2.0: CWLS Log ASCII Standard - VERSION 2.0
WRAP.                       NO: One line per depth step
~Well Information Block
STRT.FT               238.0000: 
STOP.FT              1377.0000: 
STEP.FT                 0.1000: 
NULL.                -999.2500: 
COMP.          Pioneer Natural Resources: COMPANY
WELL.             Raptor 44-26: WELL
FLD.           Purgatoire River: FIELD
LOC.           180' FSL & 812' FEL: LOCATION
PROV.                 Colorado: PROVINCE
CNTY.               Las Animas: COUNTRY
SRVC.                Patterson: SERVICE COMPANY
DATE.          Tue Mar 22 15:28:33 2005: LOG DATE
UWI.           05 071 08187 00: UNIQUE WELL ID
~Curve Information Block
DEPT.FT            0 000 00 00: Depth
DCAL.in                       : CDL Caliper
RHOB.g/cc                     : CDL Bulk Density
RHOC.g/cc                     : CDL Density Correction
DPOR.pu                       : CDL Density Porosity
GR.GAPI                       : Gamma Ray
NPOR.pu                       : Neutron Porosity
~Parameter Information Block
~A  Depth       DCAL        RHOB        RHOC        DPOR         GR         NPOR    
# ...
   535.6000      7.8993      2.5415      0.0104      6.5775    129.3814     29.4455
   535.7000      7.8993      2.5417      0.0702      6.5639    132.2657     29.6270
   535.8000      7.8753      2.5348      0.0739      6.9823    135.9877     29.7571
   535.9000      7.8753      2.5163      0.0305      8.1034    134.4619     29.6025
   536.0000      7.8630      2.5072      0.0285      8.6530    129.2389     29.2140
   536.1000      7.8630      2.5243     -0.0068      7.6166    127.5580     28.7240
   536.2000      7.8630      2.5546      0.0328      5.7843    129.2300     28.3263
   536.3000      7.8556      2.5775      0.0664      4.3947    129.0119     28.0530
   536.4000      7.8556      2.5840      0.0935      3.9995    124.0248     27.7721
   536.5000      7.8551      2.5744      0.0806      4.5821    114.1746     27.4597
   536.6000      7.8551      2.5653      0.0046      5.1317    102.6263     27.2703
   536.7000      7.8551      2.5714      0.0385      4.7666     95.4030     27.4264
   536.8000      7.8549      2.5873      0.0827      3.8025     95.4573     27.8757
   536.9000      7.8549      2.6019      0.0435      2.9129    101.0436     28.1381
   537.0000      7.8610      2.6065      0.0812      2.6363    107.4227     28.0630
   537.1000      7.8610      2.5975      0.0594      3.1820    109.4007     27.9896
   537.2000      7.8610      2.5772      0.0300      4.4140    106.8820     28.0543
   537.3000      7.8696      2.5469      0.0082      6.2461    103.9464     28.1030
   537.4000      7.8696      2.5138     -0.0143      8.2569    102.3008     27.9375
   537.5000      7.8704      2.4977     -0.0385      9.2331    100.7272     27.6065
   537.6000      7.8704      2.5093      0.0198      8.5294     99.0194     27.1913
   537.7000      7.8704      2.5281      0.0898      7.3887     97.4582     26.6334
   537.8000      7.8277      2.5360      0.0669      6.9086     95.3483     26.1551
   537.9000      7.8277      2.5428      0.0703      6.4987     91.8193     26.0544
   538.0000      7.7759      2.5582      0.0902      5.5624     88.4924     26.1532
   538.1000      7.7759      2.5754      0.1360      4.5222     88.7017     26.1132
   538.2000      7.7759      2.5752      0.1467      4.5323     92.4788     26.0578
   538.3000      7.7675      2.5507      0.0901      6.0207     96.9244     26.2778
   538.4000      7.7675      2.5205      0.0783      7.8488     99.1471     26.6852
   538.5000      7.7853      2.5015      0.0582      8.9983     97.3281     26.9689
   538.6000      7.7853      2.4976      0.0145      9.2334     93.1300     26.8240
   538.7000      7.7853      2.5113      0.0258      8.4086     91.6436     26.2815
   538.8000      7.8032      2.5385      0.0312      6.7582     94.7713     25.8039
   538.9000      7.8032      2.5577      0.0834      5.5920     99.9760     25.6929
   539.0000      7.8153      2.5469      0.0333      6.2473    104.0371     25.8814
   539.1000      7.8153      2.5137      0.0414      8.2634    104.2852     26.0739
   539.2000      7.8153      2.4883     -0.0024      9.8013    102.2858     26.2440
   539.3000      7.8523      2.4858     -0.0115      9.9486    102.9119     26.5914
   539.4000      7.8523      2.4898      0.0317      9.7085    106.4006     26.7959
   539.5000      7.8630      2.4885     -0.0214      9.7903    108.8687     26.5792
   539.6000      7.8630      2.4930      0.0055      9.5135    109.6509     26.1164
   539.7000      7.8630      2.5100      0.0335      8.4837    109.7579     25.8201
   539.8000      7.8789      2.5372      0.0096      6.8346    108.9328     26.0596
   539.9000      7.8789      2.5643      0.0745      5.1922    107.9845     26.6066
   540.0000      7.9350      2.5694      0.0569      4.8867    109.3467     26.9167
   540.1000      7.9350      2.5475      0.0234      6.2102    113.4209     26.9071
   540.2000      7.9350      2.5270     -0.0371      7.4519    115.7902     26.8045
   540.3000      7.9349      2.5341     -0.0049      7.0267    112.1525     26.5807
   540.4000      7.9349      2.5526      0.0508      5.9008    105.6256     26.2492
   540.5000      7.9221      2.5554      0.0384      5.7333    103.2181     25.9334
   540.6000      7.9221      2.5533     -0.0181      5.8634    105.6962     25.6406
   540.7000      7.9221      2.5682      0.0339      4.9589    108.5247     25.5418
   540.8000      7.9345      2.5870      0.0376      3.8192    108.9070     25.9343
   540.9000      7.9345      2.5920      0.0479      3.5132    108.4662     26.6137
   541.0000      7.9300      2.5944      0.0417      3.3712    108.5821     27.2135
   541.1000      7.9300      2.6131      0.0173      2.2386    107.0847     27.7496
   541.2000      7.9300      2.6413      0.0706      0.5291    104.2455     28.1715
   541.3000      7.8862      2.6494      0.0861      0.0367    104.5285     28.3632
   541.4000      7.8862      2.6315      0.0661      1.1241    110.2209     28.4144
   541.5000      7.8648      2.6143      0.0542      2.1621    117.6646     28.4385
   541.6000      7.8648      2.6108      0.0124      2.3764    122.6995     28.4819
   541.7000      7.8648      2.5994      0.0268      3.0675    122.5775     28.5363
   541.8000      7.8976      2.5634     -0.0246      5.2489    119.1798     28.5871
   541.9000      7.8976      2.5242     -0.1254      7.6242    118.5610     28.5721
   542.0000      7.9307      2.5107     -0.1132      8.4439    117.8521     28.2177
   542.1000      7.9307      2.5186     -0.0186      7.9649    110.8431     27.6262
   542.2000      7.9307      2.5285     -0.0184      7.3662    102.4913     27.2976
   542.3000      7.9359      2.5296      0.0120      7.2979     99.2052     27.3435
   542.4000      7.9359      2.5194      0.0283      7.9152     99.4234     27.4228
   542.5000      7.9213      2.5120     -0.0235      8.3615     99.1820     27.2434
   542.6000      7.9213      2.5201      0.0268      7.8735     97.6470     26.9368
   542.7000      7.9213      2.5321      0.0309      7.1450     96.5046     26.8156
   542.8000      7.8663      2.5448     -0.0286      6.3760     95.1136     26.8667
   542.9000      7.8663      2.5683      0.0359      4.9526     92.5696     26.8043
   543.0000      7.8550      2.5957      0.0489      3.2921     90.7509     26.6409
   543.1000      7.8550      2.6137      0.0619      2.2018     90.7734     26.5490
   543.2000      7.8550      2.6201      0.0640      1.8103     90.1186     26.3559
   543.3000      7.8462      2.6201      0.0780      1.8093     87.7652     25.9725
   543.4000      7.8462      2.6241      0.0651      1.5702     84.9565     25.5775
   543.5000      7.8227      2.6329      0.0949      1.0349     81.3138     25.2427
   543.6000      7.8227      2.6297      0.0833      1.2315     77.5975     24.9606
   543.7000      7.8227      2.6051      0.0422      2.7217     75.1732     24.8667
   543.8000      7.8180      2.5617      0.0736      5.3511     72.9741     24.9443
   543.9000      7.8180      2.5116     -0.0617      8.3874     70.6489     24.9895
   544.0000      7.8138      2.4839     -0.0511     10.0664     70.2782     25.1376
   544.1000      7.8138      2.4858      0.0123      9.9530     73.8108     25.5584
   544.2000      7.8138      2.4967      0.0252      9.2904     79.1986     25.9079
   544.3000      7.8262      2.5068      0.0450      8.6781     82.5266     25.9650
   544.4000      7.8262      2.5199      0.0613      7.8856     83.4511     25.9531
   544.5000      7.8465      2.5462      0.0575      6.2899     86.0514     25.9363
   544.6000      7.8465      2.5969      0.0644      3.2179     92.0301     25.8043
   544.7000      7.8465      2.6587      0.1403     -0.5252     97.8531     25.8027
   544.8000      7.8006      2.6999      0.1496     -3.0246     99.4569     26.2447
   544.9000      7.8006      2.7162      0.1183     -4.0104     95.5787     26.7858
   545.0000      7.7817      2.7212      0.1967     -4.3133     90.1711     26.7943
   545.1000      7.7817      2.7091      0.1517     -3.5790     89.4902     26.3098
