~Version Information
VERS.                      2.0: CWLS Log ASCII Standard - VERSION 2.0
WRAP.                       NO: One line per depth step
~Well Information Block
STRT.FT               -12.5000: 
STOP.FT              1647.5000: 
STEP.FT                 0.2500: 
NULL.                -999.2500: 
COMP.          Pioneer Natural Resources: COMPANY
WELL.            Harlee L 34-9: WELL
FLD.           Purgatorie River`: FIELD
LOC.           600' FSL & 2125' FEL----: LOCATION
PROV.                       CO: PROVINCE
CNTY.               Las Animas: COUNTRY
SRVC.                Patterson: SERVICE COMPANY
DATE.          Sat Feb 12 09:31:33 2005: LOG DATE
UWI.           05 071 08009 00: UNIQUE WELL ID
~Curve Information Block
DEPT.FT            0 000 00 00: Depth
CCL.                          : Casing Collar Locator
TT3.usec                      : CBL 3' Travel Time
AMP3.mV                       : CBL 3' Amplitude
AMP5.mV                       : CBL 5' Amplitude
GR.GAPI                       : Gamma Ray
~Parameter Information Block
~A  Depth       CCL         TT3         AMP3        AMP5         GR     
# ...
   855.5000      0.0000    614.3080      9.6035      2.0376    126.3818
   855.7500      0.0000    615.0677      9.4082      1.9231    121.4492
   856.0000      0.0000    617.3055      9.3251      2.1904    118.0505
   856.2500      0.0000    621.2732      9.3278      1.5412    117.3370
   856.5000      0.0000    626.7920      9.3815      2.2286    119.8570
   856.7500      0.0000    633.1310      9.4725      2.0758    124.5618
   857.0000      0.0000    639.2767      9.6020      1.6176    128.5919
   857.2500      0.0000    644.2039      9.7598      2.4577    129.2658
   857.5000      0.0000    647.0457      9.9164      1.7703    126.4056
   857.7500      0.0000    647.2867     10.0401      2.1522    122.1543
   858.0000      0.0000    644.7780     10.1076      2.1904    118.6179
   858.2500      0.0000    639.6708     10.1007      1.3503    116.3756
   858.5000      0.0000    632.7615     10.0083      1.9612    115.2439
   858.7500      0.0000    625.7189      9.8347      1.8085    115.2898
   859.0000      0.0000    620.2840      9.6013      1.3121    116.3507
   859.2500      0.0000    617.1519      9.3358      1.6939    117.4247
   859.5000      0.0000    615.8727      9.0560      1.1593    117.5139
   859.7500      0.0000    615.6213      8.7559      1.4648    116.8635
   860.0000      0.0000    615.7833      8.4047      1.5030    116.6800
   860.2500      0.0000    616.0444      7.9661      0.2811    117.4316
   860.5000      0.0000    616.3585      7.4350      2.0376    117.7476
   860.7500      0.0000    617.0919      6.8664      1.4266    115.3240
   861.0000      0.0000    619.2906      6.3570      0.6629    108.8756
   861.2500      0.0000    624.7650      5.9696      1.1211     99.1140
   861.5000      0.0000    635.4280      5.6715      0.7393     87.9684
   861.7500      0.0000    651.6688      5.3729      0.5865     77.0320
   862.0000      0.0000    670.9537      5.0274      0.8157     66.7674
   862.2500      0.0000    688.5333      4.6673      0.2811     57.1178
   862.5000      0.0000    700.1943      4.3528      0.7393     48.5181
   862.7500     -3.2602    704.4968      4.1177      0.3956     41.8358
   863.0000      0.0000    702.5361      3.9667      0.5865     37.5317
   863.2500      0.0000    696.2430      3.9029      0.7393     35.5324
   863.5000      0.0000    687.4479      3.9471      0.1665     35.8074
   863.7500      0.0000    678.1819      4.1160      0.6629     38.2761
   864.0000      0.0000    670.6440      4.3741      0.6247     41.9560
   864.2500      0.0000    665.8582      4.6296      0.4338     45.0336
   864.5000      0.0000    662.5600      4.8105      0.6629     46.3609
   864.7500      0.0000    658.0812      4.9279      0.2429     46.4187
   865.0000      0.0000    650.6132      5.0409      0.7011     46.3042
   865.2500      0.0000    640.7600      5.1825      0.9302     46.2213
   865.5000      0.0000    631.0192      5.3421      0.8157     45.6036
   865.7500      0.0000    623.7249      5.4998      0.6629     44.5434
   866.0000      0.0000    619.5336      5.6557      0.5484     44.4813
   866.2500      0.0000    617.6570      5.8295      1.1975     47.2776
   866.5000      0.0000    616.9880      6.0383      0.5484     53.6826
   866.7500      0.0000    616.7872      6.2724      1.0830     62.7064
   867.0000      0.0000    616.6924      6.4941      0.7393     72.4543
   867.2500      0.0000    616.5413      6.6661      1.1211     81.6435
   867.5000      0.0000    616.2867      6.7843      1.2357     90.3050
   867.7500      0.0000    615.9739      6.8844      0.8157     99.0863
   868.0000      0.0000    615.7055      7.0167      1.4266    108.2210
   868.2500      0.0000    615.5982      7.2105      0.8157    117.2987
   868.5000      0.0000    615.7910      7.4553      1.4648    125.5807
   868.7500      0.0000    616.4865      7.7081      0.7775    132.1111
   869.0000      0.0000    617.9129      7.9161      1.3503    135.7982
   869.2500      0.0000    620.1106      8.0405      1.3885    135.9557
   869.5000      0.0000    622.8073      8.0753      1.3121    132.7922
   869.7500      0.0000    625.7871      8.0487      1.6939    126.8877
   870.0000      0.0000    629.5605      8.0005      1.1975    118.2477
   870.2500      0.0000    635.4106      7.9512      1.7321    106.7270
   870.5000      0.0000    644.3589      7.8945      0.9302     93.7793
   870.7500      0.0000    655.8428      7.8190      1.5412     83.1257
   871.0000      0.0000    667.2122      7.7348      1.0066     78.9792
   871.2500      0.0000    674.7594      7.6818      1.9612     83.4444
   871.5000      0.0000    675.8893      7.7163      1.4266     95.4145
   871.7500      0.0000    670.6416      7.8820      2.0376    111.3569
   872.0000      0.0000    661.1011      8.1747      1.1211    127.0567
   872.2500      0.0000    649.6656      8.5295      1.9612    139.3880
   872.5000      0.0000    638.2353      8.8460      1.2739    147.0570
   872.7500      0.0000    628.4326      9.0369      1.9231    149.7301
   873.0000      0.0000    621.4439      9.0686      1.1593    147.0079
   873.2500      0.0000    617.4268      8.9709      1.7321    138.9322
   873.5000      0.0000    615.5931      8.8087      0.9684    127.2533
   873.7500      0.0000    614.9727      8.6427      1.8467    115.4636
   874.0000      0.0000    614.9625      8.5108      1.0830    107.3509
   874.2500      0.0000    615.2930      8.4280      1.6939    105.2140
   874.5000      0.0000    615.7762      8.3828      1.0448    108.7186
   874.7500      0.0000    616.2169      8.3280      1.6176    115.0919
   875.0000      0.0000    616.4678      8.1929      1.1211    120.9195
   875.2500      0.0000    616.4826      7.9292      1.5030    124.3917
   875.5000      0.0000    616.2646      7.5564      1.1211    126.0078
   875.7500      0.0000    615.8219      7.1608      1.5794    127.3190
   876.0000      0.0000    615.2458      6.8428      1.0066    129.4566
   876.2500      0.0000    614.8503      6.6584      1.5794    132.6230
   876.5000      0.0000    615.2602      6.6015      0.8538    136.1653
   876.7500      0.0000    617.3413      6.6289      1.2357    139.0103
   877.0000      0.0000    621.8695      6.6944      0.9684    140.4722
   877.2500      0.0000    628.9744      6.7667      1.3503    140.5862
   877.5000      0.0000    637.5761      6.8311      0.7775    139.5423
   877.7500      0.0000    645.1523      6.8849      1.2357    137.2234
   878.0000      0.0000    648.4102      6.9295      0.9302    133.6076
   878.2500      0.0000    645.2704      6.9601      1.3503    129.3516
   878.5000      0.0000    636.8608      6.9641      0.9302    125.6239
   878.7500      0.0000    627.0588      6.9346      1.1975    123.3468
   879.0000      0.0000    619.6494      6.8828      1.0066    122.7892
   879.2500      0.0000    616.1666      6.8323      1.2357    123.6573
   879.5000      0.0000    616.2678      6.8043      1.2357    124.9817
   879.7500      0.0000    619.1214      6.8104      1.0066    125.0204
   880.0000      0.0000    623.7013      6.8544      1.1975    122.0780
   880.2500      0.0000    628.1379      6.9337      1.2739    115.7291
   880.5000      0.0000    630.0270      7.0356      1.2739    107.0772
   880.7500      0.0000    628.2047      7.1379      0.8157     97.9713
   881.0000      0.0000    623.8766      7.2177      1.6939     90.2168
   881.2500      0.0000    619.4362      7.2673      1.0066     85.2172
   881.5000      0.0000    616.4363      7.3008      1.4266     83.7920
   881.7500      0.0000    614.9622      7.3440      0.6629     85.9898
   882.0000      0.0000    614.3894      7.4138      1.4648     90.8129
   882.2500      0.0000    614.1766      7.5121      0.7775     96.1736
   882.5000      0.0000    614.0787      7.6394      1.5030     99.7892
   882.7500      0.0000    614.0316      7.8053      0.9302    100.7663
   883.0000      0.0000    614.0237      8.0139      1.3503    100.2963
   883.2500      0.0000    614.0260      8.2433      1.0448    100.5617
