~Version Information
VERS.                      2.0: CWLS Log ASCII Standard - VERSION 2.0
WRAP.                       NO: One line per depth step
~Well Information Block
STRT.FT               483.0000: 
STOP.FT              1702.5000: 
STEP.FT                 0.2500: 
NULL.                -999.2500: 
COMP.          Pioneer Natural Resources: COMPANY
WELL.            Mad Dog 42-31: WELL
FLD.           Purgatorie River: FIELD
LOC.           2064' FNL & 479' FEL: LOCATION
PROV.                 Colorado: PROVINCE
CNTY.               Las Animas: COUNTRY
SRVC.                         : SERVICE COMPANY
DATE.          Sun Oct 10 04:26:24 2004: LOG DATE
UWI.           05 071 08195 00: UNIQUE WELL ID
~Curve Information Block
DEPT.FT            0 000 00 00: Depth
LTEN.lb                       : Surface Line Tension
SN.Ohm-m                      : IEL Short Normal
SP.mV                         : IEL Spontaneous Potential
DIR.Ohm-m                     : IEL Induction Resistivity
GR.GAPI                       : Gamma Ray
~Parameter Information Block
~A  Depth       LTEN         SN          SP         DIR          GR     
# ...
  1687.0000    880.1656     10.3785     16.3645      9.4932   -999.2500
  1687.2500    876.9619     10.4384     16.6053      9.4608   -999.2500
  1687.5000    874.0417     10.4928     17.1677      9.4623   -999.2500
  1687.7500    872.9919     10.5220     17.8734      9.4809   -999.2500
  1688.0000    874.3361     10.5225     18.5234      9.5095   -999.2500
  1688.2500    877.6007     10.5083     18.9524      9.5480   -999.2500
  1688.5000    881.3776     10.5006     19.0660      9.5943   -999.2500
  1688.7500    883.7474     10.5116     18.8549      9.6398   -999.2500
  1689.0000    883.6199     10.5348     18.3701      9.6719   -999.2500
  1689.2500    881.7609     10.5476     17.6962      9.7038   -999.2500
  1689.5000    880.0219     10.5261     16.9202      9.7426   -999.2500
  1689.7500    879.5853     10.4584     16.1035      9.8015   -999.2500
  1690.0000    880.2427     10.3512     15.2820      9.8861   -999.2500
  1690.2500    881.1000     10.2283     14.4788      9.9899   -999.2500
  1690.5000    881.5080     10.1210     13.7247     10.0933   -999.2500
  1690.7500    881.4181     10.0532     13.0781     10.1669   -999.2500
  1691.0000    881.2100     10.0256     12.6337     10.1877   -999.2500
  1691.2500    881.2664     10.0105     12.5178     10.1620   -999.2500
  1691.5000    881.6572      9.9629     12.8618     10.1432   -999.2500
  1691.7500    882.1562      9.8440     13.7679     10.2370   -999.2500
  1692.0000    882.3340      9.6441     15.2764     10.6047   -999.2500
  1692.2500    881.6528      9.3925     17.3454     11.4838   -999.2500
  1692.5000    880.0167      9.1453     19.8406     13.2636   -999.2500
  1692.7500    878.2756      8.9555     22.5612     16.6021   -999.2500
  1693.0000    877.4228      8.8440     25.2690     22.8408   -999.2500
  1693.2500    877.1425      8.7923     27.7360     34.7769   -999.2500
  1693.5000    875.9834      8.7611     29.7787     58.4014   -999.2500
  1693.7500    873.2186      8.7211     31.2820    105.6760   -999.2500
  1694.0000    869.7125      8.6719     32.2023    193.4489   -999.2500
  1694.2500    866.6700      8.6379     32.5595    319.7154   -999.2500
  1694.5000    864.3501      8.6490     32.4193    434.6529   -999.2500
  1694.7500    862.6011      8.7195     31.8647    507.7096   -999.2500
  1695.0000    862.0430      8.8386     30.9816    582.6858   -999.2500
  1695.2500    863.7244      8.9777     29.8491    758.8696   -999.2500
  1695.5000    867.5353      9.1064     28.5390 100000.0000   -999.2500
  1695.7500    871.6907      9.2073     27.1219 100000.0000   -999.2500
  1696.0000    874.3110      9.2795     25.6790 100000.0000   -999.2500
  1696.2500    875.1315      9.3337     24.2994 100000.0000   -999.2500
  1696.5000    874.8671      9.3841     23.0700 100000.0000   -999.2500
  1696.7500    873.3884      9.4438     22.0507 100000.0000   -999.2500
  1697.0000    870.0564      9.5218     21.2491 100000.0000   -999.2500
  1697.2500    865.7784      9.6175     20.6053 100000.0000   -999.2500
  1697.5000    862.8041      9.7098     19.9935 100000.0000   -999.2500
  1697.7500    862.1201      9.7427     19.2489 100000.0000   -999.2500
  1698.0000    862.8344      9.6098     18.2156 100000.0000   -999.2500
  1698.2500    864.4476      9.1522     16.7916 100000.0000   -999.2500
  1698.5000    867.5577      8.1981     14.9612 100000.0000   -999.2500
  1698.7500    870.8890      6.6523     12.8061 100000.0000   -999.2500
  1699.0000    868.2256      4.5934     10.4808 100000.0000   -999.2500
  1699.2500    847.6172      2.2951      8.1726 100000.0000   -999.2500
  1699.5000    792.5168      0.1283      6.0555 100000.0000   -999.2500
  1699.7500    687.9843     -1.6037      4.2546 100000.0000   -999.2500
  1700.0000    534.7079     -2.7795      2.8308 100000.0000   -999.2500
  1700.2500    359.1997     -3.4582      1.7816 100000.0000   -999.2500
  1700.5000    202.5666     -3.7914      1.0591 100000.0000   -999.2500
  1700.7500     93.8285     -3.9307      0.5948 100000.0000   -999.2500
  1701.0000     35.1481     -3.9803      0.3150 100000.0000   -999.2500
  1701.2500     10.5315     -3.9953      0.1571 100000.0000   -999.2500
  1701.5000      2.5018     -3.9991      0.0741 100000.0000   -999.2500
  1701.7500      0.4649   -999.2500      0.0327 100000.0000   -999.2500
  1702.0000      0.0622   -999.2500      0.0133 100000.0000   -999.2500
  1702.2500   -999.2500   -999.2500      0.0050   -999.2500   -999.2500
  1702.5000   -999.2500   -999.2500      0.0015   -999.2500   -999.2500
