~Version Information
 VERS.                                  2.0 : CWLS LAS VERSION
 WRAP.                                   NO : WRAPING MODE
 SWARE .                 MController 2.5.0J : SOFTWARE VERSION
~Well Information
 WELL.                         State 16-12V : WELL
 COMP.                Petrogulf Corporation : COMPANY
 FLD.                      Purgatoire River : FIELD
 LOC.                       05-071-08016-00 : LOCATION
 DATE.                             08/03/05 : DATE(S) LOGGED
 SRVC.       BLANCO Geological Services LLC : SERVICE COMPANY
 STAT.                                   CO : STATE
 CNTY.                           Las Animas : COUNTY
 CTRY.                                  USA : COUNTRY
 API.                       05-071-08016-00 : API NUMBER
 STRT.FT                             611.00 : START DEPTH
 STOP.FT                            2155.00 : STOP DEPTH
 STEP.FT                               1.00 : DEPTH INCREMENT
 NULL.                                -9999 : NULL VALUE
~Curve information
 DEPTH.FT                                   :
 ROP.MIN/FT                                 :
 GAS.UNITS                                  :
~ASCII Log data
# ...
      1411.0         0.37         68.8 
      1412.0         0.35         64.8 
      1413.0         0.40         62.6 
      1414.0         0.53         60.9 
      1415.0         0.53         54.3 
      1416.0         0.40         48.1 
      1417.0         0.43         44.8 
      1418.0         0.30         43.0 
      1419.0         0.35         42.6 
      1420.0         0.40         41.9 
      1421.0         0.50         40.7 
      1422.0         0.27         40.0 
      1423.0         0.43         42.0 
      1424.0         0.33         41.6 
      1425.0         0.23         40.8 
      1426.0         0.27         40.9 
      1427.0         0.32         40.4 
      1428.0         0.30         42.7 
      1429.0         0.27         43.6 
      1430.0         0.20         41.0 
      1431.0         0.53         34.4 
      1432.0         0.47         43.4 
      1433.0         0.23         56.7 
      1434.0         0.30         78.1 
      1435.0         0.30        102.8 
      1436.0         2.18        112.9 
      1437.0         0.33         63.9 
      1438.0         0.33         63.9 
      1439.0         0.28         61.6 
      1440.0         0.23         58.3 
      1441.0         0.17         55.6 
      1442.0         0.27         53.7 
      1443.0         0.40         51.5 
      1444.0         0.27         48.5 
      1445.0         0.20         47.8 
      1446.0         0.28         47.7 
      1447.0         0.17         47.4 
      1448.0         0.23         47.4 
      1449.0         0.23         47.1 
      1450.0         0.20         46.7 
      1451.0         0.23         46.0 
      1452.0         0.27         45.6 
      1453.0         0.23         48.3 
      1454.0         0.17         51.6 
      1455.0         0.20         54.5 
      1456.0         0.30         69.7 
      1457.0         0.23         73.0 
      1458.0         0.23         69.7 
      1459.0         0.25         61.2 
      1460.0         0.37         75.6 
      1461.0         0.27        103.4 
      1462.0         0.23        135.7 
      1463.0         0.30        187.2 
      1464.0         0.20        226.7 
      1465.0         0.23        245.0 
      1466.0         2.05        245.2 
      1467.0         0.47         78.6 
      1468.0         0.30         76.0 
      1469.0         0.30         73.8 
      1470.0         0.30         68.8 
      1471.0         0.30         65.0 
      1472.0         0.30         64.3 
      1473.0         0.33         73.0 
      1474.0         0.32         73.9 
      1475.0         0.27         71.9 
      1476.0         0.23         67.4 
      1477.0         0.37         64.2 
      1478.0         0.23         62.4 
      1479.0         0.27         62.6 
      1480.0         0.30         62.6 
      1481.0         0.17         62.4 
      1482.0         0.30         62.3 
      1483.0         0.35         61.7 
      1484.0         0.33         60.7 
      1485.0         0.23         61.1 
      1486.0         0.23         60.9 
      1487.0         0.23         60.8 
      1488.0         0.23         58.6 
      1489.0         0.30         48.3 
      1490.0         0.23         40.5 
      1491.0         0.20         47.9 
      1492.0         0.30         69.4 
      1493.0         0.23         95.4 
      1494.0         0.27        135.6 
      1495.0         0.28        165.9 
      1496.0         2.37        165.5 
      1497.0         0.40         74.9 
      1498.0         0.37         70.0 
      1499.0         0.45         65.8 
      1500.0         0.37         59.8 
      1501.0         0.37         55.3 
      1502.0         0.27         49.6 
      1503.0         0.27         47.8 
      1504.0         0.20         46.3 
      1505.0         0.23         45.4 
      1506.0         0.20         45.5 
      1507.0         0.20         45.7 
      1508.0         0.23         46.0 
      1509.0         0.20         45.6 
      1510.0         0.23         45.6 
      1511.0         0.25         45.4 
      1512.0         0.20         45.3 
      1513.0         0.20         45.3 
      1514.0         0.17         45.3 
      1515.0         0.17         44.2 
      1516.0         0.20         40.5 
      1517.0         0.17         34.6 
      1518.0         0.20         30.1 
      1519.0         0.17         31.1 
      1520.0         0.20         40.4 
      1521.0         0.23         59.3 
      1522.0         0.20         81.9 
      1523.0         0.20        106.4 
      1524.0         0.17        128.5 
      1525.0         0.23        166.4 
      1526.0         2.28        226.7 
      1527.0         0.37         65.2 
      1528.0         0.47         61.6 
      1529.0         0.58         56.3 
      1530.0         0.37         50.4 
      1531.0         0.37         49.8 
      1532.0         0.27         48.4 
      1533.0         0.27         47.9 
      1534.0         0.23         48.0 
      1535.0         0.23         48.0 
      1536.0         0.17         44.8 
      1537.0         0.33         41.8 
      1538.0         0.20         40.3 
      1539.0         0.23         42.1 
      1540.0         0.17         45.9 
      1541.0         0.20         48.6 
      1542.0         0.48         50.0 
      1543.0         0.53         49.5 
      1544.0         0.30         48.2 
      1545.0         0.27         48.5 
      1546.0         0.23         49.2 
      1547.0         0.23         48.9 
      1548.0         0.27         45.7 
      1549.0         0.30         36.6 
      1550.0         0.27         32.3 
      1551.0         0.23         40.7 
      1552.0         0.27         54.5 
      1553.0         0.22         74.3 
      1554.0         0.20         93.0 
      1555.0         0.23        125.2 
      1556.0         2.07        178.6 
      1557.0         0.47         64.9 
      1558.0         0.38         62.0 
      1559.0         0.27         55.9 
      1560.0         0.27         53.2 
      1561.0         0.27         51.5 
      1562.0         0.57         50.1 
      1563.0         0.50         45.3 
      1564.0         0.30         40.4 
      1565.0         0.27         42.5 
      1566.0         0.27         43.1 
      1567.0         0.30         42.3 
      1568.0         0.32         38.9 
      1569.0         0.23         37.6 
      1570.0         0.30         42.9 
      1571.0         0.27         48.6 
      1572.0         0.23         54.6 
      1573.0         0.27         58.7 
      1574.0         0.37         62.9 
      1575.0         0.30         65.4 
      1576.0         0.27         64.8 
      1577.0         0.27         57.0 
      1578.0         0.27         43.5 
      1579.0         0.25         40.4 
      1580.0         0.20         39.7 
      1581.0         0.20         36.8 
      1582.0         0.20         39.5 
      1583.0         0.23         49.1 
      1584.0         0.20         65.4 
      1585.0         0.23         94.3 
      1586.0         2.85        179.0 
      1587.0         0.37         70.1 
      1588.0         0.37         64.8 
      1589.0         0.37         61.5 
      1590.0         0.37         59.5 
      1591.0         0.37         57.7 
      1592.0         0.43         54.9 
      1593.0         0.28         52.6 
      1594.0         0.23         51.7 
      1595.0         0.27         51.7 
      1596.0         0.27         52.0 
      1597.0         0.23         51.9 
      1598.0         0.27         50.8 
      1599.0         0.27         47.7 
      1600.0         0.27         49.2 
      1601.0         0.23         54.4 
      1602.0         0.20         56.5 
      1603.0         0.20         56.6 
      1604.0         0.27         58.1 
      1605.0         0.52         60.6 
      1606.0         0.37         65.1 
      1607.0         0.23         65.1 
      1608.0         0.23         64.3 
      1609.0         0.30         56.5 
      1610.0         0.23         43.1 
