~Version Information
VERS.                      2.0: CWLS Log ASCII Standard - VERSION 2.0
WRAP.                       NO: One line per depth step
~Well Information Block
STRT.FT                 0.5000: 
STOP.FT              1575.0000: 
STEP.FT                 0.2500: 
NULL.                -999.2500: 
COMP.          Evergreen Operating Corporation: COMPANY
WELL.                Eric 42-9: WELL
FLD.           Purgatorie River: FIELD
LOC.           2050' FNL & 850' FEL: LOCATION
PROV.                 Colorado: PROVINCE
CNTY.               Las Animas: COUNTRY
SRVC.                         : SERVICE COMPANY
DATE.          Tue Nov 09 16:28:59 2004: LOG DATE
UWI.           05 071 07999 00: UNIQUE WELL ID
~Curve Information Block
DEPT.FT            0 000 00 00: Depth
LTEN.lb                       : Surface Line Tension
TT3.usec                      : CBL 3' Travel Time
AMP3.mV                       : CBL 3' Amplitude
ATT3.db/ft                    : CBL 3' Attenuation
GR.GAPI                       : Gamma Ray
CCL.                          : Casing Collar Locator
~Parameter Information Block
~A  Depth       LTEN        TT3         AMP3        ATT3         GR         CCL     
# ...
  1224.5000    738.9996    794.5552      5.0833     -8.4714     53.7568      0.0000
  1224.7500    741.1014    794.5096      5.1134     -8.4543     55.8097      0.0000
  1225.0000    743.7322    794.2217      5.1550     -8.4309     57.6207      0.0000
  1225.2500    746.4097    793.6837      5.2066     -8.4020     59.2445      0.0000
  1225.5000    748.0200    793.0128      5.2771     -8.3631     60.4120      0.0000
  1225.7500    747.7141    792.3563      5.3671     -8.3141     60.3945      0.0000
  1226.0000    745.7714    791.7853      5.4459     -8.2719     58.5457      0.0000
  1226.2500    743.2452    791.2597      5.4601     -8.2644     55.0755      0.0000
  1226.5000    740.8021    790.6558      5.3757     -8.3094     51.1800      0.0000
  1226.7500    738.3350    789.7246      5.2074     -8.4015     48.2195      0.0000
  1227.0000    735.7180    787.8623      4.9988     -8.5200     46.7140      0.0000
  1227.2500    733.4222    783.9489      4.7795     -8.6498     46.2164      0.0000
  1227.5000    732.1471    776.9584      4.5549     -8.7892     46.1295      0.0000
  1227.7500    732.1239    767.5204      4.3352     -8.9323     46.5146      0.0000
  1228.0000    732.9950    758.9489      4.1607     -9.0513     48.0375      0.0000
  1228.2500    734.2103    755.7009      4.0846     -9.1047     51.1568      0.0000
  1228.5000    735.2462    759.8678      4.1394     -9.0661     55.4216      0.0000
  1228.7500    735.6108    769.3970      4.3241     -8.9397     59.6846      0.0000
  1229.0000    735.2008    780.2584      4.6111     -8.7537     62.9513      0.0000
  1229.2500    734.6363    790.1605      4.9440     -8.5519     64.7295      0.0000
  1229.5000    734.6035    799.8876      5.2348     -8.3864     64.5681      0.0000
  1229.7500    734.9109    811.1255      5.3870     -8.3034     61.8684      0.0000
  1230.0000    734.9405    823.0759      5.3399     -8.3288     56.5389     -3.0000
  1230.2500    734.9946    831.5779      5.1054     -8.4588     49.5049      0.0000
  1230.5000    736.2416    832.4034      4.7795     -8.6498     42.3247      0.0000
  1230.7500    738.9727    825.4551      4.5141     -8.8152     36.4429      0.0000
  1231.0000    741.6407    814.8476      4.4392     -8.8637     32.6248      0.0000
  1231.2500    742.3372    804.8929      4.5823     -8.7718     30.6852      0.0000
  1231.5000    740.9489    796.9597      4.8693     -8.5959     29.7682      0.0000
  1231.7500    739.1504    790.2015      5.2061     -8.4023     29.1149      0.0000
  1232.0000    738.3902    784.1799      5.5414     -8.2216     28.6129      0.0000
  1232.2500    738.6726    779.9821      5.8533     -8.0630     28.7434      0.0000
  1232.5000    739.2469    778.7808      6.1123     -7.9377     30.3261      0.0000
  1232.7500    739.5461    779.9202      6.2748     -7.8617     34.3664      0.0000
  1233.0000    739.2303    781.1456      6.3113     -7.8449     41.8143      0.0000
  1233.2500    738.0984    780.8097      6.2362     -7.8796     53.0601      0.0000
  1233.5000    736.4364    779.3449      6.1085     -7.9395     67.3847      0.0000
  1233.7500    735.1733    778.4581      5.9944     -7.9941     82.8168      0.0000
  1234.0000    735.2161    779.2737      5.9319     -8.0244     96.7580      0.0000
  1234.2500    736.5316    781.3889      5.9327     -8.0240    107.2107      0.0000
  1234.5000    738.0496    783.5652      5.9932     -7.9947    113.6330      0.0000
  1234.7500    738.4906    785.1905      6.0867     -7.9498    116.6160      0.0000
  1235.0000    737.2691    786.8115      6.1626     -7.9139    116.9736      0.0000
  1235.2500    734.9946    789.1338      6.1794     -7.9060    115.4149      0.0000
  1235.5000    733.4688    791.9516      6.1402     -7.9245    112.9403      0.0000
  1235.7500    734.7643    794.3784      6.0858     -7.9503    111.0050      0.0000
  1236.0000    739.4888    795.7331      6.0601     -7.9625    110.8239      0.0000
  1236.2500    745.7457    795.8247      6.0858     -7.9502    112.4694      0.0000
  1236.5000    750.2478    794.6937      6.1620     -7.9142    114.8068      0.0000
  1236.7500    750.8935    792.6287      6.2690     -7.8644    116.3565      0.0000
  1237.0000    748.3860    790.4533      6.3721     -7.8172    116.3186      0.0000
  1237.2500    745.3844    789.3145      6.4278     -7.7919    115.0039      0.0000
  1237.5000    744.1458    789.7946      6.4019     -7.8036    113.4170      0.0000
  1237.7500    744.9112    791.3911      6.2968     -7.8516    112.2734      0.0000
  1238.0000    746.2338    793.0909      6.1567     -7.9167    111.3302      0.0000
  1238.2500    746.5276    794.2820      6.0326     -7.9757    109.8679      0.0000
  1238.5000    745.3599    794.9588      5.9434     -8.0188    107.7946      0.0000
  1238.7500    743.6107    795.3135      5.8773     -8.0512    105.9109      0.0000
  1239.0000    742.5911    795.4193      5.8215     -8.0788    105.0493      0.0000
  1239.2500    742.9070    795.2304      5.7795     -8.0998    105.2807      0.0000
  1239.5000    744.0475    794.6093      5.7608     -8.1091    105.9892      0.0000
  1239.7500    745.0385    793.1984      5.7629     -8.1081    106.4164      0.0000
  1240.0000    745.4018    790.4290      5.7662     -8.1064    106.0624      0.0000
  1240.2500    745.3506    786.0715      5.7473     -8.1160    104.9160      0.0000
  1240.5000    745.1884    781.0869      5.6981     -8.1408    103.5781      0.0000
  1240.7500    744.8486    777.6429      5.6357     -8.1727    103.0260      0.0000
  1241.0000    744.1480    777.6374      5.5921     -8.1952    103.9419      0.0000
  1241.2500    743.1618    781.0041      5.5907     -8.1959    106.1606      0.0000
  1241.5000    742.1025    785.7878      5.6279     -8.1767    108.8936      0.0000
  1241.7500    741.0905    789.8858      5.6802     -8.1499    111.4224      0.0000
  1242.0000    740.2646    792.4243      5.7277     -8.1258    113.2880      0.0000
  1242.2500    739.8341    793.6605      5.7670     -8.1060    114.0037      0.0000
  1242.5000    739.8231    794.1827      5.8066     -8.0862    113.2195      0.0000
  1242.7500    739.9019    794.4153      5.8572     -8.0611    111.2858      0.0000
  1243.0000    739.6970    794.5643      5.9244     -8.0281    109.2321      0.0000
  1243.2500    739.2831    794.6878      6.0015     -7.9906    108.0712      0.0000
  1243.5000    739.0679    794.7373      6.0701     -7.9577    108.3839      0.0000
  1243.7500    739.0488    794.6166      6.1101     -7.9387    110.3973      0.0000
  1244.0000    738.7278    794.2892      6.1106     -7.9385    113.8540      0.0000
  1244.2500    738.0620    793.8486      6.0743     -7.9557    117.7006      0.0000
  1244.5000    737.7789    793.4650      6.0207     -7.9814    120.4554      0.0000
  1244.7500    738.2554    793.2781      5.9816     -8.0003    121.1568      0.0000
  1245.0000    738.8505    793.3524      5.9832     -7.9995    119.6904      0.0000
  1245.2500    738.8837    793.7223      6.0295     -7.9772    116.1962      0.0000
  1245.5000    738.6431    794.4539      6.1130     -7.9373    110.7280      0.0000
  1245.7500    738.9983    795.7289      6.2440     -7.8759    103.6967      0.0000
  1246.0000    740.5145    797.8811      6.4526     -7.7808     96.1425      0.0000
  1246.2500    743.0950    801.2026      6.7461     -7.6520     89.2641      0.0000
  1246.5000    745.9436    805.5386      7.0635     -7.5189     84.0666      0.0000
  1246.7500    747.8462    810.0540      7.2825     -7.4305     81.5991      0.0000
  1247.0000    748.1381    813.4016      7.2880     -7.4283     82.8092      0.0000
  1247.2500    747.4136    814.1523      7.0510     -7.5240     87.5839      0.0000
  1247.5000    746.6702    811.4564      6.6530     -7.6922     94.2560      0.0000
  1247.7500    745.9073    805.4700      6.2354     -7.8800    100.4823      0.0000
  1248.0000    744.3231    796.4095      5.9157     -8.0323    104.5637      0.0000
  1248.2500    741.6310    782.0704      5.7396     -8.1198    105.9469      0.0000
