~Version Information
VERS.                      2.0: CWLS Log ASCII Standard - VERSION 2.0
WRAP.                       NO: One line per depth step
~Well Information Block
STRT.FT                -2.7500: 
STOP.FT              2141.2500: 
STEP.FT                 0.2500: 
NULL.                -999.2500: 
COMP.          Pioneer Nautural Resources: COMPANY
WELL.             Enzo 43-8 Tr: WELL
FLD.           Purgatorie River: FIELD
LOC.           2303' FSL & 604' FEL--: LOCATION
PROV.                       CO: PROVINCE
CNTY.               Las Animas: COUNTRY
SRVC.                         : SERVICE COMPANY
DATE.          Thu Nov 04 09:01:55 2004: LOG DATE
UWI.            05-071-08213  : UNIQUE WELL ID
~Curve Information Block
DEPT.FT            0 000 00 00: Depth
GR.GAPI                       : Gamma Ray
CCL.                          : Casing Collar Locator
TT3.usec                      : CBL 3' Travel Time
AMP3.mV                       : CBL 3' Amplitude
~Parameter Information Block
~A  Depth        GR         CCL         TT3         AMP3    
# ...
  1404.2500    100.8434      0.0000    776.9749      5.1943
  1404.5000    101.2334      0.0000    776.7432      5.1854
  1404.7500    104.6932      0.0000    772.1656      5.1510
  1405.0000    110.0059      0.0000    765.3016      5.0941
  1405.2500    116.4178      0.0000    758.9002      5.0248
  1405.5000    123.0620      0.0000    754.6530      4.9546
  1405.7500    128.6164      0.0000    752.5891      4.8973
  1406.0000    132.1179      0.0000    751.7969      4.8661
  1406.2500    133.9807      0.0000    751.4559      4.8677
  1406.5000    135.8222      0.0000    751.2959      4.8966
  1406.7500    139.1471      0.0000    751.5121      4.9333
  1407.0000    144.1631      0.0000    752.5709      4.9512
  1407.2500    149.6621      0.0000    755.0206      4.9379
  1407.5000    153.7573      0.0000    759.0654      4.9097
  1407.7500    154.6353      0.0000    763.9848      4.8984
  1408.0000    150.9247      0.0000    768.2896      4.9258
  1408.2500    142.2655      0.0000    771.1439      4.9948
  1408.5000    130.1129      0.0000    773.6042      5.0956
  1408.7500    117.5138      0.0000    777.6012      5.2111
  1409.0000    107.4177      0.0000    783.2930      5.3202
  1409.2500    101.1711      0.0000    787.9630      5.4084
  1409.5000     98.7211      0.0000    788.1626      5.4763
  1409.7500     99.6227      0.0000    783.1520      5.5306
  1410.0000    103.1400      0.0000    776.1067      5.5681
  1410.2500    107.7134      0.0000    771.6991      5.5697
  1410.5000    111.3049      0.0000    772.3971      5.5125
  1410.7500    112.7960      0.0000    777.0027      5.3923
  1411.0000    113.0795      0.0000    782.2835      5.2391
  1411.2500    114.5582      0.0000    785.4185      5.1061
  1411.5000    119.0541      0.0000    785.0293      5.0342
  1411.7500    125.8956      0.0000    780.9298      5.0243
  1412.0000    132.3603      0.0000    773.9089      5.0482
  1412.2500    136.2321      0.0000    765.7224      5.0831
  1412.5000    137.6550      0.0000    758.4734      5.1294
  1412.7500    138.4393      0.0000    753.4279      5.1941
  1413.0000    140.0834      0.0000    750.3892      5.2685
  1413.2500    142.8227      0.0000    748.2497      5.3314
  1413.5000    146.0282      0.0000    746.1534      5.3654
  1413.7500    148.7867      0.0000    744.2784      5.3660
  1414.0000    150.2634      0.0000    743.5460      5.3393
  1414.2500    150.1995      0.0000    744.4947      5.2995
  1414.5000    149.2824      0.0000    746.5650      5.2638
  1414.7500    148.7433      0.0000    748.6039      5.2470
  1415.0000    149.3118      0.0000    749.8478      5.2583
  1415.2500    150.5423      0.0000    750.2639      5.3008
  1415.5000    151.1211      0.0000    750.2129      5.3700
  1415.7500    149.7325      0.0000    750.0495      5.4554
  1416.0000    145.8506      0.0000    749.9570      5.5434
  1416.2500    140.0386      0.0000    749.9426      5.6188
  1416.5000    133.4674      0.0000    749.8992      5.6631
  1416.7500    127.0048      0.0000    749.6320      5.6589
  1417.0000    120.8517      0.0000    748.7723      5.5982
  1417.2500    115.1662      0.0000    746.6299      5.4874
  1417.5000    110.8062      0.0000    742.4300      5.3456
  1417.7500    109.0844      0.0000    736.3514      5.2027
  1418.0000    110.6534      0.0000    730.5599      5.0977
  1418.2500    114.6013      0.0000    728.3250      5.0625
  1418.5000    118.5325      0.0000    731.1743      5.0996
  1418.7500    119.7441      0.0000    737.2837      5.1780
  1419.0000    116.9678      0.0000    743.2732      5.2531
  1419.2500    111.5114      0.0000    747.0599      5.2910
  1419.5000    106.7017      0.0000    748.5750      5.2795
  1419.7500    105.6787      0.0000    748.5496      5.2265
  1420.0000    109.1634      0.0000    747.5050      5.1514
  1420.2500    115.3327      0.0000    745.8514      5.0740
  1420.5000    121.9927      0.0000    744.3904      5.0094
  1420.7500    128.4750      0.0000    744.1707      4.9679
  1421.0000    134.9701      0.0000    745.6693      4.9547
  1421.2500    140.7435      0.0000    748.3479      4.9675
  1421.5000    144.3663      0.0000    751.3083      4.9981
  1421.7500    145.5997      0.0000    754.1433      5.0375
  1422.0000    145.6735      0.0000    756.8117      5.0791
  1422.2500    145.3060      0.0000    758.8621      5.1142
  1422.5000    143.4314      0.0000    759.3967      5.1315
  1422.7500    138.5633      0.0000    758.1506      5.1277
  1423.0000    131.0888      0.0000    756.4263      5.1188
  1423.2500    123.7211      0.0000    756.6917      5.1327
  1423.5000    119.5396      0.0000    761.2322      5.1887
  1423.7500    119.3874      0.0000    770.7546      5.2913
  1424.0000    121.2078      0.0000    783.3992      5.4430
  1424.2500    122.1528      0.0000    794.9192      5.6522
  1424.5000    121.0993      0.0000    800.9484      5.9061
  1424.7500    118.8264      0.0000    800.6528      6.1293
  1425.0000    116.3447      0.0000    798.4946      6.1869
  1425.2500    113.7353      0.0000    801.4097      5.9710
  1425.5000    110.4218      0.0000    813.3099      5.5107
  1425.7500    106.1086      0.0000    832.0628      4.9877
  1426.0000    101.3643      0.0000    851.5121      4.6152
  1426.2500     97.2402      0.0000    865.7695      4.4884
  1426.5000     94.2566      0.0000    872.0665      4.5478
  1426.7500     91.9921     -2.0000    871.2448      4.6651
  1427.0000     89.8800     -2.0000    866.2603      4.7429
  1427.2500     88.1841      0.0000    859.2673      4.7557
  1427.5000     87.7178      0.0000    849.4121      4.7440
  1427.7500     88.6454      0.0000    834.0930      4.7838
  1428.0000     90.0528      0.0000    813.1352      4.9277
  1428.2500     90.7456      0.0000    791.0222      5.1460
  1428.5000     90.2153      0.0000    774.0579      5.3424
  1428.7500     88.8523      0.0000    765.5887      5.4426
  1429.0000     87.4158      0.0000    764.0356      5.4481
  1429.2500     86.3153      0.0000    764.7928      5.3970
  1429.5000     85.3129      0.0000    763.8095      5.3088
  1429.7500     83.8282      0.0000    760.0536      5.1883
  1430.0000     81.6159      0.0000    755.2109      5.0583
  1430.2500     79.4206      0.0000    751.4400      4.9595
  1430.5000     78.8705      0.0000    749.7095      4.9219
  1430.7500     81.2822      0.0000    749.9233      4.9454
  1431.0000     86.5621      0.0000    751.8541      5.0063
  1431.2500     93.4573      0.0000    755.5926      5.0759
  1431.5000    100.4031      0.0000    761.4951      5.1403
  1431.7500    105.8215      0.0000    770.0530      5.2149
  1432.0000    108.2101      0.0000    781.2092      5.3389
  1432.2500    106.6660      0.0000    792.8710      5.5405
  1432.5000    101.4868      0.0000    800.6667      5.8036
  1432.7500     94.3359      0.0000    800.7621      6.0750
  1433.0000     87.8985      0.0000    793.1041      6.3020
  1433.2500     84.9411      0.0000    781.2004      6.4579
  1433.5000     87.0361      0.0000    769.2090      6.5380
  1433.7500     93.8935      0.0000    759.7506      6.5475
  1434.0000    103.8239      0.0000    753.5641      6.4978
  1434.2500    114.7424      0.0000    750.1191      6.4077
  1434.5000    124.9242      0.0000    748.4177      6.2970
  1434.7500    133.3574      0.0000    747.6035      6.1820
  1435.0000    139.6454      0.0000    747.1844      6.0783
  1435.2500    143.4408      0.0000    746.9607      6.0032
  1435.5000    144.2454      0.0000    746.9008      5.9680
  1435.7500    142.2207      0.0000    747.0229      5.9714
  1436.0000    138.8774      0.0000    747.3130      6.0009
  1436.2500    136.2613      0.0000    747.6931      6.0397
  1436.5000    135.3999      0.0000    748.0428      6.0732
  1436.7500    135.8211      0.0000    748.2692      6.0940
  1437.0000    136.4126      0.0000    748.3819      6.1003
  1437.2500    136.3678      0.0000    748.5330      6.0893
  1437.5000    135.5436      0.0000    749.0271      6.0566
