~Version Information
VERS.                      2.0: CWLS Log ASCII Standard - VERSION 2.0
WRAP.                       NO: One line per depth step
~Well Information Block
STRT.FT               390.0000: 
STOP.FT               902.2000: 
STEP.FT                 0.1000: 
NULL.                -999.2500: 
COMP.          Pioneer Natural Resources: COMPANY
WELL.              Venom 32-22: WELL
FLD.           Purgatoire River: FIELD
LOC.           2307' FNL & 2024' FEL----: LOCATION
PROV.                 Colorado: PROVINCE
CNTY.               Las Animas: COUNTRY
SRVC.                Patterson: SERVICE COMPANY
DATE.          Wed May 11 08:31:39 2005: LOG DATE
UWI.           05 071 08361 00: UNIQUE WELL ID
~Curve Information Block
DEPT.FT            0 000 00 00: Depth
DCAL.in                       : CDL Caliper
RHOB.g/cc                     : CDL Bulk Density
RHOC.g/cc                     : CDL Density Correction
DPOR.pu                       : CDL Density Porosity
NPOR.pu                       : Neutron Porosity
GR.GAPI                       : Gamma Ray
~Parameter Information Block
~A  Depth       DCAL        RHOB        RHOC        DPOR        NPOR         GR     
# ...
   582.0000      7.9401      2.5551      0.1132      5.7512     27.1704    120.2019
   582.1000      7.9401      2.5184      0.0517      7.9747     28.5054    123.0214
   582.2000      7.9401      2.4936      0.0433      9.4776     28.7402    124.2344
   582.3000      7.9526      2.4851      0.0330      9.9913     26.4136    128.0612
   582.4000      7.9526      2.4867      0.0477      9.8940     23.8926    130.8501
   582.5000      7.9787      2.4973      0.0652      9.2563     23.5079    134.8932
   582.6000      7.9787      2.5127      0.0725      8.3232     25.4277    143.0332
   582.7000      7.9787      2.5154      0.0907      8.1594     27.3032    149.1331
   582.8000      8.0089      2.5047      0.0109      8.8077     26.3241    150.9969
   582.9000      8.0089      2.5067      0.0520      8.6824     24.0967    150.7937
   583.0000      8.0307      2.5256      0.0941      7.5421     24.8377    147.5956
   583.1000      8.0307      2.5362      0.1237      6.8946     29.2233    143.9576
   583.2000      8.0307      2.5192      0.1255      7.9300     31.5131    140.9219
   583.3000      8.0455      2.4762      0.0645     10.5328     28.1253    137.3030
   583.4000      8.0455      2.4289      0.0398     13.3995     24.4375    137.1770
   583.5000      8.0498      2.3994      0.0338     15.1891     24.4854    137.7863
   583.6000      8.0498      2.3920      0.0487     15.6351     27.0778    137.5793
   583.7000      8.0498      2.3961      0.0464     15.3891     29.0931    143.6277
   583.8000      8.0482      2.4025      0.0513     15.0012     27.6040    150.6448
   583.9000      8.0482      2.4147      0.0654     14.2613     23.9021    149.5077
   584.0000      8.0447      2.4336      0.0694     13.1179     23.2619    147.0395
   584.1000      8.0447      2.4462      0.1597     12.3499     27.1052    151.8478
   584.2000      8.0447      2.4534      0.0920     11.9134     30.2976    158.7411
   584.3000      8.0384      2.4795      0.0919     10.3329     28.3016    161.4584
   584.4000      8.0384      2.5164      0.1755      8.0948     25.3067    161.6831
   584.5000      8.0321      2.5268      0.1423      7.4656     26.4347    159.6835
   584.6000      8.0321      2.5099      0.1235      8.4910     30.2658    153.3524
   584.7000      8.0321      2.4894      0.1031      9.7352     30.7434    143.6757
   584.8000      8.0268      2.4781      0.0852     10.4201     26.9628    133.3079
   584.9000      8.0268      2.4786      0.1012     10.3884     24.6676    125.1868
   585.0000      8.0146      2.4815      0.1575     10.2126     25.4408    119.1549
   585.1000      8.0146      2.4807      0.0626     10.2596     25.8727    116.3739
   585.2000      8.0146      2.4909      0.0708      9.6441     25.4365    117.4395
   585.3000      8.0077      2.5194      0.0894      7.9159     26.6602    118.0984
   585.4000      8.0077      2.5506      0.1054      6.0233     28.7224    116.9933
   585.5000      8.0138      2.5626      0.1277      5.2959     29.7015    117.4453
   585.6000      8.0138      2.5606      0.0571      5.4188     29.7670    122.8320
   585.7000      8.0138      2.5703      0.1063      4.8279     27.4998    131.7113
   585.8000      8.0200      2.5877      0.1048      3.7730     23.4690    138.7301
   585.9000      8.0200      2.5959      0.0738      3.2811     22.2343    139.3221
   586.0000      8.0217      2.6013      0.0779      2.9541     25.0496    130.3661
   586.1000      8.0217      2.6128      0.0944      2.2568     28.6216    116.5858
   586.2000      8.0217      2.6234      0.1242      1.6134     28.8162    107.4950
   586.3000      8.0223      2.6268      0.0491      1.4086     26.5284    106.7558
   586.4000      8.0223      2.6267      0.0603      1.4129     25.9656    113.4069
   586.5000      8.0232      2.6210      0.0847      1.7562     27.7356    119.6707
   586.6000      8.0232      2.6030      0.0568      2.8468     28.2343    119.0053
   586.7000      8.0232      2.5708      0.0669      4.8029     26.6045    117.6830
   586.8000      8.0204      2.5286      0.0226      7.3599     27.2833    121.5695
   586.9000      8.0204      2.4990     -0.0441      9.1517     31.7996    127.7983
   587.0000      8.0139      2.5057     -0.0028      8.7431     35.4234    130.5765
   587.1000      8.0139      2.5373      0.0366      6.8333     33.5576    127.8026
   587.2000      8.0139      2.5729      0.0442      4.6715     28.6143    125.1437
   587.3000      8.0133      2.6065      0.0935      2.6337     26.0331    125.4832
   587.4000      8.0133      2.6175      0.1228      1.9670     27.0663    121.8867
   587.5000      8.0157      2.5908      0.0762      3.5884     29.0824    115.4558
   587.6000      8.0157      2.5515      0.0208      5.9671     28.4073    115.1760
   587.7000      8.0157      2.5285      0.0351      7.3640     25.6472    122.1676
   587.8000      8.0168      2.5177      0.0543      8.0202     24.6114    126.6878
   587.9000      8.0168      2.5080      0.0155      8.6065     25.8223    124.9218
   588.0000      8.0160      2.4999      0.0187      9.0953     26.5056    124.7486
   588.1000      8.0160      2.4920      0.0390      9.5773     24.8133    127.9671
   588.2000      8.0160      2.4884      0.0316      9.7942     22.2320    129.0229
   588.3000      8.0091      2.5024      0.0358      8.9471     20.9533    125.9414
   588.4000      8.0091      2.5267      0.0723      7.4719     21.1716    121.2822
   588.5000      7.9979      2.5415      0.0738      6.5783     21.4943    117.8184
   588.6000      7.9979      2.5519      0.0455      5.9449     21.2076    116.9881
   588.7000      7.9979      2.5692      0.1193      4.8961     22.0775    116.8369
   588.8000      7.9928      2.5863      0.1126      3.8612     24.6976    112.6451
   588.9000      7.9928      2.6005      0.0975      3.0006     25.1290    105.1284
   589.0000      7.9890      2.6137      0.1143      2.2007     21.3327     95.1316
   589.1000      7.9890      2.6221      0.0844      1.6913     17.6333     81.2087
   589.2000      7.9890      2.6241      0.1056      1.5700     16.6496     69.0276
   589.3000      7.9773      2.6210      0.1334      1.7589     17.5013     65.8597
   589.4000      7.9773      2.6244      0.0510      1.5523     18.2023     71.6720
   589.5000      7.9607      2.6531      0.0675     -0.1883     17.6226     80.8923
   589.6000      7.9607      2.6877      0.1508     -2.2853     17.1596     86.4114
   589.7000      7.9607      2.6861      0.0939     -2.1903     18.3690     84.9854
   589.8000      7.9473      2.6583     -0.0289     -0.5009     20.9734     80.9466
   589.9000      7.9473      2.6393      0.0358      0.6514     22.5696     80.5290
   590.0000      7.9405      2.6226      0.0586      1.6584     21.6368     83.1346
   590.1000      7.9405      2.5952      0.0409      3.3227     20.4755     85.0095
   590.2000      7.9405      2.5722     -0.0139      4.7135     21.8651     86.2566
   590.3000      7.9427      2.5671     -0.0032      5.0267     24.7332     88.1052
   590.4000      7.9427      2.5677      0.0443      4.9853     24.6960     88.1392
   590.5000      7.9554      2.5605      0.0225      5.4266     21.2333     84.4113
   590.6000      7.9554      2.5441      0.0570      6.4212     18.7396     82.3557
   590.7000      7.9554      2.5213      0.0148      7.8001     19.3599     87.3167
   590.8000      7.9717      2.5068     -0.0035      8.6810     20.7441     95.6072
   590.9000      7.9717      2.5148      0.0085      8.1920     19.5813    101.4092
   591.0000      7.9828      2.5343      0.0511      7.0126     18.0527    105.6251
   591.1000      7.9828      2.5418      0.0800      6.5587     19.7147    112.1593
   591.2000      7.9828      2.5353      0.0370      6.9537     24.5858    120.7323
   591.3000      7.9852      2.5343      0.0482      7.0142     27.7342    127.4491
   591.4000      7.9852      2.5469      0.0951      6.2501     26.2641    126.8429
   591.5000      7.9859      2.5593      0.0745      5.4970     24.0333    123.0253
