~Version Information
VERS.                      2.0: CWLS Log ASCII Standard - VERSION 2.0
WRAP.                       NO: One line per depth step
~Well Information Block
STRT.FT                -7.0500: 
STOP.FT              3072.6000: 
STEP.FT                 0.0500: 
NULL.                -999.2500: 
COMP.          Pioneer Natural Resources: COMPANY
WELL.              Stones 24-8: WELL
FLD.           Purgatoire River: FIELD
LOC.           648' FSL & 2264' FWL--: LOCATION
PROV.                 Colorado: PROVINCE
CNTY.               Las Animas: COUNTRY
SRVC.                Patterson: SERVICE COMPANY
DATE.          Fri Feb 04 12:43:19 2005: LOG DATE
UWI.           05 071 07945 00: UNIQUE WELL ID
~Curve Information Block
DEPT.FT            0 000 00 00: Depth
CCL.                          : Casing Collar Locator
TT3.usec                      : CBL 3' Travel Time
AMP3.mV                       : CBL 3' Amplitude
GR.GAPI                       : Gamma Ray
~Parameter Information Block
~A  Depth       CCL         TT3         AMP3         GR     
# ...
   408.3500      0.0000    780.0504      2.9389     65.8227
   408.4000      0.0000    780.0504      2.9389     65.8227
   408.4500      0.0000    780.0504      2.9389     65.8227
   408.5000      0.0000    777.9351      2.9710     59.8243
   408.5500      0.0000    777.9351      2.9710     59.8243
   408.6000      0.0000    777.9351      2.9710     59.8243
   408.6500      0.0000    777.9351      2.9710     59.8243
   408.7000      0.0000    777.9351      2.9710     59.8243
   408.7500      0.0000    775.7153      2.9713     55.2913
   408.8000      0.0000    775.7153      2.9713     55.2913
   408.8500      0.0000    775.7153      2.9713     55.2913
   408.9000      0.0000    775.7153      2.9713     55.2913
   408.9500      0.0000    775.7153      2.9713     55.2913
   409.0000      0.0000    772.4402      2.9432     52.2690
   409.0500      0.0000    772.4402      2.9432     52.2690
   409.1000      0.0000    772.4402      2.9432     52.2690
   409.1500      0.0000    772.4402      2.9432     52.2690
   409.2000      0.0000    772.4402      2.9432     52.2690
   409.2500      0.0000    767.0267      2.8947     51.2464
   409.3000      0.0000    767.0267      2.8947     51.2464
   409.3500      0.0000    767.0267      2.8947     51.2464
   409.4000      0.0000    767.0267      2.8947     51.2464
   409.4500      0.0000    767.0267      2.8947     51.2464
   409.5000      0.0000    760.5922      2.8330     52.4099
   409.5500      0.0000    760.5922      2.8330     52.4099
   409.6000      0.0000    760.5922      2.8330     52.4099
   409.6500      0.0000    760.5922      2.8330     52.4099
   409.7000      0.0000    760.5922      2.8330     52.4099
   409.7500      0.0000    756.6334      2.7647     54.6762
   409.8000      0.0000    756.6334      2.7647     54.6762
   409.8500      0.0000    756.6334      2.7647     54.6762
   409.9000      0.0000    756.6334      2.7647     54.6762
   409.9500      0.0000    756.6334      2.7647     54.6762
   410.0000      0.0000    758.6467      2.6966     56.1672
   410.0500      0.0000    758.6467      2.6966     56.1672
   410.1000      0.0000    758.6467      2.6966     56.1672
   410.1500      0.0000    758.6467      2.6966     56.1672
   410.2000      0.0000    758.6467      2.6966     56.1672
   410.2500      0.0000    766.6335      2.6333     55.9133
   410.3000      0.0000    766.6335      2.6333     55.9133
   410.3500      0.0000    766.6335      2.6333     55.9133
   410.4000      0.0000    766.6335      2.6333     55.9133
   410.4500      0.0000    766.6335      2.6333     55.9133
   410.5000      0.0000    775.3341      2.5751     54.7181
   410.5500      0.0000    775.3341      2.5751     54.7181
   410.6000      0.0000    775.3341      2.5751     54.7181
   410.6500      0.0000    775.3341      2.5751     54.7181
   410.7000      0.0000    775.3341      2.5751     54.7181
   410.7500      0.0000    777.0841      2.5203     53.9836
   410.8000      0.0000    777.0841      2.5203     53.9836
   410.8500      0.0000    777.0841      2.5203     53.9836
   410.9000      0.0000    777.0841      2.5203     53.9836
   410.9500      0.0000    777.0841      2.5203     53.9836
   411.0000      0.0000    768.2995      2.4669     54.0102
   411.0500      0.0000    768.2995      2.4669     54.0102
   411.1000      0.0000    768.2995      2.4669     54.0102
   411.1500      0.0000    768.2995      2.4669     54.0102
   411.2000      0.0000    768.2995      2.4669     54.0102
   411.2500      0.0000    753.4495      2.4095     53.9184
   411.3000      0.0000    753.4495      2.4095     53.9184
   411.3500      0.0000    753.4495      2.4095     53.9184
   411.4000      0.0000    753.4495      2.4095     53.9184
   411.4500      0.0000    753.4495      2.4095     53.9184
   411.5000      0.0000    741.5710      2.3382     52.9245
   411.5500      0.0000    741.5710      2.3382     52.9245
   411.6000      0.0000    741.5710      2.3382     52.9245
   411.6500      0.0000    741.5710      2.3382     52.9245
   411.7000      0.0000    741.5710      2.3382     52.9245
   411.7500      0.0000    738.2280      2.2470     51.1115
   411.8000      0.0000    738.2280      2.2470     51.1115
   411.8500      0.0000    738.2280      2.2470     51.1115
   411.9000      0.0000    738.2280      2.2470     51.1115
   411.9500      0.0000    738.2280      2.2470     51.1115
   412.0000      0.0000    740.8732      2.1433     49.1948
   412.0500      0.0000    740.8732      2.1433     49.1948
   412.1000      0.0000    740.8732      2.1433     49.1948
   412.1500      0.0000    740.8732      2.1433     49.1948
   412.2000      0.0000    740.8732      2.1433     49.1948
   412.2500      0.0000    742.0389      2.0452     48.0698
   412.3000      0.0000    742.0389      2.0452     48.0698
   412.3500      0.0000    742.0389      2.0452     48.0698
   412.4000      0.0000    742.0389      2.0452     48.0698
   412.4500      0.0000    742.0389      2.0452     48.0698
   412.5000      0.0000    736.7322      1.9715     48.3959
   412.5500      0.0000    736.7322      1.9715     48.3959
   412.6000      0.0000    736.7322      1.9715     48.3959
   412.6500      0.0000    736.7322      1.9715     48.3959
   412.7000      0.0000    736.7322      1.9715     48.3959
   412.7500      0.0000    726.4680      1.9336     50.1899
   412.8000      0.0000    726.4680      1.9336     50.1899
   412.8500      0.0000    726.4680      1.9336     50.1899
   412.9000      0.0000    726.4680      1.9336     50.1899
   412.9500      0.0000    726.4680      1.9336     50.1899
   413.0000      0.0000    716.6600      1.9343     52.8320
   413.0500      0.0000    716.6600      1.9343     52.8320
   413.1000      0.0000    716.6600      1.9343     52.8320
   413.1500      0.0000    716.6600      1.9343     52.8320
   413.2000      0.0000    716.6600      1.9343     52.8320
   413.2500      0.0000    711.3523      1.9695     55.6361
   413.3000      0.0000    711.3523      1.9695     55.6361
   413.3500      0.0000    711.3523      1.9695     55.6361
   413.4000      0.0000    711.3523      1.9695     55.6361
   413.4500      0.0000    711.3523      1.9695     55.6361
   413.5000      0.0000    710.9936      2.0292     58.3529
   413.5500      0.0000    710.9936      2.0292     58.3529
   413.6000      0.0000    710.9936      2.0292     58.3529
   413.6500      0.0000    710.9936      2.0292     58.3529
   413.7000      0.0000    710.9936      2.0292     58.3529
   413.7500      0.0000    714.3785      2.0990     60.9678
   413.8000      0.0000    714.3785      2.0990     60.9678
   413.8500      0.0000    714.3785      2.0990     60.9678
   413.9000      0.0000    714.3785      2.0990     60.9678
   413.9500      0.0000    714.3785      2.0990     60.9678
   414.0000      0.0000    721.7051      2.1624     63.0011
   414.0500      0.0000    721.7051      2.1624     63.0011
   414.1000      0.0000    721.7051      2.1624     63.0011
   414.1500      0.0000    721.7051      2.1624     63.0011
   414.2000      0.0000    721.7051      2.1624     63.0011
   414.2500      0.0000    735.2402      2.2079     63.4218
   414.3000      0.0000    735.2402      2.2079     63.4218
   414.3500      0.0000    735.2402      2.2079     63.4218
   414.4000      0.0000    735.2402      2.2079     63.4218
   414.4500      0.0000    735.2402      2.2079     63.4218
   414.5000      0.0000    756.8024      2.2359     61.8054
   414.5500      0.0000    756.8024      2.2359     61.8054
   414.6000      0.0000    756.8024      2.2359     61.8054
   414.6500      0.0000    756.8024      2.2359     61.8054
   414.7000      0.0000    756.8024      2.2359     61.8054
   414.7500      0.0000    784.5115      2.2608     59.3549
   414.8000      0.0000    784.5115      2.2608     59.3549
   414.8500      0.0000    784.5115      2.2608     59.3549
   414.9000      0.0000    784.5115      2.2608     59.3549
   414.9500      0.0000    784.5115      2.2608     59.3549
   415.0000      0.0000    812.2957      2.3039     58.0669
