~Version Information
VERS.                      2.0: CWLS Log ASCII Standard - VERSION 2.0
WRAP.                       NO: One line per depth step
~Well Information Block
STRT.FT                -4.2500: 
STOP.FT              2018.7500: 
STEP.FT                 0.2500: 
NULL.                -999.2500: 
COMP.          Petrogulf Corporation: COMPANY
WELL.             State 16-21R: WELL
FLD.           Purgatoire River: FIELD
LOC.           203' FNL & 1560' FWL----: LOCATION
PROV.                 Colorado: PROVINCE
CNTY.               Las Animas: COUNTRY
SRVC.                         : SERVICE COMPANY
DATE.          Thu Sep 29 11:32:19 2005: LOG DATE
API.           05-071-08313 : API Number
~Curve Information Block
DEPT.FT            0 000 00 00: Depth
GR.GAPI                       : Gamma Ray
CCL.                          : Casing Collar Locator
AMP3.mV                       : CBL 3' Amplitude
AMP5.mV                       : CBL 5' Amplitude
~Parameter Information Block
~A  Depth        GR         CCL         AMP3        AMP5    
# ...
  1704.2500    138.1030      0.0000      3.7220      0.4212
  1704.5000    130.2327      0.0000      3.5650      0.4348
  1704.7500    129.5460      0.0000      3.4644      0.4421
  1705.0000    134.7294      0.0000      3.4077      0.4385
  1705.2500    142.8601      0.0000      3.3664      0.4246
  1705.5000    150.8937      0.0000      3.3320      0.4047
  1705.7500    156.5006      0.0000      3.3246      0.3820
  1706.0000    158.8410      0.0000      3.3667      0.3577
  1706.2500    158.8312      0.0000      3.4592      0.3348
  1706.5000    158.2520      0.0000      3.5841      0.3175
  1706.7500    158.6393      0.0000      3.7196      0.3070
  1707.0000    160.9478      0.0000      3.8446      0.3009
  1707.2500    165.2326      0.0000      3.9377      0.2960
  1707.5000    169.9178      0.0000      3.9841      0.2911
  1707.7500    171.9672      0.0000      3.9862      0.2868
  1708.0000    168.7613      0.0000      3.9606      0.2840
  1708.2500    160.3226      0.0000      3.9233      0.2836
  1708.5000    149.7758      0.0000      3.8765      0.2878
  1708.7500    141.4428      0.0000      3.8105      0.2990
  1709.0000    138.0874      0.0000      3.7141      0.3153
  1709.2500    139.4096      0.0000      3.5811      0.3305
  1709.5000    142.7033      0.0000      3.4092      0.3382
  1709.7500    144.9464      0.0000      3.2015      0.3368
  1710.0000    144.6048      0.0000      2.9782      0.3301
  1710.2500    141.9195      0.0000      2.7786      0.3263
  1710.5000    137.9981      0.0000      2.6453      0.3305
  1710.7500    133.9222      0.0000      2.6023      0.3399
  1711.0000    130.4199      0.0000      2.6527      0.3471
  1711.2500    127.8468      0.0000      2.7867      0.3496
  1711.5000    126.3127      0.0000      2.9821      0.3510
  1711.7500    125.8091      0.0000      3.1986      0.3536
  1712.0000    126.0767      0.0000      3.3821      0.3540
  1712.2500    126.4334      0.0000      3.4844      0.3469
  1712.5000    125.9195      0.0000      3.4868      0.3312
  1712.7500    123.7502      0.0000      3.4088      0.3097
  1713.0000    119.8191      0.0000      3.2887      0.2864
  1713.2500    114.9750      0.0000      3.1528      0.2644
  1713.5000    110.6935      0.0000      3.0036      0.2464
  1713.7500    108.0997      0.0000      2.8347      0.2346
  1714.0000    107.1211      0.0000      2.6465      0.2282
  1714.2500    106.7074      0.0000      2.4484      0.2218
  1714.5000    105.6777      0.0000      2.2527      0.2089
  1714.7500    103.2653      0.0000      2.0708      0.1868
  1715.0000     99.4632      0.0000      1.9111      0.1596
  1715.2500     95.2945      0.0000      1.7782      0.1374
  1715.5000     92.3527      0.0000      1.6688      0.1273
  1715.7500     91.6313      0.0000      1.5710      0.1262
  1716.0000     92.8298      0.0000      1.4744      0.1232
  1716.2500     94.7888      0.0000      1.3813      0.1127
  1716.5000     96.3198      0.0000      1.3054      0.0997
  1716.7500     96.6887      0.0000      1.2624      0.0909
  1717.0000     95.8542      0.0000      1.2672      0.0860
  1717.2500     94.5456      0.0000      1.3264      0.0800
  1717.5000     93.7666      0.0000      1.4205      0.0719
  1717.7500     93.7183      0.0000      1.5054      0.0672
  1718.0000     93.2203      0.0000      1.5468      0.0696
  1718.2500     90.7486      0.0000      1.5445      0.0739
  1718.5000     86.1270      0.0000      1.5157      0.0702
  1718.7500     80.7985      0.0000      1.4677      0.0556
  1719.0000     76.4473      1.3364      1.4016      0.0377
  1719.2500     73.7840      0.0000      1.3306      0.0236
  1719.5000     72.6518      0.0000      1.2800      0.0124
  1719.7500     72.7955      0.0000      1.2649      0.0001
  1720.0000     74.1497      0.0000      1.2735     -0.0127
  1720.2500     76.4511      0.0000      1.2764     -0.0198
  1720.5000     78.8979      0.0000      1.2549     -0.0166
  1720.7500     80.4416      0.0000      1.2207     -0.0045
  1721.0000     80.4646      0.0000      1.2065      0.0122
  1721.2500     79.2337      0.0000      1.2350      0.0315
  1721.5000     77.7581      0.0000      1.3001      0.0549
  1721.7500     76.9511      0.0000      1.3792      0.0815
  1722.0000     76.7656      0.0000      1.4525      0.1050
  1722.2500     76.3723      0.0000      1.5028      0.1179
  1722.5000     75.2271      0.0000      1.5115      0.1179
  1722.7500     73.6286      0.0000      1.4691      0.1091
  1723.0000     72.1385      0.0000      1.3915      0.0978
  1723.2500     70.8576      0.0000      1.3110      0.0876
  1723.5000     69.5642      0.0000      1.2491      0.0788
  1723.7500     68.3341      0.0000      1.1997      0.0705
  1724.0000     67.6195      0.0000      1.1384      0.0626
  1724.2500     67.6482      0.0000      1.0466      0.0551
  1724.5000     68.0284      0.0000      0.9278      0.0473
  1724.7500     68.1422      0.0000      0.8029      0.0374
  1725.0000     67.7759      0.0000      0.6936      0.0240
  1725.2500     67.2361      0.0000      0.6123      0.0092
  1725.5000     67.1403      0.0000      0.5602     -0.0036
  1725.7500     68.2833      0.0000      0.5253     -0.0135
  1726.0000     71.2062      0.0000      0.4882     -0.0234
  1726.2500     75.3229      0.0000      0.4380     -0.0370
  1726.5000     78.6969      0.0000      0.3821     -0.0543
  1726.7500     79.3439      0.0000      0.3356     -0.0709
  1727.0000     77.0153      0.0000      0.3075     -0.0804
  1727.2500     73.5191      0.0000      0.3025     -0.0790
  1727.5000     71.1290      0.0000      0.3278     -0.0664
  1727.7500     70.5985      0.0000      0.3917     -0.0437
  1728.0000     70.7167      0.0000      0.4943     -0.0120
  1728.2500     69.7736      0.0000      0.6200      0.0237
  1728.5000     67.3006      0.0000      0.7421      0.0548
  1728.7500     64.4084      0.0000      0.8400      0.0728
  1729.0000     62.7767      0.0000      0.9098      0.0753
  1729.2500     63.3152      0.0000      0.9616      0.0650
  1729.5000     65.4004      0.0000      1.0079      0.0490
  1729.7500     67.4159      0.0000      1.0591      0.0365
  1730.0000     68.2378      0.0000      1.1218      0.0342
  1730.2500     68.0357      0.0000      1.1924      0.0417
  1730.5000     67.6634      0.0000      1.2520      0.0528
  1730.7500     67.7634      0.0000      1.2718      0.0627
  1731.0000     68.4804      0.0000      1.2301      0.0714
  1731.2500     69.3609      0.0000      1.1326      0.0791
  1731.5000     69.3719      0.0000      1.0167      0.0833
  1731.7500     67.6974      0.0000      0.9299      0.0807
  1732.0000     64.8610      0.0000      0.8975      0.0711
  1732.2500     62.6093      0.0000      0.9123      0.0586
  1732.5000     62.3293      0.0000      0.9495      0.0484
  1732.7500     63.7470      0.0000      0.9834      0.0441
  1733.0000     65.3284      0.0000      0.9949      0.0463
  1733.2500     65.7734      0.0000      0.9762      0.0532
  1733.5000     64.9595      0.0000      0.9342      0.0614
  1733.7500     63.6252      0.0000      0.8880      0.0677
  1734.0000     62.4391      0.0000      0.8621      0.0709
  1734.2500     61.4195      0.0000      0.8787      0.0732
  1734.5000     60.1442      0.0000      0.9495      0.0800
  1734.7500     58.5501      0.0000      1.0714      0.0965
  1735.0000     57.4062      0.0000      1.2322      0.1221
  1735.2500     57.5961      0.0000      1.4211      0.1486
  1735.5000     58.8907      0.0000      1.6362      0.1679
  1735.7500     59.9644      0.0000      1.8821      0.1808
  1736.0000     59.8629      0.0000      2.1609      0.1946
  1736.2500     59.0635      0.0000      2.4612      0.2137
  1736.5000     59.1177      0.0000      2.7553      0.2353
  1736.7500     61.8210      0.0000      3.0097      0.2529
  1737.0000     68.4995      0.0000      3.2021      0.2631
  1737.2500     79.1525      0.0000      3.3269      0.2656
  1737.5000     92.1289      0.0000      3.3840      0.2587
