~Version Information
VERS.                      2.0: CWLS Log ASCII Standard - VERSION 2.0
WRAP.                       NO: One line per depth step
~Well Information Block
STRT.FT               500.0000: 
STOP.FT              2732.5000: 
STEP.FT                 0.1000: 
NULL.                -999.2500: 
COMP.          Pioneer Natural Resources: COMPANY
WELL.          Dude Canyon 22-32: WELL
FLD.           Purgatoire River: FIELD
LOC.           1662' FNL & 2446' FWL----: LOCATION
PROV.                 Colorado: PROVINCE
CNTY.               Las Animas: COUNTRY
SRVC.                Patterson: SERVICE COMPANY
DATE.          Thu Mar 10 07:06:34 2005: LOG DATE
UWI.           05 071 08257 00: UNIQUE WELL ID
~Curve Information Block
DEPT.FT            0 000 00 00: Depth
GR.GAPI                       : Gamma Ray
DCAL.in                       : CDL Caliper
DPOR.pu                       : CDL Density Porosity
NPOR.pu                       : Neutron Porosity
RHOB.g/cc                     : CDL Bulk Density
RHOC.g/cc                     : CDL Density Correction
~Parameter Information Block
~A  Depth        GR         DCAL        DPOR        NPOR        RHOB        RHOC    
# ...
  1239.2000    124.2042      8.0496     -3.5288     20.2963      2.7082      0.0746
  1239.3000    117.4159      8.0381     -3.8712     19.2720      2.7139      0.0711
  1239.4000    111.8570      8.0381     -3.8229     18.7259      2.7131      0.0591
  1239.5000    110.1462      8.0301     -3.1502     18.8303      2.7020      0.0885
  1239.6000    111.6747      8.0301     -2.2833     18.9891      2.6877      0.0219
  1239.7000    112.2217      8.0301     -2.2896     19.1744      2.6878      0.0153
  1239.8000    111.4630      8.0277     -3.5925     19.7814      2.7093     -0.0275
  1239.9000    114.9734      8.0277     -5.0007     21.0045      2.7325      0.0409
  1240.0000    120.6531      8.0267     -4.7077     22.2411      2.7277      0.0178
  1240.1000    123.4608      8.0267     -2.8304     22.4643      2.6967     -0.0243
  1240.2000    125.5301      8.0267     -0.8809     21.8053      2.6645     -0.0603
  1240.3000    129.2959      8.0244      0.2601     21.0055      2.6457     -0.0341
  1240.4000    134.6582      8.0244      0.8279     20.2128      2.6363      0.0299
  1240.5000    141.4062      8.0235      1.1571     19.8497      2.6309     -0.0032
  1240.6000    145.2625      8.0235      1.4286     20.5583      2.6264      0.0504
  1240.7000    140.7561      8.0235      2.0077     21.9076      2.6169      0.0459
  1240.8000    132.1766      8.0250      2.3318     22.4812      2.6115      0.0071
  1240.9000    126.9513      8.0250      1.7286     21.6087      2.6215      0.0238
  1241.0000    122.4465      8.0261      0.8774     19.9350      2.6355      0.0408
  1241.1000    118.3787      8.0261      0.8035     18.4845      2.6367      0.0630
  1241.2000    119.3873      8.0261      1.6768     17.6854      2.6223      0.0521
  1241.3000    121.9392      8.0265      2.8224     17.4461      2.6034      0.0154
  1241.4000    121.2816      8.0265      3.3877     17.5928      2.5941     -0.0028
  1241.5000    116.7562      8.0251      3.1231     17.7998      2.5985      0.0141
  1241.6000    110.6646      8.0251      2.4251     17.6971      2.6100      0.0143
  1241.7000    108.1294      8.0251      2.0043     17.3122      2.6169      0.0615
  1241.8000    110.0114      8.0176      2.2993     17.2882      2.6121      0.0269
  1241.9000    111.5715      8.0176      3.0497     17.6817      2.5997      0.0146
  1242.0000    112.1009      8.0056      3.9299     18.0807      2.5852      0.0239
  1242.1000    115.8416      8.0056      4.5692     18.8533      2.5746      0.0325
  1242.2000    122.0200      8.0056      4.2826     20.1152      2.5793      0.0246
  1242.3000    124.6447      7.9989      2.6309     20.9316      2.6066      0.0288
  1242.4000    122.2150      7.9989     -0.0181     20.6927      2.6503      0.0707
  1242.5000    116.8704      7.9979     -2.9090     19.8145      2.6980      0.0793
  1242.6000    109.1106      7.9979     -5.9721     19.1303      2.7485      0.0750
  1242.7000    101.8504      7.9979     -9.3733     18.9403      2.8047      0.1185
  1242.8000    101.5344      7.9985    -12.3827     18.6276      2.8543      0.1600
  1242.9000    106.4172      7.9985    -14.2301     17.9503      2.8848      0.1450
  1243.0000    106.1246      7.9996    -14.7835     17.5293      2.8939      0.1701
  1243.1000     98.6621      7.9996    -13.8456     17.7406      2.8785      0.1183
  1243.2000     93.0192      7.9996    -11.8297     18.2082      2.8452      0.0925
  1243.3000     91.8212      7.9996     -9.7584     18.2498      2.8110      0.0230
  1243.4000     88.9929      7.9996     -8.0742     17.8606      2.7832     -0.0110
  1243.5000     81.6994      7.9991     -6.3445     17.3677      2.7547      0.0072
  1243.6000     76.0029      7.9991     -4.3423     16.9864      2.7216     -0.0452
  1243.7000     79.3078      7.9991     -2.5955     17.0769      2.6928     -0.1053
  1243.8000     88.6573      8.0015     -1.2121     17.4886      2.6700     -0.0454
  1243.9000     94.3020      8.0015      0.4409     17.7551      2.6427      0.0257
  1244.0000     93.8191      8.0094      1.9593     17.9894      2.6177     -0.0432
  1244.1000     93.9532      8.0094      2.0243     18.2167      2.6166     -0.0264
  1244.2000     98.6748      8.0094      0.8403     18.3320      2.6361      0.0508
  1244.3000    104.8727      8.0215     -0.2698     18.8332      2.6545      0.0573
  1244.4000    111.6194      8.0215     -0.6507     19.8817      2.6607      0.0686
  1244.5000    121.7942      8.0362     -0.0266     20.5716      2.6504      0.0752
  1244.6000    133.0950      8.0362      1.4500     20.4932      2.6261      0.0674
  1244.7000    138.4722      8.0362      2.6678     20.2957      2.6060      0.0042
  1244.8000    135.2327      8.0573      2.6792     20.2488      2.6058      0.0597
  1244.9000    126.6907      8.0573      1.9160     20.2124      2.6184      0.0539
  1245.0000    116.9637      8.0824      1.2314     20.3698      2.6297      0.0293
  1245.1000    111.0247      8.0824      0.6834     20.6416      2.6387      0.0243
  1245.2000    115.1913      8.0824     -0.1213     21.0092      2.6520      0.0545
  1245.3000    125.6517      8.1007     -1.1367     21.8516      2.6688      0.0773
  1245.4000    129.4218      8.1007     -1.5434     23.1515      2.6755      0.0681
  1245.5000    126.3498      8.1098     -0.8415     24.6260      2.6639      0.0520
  1245.6000    126.8391      8.1098     -0.0550     25.9077      2.6509      0.0022
  1245.7000    133.2315      8.1098     -0.1613     26.6910      2.6527      0.0044
  1245.8000    139.0317      8.1172     -0.0683     27.0927      2.6511      0.0802
  1245.9000    142.3871      8.1172      1.4901     27.3038      2.6254      0.0468
  1246.0000    145.7295      8.1274      3.5333     27.3080      2.5917      0.0278
  1246.1000    145.6506      8.1274      4.7919     27.4632      2.5709      0.0101
  1246.2000    142.8693      8.1274      5.6017     27.9075      2.5576      0.0174
  1246.3000    144.0830      8.1348      6.3747     28.0413      2.5448     -0.0202
  1246.4000    148.7808      8.1348      6.7994     27.9354      2.5378      0.0550
  1246.5000    151.9953      8.1372      6.6847     28.1104      2.5397      0.0115
  1246.6000    153.0248      8.1372      6.4400     28.2067      2.5437      0.0382
  1246.7000    152.6014      8.1372      6.7958     27.7653      2.5379      0.0665
  1246.8000    149.5581      8.1434      7.7819     26.8100      2.5216      0.0440
  1246.9000    143.4664      8.1434      8.7414     25.2617      2.5058      0.0360
  1247.0000    138.0534      8.1654      9.0173     23.6301      2.5012      0.0724
  1247.1000    135.1185      8.1654      7.9890     22.8477      2.5182      0.0690
  1247.2000    134.1897      8.1654      5.6381     22.7316      2.5570      0.0608
  1247.3000    135.4048      8.1689      3.6858     22.5974      2.5892      0.1298
  1247.4000    135.4348      8.1689      4.0979     22.1778      2.5824      0.1090
  1247.5000    135.2804      8.1115      6.1389     21.4310      2.5487      0.0376
  1247.6000    140.1783      8.1115      7.6817     20.6262      2.5233      0.0123
  1247.7000    146.4086      8.1115      7.7603     20.0315      2.5220     -0.0265
  1247.8000    148.0124      8.0547      6.6634     19.8247      2.5401      0.0370
  1247.9000    146.2046      8.0547      5.1141     19.8986      2.5656      0.0455
  1248.0000    143.8308      8.0355      3.4171     19.8702      2.5936      0.0743
  1248.1000    141.1670      8.0355      2.1637     19.3299      2.6143      0.0958
  1248.2000    135.1138      8.0355      2.6278     18.3932      2.6066      0.1132
  1248.3000    124.6533      8.0326      4.6356     17.7046      2.5735      0.0480
  1248.4000    112.5533      8.0326      6.4858     17.4738      2.5430      0.0581
  1248.5000    103.5481      8.0349      7.0459     17.6105      2.5337      0.0096
  1248.6000    102.6622      8.0349      6.0243     18.1397      2.5506      0.0233
  1248.7000    107.3802      8.0349      4.2833     18.6910      2.5793      0.0657
