~Version Information
 VERS.                      2.0: CWLS Log ASCII Standard - VERSION 2.0
 WRAP.                       NO: One line per depth step
 ~Well Information Block
 STRT.FT               763.7500: 
 STOP.FT              2577.0000: 
 STEP.FT                 0.2500: 
 NULL.                -999.2500: 
 COMP.          Petrogulf Corporation: COMPANY
 WELL.               J&P 12-33V: WELL
 FLD.           Purgatorie River: FIELD
 LOC.           2005' FSL & 1928' FEL: LOCATION
 CNTY.               Las Animas: COUNTY
 SRVC.                         : SERVICE COMPANY
 DATE.          Sat Aug 28 09:00:36 2004: LOG DATE
 UWI.           05 071 08092 00: UNIQUE WELL ID
 STAT.                 Colorado: STATE
 PROV.                         :Province
 ~Curve Information Block
 DEPT.FT            0 000 00 00: Depth
 SP.mV                         : DIL Spontaneous Potential
 RILD.Ohm-m                    : DIL Deep Resistivity
 RILM.Ohm-m                    : DIL Medium Resistivity
 RLL3.Ohm-m                    : DIL Shallow Resistivity
 GR.GAPI                       : Gamma Ray
 ~Parameter Information Block
 ~A  Depth        SP         RILD        RILM        RLL3         GR     
# ...
  1267.7500   2000.0000     13.5647     13.5094   1998.0000    137.3213
  1268.0000   2000.0000     13.3945     13.4137   1998.0000    136.2380
  1268.2500   2000.0000     13.1845     13.3646   1998.0000    135.8718
  1268.5000   2000.0000     12.9675     13.3492   1998.0000    135.3866
  1268.7500   2000.0000     12.7745     13.3563   1998.0000    134.5350
  1269.0000   2000.0000     12.6272     13.3763   1998.0000    131.5098
  1269.2500   2000.0000     12.5386     13.4004   1998.0000    128.0873
  1269.5000   2000.0000     12.5150     13.4212   1998.0000    121.3687
  1269.7500   2000.0000     12.5599     13.4329   1998.0000    116.6890
  1270.0000   2000.0000     12.6775     13.4338   1998.0000    111.3140
  1270.2500   2000.0000     12.8740     13.4273   1998.0000    109.8079
  1270.5000   2000.0000     13.1557     13.4234   1998.0000    111.3790
  1270.7500   2000.0000     13.5264     13.4374   1998.0000    114.6872
  1271.0000   2000.0000     13.9833     13.4881   1998.0000    121.5289
  1271.2500   2000.0000     14.5151     13.5941   1998.0000    126.2276
  1271.5000   2000.0000     15.1019     13.7715   1998.0000    132.0359
  1271.7500   2000.0000     15.7191     14.0310   1998.0000    134.7991
  1272.0000   2000.0000     16.3416     14.3773   1998.0000    137.4897
  1272.2500   2000.0000     16.9483     14.8077   1998.0000    138.4428
  1272.5000   2000.0000     17.5229     15.3133   1998.0000    138.5578
  1272.7500   2000.0000     18.0524     15.8797   1998.0000    137.7539
  1273.0000   2000.0000     18.5223     16.4894   1998.0000    135.5628
  1273.2500   2000.0000     18.9144     17.1255   1998.0000    133.7354
  1273.5000   2000.0000     19.2088     17.7742   1998.0000    130.7579
  1273.7500   2000.0000     19.3903     18.4258   1998.0000    128.6687
  1274.0000   2000.0000     19.4574     19.0737   1998.0000    125.3480
  1274.2500   2000.0000     19.4257     19.7078   1998.0000    122.8807
  1274.5000   2000.0000     19.3223     20.3082   1998.0000    118.3851
  1274.7500   2000.0000     19.1718     20.8389   1998.0000    114.6825
  1275.0000   2000.0000     18.9813     21.2469   1998.0000    108.1670
  1275.2500   2000.0000     18.7345     21.4694   1998.0000    103.3873
  1275.5000   2000.0000     18.3987     21.4510   1998.0000     95.9415
  1275.7500   2000.0000     17.9445     21.1632   1998.0000     91.1474
  1276.0000   2000.0000     17.3676     20.6204   1998.0000     85.3935
  1276.2500   2000.0000     16.6970     19.8781   1998.0000     83.4852
  1276.5000   2000.0000     15.9844     19.0174   1998.0000     85.0160
  1276.7500   2000.0000     15.2841     18.1221   1998.0000     89.3614
  1277.0000   2000.0000     14.6350     17.2604   1998.0000    100.3814
  1277.2500   2000.0000     14.0550     16.4760   1998.0000    109.8023
  1277.5000   2000.0000     13.5438     15.7882   1998.0000    124.7319
  1277.7500   2000.0000     13.0901     15.1964   1998.0000    133.8283
  1278.0000   2000.0000     12.6793     14.6873   1998.0000    144.5466
  1278.2500   2000.0000     12.3000     14.2413   1998.0000    149.4008
  1278.5000   2000.0000     11.9472     13.8378   1998.0000    153.4849
  1278.7500   2000.0000     11.6227     13.4597   1998.0000    154.5500
  1279.0000   2000.0000     11.3318     13.0951   1998.0000    154.8967
  1279.2500   2000.0000     11.0797     12.7379   1998.0000    154.9476
  1279.5000   2000.0000     10.8680     12.3871   1998.0000    154.8621
  1279.7500   2000.0000     10.6936     12.0448   1998.0000    154.0917
  1280.0000   2000.0000     10.5499     11.7154   1998.0000    150.8711
  1280.2500   2000.0000     10.4300     11.4044   1998.0000    147.5454
  1280.5000   2000.0000     10.3291     11.1183   1998.0000    142.5182
  1280.7500   2000.0000     10.2457     10.8645   1998.0000    140.3096
  1281.0000   2000.0000     10.1817     10.6510   1998.0000    139.8260
  1281.2500   2000.0000     10.1410     10.4862   1998.0000    141.3517
  1281.5000   2000.0000     10.1289     10.3785   1998.0000    145.4209
  1281.7500   2000.0000     10.1522     10.3354   1998.0000    148.5180
  1282.0000   2000.0000     10.2197     10.3639   1998.0000    152.7539
  1282.2500   2000.0000     10.3403     10.4704   1998.0000    155.2919
  1282.5000   2000.0000     10.5209     10.6611   1998.0000    159.3980
  1282.7500   2000.0000     10.7646     10.9427   1998.0000    162.6292
  1283.0000   2000.0000     11.0707     11.3236   1998.0000    167.6199
  1283.2500   2000.0000     11.4384     11.8141   1998.0000    170.2440
  1283.5000   2000.0000     11.8727     12.4267   1998.0000    172.1812
  1283.7500   2000.0000     12.3896     13.1763   1998.0000    172.1010
  1284.0000   2000.0000     13.0162     14.0786   1998.0000    170.1813
  1284.2500   2000.0000     13.7877     15.1493   1998.0000    167.8350
  1284.5000   2000.0000     14.7392     16.4029   1998.0000    163.1399
  1284.7500   2000.0000     15.8997     17.8517   1998.0000    159.5046
  1285.0000   2000.0000     17.2863     19.5058   1998.0000    153.1181
  1285.2500   2000.0000     18.8997     21.3729   1998.0000    147.6400
  1285.5000   2000.0000     20.7169     23.4573   1998.0000    136.3943
  1285.7500   2000.0000     22.6823     25.7569   1998.0000    126.5592
  1286.0000   2000.0000     24.7009     28.2576   1998.0000    109.1074
  1286.2500   2000.0000     26.6501     30.9251   1998.0000     97.0128
  1286.5000   2000.0000     28.4142     33.7019   1998.0000     81.0722
  1286.7500   2000.0000     29.9308     36.5084   1998.0000     73.0942
  1287.0000   2000.0000     31.2169     39.2564   1998.0000     65.4600
  1287.2500   2000.0000     32.3473     41.8657   1998.0000     62.8674
  1287.5000   2000.0000     33.3977     44.2792   1998.0000     62.1564
  1287.7500   2000.0000     34.3775     46.4612   1998.0000     63.6007
  1288.0000   2000.0000     35.1844     48.3823   1998.0000     67.4922
  1288.2500   2000.0000     35.6089     49.9925   1998.0000     69.7254
  1288.5000   2000.0000     35.4146     51.2011   1998.0000     69.5306
  1288.7500   2000.0000     34.4816     51.8688   1998.0000     66.1621
  1289.0000   2000.0000     32.9068     51.8383   1998.0000     57.3954
  1289.2500   2000.0000     30.9704     50.9753   1998.0000     50.8809
  1289.5000   2000.0000     28.9876     49.2401   1998.0000     43.3152
  1289.7500   2000.0000     27.1803     46.7180   1998.0000     40.8352
  1290.0000   2000.0000     25.6399     43.6111   1998.0000     41.1803
  1290.2500   2000.0000     24.3534     40.1868   1998.0000     43.7826
  1290.5000   2000.0000     23.2511     36.7057   1998.0000     50.9427
  1290.7500   2000.0000     22.2471     33.3725   1998.0000     57.9274
  1291.0000   2000.0000     21.2687     30.3188   1998.0000     71.3954
  1291.2500   2000.0000     20.2734     27.6107   1998.0000     81.6804
  1291.5000   2000.0000     19.2540     25.2642   1998.0000     97.4568
  1291.7500   2000.0000     18.2307     23.2652   1998.0000    107.3948
  1292.0000   2000.0000     17.2375     21.5821   1998.0000    120.4536
  1292.2500   2000.0000     16.3088     20.1753   1998.0000    127.5251
  1292.5000   2000.0000     15.4716     19.0018   1998.0000    135.4155
  1292.7500   2000.0000     14.7435     18.0189   1998.0000    139.0818
  1293.0000   2000.0000     14.1328     17.1861   1998.0000    142.9660
  1293.2500   2000.0000     13.6385     16.4676   1998.0000    144.8806
  1293.5000   2000.0000     13.2538     15.8338   1998.0000    147.1797
  1293.7500   2000.0000     12.9691     15.2639   1998.0000    148.5253
  1294.0000   2000.0000     12.7758     14.7462   1998.0000    150.2998
  1294.2500   2000.0000     12.6698     14.2775   1998.0000    150.9580
  1294.5000   2000.0000     12.6529     13.8619   1998.0000    150.2045
  1294.7500   2000.0000     12.7331     13.5080   1998.0000    148.3376
  1295.0000   2000.0000     12.9235     13.2265   1998.0000    144.2737
  1295.2500   2000.0000     13.2407     13.0285   1998.0000    141.6130
  1295.5000   2000.0000     13.7008     12.9248   1998.0000    139.3710
