~Version Information
 VERS.                                  2.0 : CWLS LAS VERSION
 WRAP.                                   NO : WRAPING MODE
 SWARE .                 MController 2.5.0E : SOFTWARE VERSION
~Well Information
 WELL.                        Labrador 34-30: WELL
 COMP.             Pioneer Natural Resources: COMPANY
 FLD.                       Purgatoire River: FIELD
 LOC.                SW/SE Sec 30 T34S R65W : LOCATION
 DATE.                            12/05/2004: DATE(S) LOGGED
 SRVC.       Blanco Geological Services LLC : SERVICE COMPANY
 STAT.                                    CO: STATE
 CNTY.                            Las Animas: COUNTY
 CTRY.                                   USA: COUNTRY
 API.                           05-071-08202: API NUMBER
 STRT.FT                             302.00 : START DEPTH
 STOP.FT                            1765.00 : STOP DEPTH
 STEP.FT                               1.00 : DEPTH INCREMENT
 NULL.                                -9999 : NULL VALUE
~Curve information
 DEPTH.FT                                   :
 ROP.MIN/FT                                 :
 GAS.UNITS                                  :
~ASCII Log data
# ...
      902.00        0.217          3.1 
      903.00        0.167          2.9 
      904.00        0.200          2.8 
      905.00        0.200          1.9 
      906.00        0.167          1.9 
      907.00        0.200          2.4 
      908.00        0.167          2.3 
      909.00        0.200          2.0 
      910.00        0.167          2.4 
      911.00        0.167          2.7 
      912.00        0.200          2.9 
      913.00        0.167          2.5 
      914.00        0.133          2.6 
      915.00        0.100          2.0 
      916.00        0.167          2.5 
      917.00        0.167          2.0 
      918.00        0.167          2.1 
      919.00        0.133          2.5 
      920.00        0.200          2.7 
      921.00        0.167          2.3 
      922.00        0.150          2.4 
      923.00        0.167          2.3 
      924.00        0.100          2.1 
      925.00        0.100          2.0 
      926.00        2.667          4.1 
      927.00        0.450         11.9 
      928.00        0.233         13.7 
      929.00        0.200         10.5 
      930.00        0.200         13.0 
      931.00        0.200         12.6 
      932.00        0.167         11.8 
      933.00        0.400         10.4 
      934.00        0.367          7.2 
      935.00        0.300         13.2 
      936.00        0.200         16.8 
      937.00        0.200         17.1 
      938.00        0.233         16.6 
      939.00        0.200         15.4 
      940.00        0.250         14.1 
      941.00        0.200         13.4 
      942.00        0.200         12.2 
      943.00        0.267         11.2 
      944.00        0.200          9.7 
      945.00        0.167          9.0 
      946.00        0.167          7.5 
      947.00        0.133          6.5 
      948.00        0.167         30.1 
      949.00        0.133         73.7 
      950.00        0.167        136.8 
      951.00        0.133        181.0 
      952.00        0.100        204.4 
      953.00        0.100        221.8 
      954.00        0.133        238.3 
      955.00        0.100        243.4 
      956.00        2.883        243.2 
      957.00        0.333         22.1 
      958.00        0.300         20.3 
      959.00        0.200         19.0 
      960.00        0.200         19.3 
      961.00        0.200         20.6 
      962.00        0.217         20.5 
      963.00        0.300         22.6 
      964.00        0.200         22.0 
      965.00        0.167         22.0 
      966.00        0.167         21.7 
      967.00        0.167         19.7 
      968.00        0.167         17.5 
      969.00        0.133         16.1 
      970.00        0.100         15.8 
      971.00        0.167         14.9 
      972.00        0.167         14.2 
      973.00        0.133         13.6 
      974.00        0.133         13.0 
      975.00        0.233         13.8 
      976.00        0.267         12.6 
      977.00        0.167         10.9 
      978.00        0.167         10.6 
      979.00        0.200         11.8 
      980.00        0.200         17.8 
      981.00        0.183         27.7 
      982.00        0.133         39.0 
      983.00        0.167         56.7 
      984.00        0.133         76.7 
      985.00        0.100         91.7 
      986.00        2.983        161.6 
      987.00        0.200         26.2 
      988.00        0.300         25.4 
      989.00        0.233         25.1 
      990.00        0.533         24.0 
      991.00        0.200         22.1 
      992.00        0.233         23.6 
      993.00        0.133         23.4 
      994.00        0.167         19.8 
      995.00        0.200         17.2 
      996.00        0.167         15.7 
      997.00        0.133         15.2 
      998.00        0.133         14.7 
      999.00        0.133         14.4 
     1000.00        0.200         13.9 
     1001.00        0.150         13.7 
     1002.00        0.167         13.5 
     1003.00        0.133         11.9 
     1004.00        0.200         12.3 
     1005.00        0.167         11.1 
     1006.00        0.200         10.4 
     1007.00        0.133          9.6 
     1008.00        0.167         10.1 
     1009.00        0.100         12.2 
     1010.00        0.133         18.6 
     1011.00        0.133         25.4 
     1012.00        0.133         36.3 
     1013.00        0.100         45.1 
     1014.00        0.100         54.7 
     1015.00        0.133         70.6 
     1016.00        4.833        137.4 
     1017.00        0.133         18.5 
     1018.00        0.267         17.5 
     1019.00        0.267         15.9 
     1020.00        0.267         13.0 
     1021.00        0.233         11.7 
     1022.00        0.267         11.2 
     1023.00        0.167         10.7 
     1024.00        0.200         10.0 
     1025.00        0.233          8.7 
     1026.00        0.233          8.1 
     1027.00        0.200          8.2 
     1028.00        0.200          7.4 
     1029.00        0.233          7.5 
     1030.00        0.250          7.3 
     1031.00        0.233          7.1 
     1032.00        0.133          6.4 
     1033.00        0.133          5.6 
     1034.00        0.167          7.2 
     1035.00        0.167          7.2 
     1036.00        0.267          8.9 
     1037.00        0.167          9.0 
     1038.00        0.267          8.7 
     1039.00        0.300          8.7 
     1040.00        0.267          7.1 
     1041.00        0.200          6.3 
     1042.00        0.300          5.8 
     1043.00        0.333          5.8 
     1044.00        0.300          6.5 
     1045.00        0.283          6.8 
     1046.00       24.917         91.2 
     1047.00        1.333          4.4 
     1048.00        0.417          1.7 
     1049.00        0.400          1.9 
     1050.00        0.433          1.9 
     1051.00        0.300          1.9 
     1052.00        0.133          1.4 
     1053.00        0.167         11.5 
     1054.00        0.200         43.7 
     1055.00        0.167         58.0 
     1056.00        0.167         58.5 
     1057.00        0.200         54.7 
     1058.00        0.200         43.6 
     1059.00        0.233         33.6 
     1060.00        0.267         23.4 
     1061.00        0.267         15.8 
     1062.00        0.150         10.3 
     1063.00        0.167          8.6 
     1064.00        0.167          7.2 
     1065.00        0.167          6.2 
     1066.00        0.167          4.3 
     1067.00        0.167          3.8 
     1068.00        0.200          3.4 
     1069.00        0.200          2.8 
     1070.00        0.167          2.3 
     1071.00        0.200          2.5 
     1072.00        0.200          1.8 
     1073.00        0.200          2.4 
     1074.00        0.200          2.3 
     1075.00        0.167          2.3 
     1076.00        2.617         55.2 
     1077.00        0.467         24.2 
     1078.00        0.367         14.3 
     1079.00        0.200         11.4 
     1080.00        0.267         11.0 
     1081.00        0.200          9.8 
     1082.00        0.217         10.3 
     1083.00        0.233         10.7 
     1084.00        0.233         10.3 
     1085.00        0.233         10.4 
     1086.00        0.167         10.9 
     1087.00        0.200         11.2 
     1088.00        0.267         13.8 
     1089.00        0.133         15.1 
     1090.00        0.167         15.0 
     1091.00        0.200         14.0 
     1092.00        0.167         12.3 
     1093.00        0.200         12.1 
     1094.00        0.200         11.0 
     1095.00        0.200          8.9 
     1096.00        0.200          8.3 
     1097.00        0.200          6.6 
     1098.00        0.167          6.4 
     1099.00        0.183          5.7 
     1100.00        0.200          5.4 
     1101.00        0.167          4.3 
