~Version Information
VERS.                      2.0: CWLS Log ASCII Standard - VERSION 2.0
WRAP.                       NO: One line per depth step
~Well Information Block
STRT.FT                -9.7500: 
STOP.FT              2158.2500: 
STEP.FT                 0.2500: 
NULL.                -999.2500: 
COMP.          Petrogulf Corporation: COMPANY
WELL.             State 16-41V: WELL
FLD.           Purgatoire River: FIELD
LOC.           335' FNL & 823' FEL--: LOCATION
PROV.                 Colorado: PROVINCE
CNTY.               Las Animas: COUNTRY
SRVC.                Patterson: SERVICE COMPANY
DATE.          Wed Aug 17 12:15:10 2005: LOG DATE
UWI.           05 071 08344 00: UNIQUE WELL ID
~Curve Information Block
DEPT.FT            0 000 00 00: Depth
CCL.                          : Casing Collar Locator
TT3.usec                      : CBL 3' Travel Time
AMP3.mV                       : CBL 3' Amplitude
GR.GAPI                       : Gamma Ray
~Parameter Information Block
~A  Depth       CCL         TT3         AMP3         GR     
# ...
   861.2500      0.0000    301.8318     44.6804    126.4283
   861.5000      0.0000    301.8689     43.9890    126.9414
   861.7500      0.0000    302.1381     42.6949    126.8814
   862.0000      0.0000    302.6712     40.6902    123.7692
   862.2500      0.0000    303.3825     38.2079    116.8969
   862.5000      0.0000    304.0958     35.7718    108.1956
   862.7500      0.0000    304.6465     33.9278    101.0056
   863.0000      0.0000    304.9711     32.9818     97.8934
   863.2500      0.0000    305.0938     32.9489     99.5012
   863.5000      0.0000    305.0455     33.6908    104.8606
   863.7500      0.0000    304.8305     35.0540    112.0935
   864.0000      0.0000    304.5426     36.8645    118.9764
   864.2500      0.0000    304.5485     38.8077    123.8688
   864.5000      0.0000    305.6008     40.3470    126.7990
   864.7500      0.0000    308.4868     40.9297    129.1775
   865.0000      0.0000    312.9977     40.5084    131.6070
   865.2500      0.0000    317.1495     39.8487    132.1470
   865.5000      0.0000    318.3126     39.9884    127.7033
   865.7500      0.0000    315.7641     41.2507    117.5736
   866.0000      0.0000    311.5067     43.0033    105.0904
   866.2500      0.0000    308.1365     44.4015     95.3091
   866.5000      0.0000    306.6183     45.0995     91.3695
   866.7500      0.0000    306.3612     45.2681     93.3202
   867.0000     -2.0000    306.4830     45.2515     99.5499
   867.2500      2.0000    306.4452     45.3261    108.0832
   867.5000      0.0000    305.8668     45.7002    116.4899
   867.7500      0.0000    304.2287     46.6259    121.8750
   868.0000      0.0000    300.9437     48.3556    122.2641
   868.2500      0.0000    295.7578     50.8424    118.3128
   868.5000      0.0000    289.0845     53.5472    113.3512
   868.7500      0.0000    281.9059     55.7425    111.3761
   869.0000      0.0000    275.4829     57.0018    114.4546
   869.2500      0.0000    271.1550     57.3006    121.3164
   869.5000      0.0000    270.0898     56.7669    128.1314
   869.7500      0.0000    272.8203     55.5036    131.1108
   870.0000      0.0000    278.7771     53.5942    129.1196
   870.2500      0.0000    286.3064     51.1471    124.2848
   870.5000      0.0000    293.5122     48.3022    120.2007
   870.7500      0.0000    299.4899     45.2089    119.4228
   871.0000      0.0000    304.8585     42.0052    122.2445
   871.2500      0.0000    311.1129     38.8252    127.1541
   871.5000      0.0000    319.3512     35.8409    131.7749
   871.7500      0.0000    329.3952     33.2579    133.7481
   872.0000      0.0000    339.9194     31.2433    132.1437
   872.2500      0.0000    349.3605     29.8649    128.5941
   872.5000      0.0000    356.5921     29.1089    126.0940
   872.7500      0.0000    360.7912     28.9142    126.0582
   873.0000      0.0000    361.3230     29.1469    127.0481
   873.2500      0.0000    358.5418     29.5761    126.5358
   873.5000      0.0000    354.4873     29.9488    123.2459
   873.7500      0.0000    351.7231     30.1319    117.6224
   874.0000      0.0000    350.8608     30.2031    110.9284
   874.2500      0.0000    349.6003     30.4162    104.5430
   874.5000      0.0000    344.8400     31.0510     99.7747
   874.7500      0.0000    335.8121     32.2421     97.7081
   875.0000      0.0000    324.8540     33.9134     98.9364
   875.2500      0.0000    315.2607     35.8497    103.3859
   875.5000      0.0000    308.8367     37.8166    110.3781
   875.7500      0.0000    305.3987     39.6411    118.7781
   876.0000      0.0000    303.7921     41.2522    127.1444
   876.2500      0.0000    302.8356     42.7047    134.0971
   876.5000      0.0000    301.5055     44.1753    138.7940
   876.7500      0.0000    298.8063     45.9001    141.0202
   877.0000      0.0000    293.9609     48.0536    141.0659
   877.2500      0.0000    287.0175     50.6094    139.8083
   877.5000      0.0000    279.2021     53.2608    138.4993
   877.7500      0.0000    272.3229     55.5002    137.8538
   878.0000      0.0000    267.6086     56.8728    137.5127
   878.2500      0.0000    265.1227     57.2357    136.7327
   878.5000      0.0000    264.1583     56.8142    135.2697
   878.7500      0.0000    263.9493     56.0228    133.3456
   879.0000      0.0000    264.0324     55.2329    131.1377
   879.2500      0.0000    264.2613     54.6570    128.4847
   879.5000      0.0000    264.7544     54.3526    124.9362
   879.7500      0.0000    265.9234     54.2511    120.1105
   880.0000      0.0000    268.4226     54.1979    114.1898
   880.2500      0.0000    272.7175     54.0605    108.0892
   880.5000      0.0000    278.2759     53.8944    103.0189
   880.7500      0.0000    283.1661     54.0158     99.7751
   881.0000      0.0000    284.9736     54.8555     98.4073
   881.2500      0.0000    282.6184     56.6709     98.4755
   881.5000      0.0000    277.2938     59.3522     99.4924
   881.7500      0.0000    271.4791     62.4836    101.0715
   882.0000      0.0000    267.1006     65.5881    102.7180
   882.2500      0.0000    264.6367     68.3355    103.7645
   882.5000      0.0000    263.5644     70.5824    103.8314
   882.7500      0.0000    263.1933     72.3024    103.3549
   883.0000      0.0000    263.0873     73.5185    103.3206
   883.2500      0.0000    263.0624     74.2774    104.3361
   883.5000      0.0000    263.0591     74.6395    106.0710
   883.7500      0.0000    263.0597     74.6600    107.5183
   884.0000      0.0000    263.0582     74.3719    107.8495
   884.2500      0.0000    263.0560     73.8008    107.3066
   884.5000      0.0000    263.0578     73.0158    107.1052
   884.7500      0.0000    263.0656     72.1576    108.0701
   885.0000      0.0000    263.0769     71.3838    109.6640
   885.2500      0.0000    263.0898     70.7686    110.9751
   885.5000      0.0000    263.1068     70.2623    112.3128
   885.7500      0.0000    263.1314     69.7536    114.9277
   886.0000      0.0000    263.1617     69.1560    119.0739
   886.2500      0.0000    263.1916     68.4310    123.1718
   886.5000      0.0000    263.2186     67.5580    125.3164
   886.7500      0.0000    263.2484     66.5188    125.1825
   887.0000      0.0000    263.2889     65.3255    123.9556
   887.2500      0.0000    263.3423     64.0459    122.7268
   887.5000      0.0000    263.4034     62.7802    121.5871
   887.7500      0.0000    263.4636     61.6056    120.2665
   888.0000      0.0000    263.5161     60.5489    119.0087
   888.2500      0.0000    263.5557     59.6110    118.4709
   888.5000      0.0000    263.5785     58.8060    119.0727
   888.7500      0.0000    263.5829     58.1625    120.7315
   889.0000      0.0000    263.5709     57.6891    123.0382
   889.2500      0.0000    263.5469     57.3638    125.3907
   889.5000      0.0000    263.5138     57.1810    127.1115
   889.7500      0.0000    263.4695     57.2049    127.9121
   890.0000      0.0000    263.4082     57.5479    128.3211
   890.2500      0.0000    263.3275     58.2677    129.1619
   890.5000      0.0000    263.2350     59.2665    130.2844
   890.7500      0.0000    263.1477     60.2911    130.2065
   891.0000      0.0000    263.0862     61.0630    127.4606
   891.2500      0.0000    263.0647     61.4455    122.1376
   891.5000      0.0000    263.0830     61.5076    115.9773
   891.7500      0.0000    263.1251     61.4500    111.3097
   892.0000      0.0000    263.1686     61.4985    109.7896
   892.2500      0.0000    263.1960     61.8482    111.5075
   892.5000      0.0000    263.1990     62.6188    115.0994
   892.7500      0.0000    263.1771     63.7883    118.8912
   893.0000      0.0000    263.1366     65.1686    121.9333
   893.2500      0.0000    263.0878     66.4840    124.1657
   893.5000      0.0000    263.0382     67.5256    126.1114
   893.7500      0.0000    262.9866     68.2825    128.3069
   894.0000      0.0000    262.9261     68.9544    130.4871
   894.2500      0.0000    262.8531     69.8078    131.5054
   894.5000      0.0000    262.7733     70.9724    130.5940
