~Version Information
 VERS.                2.0:  CWLS LOG ASCII STANDARD -VERSION 2.0
 WRAP.                 NO:  ONE LINE PER DEPTH STEP
~WELL INFORMATION BLOCK
#MNEM.UNIT       DATA		            DESCRIPTION OF MNEMONIC
#---------    -------------            ------------------------
 STRT.FT  0.500                          :START DEPTH
 STOP.FT  1812.700                       :STOP DEPTH
 STEP.FT  0.100                          :STEP    UP_HOLE  
 NULL.    -999.25                        :NULL VALUE
 COMP.              EL PASO PRODUCTIONS  :COMPANY
 WELL.                     COREHOLE #38  :WELL
 FLD .                 PURGATOIRE RIVER  :FIELD
 LOC .      15   35S   65W               :LOCATION
 CNTY.                           COLFAX  :COUNTY
 STAT.                     NM            :STATE
 CTRY.                                   :
 SRVC.     O'DRISCOLL                    :SERVICE COMPANY
 DATE.   04/28/05                        :LOG DATE
 API .                                   :API NUMBER
 LIC .                                   :LICENSE NUMBER
~Curve Information Block
#MNEM.UNIT      API CODE     Curve Description
#---------    -------------  ------------------------
 DEPT     .FT        00 001 00 00          :  1  DEPTH   
 GAMMA    .API-GR    00 310 00 00          :  2                GAMMA
 TEMP     .DEG F     00 660 00 00          :  3                 TEMP
 RES(16N) .OHM-M     00 040 00 00          :  4             RES(16N)
 RES(64N) .OHM-M     00 060 00 00          :  5             RES(64N)
 RES      .OHM       00 000 00 00          :  6                  RES
 LATERAL  .OHM-M     00 070 00 00          :  7              LATERAL
 NEUTRON  .API-N     00 000 00 00          :  8              NEUTRON
 POR(NEU) .PERCENT   00 330 00 00          :  9             POR(NEU)
 SANGB    .DEG       00 631 00 00          : 10                SANGB
 DEL_TEMP .DEG F     00 000 00 00          : 11             DEL_TEMP
 SANG     .DEG       00 620 00 00          : 12                 SANG
 SP       .MV        00 010 00 00          : 13                   SP
 TIME     .MINUTES   00 000 00 00          : 14                 TIME
~Parameter Information Block
#MNEM.UNIT   Information     Description
#---------- ---------------  ------------------------
 FILE.      ORIGINAL           :File Type
 FIID.      9057A              :File Type Identifier
 VERS.      3.58G              :System Version
 SER .      1                  :System Serial Number
 TRUK.      .498775            :Truck Calibration Number
 TOOL.        1061             :Tool Serial Number
 TIME.      1335               :Time    HrHrMinMin
 LAT .       36 59'            :Latitude
 LON .       104 39'           :Longitude
 LMF .            GL           :Log Measured From
 DMF .            GL           :Driller Measured From
 PD  .            GL           :Permanent Data
 PDEV.                         :Elevation Permanent Data
 EKB .M                        :Elevation Kelly Bushing
 ELEV.DF                       :Elevation DF
 EGL .M        7777            :Elevation Ground Level
 DRDP.          1825           :Driller's Depth
 CASD.       10.               :Casing Diameter
 CASB.           300           :Casing Bottom
 CASX.         STEEL           :Casing Type
 CAST.                         :Casing Thickness
 TNOC.                         :Time Circulation Stopped
 LOGU.        108              :Logging Unit
 RECB.           R.SIPES       :Recorded By
 OSR1.          9139           :Other Services
 OSR2.                         :Other Services
 OSR3.                         :Other Services
 BS  .MM         3.5           :Bit Size
 MST .                         :Mean Surface Temperature
 TGRD.                         :Temperature Gradiant
 MAGN.            12           :Magnetic Declination
 MDEN.       2.7               :Density Matrix
 MATR.      SANDSTONE          :Neutron Matrix
 DTMT.            54           :Delta T Matrix
 DTFL.                         :Delta T Fluid
 MUDS.                         :Mud Sample Source
 MRS .                         :Mud Resistivity
 MTP .                         :Mud Temperature
 MFRS.                         :Resistivity Mud Filtrate
 MFTP.                         :Temperature Mud Filtrate
 MCRS.                         :Resistivity Mud Cake
 MCTP.                         :Temperature Mud Cake
 FTYP.                         :Fluid Type
 FD  .K/M3                     :Fluid Density
 DFV .S                        :Fluid Viscosity
 FPH .                         :Fuild PH
 ELCO.       50000             :Electron Cutoff
~Other Information
#MNEM.UNIT  Information      Description
#---------- ---------------  ------------------------
# -------------------------- 
~A DEPTH  GAMMA    TEMP  RES(16N) RES(64N) RES      LATERAL  NEUTRON  POR(NEU) SANGB  DEL_TEMP SANG   SP    TIME    
# ...
1799.900     45.5  94.9     -0.9      8.6      7.1     -4.3   1685.7  17.9  13.62  0.04  1.69  -1320.1 0.20000 
1800.000     45.0  94.9     -0.6      8.5      7.3     -3.9   1667.0  17.8  13.62  0.01  1.69  -1320.1 0.20000 
1800.100     43.9  94.9      0.2      8.6      7.1     -2.7   1640.4  17.8  32.63  0.01  1.69  -1320.1 0.30000 
1800.200     47.6  94.9      0.2      8.6      6.8     -2.7   1674.8  17.6  122.93 -0.02  1.58  -1320.1 0.20000 
1800.300     47.1  94.9     -1.6      8.5      7.0     -4.2   1735.8  17.5  138.01 -0.01  1.95  -1320.2 0.20000 
1800.400     47.1  94.9     -1.8      8.3      6.3     -4.5   1743.6  17.7  138.21 -0.04  1.95  -1320.2 0.20000 
1800.500     48.5  94.9      0.4      7.9      7.1     -3.6   1756.1  17.8   5.07  0.03  1.95  -1320.1 0.20000 
1800.600     46.9  94.9      0.6      7.6      6.7     -1.7   1749.8  17.6  38.18  0.01  2.20  -1320.1 0.20000 
1800.700     42.2  94.9     -1.8      7.0      6.7     -4.2   1751.4  17.5  39.09  -0.04  2.15  -1320.2 0.30000 
1800.800     42.3  94.9      0.4      6.8      6.9     -2.0   1728.0  17.3  39.04  0.04  2.15  -1320.3 0.20000 
1800.900     46.1  94.9      1.8      6.8      6.3      0.2   1715.4  17.4  135.56 -0.02  2.26  -1320.3 0.20000 
1801.000     43.9  94.9     -0.2      6.6      6.1     -2.8   1690.4  17.4  225.28 0.03  2.26  -1320.4 0.20000 
1801.100     43.4  94.9     -0.6      6.7      6.4     -2.9   1695.1  17.2  225.28 -0.03  2.26  -1320.4 0.20000 
1801.200     47.1  94.9      1.8      7.0      6.4      0.9   1710.8  17.3  257.55 -0.01  2.26  -1320.3 0.20000 
1801.300     50.3  94.9      2.0      6.9      6.5      0.4   1690.4  17.2  18.49  0.01  2.42  -1320.1 0.30000 
1801.400     54.7  94.9     -0.2      7.0      6.6     -0.5   1721.7  17.3  33.83  0.00  2.30  -1320.1 0.20000 
1801.500     58.4  94.9      1.4      7.1      7.2     -0.3   1732.6  17.1  33.86  -0.02  2.30  -1320.2 0.20000 
1801.600     61.2  94.9      1.9      7.0      6.7     -0.3   1718.6  16.9  324.56 0.03  2.30  -1320.3 0.20000 
1801.700     58.9  94.9      0.8      7.0      6.5     -1.0   1760.8  17.0  290.29 -0.02  2.34  -1320.3 0.20000 
1801.800     57.3  94.9      0.6      7.3      6.3     -1.7   1784.3  16.8  298.72 0.02  2.32  -1320.3 0.30000 
1801.900     57.3  94.9      2.7      7.5      6.9      0.3   1770.2  16.7  301.96 0.00  2.32  -999.25 0.20000 
1802.000     57.7  94.9      1.0      7.5      6.6     -2.1   1776.4  16.6  355.27 -0.03  2.18  -999.25 0.20000 
1802.100     56.6  95.0     -1.3      7.0      6.5     -5.0   1826.5  16.7   9.21  -0.01  2.22  -999.25 0.20000 
1802.200     50.8  95.0      0.2      7.3      6.8     -2.0   1793.6  16.7   9.21  -0.07  2.22  -999.25 0.20000 
1802.300     46.1  95.0      0.8      7.3      7.2     -0.7   1781.1  16.7   9.08  0.02  2.22  -999.25 0.30000 
1802.400     40.8  95.0     -0.6      7.1      6.9     -3.2   1806.1  16.6  330.82 0.01  1.73  -999.25 0.20000 
1802.500     38.3  95.0      2.5      7.1      7.0     -0.5   1796.8  16.6  348.59 0.04  1.86  -999.25 0.20000 
1802.600     39.2  95.0      1.6      6.9      7.2     -1.3   1784.3  16.9  348.59 -0.10  1.86  -999.25 0.20000 
1802.700     36.0  95.0     -1.2      6.9      7.3     -3.1   1756.1  17.1  12.73  0.09  1.64  -999.25 0.20000 
1802.800     37.2  95.0     -0.6      6.8      7.6     -0.5   1749.8  17.0  71.38  -0.01  1.19  -999.25 0.30000 
1802.900     34.2  95.0      1.1      6.8      7.9     -0.2   1734.2  17.0  71.38  0.00  1.19  -999.25 0.20000 
1803.000     33.7  95.0      0.6      6.8      7.6     -1.8   1745.2  17.3  349.23 -0.04  1.19  -999.25 0.20000 
1803.100     36.3  95.0     -1.0      6.9      7.7     -3.2   1707.6  17.6  41.98  0.02  1.16  -999.25 0.30000 
1803.200     34.9  95.0      1.6      7.0      7.5      0.1   1718.6  17.6  79.08  0.01  1.37  -999.25 0.20000 
1803.300     39.2  95.0      0.6      6.9      7.6     -0.7   1699.8  17.8  94.72  -0.02  1.37  -999.25 0.20000 
1803.400     39.5  95.0     -2.5      6.8      7.3     -6.8   1709.2  17.9  121.03 0.06  0.91  -999.25 0.30000 
1803.500     41.3  95.0     -0.1      7.2      7.7     -3.2   1702.9  18.1  159.45 -0.00  1.81  -999.25 0.20000 
1803.600     41.3  95.0      1.7      7.9      8.3     -0.5   1688.9  18.1  159.57 -0.06  1.81  -999.25 0.30000 
1803.700     44.5  95.0     -1.1      8.1      7.8     -3.6   1663.8  17.9  96.15  0.01  1.88  -999.25 0.20000 
1803.800     46.1  95.0     -0.5      8.1      7.5     -3.4   1676.4  17.9  98.43  0.01  2.13  -999.25 0.19900 
1803.900     44.6  95.0      1.3      8.3      7.3     -1.0   1642.0  17.9  98.36  0.02  2.13  -999.25 0.30000 
1804.000     44.3  95.0     -0.1      8.5      7.1     -3.3   1629.4  17.8  163.85 -0.01  2.13  -999.25 0.20000 
1804.100     43.6  95.0      1.2      8.8      6.9     -1.6   1639.3  17.8  229.78 -0.02  2.44  -999.25 0.30100 
1804.200     42.0  95.0      1.1      8.6      6.6     -2.0   1647.2  17.9  241.33 -0.02  2.29  -999.25 0.20000 
1804.300     40.9  95.0     -1.4      8.6      6.6     -5.0   1697.2  18.0  289.67 0.05  2.29  -999.25 0.30000 
1804.400     40.1  95.0      0.9      8.6      5.8     -1.4   1728.5  17.8  28.69  -0.03  2.20  -999.25 0.20000 
1804.500     43.0  95.0      0.7      8.8      6.2     -1.8   1744.1  17.6  47.17  0.01  2.30  -999.25 0.20000 
1804.600     40.1  95.0     -1.2      8.9      5.7     -5.8   1771.7  17.5  95.51  -0.02  2.30  -999.25 0.30000 
1804.700     39.3  95.0     -0.7      9.0      5.3     -6.6   1777.0  17.5  288.88 0.04  1.78  -999.25 0.20000 
1804.800     37.3  95.0     -3.0      8.9      5.4    -10.2   1695.6  17.5  309.99 -0.01  1.97  -999.25 0.30000 
1804.900     38.5  95.0     -2.3      8.8      5.8     -7.9   1697.2  17.2  322.22 0.01  1.97  -999.25 0.30000 
1805.000     39.2  95.0     -0.7      8.3      5.6     -4.6   1716.0  17.0  16.62  -0.12  1.56  -999.25 0.20000 
1805.100     39.7  95.0     -2.1      7.9      6.3     -5.7   1720.7  17.0  34.25  0.01  1.46  -999.25 0.30000 
1805.200     42.2  95.1     -0.6      8.0      6.7     -3.9   1732.1  17.3  34.89  0.03  1.46  -999.25 0.19900 
1805.300     41.5  95.1     -2.0  -999.25      9.7     -6.4   1757.1  17.3  69.46  -0.01  1.41  -999.25 0.30000 
1805.400     40.1  95.1     -0.1  -999.25     15.7     -3.7   1729.0  17.6  100.31 0.02  1.26  -999.25 0.30000 
1805.500     40.8  95.0     -0.4  -999.25     23.4     -4.7   1750.9  17.6  44.28  0.02  1.26  -999.25 0.30000 
1805.600     42.0  95.1      0.3  -999.25     27.3     -4.1   1761.8  17.7  78.64  -0.03  1.26  -999.25 0.20000 
1805.700     43.9  95.1     -0.1  -999.25     28.9     -2.8   1743.1  17.4  93.33  -0.08  1.41  -999.25 0.30000 
1805.800     42.3  95.1     -0.4  -999.25     29.5     -3.6   1743.1  17.6  120.62 0.08  1.21  -999.25 0.30000 
1805.900     43.7  95.1     -0.5  -999.25     29.9     -3.6   1755.6  17.6  158.33 -0.01  1.64  -999.25 0.30000 
1806.000     41.9  95.1      2.5  -999.25     30.6      1.6   1672.7  17.6  156.81 -0.04  1.64  -999.25 0.30000 
1806.100     40.5  95.1      6.7  -999.25     30.7      6.8   1650.8  17.8  164.08 -0.01  1.70  -999.25 0.30000 
1806.200     42.5  95.1     11.0  -999.25     30.8     12.9   1643.5  17.8  170.61 -0.03  1.87  -999.25 0.30000 
1806.300     43.0  95.1     13.3  -999.25     30.9     16.1   1668.5  17.8  150.86 0.06  1.96  -999.25 0.30000 
1806.400     41.6  95.1     15.0  -999.25     31.2     17.8   1659.2  18.0  157.53 -0.05  2.10  -999.25 0.30100 
1806.500  -999.25  95.2     15.5  -999.25     31.4     18.3   1713.9  17.8  151.07 -0.04  2.18  -999.25 0.39900 
1806.600  -999.25  95.2  -999.25  -999.25     32.3      0.5   1713.9  17.9  151.91 -0.03  2.19  -999.25 0.30000 
1806.700  -999.25  95.2  -999.25  -999.25     32.7      0.5   1715.4  18.0  134.57 -0.06  2.26  -999.25 0.40000 
1806.800  -999.25  95.2  -999.25  -999.25     33.0      1.1   1680.5  18.1  128.74 0.07  2.27  -999.25 0.30000 
1806.900  -999.25  95.2  -999.25  -999.25     33.3      1.4   1674.3  17.9  129.45 -0.07  2.31  -999.25 0.40000 
1807.000  -999.25  95.3  -999.25  -999.25     33.2      0.7   1675.3  17.9  150.63 -0.00  2.33  -999.25 0.40000 
