~Version Information
 VERS.                                  2.0 : CWLS LAS VERSION
 WRAP.                                   NO : WRAPING MODE
 SWARE .                 MController 2.5.0N : SOFTWARE VERSION
~Well Information
 WELL.                   Blackjack 32-11 Tr : WELL
 COMP.  Pioneer Natural Resources USA, Inc. : COMPANY
 FLD.                      Purgatoire River : FIELD
 LOC.               SW/NE Sec 11 T32S  R66W : LOCATION
 DATE.                             08/14/05 : DATE(S) LOGGED
 SRVC.       BLANCO Geological Services LLC : SERVICE COMPANY
 STAT.                                   CO : STATE
 CNTY.                           Las Animas : COUNTY
 CTRY.                                  USA : COUNTRY
 API.                       05-071-08310-00 : API NUMBER
 STRT.FT                             521.00 : START DEPTH
 STOP.FT                            1862.00 : STOP DEPTH
 STEP.FT                               1.00 : DEPTH INCREMENT
 NULL.                                -9999 : NULL VALUE
~Curve information
 DEPTH.FT                                   :
 ROP.MIN/FT                                 :
 GAS.UNITS                                  :
~ASCII Log data
# ...
      1721.0         0.33          1.6 
      1722.0         0.40          2.2 
      1723.0         0.37          1.7 
      1724.0         0.40          2.9 
      1725.0         0.47          2.9 
      1726.0         0.20          1.2 
      1727.0         0.23          1.7 
      1728.0         0.25          2.1 
      1729.0         0.23          1.0 
      1730.0         0.23          1.5 
      1731.0         0.30          1.5 
      1732.0         0.30          1.6 
      1733.0         0.20          2.2 
      1734.0         0.27          1.2 
      1735.0         0.23          1.1 
      1736.0         5.97          3.6 
      1737.0         0.50          2.6 
      1738.0         0.43          3.0 
      1739.0         0.33          9.8 
      1740.0         0.37         18.7 
      1741.0         0.23         13.3 
      1742.0         0.32         45.2 
      1743.0         0.20         66.7 
      1744.0         0.17         81.7 
      1745.0         0.20         93.8 
      1746.0         0.27         98.7 
      1747.0         0.20         99.1 
      1748.0         0.30         97.7 
      1749.0         0.33         95.2 
      1750.0         0.20         92.4 
      1751.0         0.17         90.2 
      1752.0         0.23         89.9 
      1753.0         0.20         90.1 
      1754.0         0.20         88.7 
      1755.0         0.20         86.3 
      1756.0         0.20         81.1 
      1757.0         0.15         79.2 
      1758.0         0.17         78.4 
      1759.0         0.17         77.5 
      1760.0         0.27         84.8 
      1761.0         0.27        100.1 
      1762.0         0.27        114.5 
      1763.0         0.27        113.4 
      1764.0         0.23        112.5 
      1765.0         0.23        107.9 
      1766.0         3.05        221.6 
      1767.0         0.43        288.5 
      1768.0         0.40        334.8 
      1769.0         0.27        347.0 
      1770.0         0.17        349.0 
      1771.0         0.17        345.0 
      1772.0         0.27        327.6 
      1773.0         0.28        290.2 
      1774.0         0.37        231.5 
      1775.0         0.47        178.4 
      1776.0         0.23        143.2 
      1777.0         0.30        133.2 
      1778.0         0.27        117.9 
      1779.0         0.30        115.0 
      1780.0         0.23        114.2 
      1781.0         0.23        114.2 
      1782.0         0.13        112.7 
      1783.0         0.27        111.2 
      1784.0         0.32        108.4 
      1785.0         0.20        105.8 
      1786.0         0.27        104.2 
      1787.0         0.23         99.4 
      1788.0         0.27         96.3 
      1789.0         0.23         94.0 
      1790.0         0.27         92.7 
      1791.0         0.23         94.9 
      1792.0         0.27        103.5 
      1793.0         0.23        103.8 
      1794.0         0.17        102.5 
      1795.0         0.17         98.2 
      1796.0         5.23        300.3 
      1797.0         0.27        173.3 
      1798.0         0.13        143.6 
      1799.0         0.43        124.2 
      1800.0         0.50         90.7 
      1801.0         0.33        105.6 
      1802.0         0.30        116.7 
      1803.0         0.27        119.5 
      1804.0         0.32        119.8 
      1805.0         0.43        117.9 
      1806.0         0.33        106.5 
      1807.0         0.33        101.2 
      1808.0         0.30         94.4 
      1809.0         0.40         90.2 
      1810.0         0.37         88.6 
      1811.0         0.27         86.8 
      1812.0         0.30         84.6 
      1813.0         0.35         80.6 
      1814.0         0.33         77.5 
      1815.0         0.30         77.2 
      1816.0         0.30         77.5 
      1817.0         0.27         77.3 
      1818.0         0.33         77.4 
      1819.0         0.37         77.3 
      1820.0         0.37         77.0 
      1821.0         0.27         78.4 
      1822.0         0.23         80.8 
      1823.0         0.33         80.2 
      1824.0         0.35         77.5 
      1825.0         0.23         76.7 
      1826.0         5.45        357.7 
      1827.0         0.43        194.0 
      1828.0         0.30        136.4 
      1829.0         0.28        111.5 
      1830.0         0.23         99.9 
      1831.0         0.17        102.3 
      1832.0         0.30        109.4 
      1833.0         0.17        112.3 
      1834.0         0.23        115.2 
      1835.0         0.17        114.0 
      1836.0         0.27        113.4 
      1837.0         0.30        109.4 
      1838.0         0.30        104.0 
      1839.0         0.33         96.4 
      1840.0         0.30         93.2 
      1841.0         0.27         89.3 
      1842.0         0.25         87.4 
      1843.0         0.23         86.7 
      1844.0         0.20         84.6 
      1845.0         0.23         83.5 
      1846.0         0.27         82.8 
      1847.0         0.20         81.0 
      1848.0         0.33         81.4 
      1849.0         0.30         79.4 
      1850.0         0.33         80.0 
      1851.0         0.23         81.6 
      1852.0         0.20         80.8 
      1853.0         0.20         78.6 
      1854.0         0.23         77.1 
      1855.0         0.48         73.0 
      1856.0         1.63         86.8 
      1857.0         0.33        117.7 
      1858.0         0.67      -9999.0 
      1859.0         0.32      -9999.0 
      1860.0         0.30      -9999.0 
      1861.0         0.23      -9999.0 
      1862.0         0.27      -9999.0 
