~Version Information
VERS.                      2.0: CWLS Log ASCII Standard - VERSION 2.0
WRAP.                       NO: One line per depth step
~Well Information Block
STRT.FT                 0.0000: 
STOP.FT              2159.0000: 
STEP.FT                 0.2500: 
NULL.                -999.2500: 
COMP.          Petrogulf Corporation: COMPANY
WELL.               Furu 6-23R: WELL
FLD.           Purgatoire River: FIELD
LOC.           2211' FSL & 1780' FWL: LOCATION
CNTY.               Las Animas: COUNTY
SRVC.                         : SERVICE COMPANY
DATE.          Fri Jul 14 16:00:32 2006: LOG DATE
UWI.           05 071 08266 00: UNIQUE WELL ID
STAT.                       CO: STATE
~Curve Information Block
DEPT.FT            0 000 00 00: Depth
GR.GAPI                       : Gamma Ray
CCL.                          : Casing Collar Locator
TT3.usec                      : CBL 3' Travel Time
AMP3.mV                       : CBL 3' Amplitude
~Parameter Information Block
~A  Depth        GR         CCL         TT3         AMP3    
# ...
   435.5000    118.7121      0.0000    256.4740     86.3077
   435.7500    118.8785      0.0000    256.4781     86.2704
   436.0000    120.1871      0.0000    256.4736     86.2384
   436.2500    122.4165      0.0000    256.4662     86.2029
   436.5000    124.3317      0.0000    256.4616     86.1554
   436.7500    125.0040      0.0000    256.4608     86.0922
   437.0000    124.6944      0.0000    256.4626     86.0141
   437.2500    124.6600      0.0000    256.4688     85.9229
   437.5000    126.3812      0.0000    256.4823     85.8188
   437.7500    130.4866      0.0000    256.5013     85.7026
   438.0000    136.2258      0.0000    256.5185     85.5797
   438.2500    142.3109      0.0000    256.5287     85.4646
   438.5000    147.8712      0.0000    256.5340     85.3795
   438.7500    152.0377      0.0000    256.5387     85.3463
   439.0000    153.3989      0.0000    256.5408     85.3743
   439.2500    150.9958      0.0000    256.5356     85.4533
   439.5000    145.6907      0.0000    256.5256     85.5542
   439.7500    139.8121      0.0000    256.5184     85.6401
   440.0000    135.4440      0.0000    256.5156     85.6809
   440.2500    133.2495      0.0000    256.5120     85.6649
   440.5000    132.6613      0.0000    256.5065     85.6019
   440.7500    132.8804      0.0000    256.5069     85.5162
   441.0000    133.5627      0.0000    256.5183     85.4346
   441.2500    134.6170      0.0000    256.5345     85.3755
   441.5000    135.6535      0.0000    256.5468     85.3442
   441.7500    135.6722      0.0000    256.5562     85.3372
   442.0000    133.2512      0.0000    256.5678     85.3496
   442.2500    127.4481      0.0000    256.5796     85.3806
   442.5000    118.8892      0.0000    256.5850     85.4334
   442.7500    109.6779      0.0000    256.5837     85.5101
   443.0000    101.9288      0.0000    256.5813     85.6074
   443.2500     96.6214      0.0000    256.5807     85.7162
   443.5000     93.9467      0.0000    256.5790     85.8249
   443.7500     94.0835      0.0000    256.5741     85.9221
   444.0000     96.9353      0.0000    256.5672     85.9978
   444.2500    101.3075      0.0000    256.5617     86.0433
   444.5000    105.2289      0.0000    256.5627     86.0505
   444.7500    107.6916      0.0000    256.5772     86.0164
   445.0000    109.6796      0.0000    256.6112     85.9464
   445.2500    112.8236      0.0000    256.6622     85.8563
   445.5000    117.3989      0.0000    256.7175     85.7695
   445.7500    122.2144      0.0000    256.7604     85.7086
   446.0000    126.0564      0.0000    256.7799     85.6883
   446.2500    128.6508      0.0000    256.7752     85.7099
   446.5000    130.4834      0.0000    256.7524     85.7599
   446.7500    132.2424      0.0000    256.7220     85.8145
   447.0000    134.4635      0.0000    256.6983     85.8471
   447.2500    137.4272      0.0000    256.6935     85.8383
   447.5000    141.2466      0.0000    256.7074     85.7836
   447.7500    145.9289      0.0000    256.7274     85.6950
   448.0000    151.2079      0.0000    256.7392     85.5939
   448.2500    156.4848      0.0000    256.7401     85.5008
   448.5000    160.9787      0.0000    256.7413     85.4277
   448.7500    163.9732      0.0000    256.7551     85.3771
   449.0000    165.1802      0.0000    256.7823     85.3481
   449.2500    164.9808      0.0000    256.8120     85.3429
   449.5000    164.0572      0.0000    256.8321     85.3679
   449.7500    162.7949      0.0000    256.8348     85.4286
   450.0000    161.1710      0.0000    256.8158     85.5228
   450.2500    158.9014      0.0000    256.7775     85.6375
   450.5000    155.3741      0.0000    256.7325     85.7512
   450.7500    149.9232      0.0000    256.6988     85.8415
   451.0000    142.9291      0.0000    256.6878     85.8926
   451.2500    136.4530      0.0000    256.7015     85.9013
   451.5000    132.9009      0.0000    256.7356     85.8788
   451.7500    132.9214      0.0000    256.7801     85.8476
   452.0000    135.2444      0.0000    256.8155     85.8342
   452.2500    138.4202      0.0000    256.8211     85.8588
   452.5000    141.6084      0.0000    256.7931     85.9273
   452.7500    143.6649      0.0000    256.7494     86.0298
   453.0000    143.0100      0.0000    256.7144     86.1464
   453.2500    139.2658      0.0000    256.6983     86.2549
   453.5000    134.3055      0.0000    256.6949     86.3359
   453.7500    131.1183      0.0000    256.6941     86.3745
   454.0000    131.6380      0.0000    256.6937     86.3609
   454.2500    135.3248      0.0000    256.6987     86.2931
   454.5000    139.5236      0.0000    256.7101     86.1778
   454.7500    141.4552      0.0000    256.7220     86.0302
   455.0000    140.1447      0.0000    256.7308     85.8690
   455.2500    136.5793      0.0000    256.7406     85.7104
   455.5000    132.4115      0.0000    256.7549     85.5642
   455.7500    128.7395      0.0000    256.7697     85.4342
   456.0000    125.6380      0.0000    256.7812     85.3211
   456.2500    122.2905      0.0000    256.7950     85.2254
   456.5000    117.7460      0.0000    256.8188     85.1495
   456.7500    111.7692      0.0000    256.8496     85.0989
   457.0000    104.8422      0.0000    256.8766     85.0839
   457.2500     97.6248      0.0000    256.8951     85.1164
   457.5000     90.8692      0.0000    256.9051     85.2034
   457.7500     85.5890      0.0000    256.8996     85.3368
   458.0000     82.6834      0.0000    256.8666     85.4881
   458.2500     82.3920      0.0000    256.8109     85.6147
   458.5000     84.5287      0.0000    256.7620     85.6790
   458.7500     89.0691      0.0000    256.7500     85.6704
   459.0000     95.8268      0.0000    256.7766     85.6149
   459.2500    103.2551      0.0000    256.8142     85.5620
   459.5000    108.1715      0.0000    256.8297     85.5578
   459.7500    107.6118      0.0000    256.8057     85.6192
   460.0000    101.1934      0.0000    256.7484     85.7256
   460.2500     91.2616      0.0000    256.6849     85.8335
   460.5000     80.7107      0.0000    256.6471     85.9037
   460.7500     71.1528      0.0000    256.6498     85.9240
   461.0000     63.1722      0.0000    256.6824     85.9142
   461.2500     57.3543      0.0000    256.7189     85.9106
   461.5000     54.1285      0.0000    256.7369     85.9402
   461.7500     52.8260      0.0000    256.7305     86.0006
   462.0000     51.7508      0.0000    256.7126     86.0569
   462.2500     49.6406      0.0000    256.7052     86.0591
   462.5000     46.8972      0.0000    256.7266     85.9687
   462.7500     45.3129      0.0000    256.7815     85.7813
   463.0000     46.7381      0.0000    256.8579     85.5337
   463.2500     51.7678      0.0000    256.9321     85.2893
   463.5000     59.1857      0.0000    256.9806     85.1138
   463.7500     66.5369      0.0000    256.9913     85.0498
   464.0000     71.6311      0.0000    256.9673     85.1031
   464.2500     73.8768      0.0000    256.9243     85.2469
   464.5000     74.2712      0.0000    256.8825     85.4368
   464.7500     74.1559      0.0000    256.8556     85.6289
   465.0000     74.0400      0.0000    256.8448     85.7923
   465.2500     73.6038      0.0000    256.8423     85.9117
   465.5000     72.6592      0.0000    256.8387     85.9822
   465.7500     71.6861      0.0000    256.8300     86.0008
   466.0000     71.1194      0.0000    256.8198     85.9635
   466.2500     70.4562      0.0000    256.8145     85.8604
   466.5000     68.5314      0.0000    256.8161     85.6740
   466.7500     64.6552      0.0000    256.8203     85.3670
   467.0000     59.2793      0.0000    256.8260     84.8617
   467.2500     53.5997      0.0000    256.8490     84.0173
   467.5000     48.6638      0.0000    256.9304     82.6231
   467.7500     44.8749      0.0000    257.1441     80.4289
   468.0000     42.1800      0.0000    257.5945     77.2224
   468.2500     40.5113      0.0000    258.3730     72.9347
   468.5000     40.1277      0.0000    259.4668     67.7262
   468.7500     41.8201      0.0000    260.7094     61.9997
