~Version Information
VERS.                      2.0: CWLS Log ASCII Standard - VERSION 2.0
WRAP.                       NO: One line per depth step
~Well Information Block
STRT.FT               582.2500: 
STOP.FT              2642.5000: 
STEP.FT                 0.2500: 
NULL.                -999.2500: 
COMP.          Petrogulf Corporation: COMPANY
WELL.           Montoya 12-41V: WELL
FLD.           Purgatorie River: FIELD
LOC.           1081' FNL & 605' FEL: LOCATION
CNTY.               Las Animas: COUNTY
SRVC.                         : SERVICE COMPANY
DATE.          Tue Aug 10 10:59:28 2004: LOG DATE
UWI.           05 071 08094 00: UNIQUE WELL ID
STAT.                 Colorado: STATE
~Curve Information Block
DEPT.FT            0 000 00 00: Depth
SP.mV                         : DIL Spontaneous Potential
RILD.Ohm-m                    : DIL Deep Resistivity
RILM.Ohm-m                    : DIL Medium Resistivity
RLL3.Ohm-m                    : DIL Shallow Resistivity
GR.GAPI                       : Gamma Ray
~Parameter Information Block
~A  Depth        SP         RILD        RILM        RLL3         GR     
# ...
  2486.2500      4.0835     17.3574     21.6081     20.3430     98.2624
  2486.5000      4.6607     17.3412     21.7277     20.4441     97.8231
  2486.7500      5.3664     17.3757     21.8285     20.6277     96.5194
  2487.0000      6.1120     17.4682     21.9142     20.9537     92.2081
  2487.2500      6.8094     17.6044     21.9915     21.4447     88.2892
  2487.5000      7.4108     17.7586     22.0695     22.0861     82.8034
  2487.7500      7.9260     17.9109     22.1580     22.8402     80.4271
  2488.0000      8.4089     18.0615     22.2681     23.6671     79.3650
  2488.2500      8.9215     18.2339     22.4145     24.5424     79.8835
  2488.5000      9.4940     18.4636     22.6173     25.4704     80.9252
  2488.7500     10.0988     18.7816     22.9049     26.5129     80.9976
  2489.0000     10.6601     19.2031     23.3130     27.8690     79.9411
  2489.2500     11.0822     19.7251     23.8825     30.0487     78.8685
  2489.5000     11.2872     20.3323     24.6541     34.0534     77.2829
  2489.7500     11.2353     21.0013     25.6609     41.7735     76.1202
  2490.0000     10.9254     21.7014     26.9180     56.1864     73.4627
  2490.2500     10.3722     22.3939     28.4087     81.3315     70.6886
  2490.5000      9.5844     23.0386     30.0682    121.6863     64.8991
  2490.7500      8.5615     23.6082     31.7684    180.6621     60.2292
  2491.0000      7.3088     24.1077     33.3178    258.2740     52.7753
  2491.2500      5.8670     24.5842     34.4930    348.7264     47.9644
  2491.5000      4.3267     25.1154     35.1068    439.3885     41.7482
  2491.7500      2.8227     25.7802     35.0849    512.6955     38.7444
  2492.0000      1.4981     26.6176     34.5047    551.3227     36.6429
  2492.2500      0.4657     27.5889     33.5619    544.8636     36.9142
  2492.5000     -0.2194     28.5566     32.4916    494.6633     39.0759
  2492.7500     -0.5634     29.3054     31.4960    413.9326     40.9967
  2493.0000     -0.6130     29.6237     30.7084    323.2350     43.8845
  2493.2500     -0.4350     29.4055     30.1867    243.6824     45.8050
  2493.5000     -0.0962     28.6967     29.9236    191.5491     48.6089
  2493.7500      0.3361     27.6415     29.8566    175.9700     49.9273
  2494.0000      0.7896     26.3921     29.8780    199.0037     49.7666
  2494.2500      1.1828     25.0617     29.8481    256.1801     47.8944
  2494.5000      1.4302     23.7261     29.6170    336.5284     43.3874
  2494.7500      1.4572     22.4447     29.0594    422.9301     40.3318
  2495.0000      1.2193     21.2657     28.1118    494.5762     37.0728
  2495.2500      0.7147     20.2215     26.7963    532.2739     36.0517
  2495.5000     -0.0158     19.3213     25.2131    524.9227     36.3953
  2495.7500     -0.9015     18.5561     23.5026    473.7662     38.1092
  2496.0000     -1.8606     17.9067     21.8029    391.5594     43.3140
  2496.2500     -2.8210     17.3531     20.2192    297.1420     48.4539
  2496.5000     -3.7330     16.8758     18.8129    208.2299     58.0091
  2496.7500     -4.5738     16.4555     17.6054    136.2532     65.2203
  2497.0000     -5.3418     16.0735     16.5903     85.0418     76.6554
  2497.2500     -6.0474     15.7148     15.7446     52.6689     83.9880
  2497.5000     -6.7011     15.3728     15.0389     34.4580     92.7398
  2497.7500     -7.3131     15.0479     14.4444     25.4531     96.2719
  2498.0000     -7.9003     14.7417     13.9380     21.7044     98.0755
  2498.2500     -8.4965     14.4518     13.5042     20.5664     97.4587
  2498.5000     -9.1538     14.1720     13.1352     20.4872     94.7407
  2498.7500     -9.9376     13.9009     12.8296     20.6692     92.3333
  2499.0000    -10.9022     13.6493     12.5890     20.7961     89.2773
  2499.2500    -12.0646     13.4430     12.4158     20.7392     88.4025
  2499.5000    -13.3867     13.3155     12.3106     20.5294     89.0457
  2499.7500    -14.7822     13.2950     12.2709     20.2416     90.1092
  2500.0000    -16.1368     13.3923     12.2900     19.9720     91.0695
  2500.2500    -17.3469     13.5927     12.3569     19.8357     90.7709
  2500.5000    -18.3431     13.8553     12.4572     19.9591     89.1503
  2500.7500    -19.0981     14.1247     12.5747     20.4493     87.6587
  2501.0000    -19.6141     14.3504     12.6944     21.3402     84.7417
  2501.2500    -19.8969     14.5098     12.8053     22.5341     81.9326
  2501.5000    -19.9397     14.6151     12.9044     23.7790     76.4552
  2501.7500    -19.7194     14.7029     12.9978     24.7209     72.9855
  2502.0000    -19.2110     14.8104     13.1001     25.0365     70.8449
  2502.2500    -18.4124     14.9558     13.2301     24.5973     72.6522
  2502.5000    -17.3599     15.1278     13.4051     23.5747     79.9936
  2502.7500    -16.1293     15.2881     13.6341     22.4113     86.4983
  2503.0000    -14.8145     15.3812     13.9112     21.6557     95.1010
  2503.2500    -13.5013     15.3540     14.2099     21.7392     98.2646
  2503.5000    -12.2423     15.1764     14.4816     22.8039     97.6930
  2503.7500    -11.0513     14.8559     14.6596     24.6513     94.1448
  2504.0000     -9.9169     14.4347     14.6749     26.8126     86.6810
  2504.2500     -8.8243     13.9699     14.4793     28.6928     82.3075
  2504.5000     -7.7802     13.5100     14.0661     29.7376     79.1769
  2504.7500     -6.8142     13.0799     13.4753     29.5801     79.7541
  2505.0000     -5.9660     12.6808     12.7795     28.1376     83.9657
  2505.2500     -5.2619     12.3007     12.0588     25.6276     88.5386
  2505.5000     -4.6929     11.9301     11.3806     22.4893     97.6621
  2505.7500     -4.2122     11.5715     10.7904     19.2373    105.0259
  2506.0000     -3.7456     11.2407     10.3132     16.3099    116.8372
  2506.2500     -3.2235     10.9590      9.9582     13.9777    124.1427
  2506.5000     -2.6100     10.7443      9.7251     12.3391    132.8816
  2506.7500     -1.9171     10.6066      9.6090     11.3778    137.2183
  2507.0000     -1.2003     10.5494      9.6031     11.0335    142.3657
  2507.2500     -0.5364     10.5730      9.7005     11.2464    145.2630
  2507.5000      0.0111     10.6777      9.8949     11.9635    148.4517
  2507.7500      0.4202     10.8629     10.1806     13.1209    149.0888
  2508.0000      0.7207     11.1242     10.5521     14.6231    146.5668
  2508.2500      0.9871     11.4517     11.0039     16.3368    142.4621
  2508.5000      1.3061     11.8322     11.5297     18.1058    133.9498
  2508.7500      1.7363     12.2547     12.1221     19.7797    127.7412
  2509.0000      2.2755     12.7174     12.7730     21.2434    118.4549
  2509.2500      2.8571     13.2297     13.4731     22.4325    112.0888
  2509.5000      3.3771     13.8084     14.2124     23.3309    101.6878
  2509.7500      3.7438     14.4658     14.9790     23.9605     94.0615
  2510.0000      3.9257     15.1965     15.7574     24.3675     81.7837
  2510.2500      3.9634     15.9663     16.5272     24.6119     73.4061
  2510.5000      3.9485     16.7116     17.2609     24.7537     61.7712
  2510.7500      3.9680     17.3547     17.9253     24.8358     55.5535
  2511.0000      4.0567     17.8323     18.4847     24.8699     49.7023
  2511.2500      4.1767     18.1194     18.9080     24.8363     48.2454
  2511.5000      4.2386     18.2345     19.1764     24.7012     49.0768
  2511.7500      4.1541     18.2229     19.2890     24.4454     51.0181
  2512.0000      3.8846     18.1388     19.2643     24.0879     54.9210
  2512.2500      3.4690     18.0346     19.1364     23.6915     57.6447
  2512.5000      3.0104     17.9575     18.9489     23.3454     61.1814
  2512.7500      2.6319     17.9450     18.7477     23.1337     62.8092
  2513.0000      2.4242     18.0157     18.5763     23.1041     63.7772
  2513.2500      2.4012     18.1637     18.4720     23.2546     63.5226
  2513.5000      2.4923     18.3601     18.4644     23.5450     62.5044
  2513.7500      2.5691     18.5669     18.5742     23.9247     61.9090
  2514.0000      2.4913     18.7572     18.8131     24.3618     61.5399
