~Version Information
VERS.                      2.0: CWLS Log ASCII Standard - VERSION 2.0
WRAP.                       NO: One line per depth step
~Well Information Block
STRT.FT               275.0000: 
STOP.FT              1682.2500: 
STEP.FT                 0.2500: 
NULL.                -999.2500: 
COMP.          Pioneer Natural Resources: COMPANY
WELL.               Elmo 14-21: WELL
FLD.           Purgatoire River: FIELD
LOC.           623' FSL & 450' FWL----: LOCATION
PROV.                 Colorado: PROVINCE
CNTY.               Las Animas: COUNTRY
SRVC.                Patterson: SERVICE COMPANY
DATE.          Tue May 17 16:07:31 2005: LOG DATE
UWI.           05 071 08360 00: UNIQUE WELL ID
~Curve Information Block
DEPT.FT            0 000 00 00: Depth
SN.Ohm-m                      : IEL Short Normal
SP.mV                         : IEL Spontaneous Potential
DIR.Ohm-m                     : IEL Induction Resistivity
GR.GAPI                       : Gamma Ray
~Parameter Information Block
~A  Depth        SN          SP         DIR          GR     
   275.0000   2000.0000   2000.0000 100000.0000    112.8131
   275.2500   2000.0000   2000.0000 100000.0000    113.8251
   275.5000   2000.0000   2000.0000 100000.0000    115.2473
   275.7500   2000.0000   2000.0000 100000.0000    115.5396
   276.0000   2000.0000   2000.0000 100000.0000    114.2281
   276.2500   2000.0000   2000.0000 100000.0000    112.2218
   276.5000   2000.0000   2000.0000 100000.0000    108.7696
   276.7500   2000.0000   2000.0000 100000.0000    107.2937
   277.0000   2000.0000   2000.0000 100000.0000    107.3634
   277.2500   2000.0000   2000.0000 100000.0000    108.4711
   277.5000   2000.0000   2000.0000 100000.0000    109.7840
   277.7500   2000.0000   2000.0000 100000.0000    109.5024
   278.0000   2000.0000   2000.0000 100000.0000    107.1907
   278.2500   2000.0000   2000.0000 100000.0000    105.1411
   278.5000   2000.0000   2000.0000 100000.0000    103.1718
   278.7500   2000.0000   2000.0000 100000.0000    103.2713
   279.0000   2000.0000   2000.0000 100000.0000    105.1558
   279.2500   2000.0000   2000.0000 100000.0000     71.1385
   279.5000   2000.0000   2000.0000 100000.0000     72.1456
   279.7500   2000.0000   2000.0000 100000.0000     72.3777
   280.0000   2000.0000   2000.0000 100000.0000     72.5479
   280.2500   2000.0000   2000.0000 100000.0000     72.8900
   280.5000   2000.0000   2000.0000 100000.0000     74.1219
   280.7500   2000.0000   2000.0000 100000.0000     75.5028
   281.0000   2000.0000   2000.0000 100000.0000     78.3651
   281.2500   2000.0000   2000.0000 100000.0000     80.7282
   281.5000   2000.0000   2000.0000 100000.0000     84.8955
   281.7500   2000.0000   2000.0000 100000.0000     87.9464
   282.0000   2000.0000   2000.0000 100000.0000     91.9155
   282.2500   2000.0000   2000.0000 100000.0000     93.1961
   282.5000   2000.0000   2000.0000 100000.0000     92.0993
   282.7500   2000.0000   2000.0000 100000.0000     89.8739
   283.0000   2000.0000   2000.0000 100000.0000     86.6484
   283.2500   2000.0000   2000.0000 100000.0000     85.8375
   283.5000   2000.0000   2000.0000 100000.0000     87.3056
   283.7500   2000.0000   2000.0000 100000.0000     89.7146
   284.0000   2000.0000   2000.0000     73.4712     94.3973
   284.2500   2000.0000   2000.0000      8.6073     97.5690
   284.5000   2000.0000   2000.0000      4.3671    101.4137
   284.7500   2000.0000   2000.0000      3.2100    103.0310
   285.0000   2000.0000   2000.0000      3.0417    103.9222
   285.2500   2000.0000   2000.0000      3.6326    103.6217
   285.5000   2000.0000   2000.0000      5.6510    102.3895
   285.7500   2000.0000   2000.0000     14.0050    101.5191
   286.0000   2000.0000   2000.0000 100000.0000    100.5619
   286.2500   2000.0000   2000.0000 100000.0000     99.8146
   286.5000   2000.0000   2000.0000 100000.0000     97.2844
   286.7500   2000.0000   2000.0000 100000.0000     94.2257
   287.0000   2000.0000   2000.0000 100000.0000     88.1527
   287.2500   2000.0000   2000.0000   1889.2345     83.9647
   287.5000   2000.0000   2000.0000     30.1911     78.8190
   287.7500   2000.0000   2000.0000     17.6993     76.5745
   288.0000   2000.0000   2000.0000     14.5688     75.1041
   288.2500   2000.0000   2000.0000     14.0360     75.1372
   288.5000   2000.0000   2000.0000     14.8267     75.9485
   288.7500   2000.0000   2000.0000     16.5820     76.6177
   289.0000   2000.0000   2000.0000     19.1226     77.6553
   289.2500   2000.0000   2000.0000     22.1087     78.4812
   289.5000   2000.0000   2000.0000     24.8625     79.8877
   289.7500   2000.0000   2000.0000     26.7259     80.6133
   290.0000   2000.0000   2000.0000     27.8230     80.6388
   290.2500   2000.0000   2000.0000     29.1563     79.7089
   290.5000   2000.0000   2000.0000     32.0321     76.9942
   290.7500   2000.0000   2000.0000     37.7059     74.5543
   291.0000   2000.0000   2000.0000     46.8566     70.5328
   291.2500   2000.0000   2000.0000     57.1545     68.0332
   291.5000   2000.0000   2000.0000     60.9431     65.3304
   291.7500   2000.0000   2000.0000     54.3799     64.5718
   292.0000   2000.0000   2000.0000     44.1599     65.2638
   292.2500   2000.0000   2000.0000     35.9615     66.9467
   292.5000   2000.0000   2000.0000     30.7332     71.0156
   292.7500   2000.0000   2000.0000     27.8364     74.2720
   293.0000   2000.0000   2000.0000     26.5701     78.5927
   293.2500   2000.0000   2000.0000     26.3839     80.3341
   293.5000   2000.0000   2000.0000     26.7979     80.8406
   293.7500   2000.0000   2000.0000     27.3627     80.1910
   294.0000   2000.0000   2000.0000     27.7241     78.9458
   294.2500   2000.0000   2000.0000     27.7158     78.4306
   294.5000   2000.0000   2000.0000     27.3609     78.1531
   294.7500   2000.0000   2000.0000     26.7794     78.0109
   295.0000   2000.0000   2000.0000     26.0929     77.5885
   295.2500   2000.0000   2000.0000     25.3858     77.3429
   295.5000   2000.0000   2000.0000     24.7104     77.6152
   295.7500   2000.0000   2000.0000     24.1011     78.4572
   296.0000   2000.0000   2000.0000     23.5802     80.7088
   296.2500   2000.0000   2000.0000     23.1547     82.7198
   296.5000   2000.0000   2000.0000     22.8081     86.2909
   296.7500   2000.0000   2000.0000     22.4962     89.0352
   297.0000   2000.0000   2000.0000     22.1533     93.6938
   297.2500   2000.0000   2000.0000     21.7112     96.9283
   297.5000   2000.0000   2000.0000     21.1276    100.9970
   297.7500   2000.0000   2000.0000     20.4044    102.5491
   298.0000   2000.0000   2000.0000     19.5848    102.8863
   298.2500   2000.0000   2000.0000     18.7343    102.3900
   298.5000   2000.0000   2000.0000     17.9211    102.2439
   298.7500   2000.0000   2000.0000     17.2019    103.2656
   299.0000   2000.0000   2000.0000     16.6159    106.5822
   299.2500   2000.0000   2000.0000     16.1830    109.4110
   299.5000   2000.0000   2000.0000     15.9066    113.0036
   299.7500   2000.0000   2000.0000     15.7794    114.0525
   300.0000   2000.0000   2000.0000     15.7852    112.6561
   300.2500   2000.0000   2000.0000     15.8993    109.7282
   300.5000   2000.0000   2000.0000     16.0871    103.1783
   300.7500   2000.0000   2000.0000     16.3063     98.1585
   301.0000   2000.0000   2000.0000     16.5107     91.1564
   301.2500   2000.0000   2000.0000     16.6545     87.7586
   301.5000   2000.0000   2000.0000     16.6923     86.0631
   301.7500   2000.0000   2000.0000     16.5806     87.7311
   302.0000   2000.0000   2000.0000     16.2850     94.1114
   302.2500   2000.0000   2000.0000     15.7949    100.0041
   302.5000   2000.0000   2000.0000     15.1361    109.0287
   302.7500   2000.0000   2000.0000     14.3691    113.9750
   303.0000   2000.0000   2000.0000     13.5725    118.7246
   303.2500   2000.0000   2000.0000     12.8221    120.1925
   303.5000   2000.0000   2000.0000     12.1757    120.7099
   303.7500   2000.0000   2000.0000     11.6684    120.4608
   304.0000   2000.0000   2000.0000     11.3129    119.8318
   304.2500   2000.0000   2000.0000     11.1037    119.4701
   304.5000   2000.0000   2000.0000     11.0208    118.9816
   304.7500   2000.0000   2000.0000     11.0356    118.3711
   305.0000   2000.0000   2000.0000     11.1145    116.5111
   305.2500   2000.0000   2000.0000     11.2231    114.8249
   305.5000   2000.0000   2000.0000     11.3274    112.7952
   305.7500   2000.0000   2000.0000     11.3940    112.4242
   306.0000   2000.0000   2000.0000     11.3904    113.5319
   306.2500   2000.0000   2000.0000     11.2880    115.0130
   306.5000   2000.0000   2000.0000     11.0678    117.5859
   306.7500   2000.0000   2000.0000     10.7281    119.2253
   307.0000   2000.0000   2000.0000     10.2885    121.2237
   307.2500   2000.0000   2000.0000      9.7866    122.0942
   307.5000   2000.0000   2000.0000      9.2675    122.5381
   307.7500   2000.0000   2000.0000      8.7709    122.2603
   308.0000   2000.0000   2000.0000      8.3238    121.2566
   308.2500   2000.0000   2000.0000      7.9385    120.5446
