~Version Information
VERS.                      2.0: CWLS Log ASCII Standard - VERSION 2.0
WRAP.                       NO: One line per depth step
~Well Information Block
STRT.FT                 0.5000: 
STOP.FT              2891.5000: 
STEP.FT                 0.2500: 
NULL.                -999.2500: 
COMP.          Petrogulf Corporation: COMPANY
WELL.            Montoya 1-41V: WELL
FLD.           Purgatoire River: FIELD
LOC.           610' FNL & 1205' FEL--: LOCATION
PROV.                 Colorado: PROVINCE
CNTY.               Las Animas: COUNTRY
SRVC.                Patterson: SERVICE COMPANY
DATE.          Mon Sep 12 11:42:30 2005: LOG DATE
UWI.           05 071 08144 00: UNIQUE WELL ID
~Curve Information Block
DEPT.FT            0 000 00 00: Depth
CCL.                          : Casing Collar Locator
TT3.usec                      : CBL 3' Travel Time
AMP3.mV                       : CBL 3' Amplitude
GR.GAPI                       : Gamma Ray
~Parameter Information Block
~A  Depth       CCL         TT3         AMP3         GR     
# ...
  2479.5000      0.0000    695.5305      1.6558    108.7571
  2479.7500      0.0000    680.7187      1.6660    109.2861
  2480.0000      0.0000    670.2538      1.6675    108.9021
  2480.2500      0.0000    668.1095      1.6657    107.7879
  2480.5000      0.0000    676.3810      1.6648    105.6113
  2480.7500      0.0000    693.4813      1.6658    102.4797
  2481.0000      0.0000    713.4647      1.6671     99.4339
  2481.2500      0.0000    728.6770      1.6679     97.6792
  2481.5000      0.0000    734.2053      1.6701     97.5370
  2481.7500      0.0000    729.9855      1.6760     98.3795
  2482.0000      0.0000    719.3779      1.6850     99.3056
  2482.2500      0.0000    706.8267      1.6933     99.6953
  2482.5000      0.0000    696.0906      1.6959     99.4327
  2482.7500      0.0000    688.7114      1.6882     98.9793
  2483.0000      0.0000    683.7031      1.6683     99.1787
  2483.2500      0.0000    679.5527      1.6402    100.5212
  2483.5000      0.0000    676.3593      1.6137    102.2731
  2483.7500      0.0000    675.4232      1.5991    102.5686
  2484.0000      0.0000    677.5399      1.6001     99.9055
  2484.2500      0.0000    682.8464      1.6118     94.8763
  2484.5000      0.0000    691.6378      1.6253     90.1319
  2484.7500      0.0000    703.7415      1.6349     88.1740
  2485.0000      0.0000    717.2794      1.6400     89.1062
  2485.2500      0.0000    729.3021      1.6414     90.8982
  2485.5000      0.0000    737.4792      1.6393     91.7677
  2485.7500      0.0000    740.3726      1.6357     91.6546
  2486.0000      0.0000    737.1019      1.6343     91.3738
  2486.2500      0.0000    728.3273      1.6388     91.3601
  2486.5000      0.0000    717.2557      1.6491     91.6678
  2486.7500      0.0000    708.2767      1.6607     92.3436
  2487.0000      0.0000    703.9373      1.6673     93.2044
  2487.2500      0.0000    703.3340      1.6673     93.6996
  2487.5000      0.0000    703.7667      1.6673     93.3722
  2487.7500      0.0000    703.8999      1.6770     92.2847
  2488.0000      0.0000    704.3908      1.7000     91.0487
  2488.2500      0.0000    705.4572      1.7308     90.7536
  2488.5000      0.0000    705.6033      1.7597     92.4993
  2488.7500      0.0000    703.2363      1.7787     96.3125
  2489.0000      0.0000    698.0139      1.7847    100.5929
  2489.2500      0.0000    690.4421      1.7784    103.1238
  2489.5000      0.0000    681.6825      1.7622    102.5819
  2489.7500      0.0000    674.0681      1.7394     99.0017
  2490.0000      0.0000    670.4954      1.7147     93.4715
  2490.2500      0.0000    672.2949      1.6931     87.9184
  2490.5000      0.0000    677.8454      1.6768     84.5280
  2490.7500      0.0000    683.5572      1.6649     84.4605
  2491.0000      0.0000    686.2316      1.6582     87.0883
  2491.2500      0.0000    684.8557      1.6617     90.6674
  2491.5000      0.0000    681.0255      1.6820     93.7522
  2491.7500      0.0000    677.9867      1.7207     96.1993
  2492.0000      0.0000    678.4490      1.7711     98.9043
  2492.2500      0.0000    682.5196      1.8201    102.3394
  2492.5000      0.0000    687.7626      1.8558    105.4563
  2492.7500      0.0000    691.2762      1.8723    106.6137
  2493.0000      0.0000    691.5897      1.8676    105.5123
  2493.2500      0.0000    689.0538      1.8403    103.3122
  2493.5000      0.0000    685.1593      1.7931    100.7076
  2493.7500      0.0000    681.4001      1.7372     97.0182
  2494.0000      0.0000    678.3511      1.6881     91.7328
  2494.2500      0.0000    675.9075      1.6543     86.0513
  2494.5000      0.0000    674.2123      1.6315     82.0405
  2494.7500      0.0000    673.4705      1.6088     80.6140
  2495.0000      0.0000    672.9235      1.5785     80.9807
  2495.2500      0.0000    671.3488      1.5419     81.8460
  2495.5000      0.0000    668.9463      1.5085     82.5487
  2495.7500      0.0000    667.4881      1.4893     83.1279
  2496.0000      0.0000    667.9091      1.4891     83.8536
  2496.2500      0.0000    668.6057      1.5060     84.8663
  2496.5000      0.0000    666.9739      1.5357     85.9007
  2496.7500      0.0000    662.2420      1.5717     86.1543
  2497.0000      0.0000    656.1102      1.6059     84.6634
  2497.2500      0.0000    650.8802      1.6352     81.3236
  2497.5000      0.0000    647.6522      1.6647     77.6456
  2497.7500      0.0000    646.2010      1.7009     76.1176
  2498.0000      0.0000    645.8269      1.7415     78.4128
  2498.2500      0.0000    645.9922      1.7756     84.1204
  2498.5000      0.0000    646.4177      1.7942     91.1110
  2498.7500      0.0000    646.9213      1.7983     97.0655
  2499.0000      0.0000    647.3167      1.7973    100.9311
  2499.2500      0.0000    647.4567      1.8028    103.3246
  2499.5000      0.0000    647.3226      1.8260    105.6010
  2499.7500      0.0000    647.0944      1.8783    108.1947
  2500.0000      0.0000    647.3642      1.9704    109.8793
  2500.2500      0.0000    649.5826      2.1069    109.1604
  2500.5000      0.0000    656.2481      2.2786    106.3024
  2500.7500      0.0000    670.1617      2.4577    103.2621
  2501.0000      0.0000    692.8934      2.6111    101.5388
  2501.2500      0.0000    722.9473      2.7265    100.6525
  2501.5000      0.0000    754.3516      2.8216     98.9004
  2501.7500      0.0000    777.8670      2.9201     95.3898
  2502.0000      0.0000    786.4469      3.0246     91.2028
  2502.2500      0.0000    780.5479      3.1132     88.5663
  2502.5000      0.0000    766.6399      3.1586     88.9174
  2502.7500      0.0000    750.8713      3.1489     91.7160
  2503.0000      0.0000    736.1008      3.0923     94.8822
  2503.2500      0.0000    723.9737      3.0009     96.2787
  2503.5000      0.0000    716.3112      2.8712     94.9832
  2503.7500      0.0000    713.1953      2.6899     91.4293
  2504.0000      0.0000    711.5714      2.4635     86.6949
  2504.2500      0.0000    707.4665      2.2301     81.9346
  2504.5000      0.0000    699.3417      2.0366     78.1322
  2504.7500      0.0000    688.6890      1.9087     75.8361
  2505.0000      0.0000    677.9001      1.8384     75.1825
  2505.2500      0.0000    668.3605      1.7945     76.1983
  2505.5000      0.0000    660.4659      1.7420     78.6312
  2505.7500      0.0000    654.4673      1.6633     81.5783
  2506.0000      0.0000    650.6950      1.5643     83.9990
  2506.2500      0.0000    649.2715      1.4667     85.6449
  2506.5000      0.0000    649.9993      1.3921     87.1682
  2506.7500      0.0000    652.3026      1.3489     89.5304
  2507.0000      0.0000    655.0903      1.3287     93.3986
  2507.2500      0.0000    657.2404      1.3142     98.5530
  2507.5000      0.0000    658.7202      1.2922    103.6830
  2507.7500      0.0000    660.6729      1.2618    107.1780
  2508.0000      0.0000    663.6352      1.2315    108.2035
  2508.2500      0.0000    666.1135      1.2138    106.9118
  2508.5000      0.0000    665.8351      1.2178    104.0763
  2508.7500      0.0000    662.3238      1.2432    100.9237
  2509.0000      0.0000    657.5816      1.2784     98.6631
  2509.2500      0.0000    654.4338      1.3072     97.5781
  2509.5000      0.0000    654.7921      1.3197     97.0270
  2509.7500      0.0000    659.0424      1.3180     96.5579
  2510.0000      0.0000    665.8325      1.3130     96.5342
  2510.2500      0.0000    672.1396      1.3144     97.5034
  2510.5000      0.0000    674.6212      1.3260     99.2855
  2510.7500      0.0000    672.0206      1.3461    100.9126
  2511.0000      0.0000    666.4371      1.3725    101.5498
  2511.2500      0.0000    661.9496      1.4038    101.5522
  2511.5000      0.0000    661.7142      1.4366    102.4661
  2511.7500      0.0000    665.8795      1.4643    105.6011
  2512.0000      0.0000    671.6672      1.4813    110.3705
  2512.2500      0.0000    675.4564      1.4890    114.2788
  2512.5000      0.0000    675.3491      1.4947    114.9938
  2512.7500      0.0000    672.0609      1.5053    112.4158
