~Version Information
VERS.                      2.0: CWLS Log ASCII Standard - VERSION 2.0
WRAP.                       NO: One line per depth step
~Well Information Block
STRT.FT               185.2500: 
STOP.FT              2109.7500: 
STEP.FT                 0.2500: 
NULL.                -999.2500: 
COMP.    Petrogulf Corporation: COMPANY
WELL.             State 16-44V: WELL
FLD.          Purgatorie River: FIELD
LOC.       320' FSL & 320' FEL: LOCATION
PROV.                 Colorado: PROVINCE
CNTY.               Las Animas: COUNTRY
SRVC.                Patterson: SERVICE COMPANY
DATE. Thu Aug 11 12:58:04 2005: LOG DATE
UWI.               071-08263  : UNIQUE WELL ID
~Curve Information Block
DEPT.FT            0 000 00 00: Depth
GR.GAPI                       : Gamma Ray
CCL.                          : Casing Collar Locator
TT3.usec                      : CBL 3' Travel Time
AMP3.mV                       : CBL 3' Amplitude
~Parameter Information Block
~A  Depth        GR         CCL         TT3         AMP3    
# ...
   687.7500    109.1632      0.0000    409.5188      5.3302
   688.0000    108.7026      0.0000    408.9529      5.2121
   688.2500    106.2013      0.0000    409.8219      5.1556
   688.5000    102.7388      0.0000    408.2667      5.1525
   688.7500     99.6308      0.0000    406.8626      5.1555
   689.0000     97.5226      0.0000    408.8011      5.1069
   689.2500     96.3718      0.0000    412.1067      4.9864
   689.5000     96.2537      0.0000    412.7275      4.8392
   689.7500     97.7128      0.0000    408.5132      4.7430
   690.0000    100.9693      0.0000    399.4227      4.7251
   690.2500    105.0063      0.0000    388.1134      4.7292
   690.5000    107.8385      0.0000    378.8770      4.6751
   690.7500    107.8740      0.0000    373.7481      4.5370
   691.0000    105.1025      0.0000    371.6086      4.3523
   691.2500    101.0121      0.0000    370.7406      4.1718
   691.5000     97.3371      0.0000    370.3044      4.0197
   691.7500     94.8246      0.0000    370.0229      3.8940
   692.0000     93.0286      0.0000    369.7342      3.8128
   692.2500     91.1424      0.0000    369.3279      3.8249
   692.5000     89.0481      0.0000    368.7674      3.9443
   692.7500     87.5863      0.0000    368.1407      4.1300
   693.0000     87.7601      0.0000    367.6873      4.3375
   693.2500     89.7304      0.0000    367.5402      4.5220
   693.5000     92.7837      0.0000    367.4769      4.6114
   693.7500     96.2785      0.0000    367.2054      4.5556
   694.0000    100.3764      0.0000    366.7717      4.4023
   694.2500    105.5924      0.0000    366.4359      4.2587
   694.5000    111.5708      0.0000    366.2941      4.1853
   694.7500    116.6485      0.0000    366.1812      4.1566
   695.0000    119.1269      0.0000    365.8615      4.1037
   695.2500    118.8932      0.0000    365.2485      3.9758
   695.5000    117.1995      0.0000    364.4516      3.7753
   695.7500    114.9361      0.0000    363.6634      3.5473
   696.0000    111.9274      0.0000    363.0603      3.3428
   696.2500    108.0885      0.0000    362.7201      3.2066
   696.5000    104.3691      0.0000    362.5556      3.1831
   696.7500    102.0019      0.0000    362.4215      3.2780
   697.0000    101.2511      0.0000    362.2689      3.4334
   697.2500    101.2777      0.0000    362.1253      3.5911
   697.5000    101.0587      0.0000    362.0185      3.7474
   697.7500    100.2103      0.0000    361.9768      3.9202
   698.0000     99.0268      0.0000    362.0185      4.1022
   698.2500     97.8542      0.0000    362.1072      4.2636
   698.5000     96.5743      0.0000    362.1784      4.3804
   698.7500     94.9676      0.0000    362.2030      4.4568
   699.0000     93.5578      0.0000    362.1797      4.5269
   699.2500     93.6201      0.0000    362.0880      4.6133
   699.5000     96.0134      0.0000    361.9051      4.6947
   699.7500    100.0047      0.0000    361.6558      4.7417
   700.0000    103.4025      0.0000    361.4066      4.7638
   700.2500    104.1435      0.0000    361.2202      4.7967
   700.5000    101.8498      0.0000    361.1167      4.8598
   700.7500     97.6148      0.0000    361.0704      4.9453
   701.0000     92.5178      0.0000    361.0578      5.0353
   701.2500     87.0675      0.0000    361.0826      5.1118
   701.5000     81.9560      0.0000    361.1467      5.1547
   701.7500     78.3081      0.0000    361.2464      5.1467
   702.0000     76.8706      0.0000    361.3946      5.0865
   702.2500     77.4654      0.0000    361.6026      4.9983
   702.5000     79.1868      0.0000    361.8380      4.9226
   702.7500     80.7853      0.0000    362.0401      4.8783
   703.0000     81.2031      0.0000    362.1779      4.8379
   703.2500     80.1386      0.0000    362.2636      4.7626
   703.5000     77.8988      0.0000    362.3223      4.6511
   703.7500     74.7539      0.0000    362.3557      4.5243
   704.0000     70.9683      0.0000    362.3373      4.3891
   704.2500     67.3689      0.0000    362.2711      4.2546
   704.5000     65.1983      0.0000    362.2936      4.1476
   704.7500     65.2098      0.0000    362.8286      4.0875
   705.0000     67.2707      0.0000    364.8698      4.0688
   705.2500     70.7803      0.0000    370.0595      4.0800
   705.5000     74.9415      0.0000    379.4431      4.1267
   705.7500     78.5471      0.0000    392.2597      4.2295
   706.0000     80.1215      0.0000    410.0893      4.3918
   706.2500     78.8565      0.0000    442.8165      4.5841
   706.5000     75.4896      0.0000    498.6113      4.7667
   706.7500     72.1291      0.0000    560.4070      4.9153
   707.0000     70.9380      0.0000    590.8170      5.0313
   707.2500     72.6842      0.0000    577.5212      5.1335
   707.5000     76.4118      0.0000    556.5744      5.2453
   707.7500     80.4325      0.0000    569.8785      5.3980
   708.0000     83.4227      0.0000    613.1893      5.6020
   708.2500     84.6258      0.0000    650.1592      5.8167
   708.5000     83.5721      0.0000    662.8714      5.9994
   708.7500     80.1930      0.0000    662.5691      6.1466
   709.0000     75.2262      0.0000    663.2305      6.2626
   709.2500     70.0238      0.0000    666.5619      6.3472
   709.5000     65.6784      0.0000    669.0122      6.4197
   709.7500     62.4217      0.0000    669.5945      6.5189
   710.0000     59.8344      0.0000    669.3201      6.6778
   710.2500     57.3961      0.0000    668.9228      6.9115
   710.5000     54.8118      0.0000    668.7462      7.2277
   710.7500     52.1114      0.0000    669.0784      7.6186
   711.0000     49.6494      0.0000    669.8320      8.0356
   711.2500     47.9195      0.0000    670.5645      8.3891
   711.5000     47.0671      0.0000    671.1008      8.5827
   711.7500     46.5642      0.0000    671.5829      8.5721
   712.0000     45.7049      0.0000    671.9957      8.4144
   712.2500     44.5230      0.0000    672.2838      8.2386
   712.5000     43.8732      0.0000    672.5930      8.1543
   712.7500     44.4497      0.0000    672.9652      8.1979
   713.0000     45.9887      0.0000    673.2815      8.3466
   713.2500     47.6652      0.0000    673.8506      8.5581
   713.5000     49.1129      0.0000    676.1682      8.8226
   713.7500     50.6833      0.0000    681.9651      9.1588
   714.0000     52.6852      0.0000    687.7119      9.5056
   714.2500     54.7512      0.0000    681.6556      9.6663
   714.5000     56.1422      0.0000    657.0236      9.4221
   714.7500     56.3996      0.0000    625.0894      8.7874
   715.0000     55.4817      0.0000    599.9277      8.1053
   715.2500     53.5386      0.0000    582.3217      7.6355
   715.5000     50.8611      0.0000    572.8983      7.3308
   715.7500     47.9522      0.0000    577.0481      7.1830
   716.0000     45.4269      0.0000    591.1298      7.2472
   716.2500     43.7062      0.0000    605.5775      7.4559
   716.5000     42.7152     -2.0000    613.3153      7.7460
   716.7500     41.9307     -2.0000    609.0799      8.1430
   717.0000     40.8063      0.0000    592.8405      8.6619
   717.2500     39.2122      0.0000    572.0211      9.3616
   717.5000     37.6493      0.0000    553.4257     10.4950
   717.7500     37.0721      0.0000    542.2280     12.1220
   718.0000     38.2328      0.0000    548.3121     13.5329
   718.2500     41.0491      0.0000    572.5747     13.9314
   718.5000     44.6922      0.0000    595.5676     13.5269
   718.7500     48.2811      0.0000    601.3901     13.0412
   719.0000     51.4484      0.0000    602.0721     12.7536
   719.2500     54.4133      0.0000    611.2296     12.5930
   719.5000     57.6109      0.0000    609.2021     12.5490
   719.7500     61.1984      0.0000    568.9215     12.6745
   720.0000     65.1400      0.0000    499.0962     12.9061
   720.2500     69.8316      0.0000    434.8781     13.0339
   720.5000     76.0620      0.0000    397.6511     12.8789
   720.7500     83.9469      0.0000    382.9633     12.4896
   721.0000     92.2947      0.0000    378.3890     12.0985
