~Version Information
VERS.                      2.0: CWLS Log ASCII Standard - VERSION 2.0
WRAP.                       NO: One line per depth step
~Well Information Block
STRT.FT                15.0000: 
STOP.FT              2565.5000: 
STEP.FT                 0.2500: 
NULL.                -999.2500: 
COMP.          Pioneer Natural Resources: COMPANY
WELL.           Costello 44-24: WELL
FLD.           Purgatoire River: FIELD
LOC.           327' FSL & 378' FEL: LOCATION
PROV.                 Colorado: PROVINCE
CNTY.               Las Animas: COUNTRY
SRVC.                Patterson: SERVICE COMPANY
DATE.          Mon Jul 25 10:15:19 2005: LOG DATE
UWI.           05 071 08413 00: UNIQUE WELL ID
~Curve Information Block
DEPT.FT            0 000 00 00: Depth
GR.GAPI                       : Gamma Ray
CCL.                          : Casing Collar Locator
TT3.usec                      : CBL 3' Travel Time
AMP3.mV                       : CBL 3' Amplitude
~Parameter Information Block
~A  Depth        GR         CCL         TT3         AMP3    
# ...
  1690.0000    129.2142      0.0000    618.8185      5.4687
  1690.2500    136.0724      0.0000    628.9399      5.4791
  1690.5000    143.2803      0.0000    625.6905      5.4762
  1690.7500    149.9352      0.0000    612.8967      5.4594
  1691.0000    154.0964      0.0000    602.1305      5.4326
  1691.2500    153.6809      0.0000    604.8167      5.4059
  1691.5000    147.8187      0.0000    622.5790      5.3876
  1691.7500    137.8129      0.0000    646.6328      5.3761
  1692.0000    126.9590      0.0000    666.6310      5.3637
  1692.2500    119.2540      0.0000    678.4214      5.3489
  1692.5000    117.7902      0.0000    683.9424      5.3415
  1692.7500    123.4792      0.0000    686.6214      5.3506
  1693.0000    134.3581      0.0000    688.2032      5.3698
  1693.2500    146.1022      0.0000    688.7271      5.3786
  1693.5000    154.1724      0.0000    687.8873      5.3616
  1693.7500    156.5266      0.0000    685.6581      5.3238
  1694.0000    154.7162      0.0000    681.8578      5.2836
  1694.2500    152.3637      0.0000    676.0717      5.2541
  1694.5000    152.3877      0.0000    668.8273      5.2372
  1694.7500    155.1200      0.0000    662.8536      5.2249
  1695.0000    158.5058      0.0000    662.5359      5.1931
  1695.2500    160.0261      0.0000    670.7180      5.1062
  1695.5000    158.6368      0.0000    684.9955      4.9543
  1695.7500    155.0537      0.0000    698.0045      4.7822
  1696.0000    150.5912      0.0000    702.9611      4.6584
  1696.2500    146.2417      0.0000    699.1240      4.6171
  1696.5000    142.8379      1.7921    691.8186      4.6415
  1696.7500    141.5269      0.0000    687.7796      4.6923
  1697.0000    143.3264      0.0000    690.0034      4.7462
  1697.2500    147.8683      0.0000    695.7578      4.8165
  1697.5000    153.0962      0.0000    699.4566      4.9345
  1697.7500    156.9421      0.0000    697.7639      5.0983
  1698.0000    159.1380      0.0000    691.7050      5.2521
  1698.2500    160.8412      0.0000    684.4746      5.3412
  1698.5000    162.8347      0.0000    678.6479      5.3716
  1698.7500    164.6850      0.0000    675.5833      5.3919
  1699.0000    165.2820      0.0000    675.9473      5.4350
  1699.2500    163.4978      0.0000    679.4725      5.4977
  1699.5000    158.4361      0.0000    684.3684      5.5620
  1699.7500    149.8698      0.0000    687.6538      5.6155
  1700.0000    139.0464      0.0000    686.2458      5.6522
  1700.2500    128.7624      0.0000    677.4935      5.6681
  1700.5000    121.7929      0.0000    659.0138      5.6627
  1700.7500    118.9363      0.0000    629.5205      5.6452
  1701.0000    118.9585      0.0000    591.5125      5.6307
  1701.2500    120.3575      0.0000    553.1171      5.6260
  1701.5000    122.4237      0.0000    525.0613      5.6242
  1701.7500    124.4902      0.0000    513.7640      5.6103
  1702.0000    125.2413      0.0000    517.5325      5.5699
  1702.2500    123.5802      0.0000    530.4760      5.4966
  1702.5000    119.9062      0.0000    549.4465      5.3963
  1702.7500    116.0845      0.0000    575.0621      5.2865
  1703.0000    114.3079      0.0000    606.2334      5.1854
  1703.2500    116.0250      0.0000    637.1731      5.1026
  1703.5000    121.3942      0.0000    661.3955      5.0374
  1703.7500    129.1233      0.0000    676.5530      4.9854
  1704.0000    136.7530      0.0000    684.3541      4.9431
  1704.2500    141.7210      0.0000    687.6215      4.9095
  1704.5000    142.9158      0.0000    688.5975      4.8866
  1704.7500    141.2846      0.0000    688.6996      4.8832
  1705.0000    138.5554      0.0000    688.2419      4.9122
  1705.2500    135.5011      0.0000    686.3115      4.9820
  1705.5000    131.8478      0.0000    681.5165      5.0862
  1705.7500    127.5777      0.0000    672.8782      5.2035
  1706.0000    123.7088      0.0000    660.2480      5.3106
  1706.2500    121.7816      0.0000    645.1193      5.3981
  1706.5000    122.9363      0.0000    631.7599      5.4685
  1706.7500    127.3822      0.0000    625.8595      5.5164
  1707.0000    134.1925      0.0000    630.0619      5.5211
  1707.2500    141.4306      0.0000    641.4147      5.4676
  1707.5000    147.0325      0.0000    654.4316      5.3707
  1707.7500    150.0679      0.0000    665.7391      5.2681
  1708.0000    150.9491      0.0000    674.9181      5.1924
  1708.2500    150.2252      0.0000    682.2854      5.1547
  1708.5000    147.6192      0.0000    687.4422      5.1461
  1708.7500    142.6161      0.0000    689.7098      5.1449
  1709.0000    135.6514      0.0000    689.1196      5.1237
  1709.2500    128.2713      0.0000    686.8669      5.0587
  1709.5000    122.0792      0.0000    684.9244      4.9401
  1709.7500    117.7005      0.0000    684.7891      4.7785
  1710.0000    114.8708      0.0000    686.2590      4.6012
  1710.2500    113.2351      0.0000    687.5046      4.4385
  1710.5000    112.5859      0.0000    686.5417      4.3110
  1710.7500    112.6157      0.0000    682.7632      4.2244
  1711.0000    113.2209      0.0000    677.2997      4.1714
  1711.2500    114.9855      0.0000    672.1366      4.1356
  1711.5000    118.7311      0.0000    668.8557      4.0990
  1711.7500    124.5587      0.0000    667.9369      4.0514
  1712.0000    131.5117      0.0000    668.8052      3.9929
  1712.2500    138.0268      0.0000    670.2775      3.9298
  1712.5000    142.6940      0.0000    671.3267      3.8698
  1712.7500    144.9921      0.0000    671.9527      3.8209
  1713.0000    145.5197      0.0000    673.1746      3.7901
  1713.2500    145.3815      0.0000    675.7521      3.7792
  1713.5000    145.2466      0.0000    679.1428      3.7837
  1713.7500    145.0025      0.0000    682.1101      3.7955
  1714.0000    144.1506      0.0000    684.0309      3.8081
  1714.2500    142.4286      0.0000    685.2047      3.8210
  1714.5000    140.1318      0.0000    686.2539      3.8382
  1714.7500    138.0254      0.0000    687.6002      3.8625
  1715.0000    137.0590      0.0000    689.1469      3.8948
  1715.2500    137.8943      0.0000    690.2383      3.9442
  1715.5000    140.2713      0.0000    690.3094      4.0356
  1715.7500    142.7764      0.0000    689.6816      4.1953
  1716.0000    143.4306      0.0000    689.3157      4.4223
  1716.2500    140.7934      0.0000    689.5554      4.6787
  1716.5000    135.0269      0.0000    689.2282      4.9130
  1716.7500    128.2021      0.0000    686.1118      5.0940
  1717.0000    123.1396      0.0000    678.1740      5.2243
  1717.2500    121.5287      0.0000    664.7958      5.3252
  1717.5000    123.1410      0.0000    647.9900      5.4140
  1717.7500    126.3858      0.0000    632.9739      5.4953
  1718.0000    129.0844      0.0000    625.9765      5.5665
  1718.2500    129.3295      0.0000    629.4730      5.6276
  1718.5000    126.6829      0.0000    639.8323      5.6806
  1718.7500    122.6928      0.0000    650.6968      5.7206
  1719.0000    119.8000      0.0000    658.0664      5.7367
  1719.2500    119.7057      0.0000    661.7078      5.7242
  1719.5000    122.8522      0.0000    663.1889      5.6903
  1719.7500    128.8506      0.0000    663.9003      5.6432
  1720.0000    136.6381      0.0000    664.4919      5.5857
  1720.2500    144.2971      0.0000    665.0780      5.5203
  1720.5000    149.5533      0.0000    665.4363      5.4537
  1720.7500    151.1391      0.0000    664.9443      5.3936
  1721.0000    149.7512      0.0000    662.3855      5.3459
  1721.2500    147.4417      0.0000    656.4805      5.3136
  1721.5000    145.9288      0.0000    647.4150      5.2928
  1721.7500    145.4588      0.0000    637.7112      5.2717
  1722.0000    145.1455      0.0000    630.7721      5.2382
  1722.2500    144.1825      0.0000    628.7764      5.1928
  1722.5000    142.7260      0.0000    632.4286      5.1502
  1722.7500    141.7448      0.0000    641.3654      5.1253
  1723.0000    142.1816      0.0000    653.4829      5.1160
  1723.2500    144.1654      0.0000    665.1984      5.1071
