~Version Information
VERS.                      2.0: CWLS Log ASCII Standard - VERSION 2.0
WRAP.                       NO: One line per depth step
~Well Information Block
STRT.FT                -4.2500: 
STOP.FT              2218.5000: 
STEP.FT                 0.2500: 
NULL.                -999.2500: 
COMP.          Pioneer Natural Resources: COMPANY
WELL.             Warrior 32-1: WELL
FLD.           Purgatorie River: FIELD
LOC.           2624' FNL & 2392' FEL--: LOCATION
PROV.                       CO: PROVINCE
CNTY.               Las Animas: COUNTRY
SRVC.                         : SERVICE COMPANY
DATE.          Tue Oct 12 10:54:12 2004: LOG DATE
UWI.           005 071 08176 : UNIQUE WELL ID
~Curve Information Block
DEPT.FT            0 000 00 00: Depth
GR.GAPI                       : Gamma Ray
CCL.                          : Casing Collar Locator
TT3.usec                      : CBL 3' Travel Time
AMP3.mV                       : CBL 3' Amplitude
~Parameter Information Block
~A  Depth        GR         CCL         TT3         AMP3    
# ...
  1168.2500    149.1303      0.0000    724.9534      3.8888
  1168.5000    152.3741      0.0000    721.0621      3.8663
  1168.7500    149.8423      0.0000    720.5665      3.8414
  1169.0000    142.4333      0.0000    721.9406      3.7961
  1169.2500    131.6397      0.0000    723.9671      3.7018
  1169.5000    119.0173      0.0000    728.4266      3.5315
  1169.7500    107.0897      0.0000    738.6353      3.3072
  1170.0000     98.8899      0.0000    755.2032      3.1086
  1170.2500     95.9833      0.0000    774.3287      3.0055
  1170.5000     97.6875     -2.0000    790.1638      2.9976
  1170.7500    102.5397     -2.0000    798.6783      3.0350
  1171.0000    109.9408      0.0000    800.4471      3.0759
  1171.2500    119.8463      0.0000    800.3425      3.1149
  1171.5000    130.9772      0.0000    803.5744      3.1821
  1171.7500    139.8047      0.0000    811.5042      3.3205
  1172.0000    141.8833      0.0000    821.0860      3.5356
  1172.2500    134.8301      0.0000    827.5719      3.7594
  1172.5000    120.3565      0.0000    828.1622      3.8965
  1172.7500    103.2688      0.0000    823.9278      3.9113
  1173.0000     88.3031      0.0000    817.5720      3.8491
  1173.2500     77.8331      0.0000    809.6332      3.7867
  1173.5000     71.9936      0.0000    799.0034      3.7869
  1173.7500     70.0092      0.0000    786.6774      3.8862
  1174.0000     71.3288      0.0000    776.0326      4.0907
  1174.2500     76.1280      0.0000    769.1874      4.3741
  1174.5000     84.8363      0.0000    765.1409      4.6901
  1174.7500     96.9447      0.0000    761.8170      4.9952
  1175.0000    110.4673      0.0000    758.4365      5.2621
  1175.2500    122.8299      0.0000    755.5151      5.4739
  1175.5000    132.1615      0.0000    753.5538      5.6180
  1175.7500    137.6904      0.0000    752.4354      5.6921
  1176.0000    139.4365      0.0000    751.7260      5.7083
  1176.2500    138.2529      0.0000    751.0432      5.6754
  1176.5000    136.2360      0.0000    750.0422      5.5796
  1176.7500    136.1655      0.0000    748.3597      5.3978
  1177.0000    139.6014      0.0000    745.9360      5.1366
  1177.2500    145.4225      0.0000    743.4764      4.8482
  1177.5000    150.6516      0.0000    742.2362      4.5968
  1177.7500    152.9141      0.0000    742.9541      4.4167
  1178.0000    152.1799      0.0000    745.1025      4.3031
  1178.2500    150.0979      0.0000    747.4032      4.2352
  1178.5000    147.8577      0.0000    748.8328      4.1975
  1178.7500    145.1170      0.0000    748.9009      4.1817
  1179.0000    141.0750      0.0000    747.1667      4.1772
  1179.2500    136.0135      0.0000    743.1053      4.1681
  1179.5000    131.1936      0.0000    737.1104      4.1479
  1179.7500    127.3978      0.0000    731.7542      4.1302
  1180.0000    124.3766      0.0000    731.0127      4.1391
  1180.2500    121.8978      0.0000    737.0549      4.1894
  1180.5000    120.5939      0.0000    748.0143      4.2753
  1180.7500    121.3822      0.0000    759.6186      4.3740
  1181.0000    124.4912      0.0000    768.5933      4.4546
  1181.2500    129.2673      0.0000    774.1205      4.4954
  1181.5000    134.4674      0.0000    776.8945      4.4998
  1181.7500    138.6223      0.0000    777.4075      4.4884
  1182.0000    140.8480      0.0000    774.4710      4.4681
  1182.2500    141.7361      0.0000    765.0475      4.4182
  1182.5000    143.1413      0.0000    746.7310      4.3145
  1182.7500    146.6034      0.0000    721.7254      4.1640
  1183.0000    151.8674      0.0000    698.4822      4.0039
  1183.2500    156.9588      0.0000    688.2185      3.8734
  1183.5000    159.5872      0.0000    697.7593      3.7900
  1183.7500    158.4449      0.0000    723.9192      3.7488
  1184.0000    153.6588      0.0000    754.7972      3.7286
  1184.2500    146.5018      0.0000    778.0941      3.7033
  1184.5000    138.4974      0.0000    788.9925      3.6611
  1184.7500    130.5557      0.0000    790.2769      3.6171
  1185.0000    123.3083      0.0000    786.7197      3.5963
  1185.2500    118.1659      0.0000    781.0959      3.6054
  1185.5000    117.1198      0.0000    774.5731      3.6292
  1185.7500    121.0695      0.0000    768.4320      3.6533
  1186.0000    128.7302      0.0000    764.0776      3.6790
  1186.2500    137.3586      0.0000    761.6884      3.7169
  1186.5000    144.2690      0.0000    759.8111      3.7749
  1186.7500    147.8741      0.0000    756.6407      3.8514
  1187.0000    148.0520      0.0000    751.6282      3.9316
  1187.2500    145.9204      0.0000    746.0866      3.9919
  1187.5000    142.9449      0.0000    742.8005      4.0131
  1187.7500    139.9039      0.0000    744.6627      3.9950
  1188.0000    136.6980      0.0000    752.8191      3.9564
  1188.2500    133.0671      0.0000    766.1944      3.9224
  1188.5000    129.1626      0.0000    782.9655      3.9099
  1188.7500    125.2751      0.0000    801.3868      3.9233
  1189.0000    121.2566      0.0000    818.3263      3.9596
  1189.2500    116.4986      0.0000    828.4695      4.0123
  1189.5000    110.6664      0.0000    827.5925      4.0734
  1189.7500    104.5045      0.0000    817.1496      4.1370
  1190.0000     99.7579      0.0000    803.9120      4.2052
  1190.2500     97.9032      0.0000    794.3600      4.2893
  1190.5000     98.8312      0.0000    790.3635      4.4017
  1190.7500    101.1425      0.0000    790.0125      4.5428
  1191.0000    103.7786      0.0000    790.8055      4.6947
  1191.2500    106.9919      0.0000    791.3620      4.8311
  1191.5000    111.5977      0.0000    791.2687      4.9340
  1191.7500    117.5023      0.0000    790.4374      4.9985
  1192.0000    123.2565      0.0000    788.6440      5.0215
  1192.2500    127.4464      0.0000    785.2875      4.9913
  1192.5000    130.4636      0.0000    779.5319      4.8946
  1192.7500    134.2551      0.0000    771.0260      4.7372
  1193.0000    140.0802      0.0000    760.7053      4.5551
  1193.2500    147.0067      0.0000    750.6319      4.3938
  1193.5000    152.6181      0.0000    742.6483      4.2731
  1193.7500    154.4966      0.0000    737.2543      4.1791
  1194.0000    151.1689      0.0000    734.1729      4.0940
  1194.2500    142.6598      0.0000    733.8452      4.0219
  1194.5000    130.7751      0.0000    737.5402      3.9825
  1194.7500    118.6849      0.0000    745.7083      3.9877
  1195.0000    109.5545      0.0000    756.7496      4.0302
  1195.2500    104.8090      0.0000    767.7767      4.0925
  1195.5000    103.4807      0.0000    776.4619      4.1634
  1195.7500    103.5651      0.0000    782.0245      4.2433
  1196.0000    104.0047      0.0000    784.5600      4.3365
  1196.2500    105.2026      0.0000    784.1127      4.4454
  1196.5000    107.9782      0.0000    781.2134      4.5650
  1196.7500    112.3626      0.0000    777.8991      4.6805
  1197.0000    117.2817      0.0000    776.7972      4.7717
  1197.2500    121.3576      0.0000    778.8607      4.8239
  1197.5000    124.1542      0.0000    782.7482      4.8334
  1197.7500    126.6246      0.0000    786.4259      4.8056
  1198.0000    130.3648      0.0000    788.6709      4.7509
  1198.2500    136.5025      0.0000    789.0411      4.6841
  1198.5000    145.1527      0.0000    787.1473      4.6170
  1198.7500    155.3177      0.0000    782.5260      4.5489
  1199.0000    164.8705      0.0000    775.2734      4.4730
  1199.2500    171.2187      0.0000    766.5052      4.3950
  1199.5000    172.9053      0.0000    757.8602      4.3307
  1199.7500    170.6182      0.0000    750.6511      4.2810
  1200.0000    166.2582      0.0000    745.6547      4.2240
  1200.2500    161.2021      0.0000    743.2138      4.1419
  1200.5000    155.9272      0.0000    742.8598      4.0443
  1200.7500    151.2666      0.0000    743.1259      3.9582
  1201.0000    149.1340      0.0000    742.5522      3.9030
  1201.2500    151.0276      0.0000    741.0378      3.8833
  1201.5000    155.8495      0.0000    739.8094      3.8985
