~Version Information
VERS.                      2.0: CWLS Log ASCII Standard - VERSION 2.0
WRAP.                       NO: One line per depth step
~Well Information Block
STRT.FT               450.0000: 
STOP.FT              1739.2000: 
STEP.FT                 0.1000: 
NULL.                -999.2500: 
COMP.          Pioneer Natural Resources: COMPANY
WELL.            Harlee L 34-9: WELL
FLD.           Purgatoire River: FIELD
LOC.           600' FSL & 2125' FEL: LOCATION
PROV.                 Colorado: PROVINCE
CNTY.               Las Animas: COUNTRY
SRVC.                Patterson: SERVICE COMPANY
DATE.          Wed Jan 26 13:57:24 2005: LOG DATE
UWI.           05 071 08009 00: UNIQUE WELL ID
~Curve Information Block
DEPT.FT            0 000 00 00: Depth
DCAL.in                       : CDL Caliper
RHOB.g/cc                     : CDL Bulk Density
RHOC.g/cc                     : CDL Density Correction
DPOR.pu                       : CDL Density Porosity
NPOR.pu                       : Neutron Porosity
GR.GAPI                       : Gamma Ray
~Parameter Information Block
~A  Depth       DCAL        RHOB        RHOC        DPOR        NPOR         GR     
# ...
  1035.6000      8.8485      2.5067      0.1016      8.6860     15.1820     75.2994
  1035.7000      8.8485      2.5073      0.0861      8.6472     14.4892     74.6243
  1035.8000      8.8539      2.5040      0.1062      8.8494     14.7503     75.1433
  1035.9000      8.8539      2.4914      0.0980      9.6110     15.5544     73.6935
  1036.0000      8.8600      2.4679      0.1001     11.0387     16.0979     70.6869
  1036.1000      8.8600      2.4496      0.0411     12.1435     16.2639     69.2767
  1036.2000      8.8600      2.4577      0.0902     11.6549     16.3635     69.6720
  1036.3000      8.8611      2.4864      0.0625      9.9143     16.0394     70.6919
  1036.4000      8.8611      2.5164      0.0943      8.0956     15.2015     71.9468
  1036.5000      8.8614      2.5347      0.0963      6.9896     14.2951     70.9626
  1036.6000      8.8614      2.5374      0.0973      6.8216     13.7331     65.2191
  1036.7000      8.8614      2.5273      0.0958      7.4393     13.7903     57.5809
  1036.8000      8.8625      2.5081      0.0798      8.5998     14.0477     54.0813
  1036.9000      8.8625      2.4913      0.0280      9.6190     14.2657     55.1088
  1037.0000      8.8630      2.4831      0.0626     10.1173     14.7816     58.1539
  1037.1000      8.8630      2.4779      0.0371     10.4309     15.2201     62.5115
  1037.2000      8.8630      2.4756      0.0744     10.5683     15.1276     65.4394
  1037.3000      8.8619      2.4772      0.0507     10.4735     14.7607     65.2951
  1037.4000      8.8619      2.4835      0.0274     10.0882     14.5013     64.7605
  1037.5000      8.8615      2.4936      0.0591      9.4814     14.7783     64.7011
  1037.6000      8.8615      2.4967      0.0963      9.2910     15.2311     63.4938
  1037.7000      8.8615      2.4930      0.0387      9.5144     14.8069     60.9066
  1037.8000      8.8625      2.4945      0.0735      9.4249     13.9412     58.4358
  1037.9000      8.8625      2.5007      0.0852      9.0478     14.0116     57.9611
  1038.0000      8.8626      2.5077      0.0174      8.6263     14.9885     60.0867
  1038.1000      8.8626      2.5120      0.0964      8.3611     15.7483     62.9112
  1038.2000      8.8626      2.5091      0.0512      8.5393     15.8469     65.2222
  1038.3000      8.8624      2.5036      0.0625      8.8702     15.4302     68.1125
  1038.4000      8.8624      2.4982      0.0516      9.2024     14.6489     71.4856
  1038.5000      8.8619      2.4879      0.0980      9.8249     14.1638     73.8524
  1038.6000      8.8619      2.4725      0.0671     10.7577     14.8996     74.1585
  1038.7000      8.8619      2.4617      0.0580     11.4139     16.5468     73.6519
  1038.8000      8.8613      2.4604      0.0633     11.4891     17.3549     74.8463
  1038.9000      8.8613      2.4612      0.0569     11.4451     16.7740     77.8991
  1039.0000      8.8605      2.4615      0.0811     11.4226     16.1286     78.2786
  1039.1000      8.8605      2.4735      0.0647     10.6993     16.3325     73.8168
  1039.2000      8.8605      2.4971      0.0856      9.2643     17.1241     68.9775
  1039.3000      8.8589      2.5087      0.0866      8.5611     17.6709     67.9215
  1039.4000      8.8589      2.4961      0.0940      9.3282     17.3792     69.0857
  1039.5000      8.8583      2.4742      0.0760     10.6533     16.5299     67.3743
  1039.6000      8.8583      2.4602      0.0700     11.5031     15.8358     63.9510
  1039.7000      8.8583      2.4646      0.0450     11.2385     15.8875     63.6412
  1039.8000      8.8591      2.4916      0.0529      9.5996     16.8293     65.2019
  1039.9000      8.8591      2.5228      0.1079      7.7115     17.9221     67.2300
  1040.0000      8.8610      2.5328      0.0945      7.1049     18.2736     72.1348
  1040.1000      8.8610      2.5264      0.0734      7.4884     17.7593     77.2304
  1040.2000      8.8610      2.5222      0.0863      7.7465     16.6263     76.7073
  1040.3000      8.8620      2.5227      0.0849      7.7132     15.3070     73.8278
  1040.4000      8.8620      2.5209      0.0982      7.8255     14.8702     74.2981
  1040.5000      8.8598      2.5158      0.0669      8.1345     16.0125     76.9957
  1040.6000      8.8598      2.5101      0.0770      8.4761     17.6327     80.8203
  1040.7000      8.8598      2.4983      0.0912      9.1956     18.2224     84.2450
  1040.8000      8.8576      2.4760      0.0773     10.5472     17.7965     81.7788
  1040.9000      8.8576      2.4543      0.0562     11.8609     17.2148     75.1949
  1041.0000      8.8573      2.4494      0.0651     12.1583     16.8063     73.7185
  1041.1000      8.8573      2.4646      0.0459     11.2340     16.0227     77.6445
  1041.2000      8.8573      2.4852      0.0929      9.9854     15.2246     78.9983
  1041.3000      8.8551      2.4945      0.0924      9.4235     15.5879     75.3753
  1041.4000      8.8551      2.4914      0.0799      9.6119     16.7416     71.1859
  1041.5000      8.8518      2.4814      0.1077     10.2157     17.2821     70.2399
  1041.6000      8.8518      2.4713      0.0639     10.8298     16.7963     70.1936
  1041.7000      8.8518      2.4690      0.0621     10.9708     16.0514     68.0832
  1041.8000      8.8535      2.4768      0.0651     10.4983     15.9465     66.9249
  1041.9000      8.8535      2.4900      0.0692      9.6988     16.1907     70.8604
  1042.0000      8.8571      2.4968      0.1125      9.2847     16.1496     74.8796
  1042.1000      8.8571      2.4872      0.1062      9.8663     16.0218     72.1149
  1042.2000      8.8571      2.4709      0.0675     10.8517     16.0215     67.8169
  1042.3000      8.8596      2.4688      0.0402     10.9804     16.0403     70.4695
  1042.4000      8.8596      2.4816      0.0840     10.2047     15.8230     75.5507
  1042.5000      8.8600      2.4988      0.0663      9.1627     15.4997     74.0222
  1042.6000      8.8600      2.5198      0.0990      7.8936     15.2007     69.0076
  1042.7000      8.8600      2.5402      0.1014      6.6553     14.9323     66.7289
  1042.8000      8.8589      2.5452      0.1400      6.3489     15.1624     67.1218
  1042.9000      8.8589      2.5300      0.0939      7.2728     15.5933     67.3846
  1043.0000      8.8583      2.5119      0.0745      8.3681     15.1539     65.9675
  1043.1000      8.8583      2.5034      0.1005      8.8836     14.3380     65.9987
  1043.2000      8.8583      2.5025      0.0787      8.9387     13.9353     70.6780
  1043.3000      8.8580      2.5112      0.0909      8.4129     13.6427     75.8092
  1043.4000      8.8580      2.5258      0.1167      7.5254     13.4133     74.0633
  1043.5000      8.8575      2.5309      0.1202      7.2162     13.3965     65.7403
  1043.6000      8.8575      2.5196      0.0843      7.9025     13.4111     57.4002
  1043.7000      8.8575      2.4991      0.0797      9.1470     13.2433     51.1843
  1043.8000      8.8564      2.4799      0.0261     10.3079     13.0035     46.7524
  1043.9000      8.8564      2.4721      0.0555     10.7827     13.1632     46.7734
  1044.0000      8.8531      2.4726      0.0417     10.7493     13.7583     51.6783
  1044.1000      8.8531      2.4769      0.0392     10.4890     14.3894     58.3119
  1044.2000      8.8531      2.4852      0.0684      9.9885     14.9578     63.8417
  1044.3000      8.8506      2.4903      0.0577      9.6771     15.3136     64.5102
  1044.4000      8.8506      2.4886      0.0460      9.7847     15.0697     61.7949
  1044.5000      8.8546      2.4900      0.0400      9.6964     14.2525     64.3572
  1044.6000      8.8546      2.5018      0.0545      8.9801     13.3557     75.0591
  1044.7000      8.8546      2.5104      0.1176      8.4602     12.8836     85.6852
  1044.8000      8.8586      2.4958      0.0841      9.3474     12.7958     88.2919
  1044.9000      8.8586      2.4668      0.0436     11.1014     12.4022     85.3850
  1045.0000      8.8593      2.4540      0.0316     11.8767     11.7213     83.3976
  1045.1000      8.8593      2.4665      0.0680     11.1240     11.6150     83.3766
