~Version Information
VERS.                      2.0: CWLS Log ASCII Standard - VERSION 2.0
WRAP.                       NO: One line per depth step
~Well Information Block
STRT.FT               704.0000: 
STOP.FT              2530.0000: 
STEP.FT                 0.2500: 
NULL.                -999.2500: 
COMP.          Pioneer Natural Resources: COMPANY
WELL.          Aztec Federal 41-15: WELL
FLD.           Purgatorie River: FIELD
LOC.           706' FNL & 1253' FEL: LOCATION
CNTY.               Las Animas: COUNTY
SRVC.          Superior Well Services: SERVICE COMPANY
DATE.          Tue Mar 18 09-04-19 2008: LOG DATE
UWI.           05-071-08342-00: UNIQUE WELL ID
STAT.                       CO: STATE
~Curve Information Block
DEPT.FT            0 000 00 00: Depth
DIR.Ohm-m                     : IEL Induction Resistivity
SN.Ohm-m                      : IEL Short Normal
SP.mV                         : IEL Spontaneous Potential
GR.GAPI                       : Gamma Ray
~Parameter Information Block
~A  Depth       DIR          SN          SP          GR     
# ...
  1206.5000     11.6520     15.7750    -37.2322    112.4702
  1206.7500     12.3894     16.5949    -37.0651    113.6982
  1207.0000     12.9721     18.0689    -36.8135    113.5657
  1207.2500     14.0123     19.4884    -36.6630    111.0784
  1207.5000     14.8282     22.7356    -36.5279    107.7179
  1207.7500     16.2389     25.7788    -36.5340    100.2683
  1208.0000     17.2961     31.5925    -36.7109     93.9419
  1208.2500     19.0369     36.1621    -36.9318     83.0102
  1208.5000     20.2930     43.7073    -37.3789     75.2799
  1208.7500     22.3233     48.8926    -37.7271     64.3422
  1209.0000     23.7813     56.1455    -38.2797     58.3793
  1209.2500     26.1181     60.0395    -38.6458     52.5762
  1209.5000     27.7429     63.4006    -39.1544     51.0484
  1209.7500     30.1630     63.6906    -39.4386     52.1772
  1210.0000     31.6719     61.6987    -39.7242     55.0438
  1210.2500     33.6104     59.4155    -39.7924     61.8588
  1210.5000     34.5923     55.6322    -39.7004     67.2701
  1210.7500     35.4526     53.2476    -39.5287     74.8814
  1211.0000     35.5538     50.0788    -39.1636     78.8289
  1211.2500     34.9746     48.2488    -38.8861     82.7269
  1211.5000     34.1572     45.9665    -38.4767     84.2563
  1211.7500     32.4813     44.7038    -38.2341     85.8079
  1212.0000     31.2053     42.7979    -37.9370     86.9151
  1212.2500     29.2705     41.2060    -37.7815     89.4314
  1212.5000     28.0531     38.0868    -37.5968     91.8402
  1212.7500     26.4005     35.6616    -37.5001     96.4982
  1213.0000     25.4137     32.0599    -37.3909    100.2328
  1213.2500     24.0778     29.9795    -37.3374    106.4019
  1213.5000     23.2708     27.5728    -37.2739    110.3002
  1213.7500     22.1810     26.4274    -37.2388    114.5011
  1214.0000     21.5343     25.1938    -37.1995    115.8046
  1214.2500     20.6683     24.5270    -37.1843    115.9412
  1214.5000     20.1424     23.5179    -37.1694    115.3625
  1214.7500     19.4014     22.7539    -37.1501    114.0541
  1215.0000     18.9335     21.4133    -37.0736    112.9481
  1215.2500     18.2865     20.4302    -36.9756    111.0726
  1215.5000     17.9105     19.0406    -36.7579    109.9646
  1215.7500     17.4620     18.3464    -36.5850    109.1804
  1216.0000     17.2511     17.9276    -36.3379    109.4528
  1216.2500     17.0673     18.1438    -36.2091    110.7743
  1216.5000     17.0242     19.1066    -36.0884    111.8155
  1216.7500     17.0543     19.9580    -36.0489    112.8227
  1217.0000     17.1213     21.0850    -36.0176    112.8344
  1217.2500     17.2600     21.5817    -35.9918    111.7320
  1217.5000     17.3547     21.9784    -35.9161    110.2659
  1217.7500     17.4508     22.0992    -35.8380    106.8150
  1218.0000     17.4561     22.1466    -35.6975    103.5065
  1218.2500     17.3470     22.0740    -35.6007     97.3072
  1218.5000     17.1979     21.7705    -35.4548     93.2003
  1218.7500     16.8881     21.4785    -35.3508     89.2873
  1219.0000     16.6475     21.0541    -35.1751     89.1191
  1219.2500     16.2727     20.8148    -35.0455     92.3916
  1219.5000     16.0298     20.4249    -34.8380     95.9364
  1219.7500     15.6865     20.0659    -34.6945    101.3292
  1220.0000     15.4657     19.3275    -34.4821    104.2795
  1220.2500     15.1233     18.7303    -34.3532    107.5946
  1220.5000     14.8752     17.7423    -34.1973    109.3747
  1220.7500     14.4664     17.0042    -34.1228    112.0005
  1221.0000     14.1738     15.6987    -34.0547    113.8197
  1221.2500     13.7168     14.7301    -34.0382    116.2465
  1221.5000     13.4076     13.3804    -34.0580    117.3112
  1221.7500     12.9528     12.7168    -34.0979    117.8004
  1222.0000     12.6690     12.2361    -34.1861    117.4984
  1222.2500     12.3014     12.2716    -34.2539    116.5154
  1222.5000     12.1122     12.7845    -34.3423    115.7541
  1222.7500     11.9345     13.3265    -34.3696    114.7753
  1223.0000     11.8922     14.1673    -34.3260    114.2906
  1223.2500     11.9394     14.6135    -34.2326    113.7360
  1223.5000     12.0372     15.0509    -34.0120    113.4875
  1223.7500     12.2668     15.2287    -33.8272    113.5738
  1224.0000     12.4637     15.4244    -33.5143    114.1459
  1224.2500     12.8019     15.5602    -33.2901    115.8442
  1224.5000     13.0410     15.8265    -32.9524    117.2768
  1224.7500     13.3929     16.0397    -32.7489    118.8195
  1225.0000     13.6100     16.3624    -32.5261    118.6449
  1225.2500     13.8964     16.5576    -32.4602    115.7913
  1225.5000     14.0602     16.8212    -32.5097    112.4705
  1225.7500     14.2746     16.9824    -32.6287    106.8444
  1226.0000     14.4059     17.1641    -32.8592    103.3870
  1226.2500     14.6047     17.2056    -32.9827     98.9743
  1226.5000     14.7491     17.1278    -33.0292     96.5848
  1226.7500     14.9960     17.0116    -32.9515     94.4630
  1227.0000     15.1815     16.8360    -32.7202     94.5703
  1227.2500     15.4776     16.7707    -32.5418     97.1736
  1227.5000     15.6728     16.7333    -32.3100     99.9074
  1227.7500     15.9390     16.6576    -32.1931    103.7807
  1228.0000     16.0944     16.3142    -32.0514    105.3552
  1228.2500     16.3053     15.9513    -31.9551    105.5095
  1228.5000     16.4410     15.4683    -31.7777    104.1985
  1228.7500     16.6424     15.3886    -31.6343    100.8450
  1229.0000     16.7683     15.8726    -31.3990     98.3101
  1229.2500     16.9269     16.6163    -31.2448     94.9675
  1229.5000     17.0070     18.1314    -31.0365     93.2660
  1229.7500     17.0933     19.1468    -30.9148     91.3131
  1230.0000     17.1348     20.2373    -30.7514     90.1517
  1230.2500     17.1838     20.5541    -30.6510     88.4699
  1230.5000     17.2117     20.4699    -30.5076     87.6687
  1230.7500     17.2500     20.1494    -30.4120     87.8389
  1231.0000     17.2736     19.4578    -30.2566     89.2252
  1231.2500     17.3043     18.9424    -30.1383     92.9611
  1231.5000     17.3195     18.1989    -29.9293     95.9978
  1231.7500     17.3283     17.7584    -29.7613    100.5104
  1232.0000     17.3195     17.2056    -29.4513    103.3446
  1232.2500     17.2738     16.9180    -29.2025    107.3552
  1232.5000     17.2160     16.6135    -28.7772    109.6157
  1232.7500     17.0817     16.4964    -28.4736    111.3829
  1233.0000     16.9603     16.4455    -28.0264    111.0161
  1233.2500     16.7407     16.4780    -27.7655    108.4130
  1233.5000     16.5834     16.5898    -27.4871    106.0286
  1233.7500     16.3679     16.6956    -27.3980    102.7626
  1234.0000     16.2621     16.8920    -27.4117    101.1344
  1234.2500     16.1970     17.0318    -27.5050     99.4206
  1234.5000     16.2312     17.2134    -27.7306     98.6217
  1234.7500     16.4129     17.3057    -27.9069     97.8050
  1235.0000     16.6228     17.4188    -28.1530     97.3840
  1235.2500     17.0604     17.5023    -28.2822     96.6484
  1235.5000     17.4171     17.7035    -28.4221     96.1317
  1235.7500     17.9963     17.9184    -28.4948     95.7783
  1236.0000     18.3706     18.3560    -28.5900     95.8941
  1236.2500     18.8449     18.6885    -28.6352     95.7892
  1236.5000     19.0767     19.1690    -28.6420     94.8074
  1236.7500     19.2883     19.4454    -28.5920     91.4395
  1237.0000     19.3510     19.7741    -28.4343     88.4045
  1237.2500     19.3662     19.9300    -28.2823     84.5429
  1237.5000     19.3502     20.0458    -28.0086     83.6302
  1237.7500     19.3301     20.0240    -27.8168     85.8968
  1238.0000     19.3383     19.8331    -27.5574     89.5758
  1238.2500     19.3995     19.6241    -27.4221     96.5408
  1238.5000     19.4716     19.2458    -27.2803    100.8656
  1238.7500     19.6048     18.9715    -27.2099    105.3798
  1239.0000     19.6863     18.5524    -27.0858    106.8285
  1239.2500     19.7400     18.2936    -26.9619    107.0251
  1239.5000     19.6925     17.9891    -26.7137    106.2372
  1239.7500     19.4492     17.8483    -26.5423    104.2761
