~Version Information
VERS.                      2.0: CWLS Log ASCII Standard - VERSION 2.0
WRAP.                       NO: One line per depth step
~Well Information Block
STRT.FT               -16.5000: 
STOP.FT              1244.7500: 
STEP.FT                 0.2500: 
NULL.                -999.2500: 
COMP.          Pioneer Natural Resources: COMPANY
WELL.          Bouncer41-27 Tr: WELL
FLD.           Purgatorie River: FIELD
LOC.           292' FNL & 222' FEL--------: LOCATION
PROV.                       CO: PROVINCE
CNTY.               Las Animas: COUNTRY
SRVC.                         : SERVICE COMPANY
DATE.          Fri Feb 11 15:34:51 2005: LOG DATE
UWI.                071-08291 : UNIQUE WELL ID
~Curve Information Block
DEPT.FT            0 000 00 00: Depth
CCL.                          : Casing Collar Locator
TT3.usec                      : CBL 3' Travel Time
AMP3.mV                       : CBL 3' Amplitude
GR.GAPI                       : Gamma Ray
~Parameter Information Block
~A  Depth       CCL         TT3         AMP3         GR     
# ...
   486.0000      0.0000    752.8058      4.7705     91.6594
   486.2500      0.0000    751.0989      4.7777     85.7709
   486.5000      0.0000    749.5263      4.7992     79.0252
   486.7500      0.0000    748.6478      4.8109     73.1390
   487.0000      0.0000    749.2251      4.7869     68.5592
   487.2500      0.0000    752.2629      4.7390     64.7869
   487.5000      0.0000    758.5256      4.7106     61.6629
   487.7500      0.0000    767.6615      4.7336     59.7773
   488.0000      0.0000    777.7849      4.7971     59.8596
   488.2500      0.0000    786.2266      4.8584     62.3699
   488.5000      0.0000    790.8588      4.8797     67.5598
   488.7500      0.0000    790.7565      4.8591     75.2199
   489.0000      0.0000    786.1528      4.8330     84.1702
   489.2500      0.0000    778.4635      4.8462     92.5508
   489.5000      0.0000    770.0932      4.9165     99.0068
   489.7500      0.0000    763.3105      5.0252    103.3998
   490.0000      0.0000    759.0326      5.1382    106.4927
   490.2500      0.0000    756.9401      5.2392    109.3755
   490.5000      0.0000    756.4172      5.3432    112.9455
   490.7500      0.0000    757.0035      5.4754    117.1576
   491.0000      0.0000    758.4196      5.6387    120.7709
   491.2500      0.0000    760.5907      5.8085    122.3834
   491.5000      0.0000    763.3607      5.9558    121.6999
   491.7500      0.0000    765.8900      6.0667    119.5487
   492.0000      0.0000    766.5426      6.1427    117.0658
   492.2500      0.0000    763.7952      6.1943    115.2212
   492.5000      0.0000    757.5521      6.2339    114.7802
   492.7500      0.0000    749.5641      6.2676    116.2353
   493.0000      0.0000    742.3399      6.2900    119.5446
   493.2500      0.0000    737.4867      6.2887    123.7820
   493.5000      0.0000    735.0362      6.2580    127.2932
   493.7500      0.0000    734.1180      6.2096    128.7451
   494.0000      0.0000    733.9528      6.1654    128.2207
   494.2500      0.0000    734.2432      6.1333    127.1052
   494.5000      0.0000    734.9244      6.0927    126.9680
   494.7500      0.0000    735.8174      6.0159    128.4975
   495.0000      0.0000    736.5834      5.9057    131.0440
   495.2500      0.0000    736.9326      5.8062    133.0359
   495.5000      0.0000    736.8004      5.7692    133.3050
   495.7500      0.0000    736.3314      5.8042    132.0468
   496.0000      0.0000    735.7365      5.8634    130.1481
   496.2500      0.0000    735.1566      5.8812    127.9084
   496.5000      0.0000    734.6243      5.8306    124.9458
   496.7500      0.0000    734.1142      5.7378    121.0490
   497.0000      0.0000    733.5991      5.6454    116.5939
   497.2500      0.0000    733.0717      5.5712    112.2391
   497.5000      0.0000    732.5557      5.5045    108.6646
   497.7500      0.0000    732.0983      5.4347    106.5180
   498.0000      0.0000    731.7454      5.3715    106.1043
   498.2500      0.0000    731.5781      5.3377    106.9510
   498.5000      0.0000    731.8254      5.3457    107.8636
   498.7500      0.0000    732.9572      5.3825    107.6239
   499.0000      0.0000    735.5941      5.4196    105.8943
   499.2500      0.0000    740.0297      5.4340    103.7085
   499.5000      0.0000    745.3920      5.4237    103.1129
   499.7500      0.0000    749.2100      5.4101    106.1628
   500.0000      0.0000    748.4166      5.4250    113.8658
   500.2500      0.0000    741.5523      5.4802    125.4190
   500.5000      0.0000    730.1905      5.5450    138.0975
   500.7500      0.0000    717.9767      5.5609    148.3261
   501.0000      0.0000    708.1527      5.4836    153.5511
   501.2500      0.0000    702.1231      5.3123    153.1901
   501.5000      0.0000    700.2051      5.0844    147.8457
   501.7500      0.0000    702.9778      4.8456    138.3028
   502.0000      0.0000    711.0676      4.6218    125.6508
   502.2500      0.0000    723.5346      4.4178    111.5338
   502.5000      0.0000    737.1379      4.2344     97.4449
   502.7500      0.0000    747.8607      4.0756     84.0102
   503.0000      0.0000    753.2093      3.9373     71.3583
   503.2500      0.0000    752.8857      3.8009     59.8960
   503.5000      0.0000    747.6725      3.6479     50.3265
   503.7500      0.0000    738.7956      3.4739     43.1412
   504.0000      0.0000    728.9414      3.2859     38.5451
   504.2500      0.0000    722.6517      3.0930     36.6645
   504.5000      0.0000    723.8849      2.9085     37.2354
   504.7500      0.0000    732.6533      2.7527     39.1249
   505.0000      0.0000    744.6557      2.6450     40.8627
   505.2500      0.0000    754.7238      2.5918     41.8772
   505.5000      0.0000    760.5925      2.5897     42.7818
   505.7500      0.0000    763.3124      2.6408     44.3895
   506.0000      0.0000    764.6929      2.7628     46.9639
   506.2500      0.0000    765.3591      2.9832     50.4722
   506.5000      0.0000    765.3960      3.3232     55.0595
   506.7500      0.0000    765.6948      3.7829     61.2589
   507.0000      0.0000    767.4158      4.3361     70.2221
   507.2500      0.0000    770.4228      4.9363     83.5304
   507.5000      0.0000    773.3847      5.5307    101.6694
   507.7500      0.0000    775.2250      6.0758    122.2121
   508.0000      0.0000    775.3841      6.5479    140.3836
   508.2500      0.0000    773.0932      6.9481    152.5092
   508.5000      0.0000    767.9301      7.2992    158.7872
   508.7500      0.0000    761.2167      7.6239    161.9773
   509.0000      0.0000    755.6744      7.9130    163.7106
   509.2500      0.0000    753.0247      8.1055    163.1331
   509.5000      0.0000    752.0882      8.1073    158.9469
   509.7500      0.0000    749.5364      7.8440    151.5372
   510.0000      0.0000    742.7701      7.3268    142.8352
   510.2500      0.0000    732.2827      6.6874    134.9338
   510.5000      0.0000    721.3795      6.1257    129.1323
   510.7500      0.0000    713.8086      5.7737    125.7742
   511.0000      0.0000    711.5385      5.5985    124.5977
   511.2500      0.0000    714.1702      5.4668    125.2259
   511.5000      0.0000    719.5069      5.2915    127.3611
   511.7500      0.0000    724.4288      5.0846    130.5938
   512.0000      0.0000    726.4352      4.8960    134.1039
   512.2500      0.0000    725.9456      4.7490    136.6966
   512.5000      0.0000    726.8788      4.6317    137.6380
   512.7500      0.0000    733.2149      4.5219    137.7036
   513.0000      0.0000    744.3411      4.4164    138.6833
   513.2500      0.0000    754.5437      4.3371    141.4341
   513.5000      0.0000    756.9896      4.3016    145.1281
   513.7500      0.0000    747.7506      4.2988    148.6631
   514.0000      0.0000    727.6785      4.3092    151.7320
   514.2500      0.0000    703.2086      4.3326    154.0517
   514.5000      0.0000    685.0318      4.3702    154.7768
   514.7500      0.0000    682.3510      4.4028    153.6169
   515.0000      0.0000    696.2733      4.4116    151.8998
   515.2500      0.0000    719.4618      4.3994    151.5573
   515.5000      0.0000    742.0689      4.3730    152.9727
   515.7500      0.0000    757.3175      4.3226    154.1576
   516.0000      0.0000    763.1481      4.2372    152.3593
   516.2500      0.0000    761.4125      4.1338    146.6482
   516.5000      0.0000    756.0121      4.0528    138.8466
   516.7500      0.0000    750.5357      4.0221    131.8780
   517.0000      0.0000    746.7366      4.0302    127.6077
   517.2500      0.0000    744.6352      4.0332    126.1826
   517.5000      0.0000    743.4218      3.9856    126.6778
   517.7500      0.0000    742.0492      3.8710    128.0681
   518.0000      0.0000    739.3801      3.7127    129.9547
   518.2500      0.0000    734.4489      3.5596    132.5298
   518.5000      0.0000    727.1480      3.4565    135.8739
   518.7500      0.0000    718.7064      3.4166    139.4315
   519.0000      0.0000    711.0994      3.4192    142.2203
   519.2500      0.0000    705.7545      3.4312    143.4449
