~Version Information
VERS.                      2.0: CWLS Log ASCII Standard - VERSION 2.0
WRAP.                       NO: One line per depth step
~Well Information Block
STRT.FT               664.0000: 
STOP.FT              1615.5000: 
STEP.FT                 0.2500: 
NULL.                -999.2500: 
COMP.          Petrogulf Corporation: COMPANY
WELL.          Great Plains 22-21R: WELL
FLD.           Purgatorie River: FIELD
LOC.           73' FNL & 1992' FWL: LOCATION
PROV.                 Colorado: PROVINCE
CNTY.               Las Animas: COUNTRY
SRVC.                Patterson: SERVICE COMPANY
DATE.          Thu Sep 08 08:05:26 2005: LOG DATE
UWI.                          : UNIQUE WELL ID
~Curve Information Block
DEPT.FT            0 000 00 00: Depth
SP.mV                         : DIL Spontaneous Potential
RILD.Ohm-m                    : DIL Deep Resistivity
RILM.Ohm-m                    : DIL Medium Resistivity
RLL3.Ohm-m                    : DIL Shallow Resistivity
GR.GAPI                       : Gamma Ray
~Parameter Information Block
~A  Depth        SP         RILD        RILM        RLL3         GR     
# ...
   720.0000    128.6415     35.0963     56.5144     92.7659     64.2624
   720.2500    127.9138     35.1803     58.5939     89.1031     64.6858
   720.5000    127.2330     35.8387     56.0314     84.2226     57.4348
   720.7500    126.7034     36.0685     57.3540     84.6007     52.4050
   721.0000    126.6758     36.9650     55.2572     82.9968     61.3659
   721.2500    127.0003     35.7095     55.8566     84.0266     66.1717
   721.5000    127.3839     37.4801     53.3652     81.2127     62.2563
   721.7500    128.0101     38.0524     56.0938     82.5984     62.3705
   722.0000    128.6427     38.3174     58.6308     81.8015     67.2727
   722.2500    129.3285     38.9400     60.3673     78.8470     74.0510
   722.5000    129.8817     38.4149     64.8970     74.9717     65.7101
   722.7500    130.6316     37.0261     70.0865     79.7530     66.3536
   723.0000    131.4570     37.9940     71.5904     94.8972     65.7747
   723.2500    132.4245     36.8662     76.1316    111.4983     61.4279
   723.5000    133.5102     36.6239     70.9503    115.0177     67.0618
   723.7500    134.8474     35.4692     70.0787    106.4152     62.8179
   724.0000    135.9234     34.5510     68.0231     89.5126     66.1119
   724.2500    136.9662     32.1391     64.8990     76.6257     67.3744
   724.5000    138.1706     31.1214     56.8021     64.8197     71.7457
   724.7500    139.4186     28.8555     52.7181     56.2974     81.1762
   725.0000    140.5648     26.1117     47.7118     50.8343     85.3373
   725.2500    141.7713     23.6557     41.0976     46.8839     86.5337
   725.5000    142.8213     21.8393     35.0361     44.7490    102.1414
   725.7500    143.6894     20.0467     28.5935     43.8604     96.8363
   726.0000    144.7014     18.1067     23.3681     38.7799    110.2293
   726.2500    145.6212     16.8097     19.7363     23.8805    127.5785
   726.5000    146.3653     15.9371     16.9471     15.7290    144.3902
   726.7500    146.9817     14.7444     15.0471     12.6012    143.9809
   727.0000    147.2948     13.7144     13.8767     11.9683    144.6295
   727.2500    147.5489     12.9462     13.1968     10.0707    142.7317
   727.5000    147.7269     12.1613     12.2209     11.3788    149.4282
   727.7500    147.8695     11.5499     11.5070     12.8715    144.2554
   728.0000    147.9602     10.9764     10.8911     12.9884    140.5581
   728.2500    148.0309     10.5312     10.2311     12.7829    153.8597
   728.5000    148.0741     10.1482      9.6797     14.0552    151.7329
   728.7500    148.1599     10.0305      9.2137     10.9424    160.6788
   729.0000    148.4504      9.8573      8.9526     10.1458    166.3581
   729.2500    148.7347      9.7807      8.8572      8.0413    171.5388
   729.5000    148.7241      9.6158      8.9374      9.0096    168.2148
   729.7500    148.5527      9.5467      9.2275      9.4265    154.4094
   730.0000    148.1306      9.4641      9.4564     11.0347    149.3645
   730.2500    147.6223      9.4916      9.7084     13.7821    142.0614
   730.5000    147.1273      9.4039      9.6998     14.9015    148.1043
   730.7500    146.6453      9.3705      9.6721     14.0050    146.4458
   731.0000    146.1268      9.4486      9.5858     12.0856    148.4970
   731.2500    145.5499      9.5499      9.5420     11.4555    154.8176
   731.5000    145.0916      9.7157      9.5164     11.9985    151.3640
   731.7500    144.6321      9.9445      9.5855     11.5468    150.6672
   732.0000    144.1073     10.0686      9.8768     10.7601    156.3296
   732.2500    143.5766     10.1827     10.1359     10.7317    155.7112
   732.5000    142.8995     10.2577     10.3431     12.2205    147.6407
   732.7500    142.2487     10.3651     10.4879     11.7319    137.4549
   733.0000    141.7595     10.4234     10.7242     11.3407    140.7134
   733.2500    141.4776     10.2411     10.7886     10.8720    146.9432
   733.5000    141.3275     10.2487     10.9913      9.9638    151.3676
   733.7500    141.1242     10.0998     11.1455     11.1703    148.2464
   734.0000    141.0249      9.9897     11.3457     14.0101    141.1790
   734.2500    140.8525      9.9113     11.2362     15.8799    124.3466
   734.5000    140.5088      9.6908     11.2147     15.7023    128.5383
   734.7500    140.1582      9.6059     10.8279     14.2285    135.5536
   735.0000    139.6132      9.4987     10.4574     12.5523    149.2782
   735.2500    139.0511      9.5057      9.9881     12.7278    148.6617
   735.5000    138.5165      9.5291      9.5582     10.6355    159.4330
   735.7500    138.1345      9.4348      9.2132      9.3290    165.0974
   736.0000    137.7266      9.5327      9.0051      8.9760    170.3446
   736.2500    137.3307      9.5578      8.8887      8.6973    158.8562
   736.5000    137.0461      9.4958      8.9474      8.5547    163.9914
   736.7500    136.8595      9.3610      9.0694      9.3935    178.8296
   737.0000    136.7888      9.3414      9.1365      9.9621    170.5935
   737.2500    136.8495      9.1978      9.2813     10.7313    160.7233
   737.5000    137.0018      9.0310      9.3628     11.6458    149.9904
   737.7500    137.2819      9.0308      9.3376     13.1172    149.3192
   738.0000    137.6895      9.0172      9.3320     12.8399    147.7546
   738.2500    138.2033      8.9200      9.4153     12.7337    150.7316
   738.5000    138.7372      8.9021      9.4655     11.9433    154.6307
   738.7500    139.2742      8.9420      9.5986     12.2818    160.0580
   739.0000    139.9248      9.0574      9.5798     12.5560    169.8777
   739.2500    140.5618      9.1039      9.6412     11.7556    172.9860
   739.5000    141.2115      9.2705      9.5108     11.6183    151.6169
   739.7500    141.7839      9.4612      9.4635     10.8105    163.2090
   740.0000    142.3810      9.4765      9.4031      9.9470    168.5767
   740.2500    142.9753      9.5609      9.3911     10.3342    162.0218
   740.5000    143.6001      9.6174      9.5483     11.4152    162.4118
   740.7500    144.1072      9.8604      9.7047     12.3308    167.1656
   741.0000    144.5476     10.0395      9.8858     12.7969    163.0027
   741.2500    145.0930     10.1709      9.9841     13.0856    162.5040
   741.5000    145.5725     10.0997     10.1987     13.1539    154.2165
   741.7500    145.7621     10.1656     10.4792     12.3358    149.1200
   742.0000    145.9733     10.2492     10.5094     12.2172    156.0963
   742.2500    146.4229     10.4190     10.7785     13.2286    158.6434
   742.5000    146.9145     10.6456     10.9878     13.3507    144.3223
   742.7500    147.5120     10.9551     11.1799     13.8005    138.9781
   743.0000    148.0664     11.1126     11.4821     14.1830    143.0109
   743.2500    148.3911     11.1273     11.6937     14.0550    137.3653
   743.5000    148.6119     11.3216     11.8947     15.2798    149.0234
   743.7500    148.7783     11.6516     12.0887     16.5935    147.3858
   744.0000    148.7431     12.0090     12.1627     18.8856    142.3362
   744.2500    148.5884     12.4266     12.1722     18.3450    143.7728
   744.5000    148.3643     12.8398     12.3487     14.8083    148.8225
   744.7500    148.1285     13.2333     12.5585     12.1711    146.7747
   745.0000    147.8593     13.6393     13.1973     11.1319    156.5786
   745.2500    147.5663     14.2345     14.1524     12.3682    157.8829
   745.5000    147.3624     14.6327     15.3820     15.4162    136.1294
   745.7500    147.1362     15.1266     16.8235     18.3396    102.2490
   746.0000    147.0467     15.2913     18.2640     22.4564     88.5193
   746.2500    147.1341     15.2059     19.5067     37.5458     58.9350
   746.5000    147.4077     14.8796     20.9252     65.6081     52.0758
   746.7500    147.8146     14.5597     22.1676    109.1348     44.9736
   747.0000    148.3100     13.9802     21.8184    145.9481     43.4791
   747.2500    148.7423     13.8016     21.1049    157.2898     45.7846
   747.5000    149.2514     13.5304     19.0641    123.1680     64.1851
   747.7500    149.7910     13.3891     16.1236     67.6391     79.2648
