~Version Information
VERS.                      2.0: CWLS Log ASCII Standard - VERSION 2.0
WRAP.                       NO: One line per depth step
~Well Information Block
STRT.FT               483.0000: 
STOP.FT              1702.5000: 
STEP.FT                 0.2500: 
NULL.                -999.2500: 
COMP.          Pioneer Natural Resources: COMPANY
WELL.            Mad Dog 42-31: WELL
FLD.           Purgatorie River: FIELD
LOC.           2064' FNL & 479' FEL: LOCATION
PROV.                 Colorado: PROVINCE
CNTY.               Las Animas: COUNTRY
SRVC.                         : SERVICE COMPANY
DATE.          Sun Oct 10 04:26:24 2004: LOG DATE
UWI.           05 071 08195 00: UNIQUE WELL ID
~Curve Information Block
DEPT.FT            0 000 00 00: Depth
LTEN.lb                       : Surface Line Tension
SN.Ohm-m                      : IEL Short Normal
SP.mV                         : IEL Spontaneous Potential
DIR.Ohm-m                     : IEL Induction Resistivity
GR.GAPI                       : Gamma Ray
~Parameter Information Block
~A  Depth       LTEN         SN          SP         DIR          GR     
# ...
  1519.0000    817.5455     34.9763     18.6260     34.3236     89.0989
  1519.2500    817.5253     33.9736     18.5610     33.5144     86.2275
  1519.5000    817.5023     32.9320     18.3253     32.6704     83.3775
  1519.7500    817.0258     31.9034     18.0212     31.8798     83.1211
  1520.0000    816.0178     30.9310     17.7660     31.1466     85.2118
  1520.2500    814.6440     30.0345     17.6595     30.3665     87.5487
  1520.5000    812.9897     29.2118     17.7442     29.4262     90.7085
  1520.7500    811.1250     28.4540     17.9978     28.3280     91.8176
  1521.0000    809.3759     27.7553     18.3493     27.1964     91.7729
  1521.2500    808.2515     27.1127     18.7099     26.1833     90.9935
  1521.5000    808.0584     26.5243     19.0202     25.3875     89.5969
  1521.7500    808.5945     25.9924     19.2795     24.8442     88.9526
  1522.0000    809.1429     25.5266     19.5467     24.5519     88.8967
  1522.2500    808.8622     25.1414     19.9229     24.4862     89.4315
  1522.5000    807.3983     24.8444     20.5057     24.5943     90.2946
  1522.7500    805.2080     24.6272     21.3480     24.7850     90.3225
  1523.0000    803.2952     24.4645     22.4284     24.9452     89.4715
  1523.2500    802.6627     24.3237     23.6438     24.9781     88.9916
  1523.5000    803.8504     24.1792     24.8273     24.8379     89.6835
  1523.7500    806.6682     24.0228     25.7932     24.5329     91.1726
  1524.0000    810.2520     23.8642     26.3775     24.1103     93.9567
  1524.2500    813.5887     23.7234     26.4825     23.6473     95.4333
  1524.5000    816.1687     23.6177     26.0962     23.2447     96.2136
  1524.7500    818.0964     23.5505     25.2995     23.0035     95.6500
  1525.0000    819.5605     23.5103     24.2472     22.9873     93.5947
  1525.2500    820.2728     23.4804     23.1365     23.1845     91.8120
  1525.5000    819.5397     23.4528     22.1612     23.4985     88.9860
  1525.7500    817.0021     23.4309     21.4671     23.7768     87.2163
  1526.0000    813.3413     23.4216     21.1251     23.8811     85.3697
  1526.2500    810.0817     23.4233     21.1172     23.7742     85.0291
  1526.5000    808.4778     23.4267     21.3558     23.5589     85.6537
  1526.7500    808.6348     23.4239     21.7156     23.4242     86.2676
  1527.0000    809.7850     23.4187     22.0748     23.5333     86.6258
  1527.2500    811.1068     23.4252     22.3453     23.9229     86.2753
  1527.5000    812.0516     23.4584     22.4894     24.4699     84.8698
  1527.7500    812.3080     23.5231     22.5121     24.9491     83.7177
  1528.0000    812.0232     23.6093     22.4449     25.1808     83.0176
  1528.2500    811.9888     23.6961     22.3242     25.1513     83.8233
  1528.5000    813.1360     23.7598     22.1678     24.9804     86.3461
  1528.7500    815.5795     23.7854     21.9761     24.7836     87.8352
  1529.0000    818.1862     23.7717     21.7249     24.5787     88.2914
  1529.2500    819.1961     23.7292     21.3842     24.3079     87.3046
  1529.5000    817.5022     23.6733     20.9322     23.9340     84.7574
  1529.7500    813.6487     23.6182     20.3679     23.5219     82.9602
  1530.0000    809.6443     23.5751     19.7271     23.2212     80.6793
  1530.2500    807.4673     23.5511     19.0871     23.1657     79.4451
  1530.5000    807.5299     23.5455     18.5551     23.3765     77.6947
  1530.7500    808.6879     23.5482     18.2476     23.7300     76.4299
  1531.0000    809.6418     23.5432     18.2586     24.0223     74.7008
  1531.2500    810.0364     23.5199     18.6303     24.1084     74.1664
  1531.5000    810.2977     23.4808     19.3349     24.0048     74.7587
  1531.7500    810.8154     23.4384     20.2748     23.8593     75.7984
  1532.0000    811.5273     23.4023     21.2992     23.8254     77.5554
  1532.2500    812.1179     23.3682     22.2443     23.9669     78.7239
  1532.5000    812.3383     23.3201     22.9628     24.2365     80.6376
  1532.7500    812.1498     23.2430     23.3638     24.5072     81.9049
  1533.0000    811.7103     23.1358     23.4214     24.6237     82.8860
  1533.2500    811.2838     23.0122     23.1787     24.4563     82.3364
  1533.5000    811.1953     22.8914     22.7318     23.9608     79.7055
  1533.7500    811.8331     22.7897     22.2109     23.2250     77.5386
  1534.0000    813.4744     22.7166     21.7595     22.4477     75.3142
  1534.2500    815.9767     22.6747     21.5027     21.8467     74.8118
  1534.5000    818.7308     22.6567     21.5311     21.5672     74.6641
  1534.7500    821.0165     22.6427     21.8797     21.6510     74.2777
  1535.0000    822.4722     22.6058     22.5205     22.0539     72.8487
  1535.2500    823.2673     22.5284     23.3779     22.6726     71.6079
  1535.5000    823.6725     22.4160     24.3550     23.3621     70.1733
  1535.7500    823.6259     22.2964     25.3687     23.9522     69.8888
  1536.0000    823.1483     22.2027     26.3812     24.2858     70.5038
  1536.2500    822.8407     22.1538     27.4027     24.2759     71.2342
  1536.5000    823.1914     22.1466     28.4726     23.9469     71.9102
  1536.7500    823.5590     22.1616     29.6184     23.4252     71.7400
  1537.0000    822.5981     22.1757     30.8114     22.8774     70.6648
  1537.2500    819.8511     22.1731     31.9408     22.4363     69.7520
  1537.5000    816.5380     22.1536     32.8192     22.1515     68.5809
  1537.7500    814.5450     22.1353     33.2260     21.9926     68.0068
  1538.0000    814.7607     22.1495     32.9727     21.8992     67.4874
  1538.2500    816.6537     22.2274     31.9661     21.8461     67.4932
  1538.5000    819.2598     22.3866     30.2532     21.8712     68.3126
  1538.7500    821.9277     22.6283     28.0266     22.0429     69.4182
  1539.0000    823.9993     22.9446     25.5911     22.3957     71.5533
  1539.2500    824.6729     23.3264     23.2876     22.8815     73.0090
  1539.5000    823.8491     23.7624     21.4210     23.3686     75.1087
  1539.7500    822.6866     24.2326     20.1883     23.7002     76.6013
  1540.0000    822.5876     24.7092     19.6564     23.7856     79.0084
  1540.2500    823.6677     25.1684     19.7606     23.6388     80.3184
  1540.5000    824.6266     25.6007     20.3489     23.3361     80.6594
  1540.7500    824.0942     26.0059     21.2366     22.9456     79.3056
  1541.0000    821.8633     26.3737     22.2433     22.5028     75.0525
  1541.2500    818.8563     26.6651     23.2330     22.0254     71.3888
  1541.5000    816.1921     26.8115     24.1133     21.5219     66.1376
  1541.7500    814.4902     26.7328     24.8344     20.9905     63.4750
  1542.0000    813.8344     26.3642     25.3786     20.4261     61.0637
  1542.2500    814.0657     25.6765     25.7528     19.8401     60.2362
  1542.5000    815.1378     24.6854     25.9887     19.2619     59.5746
  1542.7500    817.2092     23.4518     26.1345     18.7155     59.5901
  1543.0000    820.1469     22.0758     26.2530     18.1997     61.3835
  1543.2500    823.0158     20.6799     26.4058     17.6939     64.5641
  1543.5000    824.6058     19.3805     26.6386     17.1840     72.9113
  1543.7500    824.6096     18.2555     26.9660     16.6795     80.4470
  1544.0000    823.7673     17.3271     27.3639     16.2028     92.9867
  1544.2500    822.6777     16.5679     27.7736     15.7630    101.0326
  1544.5000    821.0225     15.9289     28.1115     15.3421    111.1725
  1544.7500    818.2142     15.3721     28.2903     14.9129    116.0935
  1545.0000    814.4323     14.8940     28.2406     14.4793    119.8477
  1545.2500    810.8689     14.5306     27.9284     14.1022    119.5664
  1545.5000    809.1642     14.3461     27.3733     13.8816    115.6179
  1545.7500    810.3947     14.4086     26.6404     13.9079    112.0025
  1546.0000    814.1543     14.7621     25.8286     14.2215    107.7975
  1546.2500    818.6935     15.4063     25.0434     14.7985    106.4555
  1546.5000    822.1722     16.2941     24.3696     15.5641    105.5785
  1546.7500    823.6091     17.3515     23.8485     16.4353    104.5600
