~Version Information
VERS.                      2.0: CWLS Log ASCII Standard - VERSION 2.0
WRAP.                       NO: One line per depth step
~Well Information Block
STRT.FT                -9.5000: 
STOP.FT              2451.0000: 
STEP.FT                 0.2500: 
NULL.                -999.2500: 
COMP.          Petrogulf Corporation: COMPANY
WELL.           Vallejo 19-31V: WELL
FLD.           Purgatorie River: FIELD
LOC.           345' FNL & 2457' FEL: LOCATION
CNTY.               Las Animas: COUNTY
SRVC.                         : SERVICE COMPANY
DATE.          Mon Mar 08 08:24:37 2004: LOG DATE
UWI.           05-071-07919-00: UNIQUE WELL ID
STAT.                 Colorado: STATE
~Curve Information Block
DEPT.FT            0 000 00 00: Depth
MINMK.                        : Surface Line Tension
GR.GAPI                       : Gamma Ray
CCL.                          : Casing Collar Locator
TT3.usec                      : CBL 3' Travel Time
AMP3.mV                       : CBL 3' Amplitude
~Parameter Information Block
~A  Depth      MINMK         GR         CCL         TT3         AMP3    
# ...
  1614.5000      0.0000     59.1391      0.0000    667.7753      2.8818
  1614.7500      0.0000     58.3087      0.0000    668.7964      3.3306
  1615.0000      0.0000     57.7294      0.0000    670.7708      3.7899
  1615.2500      0.0000     57.2851      0.0000    672.1512      4.2076
  1615.5000      0.0000     56.9108      0.0000    672.7358      4.6247
  1615.7500      0.0000     56.6565      0.0000    671.9524      5.0158
  1616.0000      0.0000     56.5264      0.0000    668.8254      5.2816
  1616.2500      0.0000     56.3925      0.0000    663.9650      5.3971
  1616.5000      0.0000     56.1975      0.0000    660.3020      5.4674
  1616.7500      0.0000     56.1123      0.0000    658.9706      5.6203
  1617.0000      0.0000     56.2902      0.0000    657.3793      5.8705
  1617.2500      0.0000     56.5271      0.0000    654.6284      6.1203
  1617.5000      0.0000     56.3357      0.0000    653.3096      6.3029
  1617.7500      0.0000     55.3074      0.0000    655.0632      6.4753
  1618.0000      0.0000     53.3358      0.0000    657.8876      6.7294
  1618.2500      0.0000     50.7318      0.0000    656.4355      7.0524
  1618.5000      0.0000     48.3190      0.0000    645.5132      7.3531
  1618.7500      0.0000     47.1406      0.0000    623.4766      7.6154
  1619.0000      0.0000     47.6833      0.0000    596.8683      7.9135
  1619.2500      0.0000     49.3387      0.0000    585.6802      8.2677
  1619.5000      0.0000     50.7845      0.0000    602.9273      8.5797
  1619.7500      0.0000     51.0484      0.0000    626.7269      8.7408
  1620.0000      0.0000     50.2498      0.0000    619.0255      8.7707
  1620.2500      0.0000     49.3006      0.0000    567.0623      8.8015
  1620.5000      0.0000     48.9479      0.0000    502.3445      8.9290
  1620.7500      0.0000     49.2411      0.0000    472.1695      9.1236
  1621.0000      0.0000     50.0113      0.0000    478.0239      9.3054
  1621.2500      0.0000     51.8300      0.0000    472.8620      9.4966
  1621.5000      0.0000     56.1958      0.0000    432.1720      9.8359
  1621.7500      0.0000     64.3737      0.0000    382.0854     10.3996
  1622.0000      0.0000     75.9762      0.0000    351.1493     11.0886
  1622.2500      0.0000     88.8627      0.0000    339.7924     11.7563
  1622.5000      0.0000    100.4286      0.0000    336.9763     12.3921
  1622.7500      0.0000    109.0444      0.0000    336.3394     13.1040
  1623.0000      0.0000    114.5881      0.0000    336.2089     13.9279
  1623.2500      0.0000    117.9653      0.0000    336.1569     14.7511
  1623.5000      0.0000    120.2889      0.0000    335.3956     15.4595
  1623.7500      0.0000    122.6395      0.0000    332.4019     16.0984
  1624.0000      0.0000    126.3727      0.0000    326.1042     16.8596
  1624.2500      0.0000    132.8361      0.0000    318.0216     17.8615
  1624.5000      0.0000    142.1530      0.0000    311.5498     18.9227
  1624.7500      1.0000    152.4907      0.0000    308.3926     19.7178
  1625.0000      0.0000    161.0707      0.0000    307.5241     20.1880
  1625.2500      0.0000    166.0983      0.0000    307.4358     20.5686
  1625.5000      0.0000    167.5974      0.0000    307.9649     20.9705
  1625.7500      0.0000    166.7530      0.0000    309.9387     21.1532
  1626.0000      0.0000    165.1256      0.0000    312.9753     20.8729
  1626.2500      0.0000    164.1578      0.0000    314.4097     20.3105
  1626.5000      0.0000    164.2793      0.0000    312.4450     19.8908
  1626.7500      0.0000    164.2280      0.0000    308.8908     19.7988
  1627.0000      0.0000    161.9624      0.0000    306.2515     19.9426
  1627.2500      0.0000    156.6767      0.0000    304.8136     20.2542
  1627.5000      0.0000    149.7889      0.0000    303.8634     20.7401
  1627.7500      0.0000    143.8982      0.0000    303.2103     21.3460
  1628.0000      0.0000    140.9531      0.0000    302.9702     21.9283
  1628.2500      0.0000    141.3717      0.0000    302.9596     22.3684
  1628.5000      0.0000    144.3572      0.0000    302.8455     22.7496
  1628.7500      0.0000    148.4798      0.0000    302.8118     23.2596
  1629.0000      0.0000    152.1372      0.0000    303.7658     23.8222
  1629.2500      0.0000    154.2255      0.0000    306.6736     24.0921
  1629.5000      0.0000    154.7545      0.0000    310.9199     23.8932
  1629.7500      0.0000    154.7244      0.0000    313.5135     23.4677
  1630.0000      0.0000    155.4296      0.0000    312.3226     23.2109
  1630.2500      0.0000    157.9049      0.0000    309.1150     23.2374
  1630.5000      0.0000    162.4735      0.0000    306.6982     23.3459
  1630.7500      0.0000    168.1771      0.0000    305.7396     23.3170
  1631.0000      0.0000    172.6961      0.0000    305.6735     23.0194
  1631.2500      0.0000    173.4915      0.0000    305.9543     22.3799
  1631.5000      0.0000    169.5848      0.0000    306.3240     21.4951
  1631.7500      0.0000    162.3075      0.0000    307.4266     20.6055
  1632.0000      0.0000    154.3266      0.0000    310.8835     19.7959
  1632.2500      0.0000    148.1191      0.0000    317.6330     18.9270
  1632.5000      0.0000    144.9931      0.0000    325.9362     17.9415
  1632.7500      0.0000    144.6810      0.0000    332.4670     17.0085
  1633.0000      0.0000    145.6049      0.0000    335.7624     16.3056
  1633.2500      0.0000    146.0020      0.0000    336.8432     15.8444
  1633.5000      0.0000    145.0628      0.0000    336.9276     15.5514
  1633.7500      0.0000    143.0969      0.0000    335.9229     15.4141
  1634.0000      0.0000    140.8798      0.0000    332.5125     15.4880
  1634.2500      0.0000    138.9086      0.0000    325.6453     15.7857
  1634.5000      0.0000    137.1067      0.0000    316.6695     16.2820
  1634.7500      0.0000    135.2368      0.0000    308.9048     17.0024
  1635.0000      0.0000    133.4245      0.0000    304.4300     17.9665
  1635.2500      0.0000    131.8661      0.0000    302.7174     19.1344
  1635.5000      0.0000    130.1914      0.0000    302.0416     20.4819
  1635.7500      0.0000    127.7081      0.0000    300.6363     22.0242
  1636.0000      0.0000    124.2915      0.0000    296.7888     23.7502
  1636.2500      0.0000    120.5232      0.0000    289.5771     25.6260
  1636.5000      0.0000    117.0003      0.0000    280.6046     27.6687
  1636.7500      0.0000    114.0611      0.0000    273.2616     29.8803
  1637.0000      0.0000    112.3716      0.0000    269.2474     32.1488
  1637.2500      0.0000    113.4378      0.0000    267.6622     34.4012
  1637.5000      0.0000    119.0003      0.0000    267.0891     36.6978
  1637.7500      0.0000    129.4364      0.0000    266.8273     38.9654
  1638.0000      0.0000    142.6469      0.0000    266.7005     40.9254
  1638.2500      0.0000    155.0634      0.0000    266.6563     42.3427
  1638.5000      0.0000    164.1865      0.0000    266.6664     42.9315
  1638.7500      0.0000    169.8703      0.0000    267.0239     42.2057
  1639.0000      0.0000    173.0410      0.0000    268.8185     39.8383
  1639.2500      0.0000    174.0551      0.0000    274.2265     36.0231
  1639.5000      0.0000    172.9179      0.0000    285.5457     31.3913
  1639.7500      0.0000    170.3435      0.0000    302.1789     26.6411
  1640.0000      0.0000    167.6256      0.0000    319.1038     22.2459
  1640.2500      0.0000    165.4953      0.0000    330.8829     18.4966
  1640.5000      0.0000    163.4965      0.0000    336.4729     15.5961
  1640.7500      0.0000    160.4222      0.0000    338.3415     13.5976
  1641.0000      0.0000    155.1518      0.0000    338.8643     12.3883
  1641.2500      0.0000    147.0800      0.0000    339.0700     11.7591
  1641.5000      0.0000    136.1767      0.0000    339.2210     11.5059
  1641.7500      0.0000    123.1396      0.0000    339.3282     11.5233
  1642.0000      0.0000    109.5282      0.0000    339.2933     11.7453
  1642.2500      0.0000     97.4497      0.0000    338.5941     12.0265
