~Version Information
VERS.                      2.0: CWLS Log ASCII Standard - VERSION 2.0
WRAP.                       NO: One line per depth step
~Well Information Block
STRT.FT                -4.0000: 
STOP.FT              2464.0000: 
STEP.FT                 0.2500: 
NULL.                -999.2500: 
COMP.          Pioneer Natural Resources: COMPANY
WELL.            Rancher 12-35: WELL
FLD.           Purgatorie River: FIELD
LOC.           2131' FNL & 297' FWL--: LOCATION
PROV.                       CO: PROVINCE
CNTY.               Las Animas: COUNTRY
SRVC.                         : SERVICE COMPANY
DATE.          Wed Oct 20 13:17:53 2004: LOG DATE
UWI.                          : UNIQUE WELL ID
~Curve Information Block
DEPT.FT            0 000 00 00: Depth
GR.GAPI                       : Gamma Ray
CCL.                          : Casing Collar Locator
TT3.usec                      : CBL 3' Travel Time
AMP3.mV                       : CBL 3' Amplitude
~Parameter Information Block
~A  Depth        GR         CCL         TT3         AMP3    
# ...
   967.5000     71.1745      0.0000    826.8533      4.9550
   967.7500     77.8617      0.0000    815.7904      4.9487
   968.0000     84.0582      0.0000    805.3883      4.8984
   968.2500     89.1822      0.0000    798.4042      4.8066
   968.5000     93.7415      0.0000    796.8825      4.7039
   968.7500     98.6555      0.0000    799.5732      4.6294
   969.0000    104.7750      0.0000    803.1172      4.6024
   969.2500    112.1140      0.0000    806.0826      4.6110
   969.5000    119.5311      0.0000    810.4949      4.6260
   969.7500    125.5582      0.0000    817.6125      4.6270
   970.0000    129.3053      0.0000    823.2158      4.6145
   970.2500    130.4061      0.0000    820.3796      4.5976
   970.5000    128.6684      0.0000    807.6216      4.5790
   970.7500    124.1638      0.0000    791.4269      4.5556
   971.0000    117.4331      0.0000    779.4346      4.5264
   971.2500    109.3939      0.0000    773.3453      4.4985
   971.5000    101.1161      0.0000    769.6722      4.4872
   971.7500     93.9156      0.0000    765.3566      4.5054
   972.0000     89.7605      0.0000    760.8832      4.5478
   972.2500     90.8888      0.0000    758.7271      4.5916
   972.5000     97.9557      0.0000    760.1457      4.6232
   972.7500    108.4777      0.0000    763.6655      4.6574
   973.0000    118.0341      0.0000    766.6011      4.7197
   973.2500    123.5850      0.0000    767.8629      4.8173
   973.5000    125.4919      0.0000    768.6144      4.9402
   973.7500    126.2079      0.0000    769.9952      5.0834
   974.0000    127.2413      0.0000    771.1512      5.2490
   974.2500    127.7319      0.0000    770.2729      5.4297
   974.5000    126.1666      0.0000    767.0967      5.6053
   974.7500    122.9894      0.0000    763.5963      5.7582
   975.0000    120.7070      0.0000    762.3066      5.8828
   975.2500    121.3417      0.0000    764.3510      5.9856
   975.5000    124.6245      0.0000    768.7589      6.0790
   975.7500    129.0001      0.0000    773.1934      6.1631
   976.0000    133.5562      0.0000    775.5082      6.2113
   976.2500    138.3740      0.0000    775.1262      6.1850
   976.5000    143.5064      0.0000    773.2213      6.0653
   976.7500    148.0544      0.0000    771.7439      5.8671
   977.0000    150.1696      0.0000    772.1577      5.6315
   977.2500    148.0473      0.0000    774.6718      5.4107
   977.5000    141.0875      0.0000    778.2305      5.2511
   977.7500    130.0484      0.0000    781.0386      5.1717
   978.0000    116.4628      0.0000    781.2831      5.1526
   978.2500    102.5605      0.0000    777.9335      5.1525
   978.5000     91.5304      0.0000    771.3456      5.1472
   978.7500     86.6875      0.0000    763.1565      5.1462
   979.0000     89.4280      0.0000    755.5313      5.1681
   979.2500     97.9637      0.0000    750.2675      5.2116
   979.5000    108.5133      0.0000    748.4904      5.2638
   979.7500    117.9733      0.0000    751.0237      5.3300
   980.0000    125.5289      0.0000    758.1522      5.4293
   980.2500    131.9290      0.0000    767.9313      5.5530
   980.5000    137.6186      0.0000    775.5022      5.6451
   980.7500    141.8664      0.0000    776.8107      5.6386
   981.0000    143.6572      0.0000    774.1904      5.5058
   981.2500    142.9057      0.0000    776.1035      5.2735
   981.5000    140.3844      0.0000    789.3174      5.0011
   981.7500    136.8654      0.0000    811.5041      4.7514
   982.0000    132.8344      0.0000    831.9838      4.5658
   982.2500    128.6629      0.0000    839.9232      4.4551
   982.5000    124.4992      0.0000    832.8033      4.4088
   982.7500    120.2180      0.0000    817.8334      4.4134
   983.0000    115.7825      0.0000    805.5508      4.4581
   983.2500    111.4652      0.0000    802.3049      4.5277
   983.5000    107.5299      0.0000    808.1727      4.5996
   983.7500    103.8933      0.0000    819.5691      4.6521
   984.0000    100.2106      0.0000    832.0311      4.6721
   984.2500     96.2109      0.0000    841.2954      4.6545
   984.5000     91.9724      0.0000    843.7980      4.6000
   984.7500     88.0166      0.0000    838.0106      4.5102
   985.0000     85.0889      0.0000    825.9805      4.3878
   985.2500     83.4380      0.0000    812.5635      4.2449
   985.5000     82.2530      0.0000    802.1678      4.1032
   985.7500     80.2089      0.0000    796.3597      3.9783
   986.0000     76.6010      0.0000    794.5689      3.8721
   986.2500     71.7068      0.0000    796.1519      3.7892
   986.5000     66.2479      0.0000    801.1227      3.7451
   986.7500     60.9553      0.0000    808.5239      3.7455
   987.0000     56.5336      0.0000    814.2602      3.7692
   987.2500     53.4898      0.0000    812.3462      3.7859
   987.5000     51.7381      0.0000    801.1605      3.7853
   987.7500     50.6880      0.0000    788.4817      3.7786
   988.0000     49.9717      0.0000    786.8733      3.7775
   988.2500     49.8029      0.0000    801.7480      3.7871
   988.5000     50.4157      0.0000    825.0459      3.8189
   988.7500     51.5687      0.0000    842.0999      3.8921
   989.0000     52.9301      0.0000    844.3189      4.0119
   989.2500     54.6281      0.0000    834.8803      4.1523
   989.5000     57.0674      0.0000    823.4457      4.2708
   989.7500     60.3948      0.0000    816.8604      4.3411
   990.0000     64.3760      0.0000    814.3972      4.3668
   990.2500     68.7755      0.0000    810.3140      4.3670
   990.5000     73.8931      0.0000    800.1433      4.3607
   990.7500     80.7290      0.0000    784.5464      4.3689
   991.0000     90.3456      0.0000    767.6369      4.4149
   991.2500    102.7701      0.0000    752.7035      4.5067
   991.5000    116.5535      0.0000    740.3350      4.6249
   991.7500    129.5514      0.0000    729.9423      4.7386
   992.0000    140.1754      0.0000    721.8397      4.8297
   992.2500    147.6779      0.0000    717.2907      4.9000
   992.5000    151.2913      0.0000    716.5514      4.9624
   992.7500    149.8577      0.0000    717.4485      5.0313
   993.0000    143.2299      0.0000    717.2214      5.1067
   993.2500    133.8250      0.0000    716.4528      5.1599
   993.5000    125.6724      0.0000    720.0088      5.1464
   993.7500    121.4390      0.0000    732.9273      5.0436
   994.0000    120.5898      0.0000    755.8540      4.8741
   994.2500    120.2944      0.0000    785.1295      4.6932
   994.5000    117.6288      0.0000    816.0745      4.5581
   994.7500    111.1486      0.0000    844.8426      4.4991
   995.0000    101.3368      0.0000    868.0849      4.5008
   995.2500     90.0621      0.0000    882.7039      4.4971
   995.5000     79.3322      0.0000    886.3649      4.3995
   995.7500     70.2223      0.0000    878.4983      4.1616
   996.0000     62.9331      0.0000    862.0895      3.8233
   996.2500     57.5535      0.0000    844.6147      3.4836
   996.5000     54.3182      0.0000    834.5324      3.2250
   996.7500     53.1809      2.0000    834.3952      3.0721
   997.0000     53.6308      0.0000    838.2513      3.0051
   997.2500     55.0558      0.0000    837.9803      2.9861
   997.5000     57.0368      0.0000    832.2251      2.9728
   997.7500     59.1511      0.0000    827.6763      2.9383
   998.0000     60.6655      0.0000    831.4927      2.8983
   998.2500     60.7708      0.0000    843.5673      2.9095
   998.5000     59.2674      0.0000    856.5318      3.0229
   998.7500     56.9686      0.0000    862.8036      3.2351
   999.0000     55.5039      0.0000    861.5385      3.4873
   999.2500     56.6573      0.0000    859.0809      3.7100
   999.5000     61.3117      0.0000    862.7864      3.8636
   999.7500     68.6826      0.0000    874.2816      3.9427
  1000.0000     76.9943      0.0000    888.3429      3.9666
  1000.2500     85.0227      0.0000    896.9915      3.9722
  1000.5000     92.2059      0.0000    893.8165      4.0001
  1000.7500     97.2771      0.0000    876.3549      4.0716
