~Version Information
VERS.                      2.0: CWLS Log ASCII Standard - VERSION 2.0
WRAP.                       NO: One line per depth step
~Well Information Block
STRT.FT               906.0000: 
STOP.FT              1960.5000: 
STEP.FT                 0.2500: 
NULL.                -999.2500: 
COMP.          Petrogulf Corporation: COMPANY
WELL.            Torcom 17-33R: WELL
FLD.           Purgatorie River: FIELD
LOC.           1483' FSL & 1804' FEL: LOCATION
PROV.                 Colorado: PROVINCE
CNTY.               Las Animas: COUNTRY
SRVC.                Patterson: SERVICE COMPANY
DATE.          Thu Aug 18 08:33:01 2005: LOG DATE
UWI.                071 08069 : UNIQUE WELL ID
~Curve Information Block
DEPT.FT            0 000 00 00: Depth
SP.mV                         : DIL Spontaneous Potential
RILD.Ohm-m                    : DIL Deep Resistivity
RILM.Ohm-m                    : DIL Medium Resistivity
RLL3.Ohm-m                    : DIL Shallow Resistivity
GR.GAPI                       : Gamma Ray
~Parameter Information Block
~A  Depth        SP         RILD        RILM        RLL3         GR     
# ...
  1326.0000     68.5953      9.2786     11.0530     20.7122    120.8257
  1326.2500     71.1671      9.9232     12.1892     22.7530    124.1084
  1326.5000     72.5416     10.7092     13.4342     23.2276    119.3025
  1326.7500     72.9132     11.7168     14.9703     25.4351    125.9040
  1327.0000     72.6922     12.5389     16.5281     28.8392    114.9585
  1327.2500     72.1547     13.6402     18.4826     33.7187    120.8968
  1327.5000     72.5760     14.8485     20.3000     39.2688    109.1292
  1327.7500     74.4777     16.0567     22.3396     47.3031    107.6240
  1328.0000     75.1709     17.6935     23.5884     56.5695    118.3154
  1328.2500     75.8500     19.0012     23.9617     55.5943    131.2776
  1328.5000     77.6948     20.7823     24.4362     36.6469    131.8224
  1328.7500     78.7170     21.7236     24.5245     23.0646    134.5789
  1329.0000     80.1670     22.7099     24.9778     18.7199    125.4775
  1329.2500     80.2062     23.5403     27.2780     19.9708    120.5850
  1329.5000     79.2027     24.5514     29.9878     25.2824    111.1121
  1329.7500     77.4321     24.8709     31.9896     33.1798    107.5324
  1330.0000     75.8022     24.7094     33.2931     40.7677    102.6709
  1330.2500     74.5965     24.3200     34.0088     41.4977    103.6606
  1330.5000     74.5216     23.5380     34.3854     39.4011    111.1455
  1330.7500     74.2179     23.4588     35.0476     43.0328    106.2246
  1331.0000     74.3997     23.2152     34.0506     48.0936    104.7621
  1331.2500     74.1532     23.4266     34.3659     44.1266    104.9823
  1331.5000     74.1760     24.1697     33.7704     35.7269    102.1521
  1331.7500     74.3307     23.8812     33.4288     31.2399    105.5025
  1332.0000     74.2283     24.1769     34.6321     29.3399    105.7537
  1332.2500     74.6405     23.3035     34.9459     30.1826    108.1572
  1332.5000     75.4648     22.5703     34.9807     32.7790    110.4364
  1332.7500     76.6584     21.3987     34.3408     36.0649    107.9254
  1333.0000     78.7971     20.0705     31.7764     37.7087    109.1726
  1333.2500     80.0293     18.5911     29.6553     36.5384    111.7688
  1333.5000     81.2687     17.0948     26.3500     34.3388    114.4381
  1333.7500     82.2374     16.0246     23.1129     31.4486    129.4336
  1334.0000     82.5691     15.2503     20.0251     28.3466    148.9341
  1334.2500     82.3358     14.6852     17.3711     23.3203    153.3017
  1334.5000     81.7699     14.2398     15.6040     17.5731    160.3862
  1334.7500     81.8245     13.8846     14.3274     14.6737    165.0883
  1335.0000     81.8787     13.8723     13.3114     12.9732    153.6392
  1335.2500     82.0685     13.8954     12.8274     12.7554    163.7730
  1335.5000     83.7086     14.0684     12.4823     12.8450    159.4399
  1335.7500     85.5541     14.5477     12.4023     12.3075    157.5099
  1336.0000     86.5436     14.8317     12.7489     12.1528    141.9610
  1336.2500     87.3141     15.2849     13.7108     13.6293    130.5886
  1336.5000     88.8468     15.3348     15.2000     17.5545    107.0718
  1336.7500     90.4459     15.8805     17.0489     28.8717     92.7692
  1337.0000     91.4989     16.9667     19.7830     52.5678     77.3080
  1337.2500     92.2731     17.6905     23.4314     90.2854     69.1115
  1337.5000     93.6943     19.0298     26.7743    126.4870     63.8444
  1337.7500     94.8863     20.5102     30.5542    146.6588     64.2317
  1338.0000     95.3315     22.0947     35.0999    144.8076     61.9006
  1338.2500     95.6331     24.1203     40.0155    133.5013     61.0481
  1338.5000     95.9022     26.1571     47.2463    135.1478     54.6197
  1338.7500     96.4079     27.8918     54.0820    153.5028     51.8095
  1339.0000     96.5866     28.1407     60.3042    168.5556     59.5964
  1339.2500     96.7982     27.3632     63.9472    169.2202     58.5437
  1339.5000     96.8197     25.1630     59.7894    162.3411     72.4334
  1339.7500     97.4109     23.2058     48.1747    138.9297     94.6305
  1340.0000     97.6942     20.9643     36.5246    101.6412    126.1424
  1340.2500     98.2723     19.0202     28.2504     53.0464    135.5967
  1340.5000     98.1588     17.3954     22.5553     26.6769    147.4403
  1340.7500     98.0965     15.8532     19.1581     18.0905    145.3166
  1341.0000     98.3832     14.8343     16.4910     15.1242    163.5962
  1341.2500     98.4781     13.9914     14.8111     13.7559    161.4021
  1341.5000     98.5582     13.2722     13.6955     11.8347    161.3860
  1341.7500     99.7502     12.6472     13.0011     11.5529    158.7548
  1342.0000    100.3322     12.0622     12.6024     11.7774    152.6978
  1342.2500    101.4908     11.6774     12.3841     13.1293    155.4536
  1342.5000    103.6243     11.1954     12.2138     14.6038    148.8707
  1342.7500    105.1712     10.7888     11.9841     15.4875    147.0007
  1343.0000    106.6698     10.2822     12.0885     15.9486    116.5755
  1343.2500    108.2394      9.8242     12.1210     16.6910    111.3189
  1343.5000    110.7732      9.5954     11.9747     20.8528     92.4230
  1343.7500    113.9145      9.6822     11.7864     26.4486     96.4523
  1344.0000    116.3419      9.6202     11.3018     22.2280    110.0221
  1344.2500    118.1323      9.7247     10.8553     14.3785    115.1364
  1344.5000    119.2165      9.9185     10.5925     11.6719    121.6512
  1344.7500    119.1429     10.1888     10.5476     10.8967    113.7775
  1345.0000    118.6363     10.3882     10.6461     11.7304    118.8248
  1345.2500    117.8085     10.6463     10.9909     11.9955    117.4615
  1345.5000    117.1136     10.8570     11.3877     12.4814    106.0610
  1345.7500    117.2390     10.9863     11.7598     13.5740    108.6465
  1346.0000    117.9868     10.9312     12.0781     13.9498    115.9076
  1346.2500    117.2250     10.7632     12.4265     13.6065    109.8033
  1346.5000    115.9938     10.8479     12.7558     13.4583    104.1883
  1346.7500    114.7484     10.9476     13.1346     14.0338    110.7917
  1347.0000    113.3687     10.9871     13.3524     14.8338    113.3716
  1347.2500    110.8111     11.2826     13.6688     15.2119    117.0783
  1347.5000    107.9868     11.3332     13.9343     15.4310     98.0095
  1347.7500    106.0627     11.4558     14.0544     15.7968    111.1389
  1348.0000    105.6997     11.6746     14.2917     16.1607    127.3024
  1348.2500    105.7342     11.9577     14.2470     15.4038    123.1808
  1348.5000    104.0340     12.2720     14.1586     14.9112    107.4694
  1348.7500    101.4254     12.2493     14.0717     13.3319    108.4028
  1349.0000     97.2177     12.3328     14.0353     13.5210    118.2519
  1349.2500     91.6371     12.1910     14.1636     13.7145    112.7379
  1349.5000     86.4252     12.2085     14.0536     13.5518    117.5557
  1349.7500     82.0612     12.1488     14.1054     13.5774    115.3117
  1350.0000     78.4253     11.9635     14.1287     13.6987    118.9400
  1350.2500     75.1897     11.9213     13.9620     14.3609    112.9719
  1350.5000     71.4185     11.6589     13.7890     14.2549    124.4866
  1350.7500     68.0676     11.5791     13.4789     13.4137    122.8896
  1351.0000     64.3134     11.5704     13.2357     12.7342    123.4664
  1351.2500     61.5704     11.5349     12.9184     12.9595    121.1725
  1351.5000     59.4218     11.4425     12.7560     12.7738    117.5910
  1351.7500     57.5122     11.1960     12.7641     12.4923    115.1575
  1352.0000     55.7704     11.3036     12.7140     12.6801    123.0376
  1352.2500     54.1507     11.2027     12.6733     12.5354    127.0497
  1352.5000     52.0927     11.2111     12.5835     11.9713    130.7791
  1352.7500     49.2227     11.1823     12.5154     12.3347    125.7817
  1353.0000     46.3714     10.9723     12.6257     13.0235    112.8870
  1353.2500     44.4118     10.9523     12.5514     13.2055    109.3086
  1353.5000     44.1860     10.8909     12.6304     13.1223    116.4486
  1353.7500     45.3192     10.8810     12.5533     13.6653    118.0056
