~Version Information
VERS.                      2.0: CWLS Log ASCII Standard - VERSION 2.0
WRAP.                       NO: One line per depth step
~Well Information Block
STRT.FT                -7.5000: 
STOP.FT              1129.7500: 
STEP.FT                 0.2500: 
NULL.                -999.2500: 
COMP.          Pioneer Natural Resources: COMPANY
WELL.          Drewmeister 34-34: WELL
FLD.           Purgatorie River: FIELD
LOC.           958' FSL & 1857' FEL: LOCATION
STAT.                       CO: State
CNTY.               Las Animas: COUNTRY
CTRY. USA : Country
SECT. 34 : Section
TOWN. 32S : Township
RANG. 65W : Range
SRVC.          Patterson Wireline: SERVICE COMPANY
DATE.          Fri Oct 14 14:02:00 2005: LOG DATE
API.           05 071 08131 00: UNIQUE WELL ID
~Curve Information Block
DEPT.FT            0 000 00 00: Depth
CCL.                          : Casing Collar Locator
TT3.usec                      : CBL 3' Travel Time
AMP3.mV                       : CBL 3' Amplitude
GR.GAPI                       : Gamma Ray
~Parameter Information Block
~A  Depth       CCL         TT3         AMP3         GR     
# ...
   126.5000      0.0000    815.9129      6.1135     96.2225
   126.7500      0.0000    802.1872      6.1927     93.7151
   127.0000      0.0000    795.5074      6.3492     91.8673
   127.2500      0.0000    793.0197      6.5333     89.3340
   127.5000      0.0000    792.0701      6.6761     85.3835
   127.7500      0.0000    791.1494      6.7373     80.7795
   128.0000      0.0000    789.5398      6.7213     76.9308
   128.2500      0.0000    787.1655      6.6633     74.6873
   128.5000      0.0000    784.6424      6.6104     74.0415
   128.7500      0.0000    782.8785      6.6011     74.6505
   129.0000      0.0000    782.1431      6.6460     76.3778
   129.2500      0.0000    781.8811      6.7214     79.2455
   129.5000      0.0000    781.7466      6.7809     83.0561
   129.7500      0.0000    782.3118      6.7773     87.3383
   130.0000      0.0000    784.2356      6.6835     91.4512
   130.2500      0.0000    787.1442      6.5108     94.5185
   130.5000      0.0000    789.8668      6.3145     95.6685
   130.7500      0.0000    791.5332      6.1686     94.7668
   131.0000      0.0000    792.0940      6.1193     92.5725
   131.2500      0.0000    791.9913      6.1633     89.8574
   131.5000      0.0000    791.6693      6.2698     86.7949
   131.7500      0.0000    791.3622      6.4174     83.5337
   132.0000      0.0000    791.1329      6.6054     80.9110
   132.2500      0.0000    790.9807      6.8361     80.0331
   132.5000      0.0000    790.9171      7.0958     81.1661
   132.7500      0.0000    790.9536      7.3555     83.1029
   133.0000      0.0000    791.0537      7.5865     83.4998
   133.2500      0.0000    791.1307      7.7754     80.1137
   133.5000      0.0000    791.1166      7.9297     72.3283
   133.7500      0.0000    791.0205      8.0697     61.7534
   134.0000      0.0000    790.9124      8.2079     51.2597
   134.2500      0.0000    790.9033      8.3322     43.3403
   134.5000      0.0000    791.2019      8.4124     39.2475
   134.7500      0.0000    792.4229      8.4312     39.3491
   135.0000      0.0000    796.1387      8.4068     43.9226
   135.2500      0.0000    805.2920      8.3820     53.2384
   135.5000      0.0000    822.9093      8.3874     66.5809
   135.7500      0.0000    847.9883      8.4148     81.3698
   136.0000      0.0000    871.8602      8.4264     94.0887
   136.2500      0.0000    881.7635      8.3866    102.6034
   136.5000      0.0000    871.4107      8.2843    107.2021
   136.7500      0.0000    847.1132      8.1336    109.0355
   137.0000      0.0000    821.6324      7.9633    108.1384
   137.2500      0.0000    803.5035      7.8056    103.6736
   137.5000      0.0000    793.2558      7.6852     95.9130
   137.7500      0.0000    787.0077      7.6146     87.2776
   138.0000      0.0000    781.1121      7.5943     81.1058
   138.2500      0.0000    774.4904      7.6146     79.4307
   138.5000      0.0000    768.7155      7.6581     81.9536
   138.7500      0.0000    766.2734      7.7037     86.8905
   139.0000      0.0000    767.9117      7.7301     92.4120
   139.2500      0.0000    771.3976      7.7173     97.1354
   139.5000      0.0000    773.1433      7.6529     99.7397
   139.7500      0.0000    771.4156      7.5372     99.1637
   140.0000      0.0000    767.9326      7.3830     95.7725
   140.2500      0.0000    766.1277      7.2122     91.7767
   140.5000      0.0000    767.7131      7.0523     89.6225
   140.7500      0.0000    770.9304      6.9254     89.8604
   141.0000      0.0000    772.1619      6.8280     90.8968
   141.2500      0.0000    769.1988      6.7277     90.7963
   141.5000      0.0000    762.9316      6.5884     88.9777
   141.7500      0.0000    756.1393      6.3996     86.2329
   142.0000      0.0000    751.0786      6.1818     83.6927
   142.2500      0.0000    748.2902      5.9731     82.0898
   142.5000      0.0000    747.1057      5.8126     81.6285
   142.7500      0.0000    746.6647      5.7231     82.0688
   143.0000      0.0000    746.4487      5.6945     82.9992
   143.2500      0.0000    746.2999      5.6889     84.1549
   143.5000      0.0000    746.2405      5.6669     85.1968
   143.7500      0.0000    746.3034      5.6117     85.1686
   144.0000      0.0000    746.4384      5.5287     82.7706
   144.2500      0.0000    746.5270      5.4291     77.5614
   144.5000      0.0000    746.4706      5.3189     70.7160
   144.7500      0.0000    746.2662      5.2028     64.6030
   145.0000      0.0000    746.0045      5.0952     61.5968
   145.2500      0.0000    745.8000      5.0252     62.7006
   145.5000      0.0000    745.7184      5.0202     66.8835
   145.7500      0.0000    745.7475      5.0772     72.0012
   146.0000      0.0000    745.8246      5.1495     76.4250
   146.2500      0.0000    745.8920      5.1731     79.7375
   146.5000      0.0000    745.9312      5.1111     82.2773
   146.7500      0.0000    745.9556      4.9798     84.4544
   147.0000      0.0000    745.9860      4.8354     86.3309
   147.2500      0.0000    746.0342      4.7394     87.6087
   147.5000      0.0000    746.1093      4.7286     88.0114
   147.7500      0.0000    746.2344      4.8065     87.5804
   148.0000      0.0000    746.4412      4.9550     86.5598
   148.2500      0.0000    746.7561      5.1507     85.2689
   148.5000      0.0000    747.2276      5.3730     84.0467
   148.7500      0.0000    747.9476      5.6017     82.8071
   149.0000      0.0000    748.8395      5.8134     80.6676
   149.2500      0.0000    749.0455      5.9808     76.7972
   149.5000      0.0000    746.8495      6.0741     71.8825
   149.7500      0.0000    741.8340      6.0751     68.1425
   150.0000      0.0000    738.7134      5.9981     67.6447
   150.2500      0.0000    748.2613      5.8886     70.8382
   150.5000      0.0000    780.8052      5.7876     76.4370
   150.7500      0.0000    835.9496      5.7098     82.2390
   151.0000      0.0000    899.6826      5.6609     86.2311
   151.2500      0.0000    954.0919      5.6528     87.5807
   151.5000      0.0000    989.6801      5.6870     86.9625
   151.7500      0.0000   1007.3499      5.7425     85.9571
   152.0000      0.0000   1011.7434      5.7999     85.9510
   152.2500      0.0000   1006.1494      5.8811     87.4082
   152.5000      0.0000    991.7826      6.0586     90.0230
   152.7500      0.0000    968.6520      6.3991     93.2882
   153.0000      0.0000    937.1286      6.8648     96.5818
   153.2500      0.0000    899.8951      7.2803     98.9200
   153.5000      0.0000    862.6031      7.4500     99.2390
   153.7500      0.0000    831.7878      7.3224     97.2493
   154.0000      0.0000    811.2629      7.0173     93.9320
   154.2500      0.0000    800.4421      6.7034     91.0617
   154.5000      0.0000    795.9742      6.4818     90.1117
   154.7500      0.0000    794.5265      6.3654     91.3632
   155.0000      0.0000    794.1355      6.3217     93.7569
   155.2500      0.0000    794.0024      6.3132     95.6689
   155.5000      0.0000    793.8949      6.3157     96.1891
   155.7500      0.0000    793.7712      6.3225     95.6779
   156.0000      0.0000    793.6059      6.3385     94.7338
   156.2500      0.0000    793.2806      6.3685     92.8542
   156.5000      0.0000    792.4838      6.4125     88.9974
   156.7500      0.0000    790.8314      6.4801     83.5816
   157.0000      0.0000    788.3409      6.6020     78.8171
   157.2500      0.0000    785.8870      6.8068     76.5496
   157.5000      0.0000    784.8379      7.0757     76.5516
   157.7500      0.0000    785.8234      7.3367     77.1981
   158.0000      0.0000    787.9576      7.5210     77.0108
   158.2500      0.0000    789.4643      7.6216     75.3839
   158.5000      0.0000    788.9049      7.6875     72.4692
   158.7500      0.0000    785.8057      7.7729     68.5519
   159.0000      0.0000    780.5718      7.9011     63.5016
   159.2500      0.0000    774.0763      8.0689     57.3074
   159.5000      0.0000    767.2161      8.2659     51.2526
   159.7500      0.0000    760.7441      8.4818     47.7960
