~Version Information
 VERS.                                  2.0 : CWLS LAS VERSION
 WRAP.                                   NO : WRAPING MODE
 SWARE .                 MController 2.5.0J : SOFTWARE VERSION
~Well Information
 WELL.                          Silva 6-22V : WELL
 COMP.                       Petrogulf Corp : COMPANY
 FLD.                      Purgatoire River : FIELD
 LOC.                 SE/NW Sec 6 T33S R67W : LOCATION
 DATE.                            11/7-9/04 : DATE(S) LOGGED
 SRVC.       Blanco Geological Services LLC : SERVICE COMPANY
 STAT.                                   CO : STATE
 CNTY.                           Las Animas : COUNTY
 CTRY.                                  USA : COUNTRY
 API.                       05-071-08143-00 : API NUMBER
 STRT.FT                              35.00 : START DEPTH
 STOP.FT                            2732.00 : STOP DEPTH
 STEP.FT                               1.00 : DEPTH INCREMENT
 NULL.                                -9999 : NULL VALUE
~Curve information
 DEPTH.FT                                   :
 ROP.MIN/FT                                 :
 GAS.UNITS                                  :
~ASCII Log data
        35.0     -9999.00          9.2 
        36.0         0.27          9.3 
        37.0         0.27          8.8 
        38.0         0.17          9.1 
        39.0         0.23          9.4 
        40.0         0.27          9.7 
        41.0         0.27          9.2 
        42.0         0.27          9.3 
        43.0         0.23          9.4 
        44.0         0.27          9.6 
        45.0         0.23          9.5 
        46.0         0.27          9.0 
        47.0         0.27          9.0 
        48.0         0.38          9.6 
        49.0         0.20          9.6 
        50.0         0.30         10.3 
        51.0         0.23          9.5 
        52.0         0.20          9.8 
        53.0         0.20          9.8 
        54.0         0.23          9.8 
        55.0         0.23          9.6 
        56.0         0.27         10.1 
        57.0         0.27          9.9 
        58.0         0.28         10.0 
        59.0         0.27          9.5 
        60.0         0.27          9.9 
        61.0         0.30          9.7 
        62.0         0.27          9.8 
        63.0         0.30          9.7 
        64.0         0.27         10.4 
        65.0         0.23          9.9 
        66.0         0.27          9.6 
        67.0         0.30          9.7 
        68.0         0.27          9.7 
        69.0         0.23          9.8 
        70.0         0.28          9.9 
        71.0         0.27         10.4 
        72.0         0.27          9.7 
        73.0         0.23         10.0 
        74.0         0.23          9.9 
        75.0         0.23         10.2 
        76.0         0.27         10.0 
        77.0         0.23         10.1 
        78.0         0.23          9.7 
        79.0         0.33          9.4 
        80.0         0.27          9.5 
        81.0         0.27          9.6 
        82.0         0.17         10.1 
        83.0         0.27         10.0 
        84.0         0.23         10.0 
        85.0         0.23          9.9 
        86.0         0.23          9.7 
        87.0         0.17          9.7 
        88.0         0.20          9.4 
        89.0         0.20          9.2 
        90.0         0.20          9.3 
        91.0         0.20          9.2 
        92.0         0.20          9.8 
        93.0         0.23          9.6 
        94.0         0.27          9.0 
        95.0         0.23          8.8 
        96.0         0.25          9.2 
        97.0         0.23         10.2 
        98.0         0.27          9.5 
        99.0         0.27         10.0 
       100.0         0.23          9.5 
       101.0         0.23          9.4 
       102.0         0.23          9.8 
       103.0         0.23          9.6 
       104.0         0.20          9.5 
       105.0         0.23          9.0 
       106.0         0.20          9.2 
       107.0         0.20          9.2 
       108.0         0.23          9.2 
       109.0         0.23          9.3 
       110.0         0.18          9.5 
       111.0         0.27          9.6 
       112.0         0.23          9.6 
       113.0         0.23          9.5 
       114.0         0.20          9.5 
       115.0         0.20          9.7 
       116.0         0.25         10.4 
       117.0         0.23          9.8 
       118.0         0.20          9.0 
       119.0         0.27          9.0 
       120.0         0.23          9.4 
       121.0         0.23         10.2 
       122.0         0.23         10.1 
       123.0         0.20         10.1 
       124.0         0.23         10.3 
       125.0         0.23         10.3 
       126.0         0.20         10.4 
       127.0         0.20          9.4 
       128.0         0.20          9.6 
       129.0         0.20          9.6 
       130.0         0.23         10.3 
       131.0         0.20         10.6 
       132.0         0.25         10.6 
       133.0         0.20         10.4 
       134.0         0.30         10.3 
       135.0         0.27          9.9 
       136.0         0.20          9.9 
       137.0         0.30         10.3 
       138.0         0.27         10.4 
       139.0         0.23         10.6 
       140.0         0.27         10.4 
       141.0         0.27         10.7 
       142.0         0.20         10.3 
       143.0         0.23         10.4 
       144.0         0.23         10.2 
       145.0         0.23         10.1 
       146.0         0.23         10.2 
       147.0         0.23          9.5 
       148.0         0.20          9.5 
       149.0         0.23          9.2 
       150.0         0.23          9.3 
       151.0         0.23          8.8 
       152.0         0.17          9.4 
       153.0         0.20          9.6 
       154.0         0.20          9.6 
       155.0         0.17          9.4 
       156.0         0.25          9.8 
       157.0         0.20          9.8 
       158.0         0.23          9.7 
       159.0         0.23          9.3 
       160.0         0.23          9.8 
       161.0         0.23          9.8 
       162.0         0.23          9.8 
       163.0         0.27         10.6 
       164.0         0.23         10.6 
       165.0         0.20         10.5 
       166.0         0.23         10.3 
       167.0         0.23          9.9 
       168.0         0.20          9.5 
       169.0         0.25          9.5 
       170.0         0.27          9.7 
       171.0         0.27         10.3 
       172.0         0.23          9.9 
       173.0         0.23          9.8 
       174.0         0.23          9.1 
       175.0         0.23          9.4 
       176.0         0.20         10.3 
       177.0         0.23         10.1 
       178.0         0.23         10.4 
       179.0         0.25         10.0 
       180.0         0.20          9.4 
       181.0         0.23          9.6 
       182.0         0.27          9.3 
       183.0         0.23          9.4 
       184.0         0.23          9.4 
       185.0         0.20          9.5 
       186.0         0.23          9.9 
       187.0         0.20          9.8 
       188.0         0.20          9.3 
       189.0         0.27          9.2 
       190.0         0.23          8.8 
       191.0         0.23         10.4 
       192.0         0.23         10.4 
       193.0         0.25         10.0 
       194.0         0.23         10.3 
       195.0         0.20         10.4 
       196.0         0.23         10.7 
       197.0         0.27         10.5 
       198.0         0.20         10.0 
       199.0         0.33          9.9 
       200.0         0.33          9.4 
       201.0         0.27          9.5 
       202.0         0.33         10.1 
       203.0         0.33         10.2 
       204.0         0.27         10.6 
       205.0         0.20         10.6 
       206.0         0.27         10.2 
       207.0         0.20         10.0 
       208.0         0.23         10.2 
       209.0         0.23         10.2 
       210.0         0.23          9.4 
       211.0         0.23          9.8 
       212.0         0.23         10.2 
       213.0         0.20         10.5 
       214.0         0.22         10.5 
       215.0         0.23         10.4 
       216.0         0.20          9.9 
       217.0         0.23         10.0 
       218.0         0.27         10.2 
       219.0         0.23          9.6 
       220.0         0.23         10.2 
       221.0         0.23         10.2 
       222.0         0.23         10.1 
       223.0         0.20         10.3 
       224.0         0.23          9.9 
       225.0         0.23         10.0 
       226.0         0.23         10.7 
       227.0         0.23         11.3 
       228.0         0.20         11.0 
       229.0         0.22         10.4 
       230.0         0.27         10.1 
       231.0         0.27          9.8 
       232.0         0.23          9.8 
       233.0         0.20          9.8 
       234.0         0.23         10.3 
