~Version Information
 VERS.                                  2.0 : CWLS LAS VERSION
 WRAP.                                   NO : WRAPING MODE
 SWARE .                 MController 2.5.0E : SOFTWARE VERSION
~Well Information
 WELL.                         STATE 16-24V : WELL
 COMP.                      Petrogulf Corp. : COMPANY
 FLD.                      Purgatorie River : FIELD
 LOC.                NW/SE Sec 16 T33S R67W : LOCATION
 DATE.                      5/02/04-5/03/04 : DATE(S) LOGGED
 SRVC.       Blanco Geological Services LLC : SERVICE COMPANY
 STAT.                                   CO : STATE
 CNTY.                           Las Animas : COUNTY
 CTRY.                                  USA : COUNTRY
 API.                       05-071-08014-00 : API NUMBER
 STRT.FT                              40.00 : START DEPTH
 STOP.FT                            2380.00 : STOP DEPTH
 STEP.FT                               1.00 : DEPTH INCREMENT
 NULL.                                -9999 : NULL VALUE
~Curve information
 DEPTH.FT                                   :
 ROP.MIN/FT                                 :
 GAS.UNITS                                  :
~ASCII Log data
# ...
      240.00        0.333          8.0 
      241.00        0.267          8.3 
      242.00        0.300          8.5 
      243.00        0.317          8.9 
      244.00        0.267          8.3 
      245.00        0.267          8.1 
      246.00        0.200          8.8 
      247.00        0.233          8.4 
      248.00        0.233          8.6 
      249.00        0.167          8.4 
      250.00        0.167          8.0 
      251.00        0.200          8.0 
      252.00        1.817          8.9 
      253.00        0.167          7.9 
      254.00        0.267          8.1 
      255.00        0.300          8.1 
      256.00        0.233          7.9 
      257.00        0.267          8.3 
      258.00        0.267          8.3 
      259.00        0.267          8.9 
      260.00        0.267          8.1 
      261.00        0.267          8.1 
      262.00        0.267          8.3 
      263.00        0.267          8.5 
      264.00        0.283          8.5 
      265.00        0.267          8.2 
      266.00        0.267          8.5 
      267.00        0.200          8.6 
      268.00        0.267          9.2 
      269.00        0.300          8.7 
      270.00        0.233          8.7 
      271.00        0.300          8.2 
      272.00        0.267          8.5 
      273.00        0.300          8.5 
      274.00        0.267          8.8 
      275.00        0.300          8.5 
      276.00        0.283          8.4 
      277.00        0.267          9.1 
      278.00        0.300          8.3 
      279.00        0.267          8.6 
      280.00        0.300          8.3 
      281.00        0.500          8.8 
      282.00        4.617          9.1 
      283.00        0.333          8.5 
      284.00        0.283          8.9 
      285.00        0.267          8.8 
      286.00        0.300          8.7 
      287.00        0.267          9.5 
      288.00        0.167          8.5 
      289.00        0.133          8.6 
      290.00        0.200          8.6 
      291.00        0.233          8.6 
      292.00        0.233          8.7 
      293.00        0.267          8.7 
      294.00        0.267          9.4 
      295.00        0.333          9.2 
      296.00        0.333          9.4 
      297.00        0.317          9.3 
      298.00        0.233          8.6 
      299.00        0.233          8.6 
      300.00        0.200          8.6 
      301.00        0.267          8.9 
      302.00        0.267          8.9 
      303.00        0.233          8.6 
      304.00        0.267          9.2 
      305.00        0.233          8.4 
      306.00        0.200          8.7 
      307.00        0.233          8.7 
      308.00        0.233          8.5 
      309.00        0.300          8.9 
      310.00        0.200          8.6 
      311.00        0.250          8.8 
      312.00        0.200          8.8 
      313.00        1.600          9.3 
      314.00        0.533          9.0 
      315.00        0.233          8.5 
      316.00        0.233          8.9 
      317.00        0.267          8.3 
      318.00        0.217          9.0 
      319.00        0.200          8.4 
      320.00        0.167          8.6 
      321.00        0.100          8.6 
      322.00        0.133          8.7 
      323.00        0.200          8.2 
      324.00        0.233          8.3 
      325.00        0.200          8.9 
      326.00        0.167          8.6 
      327.00        0.167          8.2 
      328.00        0.167          8.2 
      329.00        0.100          8.4 
      330.00        0.100          8.4 
      331.00        0.200          8.5 
      332.00        0.133          9.1 
      333.00        0.100          8.3 
      334.00        0.100          8.3 
      335.00        0.067          8.3 
      336.00        0.167          8.4 
      337.00        0.067          8.4 
      338.00        0.100          8.9 
      339.00        0.233          8.9 
      340.00        0.383          8.5 
      341.00        0.267          8.2 
      342.00        2.000          9.3 
      343.00        0.400          9.2 
      344.00        0.267          9.1 
      345.00        0.217          8.8 
      346.00        0.267          9.6 
      347.00        0.233          9.2 
      348.00        0.200          9.5 
      349.00        0.267         10.6 
      350.00        0.233         10.3 
      351.00        0.200         10.5 
      352.00        0.167         11.4 
      353.00        0.233         11.4 
      354.00        0.267         11.9 
      355.00        0.267         12.5 
      356.00        0.233         12.9 
      357.00        0.267         12.8 
      358.00        0.450         12.9 
      359.00        0.500         12.6 
      360.00        0.300         12.5 
      361.00        0.300         12.7 
      362.00        0.267         11.8 
      363.00        0.267         11.8 
      364.00        0.300         11.7 
      365.00        0.200         10.8 
      366.00        0.167         10.3 
      367.00        0.133         11.0 
      368.00        0.133         10.4 
      369.00        0.133         10.4 
      370.00        0.167         10.1 
      371.00        0.133          9.9 
      372.00        1.717          9.9 
      373.00        0.200          9.8 
      374.00        0.167          9.8 
      375.00        0.133          9.8 
      376.00        0.167         10.0 
      377.00        0.167         10.0 
      378.00        0.100         10.1 
      379.00        0.100         10.1 
      380.00        0.167          9.4 
      381.00        0.200          9.4 
      382.00        0.200          9.6 
      383.00        0.267         10.1 
      384.00        0.217          9.2 
      385.00        0.267          9.5 
      386.00        0.233          9.2 
      387.00        0.233          9.0 
      388.00        0.233          8.9 
      389.00        0.200          9.2 
      390.00        0.200          8.9 
      391.00        0.233          9.4 
      392.00        0.200          8.9 
      393.00        0.200          8.7 
      394.00        0.133          8.6 
      395.00        0.133          8.6 
      396.00        0.133          8.7 
      397.00        0.233          8.7 
      398.00        0.267          8.6 
      399.00        0.233          9.0 
      400.00        0.250          8.8 
      401.00        0.233          8.5 
      402.00        1.733          9.0 
      403.00        0.267          8.8 
      404.00        0.267          8.7 
      405.00        0.200          8.5 
      406.00        0.267          8.5 
      407.00        0.350          9.4 
      408.00        0.333          8.6 
      409.00        0.333          8.1 
      410.00        0.433          8.3 
      411.00        0.400          8.8 
      412.00        0.333          8.8 
      413.00        0.233          8.4 
      414.00        0.167          8.4 
      415.00        0.133          8.2 
      416.00        0.133          8.2 
      417.00        0.167          8.2 
      418.00        0.200          8.1 
      419.00        0.167          8.2 
      420.00        0.250          8.0 
      421.00        0.200          8.1 
      422.00        0.200          8.0 
      423.00        0.233          8.2 
      424.00        0.233          8.0 
      425.00        0.200          8.2 
      426.00        0.267          8.2 
      427.00        0.300          8.4 
      428.00        0.200          8.1 
      429.00        0.233          8.1 
      430.00        0.233          8.1 
      431.00        0.233          8.0 
      432.00        2.050          9.0 
      433.00        0.367          8.6 
      434.00        0.300          8.1 
      435.00        0.400          8.6 
      436.00        0.367          8.6 
      437.00        0.100          8.3 
      438.00        0.167          8.3 
      439.00        0.200          9.0 
