~Version Information
VERS.                      2.0: CWLS Log ASCII Standard - VERSION 2.0
WRAP.                       NO: One line per depth step
~Well Information Block
STRT.FT               928.1000: 
STOP.FT              2417.7000: 
STEP.FT                 0.1000: 
NULL.                -999.2500: 
COMP.          Pioneer Natural Resources: COMPANY
WELL.            Chevron 13-13: WELL
FLD.           Purgatoire River: FIELD
LOC.           1560' FSL & 711' FWL--: LOCATION
CNTY.               Las Animas: COUNTY
SRVC.          Superior Well Services: SERVICE COMPANY
DATE.          Mon Feb 12 14:51:53 2007: LOG DATE
UWI.           05 071 08319 00: UNIQUE WELL ID
STAT.                 Colorado: STATE
~Curve Information Block
DEPT.FT            0 000 00 00: Depth
DIR.Ohm-m                     : IEL Induction Resistivity
GR.GAPI                       : Gamma Ray
SN.Ohm-m                      : IEL Short Normal
SP.mV                         : IEL Spontaneous Potential
~Parameter Information Block
~A  Depth       DIR          GR          SN          SP     
# ...
  2402.1000     12.5822   -999.2500     13.8070    113.4048
  2402.2000     12.5822   -999.2500     13.8070    113.4048
  2402.3000     12.2862   -999.2500     13.4882    113.7306
  2402.4000     12.2862   -999.2500     13.4882    113.7306
  2402.5000     12.0469   -999.2500     13.2562    114.0252
  2402.6000     12.0469   -999.2500     13.2562    114.0252
  2402.7000     12.0469   -999.2500     13.2562    114.0252
  2402.8000     11.8730   -999.2500     13.2610    114.2867
  2402.9000     11.8730   -999.2500     13.2610    114.2867
  2403.0000     11.7586   -999.2500     13.4114    114.5137
  2403.1000     11.7586   -999.2500     13.4114    114.5137
  2403.2000     11.7586   -999.2500     13.4114    114.5137
  2403.3000     11.6867   -999.2500     13.4467    114.7055
  2403.4000     11.6867   -999.2500     13.4467    114.7055
  2403.5000     11.6355   -999.2500     13.2942    114.8628
  2403.6000     11.6355   -999.2500     13.2942    114.8628
  2403.7000     11.6355   -999.2500     13.2942    114.8628
  2403.8000     11.5873   -999.2500     13.0746    114.9876
  2403.9000     11.5873   -999.2500     13.0746    114.9876
  2404.0000     11.5341   -999.2500     12.9267    115.0833
  2404.1000     11.5341   -999.2500     12.9267    115.0833
  2404.2000     11.5341   -999.2500     12.9267    115.0833
  2404.3000     11.4770   -999.2500     12.8670    115.1542
  2404.4000     11.4770   -999.2500     12.8670    115.1542
  2404.5000     11.4227   -999.2500     12.8708    115.2045
  2404.6000     11.4227   -999.2500     12.8708    115.2045
  2404.7000     11.4227   -999.2500     12.8708    115.2045
  2404.8000     11.3175   -999.2500     12.9179    115.2378
  2404.9000     11.3175   -999.2500     12.9179    115.2378
  2405.0000     11.2931   -999.2500     12.9557    115.2564
  2405.1000     11.2931   -999.2500     12.9557    115.2564
  2405.2000     11.2931   -999.2500     12.9557    115.2564
  2405.3000     11.2914   -999.2500     12.9495    115.2606
  2405.4000     11.2914   -999.2500     12.9495    115.2606
  2405.5000     11.3115   -999.2500     12.8982    115.2492
  2405.6000     11.3115   -999.2500     12.8982    115.2492
  2405.7000     11.3115   -999.2500     12.8982    115.2492
  2405.8000     11.3470   -999.2500     12.8017    115.2200
  2405.9000     11.3470   -999.2500     12.8017    115.2200
  2406.0000     11.3891   -999.2500     12.7435    115.1709
  2406.1000     11.3891   -999.2500     12.7435    115.1709
  2406.2000     11.3891   -999.2500     12.7435    115.1709
  2406.3000     11.4329   -999.2500     12.7866    115.1006
  2406.4000     11.4329   -999.2500     12.7866    115.1006
  2406.5000     11.4810   -999.2500     12.9187    115.0105
  2406.6000     11.4810   -999.2500     12.9187    115.0105
  2406.7000     11.4810   -999.2500     12.9187    115.0105
  2406.8000     11.5451   -999.2500     13.0766    114.9048
  2406.9000     11.5451   -999.2500     13.0766    114.9048
  2407.0000     11.6477   -999.2500     13.1972    114.7910
  2407.1000     11.6477   -999.2500     13.1972    114.7910
  2407.2000     11.6477   -999.2500     13.1972    114.7910
  2407.3000     11.8291   -999.2500     13.2210    114.6797
  2407.4000     11.8291   -999.2500     13.2210    114.6797
  2407.5000     12.1640   -999.2500     13.0891    114.5834
  2407.6000     12.1640   -999.2500     13.0891    114.5834
  2407.7000     12.1640   -999.2500     13.0891    114.5834
  2407.8000     12.7863   -999.2500     12.8417    114.5153
  2407.9000     12.7863   -999.2500     12.8417    114.5153
  2408.0000     13.9188   -999.2500     12.5985    114.4850
  2408.1000     13.9188   -999.2500     12.5985    114.4850
  2408.2000     13.9188   -999.2500     12.5985    114.4850
  2408.3000     16.0600   -999.2500     12.4036    114.5014
  2408.4000     16.0600   -999.2500     12.4036    114.5014
  2408.5000     19.5468   -999.2500     12.2664    114.5663
  2408.6000     19.5468   -999.2500     12.2664    114.5663
  2408.7000     19.5468   -999.2500     12.2664    114.5663
  2408.8000     25.3885   -999.2500     12.1888    114.6741
  2408.9000     25.3885   -999.2500     12.1888    114.6741
  2409.0000     34.8264   -999.2500     12.1636    114.8093
  2409.1000     34.8264   -999.2500     12.1636    114.8093
  2409.2000     34.8264   -999.2500     12.1636    114.8093
  2409.3000     48.9232   -999.2500     12.1778    114.9448
  2409.4000     48.9232   -999.2500     12.1778    114.9448
  2409.5000     66.8749   -999.2500     12.1805    115.0396
  2409.6000     66.8749   -999.2500     12.1805    115.0396
  2409.7000     66.8749   -999.2500     12.1805    115.0396
  2409.8000     84.5241   -999.2500     12.1269    115.0369
  2409.9000     84.5241   -999.2500     12.1269    115.0369
  2410.0000     97.1886   -999.2500     12.0887    114.8622
  2410.1000     97.1886   -999.2500     12.0887    114.8622
  2410.2000     97.1886   -999.2500     12.0887    114.8622
  2410.3000    104.2432   -999.2500     12.1139    114.4221
  2410.4000    104.2432   -999.2500     12.1139    114.4221
  2410.5000    108.2558   -999.2500     12.1245    113.6057
  2410.6000    108.2558   -999.2500     12.1245    113.6057
  2410.7000    108.2558   -999.2500     12.1245    113.6057
  2410.8000    111.8864   -999.2500     12.1133    112.2887
  2410.9000    111.8864   -999.2500     12.1133    112.2887
  2411.0000    116.9406   -999.2500     12.0985    110.3420
  2411.1000    116.9406   -999.2500     12.0985    110.3420
  2411.2000    116.9406   -999.2500     12.0985    110.3420
  2411.3000 100000.0000   -999.2500     12.0434    107.6456
  2411.4000 100000.0000   -999.2500     12.0434    107.6456
  2411.5000 100000.0000   -999.2500     11.9854    104.1055
  2411.6000 100000.0000   -999.2500     11.9854    104.1055
  2411.7000 100000.0000   -999.2500     11.9854    104.1055
  2411.8000 100000.0000   -999.2500     11.9859     99.6737
  2411.9000 100000.0000   -999.2500     11.9859     99.6737
  2412.0000 100000.0000   -999.2500     12.0681     94.3652
  2412.1000 100000.0000   -999.2500     12.0681     94.3652
  2412.2000 100000.0000   -999.2500     12.0681     94.3652
  2412.3000 100000.0000   -999.2500     12.2645     88.2692
  2412.4000 100000.0000   -999.2500     12.2645     88.2692
  2412.5000 100000.0000   -999.2500     12.6436     81.5509
  2412.6000 100000.0000   -999.2500     12.6436     81.5509
  2412.7000 100000.0000   -999.2500     12.6436     81.5509
  2412.8000 100000.0000   -999.2500     13.0649     74.4402
  2412.9000 100000.0000   -999.2500     13.0649     74.4402
  2413.0000 100000.0000   -999.2500     12.6809     67.2100
  2413.1000 100000.0000   -999.2500     12.6809     67.2100
  2413.2000 100000.0000   -999.2500     12.6809     67.2100
  2413.3000 100000.0000   -999.2500      9.4484     60.1461
  2413.4000 100000.0000   -999.2500      9.4484     60.1461
  2413.5000 100000.0000   -999.2500      3.8476     53.5139
  2413.6000 100000.0000   -999.2500      3.8476     53.5139
  2413.7000 100000.0000   -999.2500      3.8476     53.5139
  2413.8000 100000.0000   -999.2500      0.4189     47.5299
  2413.9000 100000.0000   -999.2500      0.4189     47.5299
  2414.0000 100000.0000   -999.2500     -0.3482     42.3411
  2414.1000 100000.0000   -999.2500     -0.3482     42.3411
  2414.2000 100000.0000   -999.2500     -0.3482     42.3411
  2414.3000 100000.0000   -999.2500     -0.4112     38.0172
  2414.4000 100000.0000   -999.2500     -0.4112     38.0172
  2414.5000 100000.0000   -999.2500   -999.2500     34.5547
  2414.6000 100000.0000   -999.2500   -999.2500     34.5547
  2414.7000 100000.0000   -999.2500   -999.2500     34.5547
  2414.8000 100000.0000   -999.2500   -999.2500     31.8900
  2414.9000 100000.0000   -999.2500   -999.2500     31.8900
  2415.0000 100000.0000   -999.2500   -999.2500     29.9193
  2415.1000 100000.0000   -999.2500   -999.2500     29.9193
  2415.2000 100000.0000   -999.2500   -999.2500     29.9193
  2415.3000 100000.0000   -999.2500   -999.2500     28.5189
  2415.4000 100000.0000   -999.2500   -999.2500     28.5189
