~Version Information
VERS.                      2.0: CWLS Log ASCII Standard - VERSION 2.0
WRAP.                       NO: One line per depth step
~Well Information Block
STRT.FT               488.0000: 
STOP.FT              1824.7000: 
STEP.FT                 0.1000: 
NULL.                -999.2500: 
COMP.          Pioneer Natural Resources: COMPANY
WELL.            Buckeye 11-13: WELL
FLD.           Purgatoire River: FIELD
LOC.           211' FNL & 1054' FWL: LOCATION
STAT.                 Colorado: State
CNTY.               Las Animas: COUNTY
CTRY. USA : Country
SECT. 13 : Section
TOWN. 33S : Township
RANG. 67W : Range
SRVC.                Patterson: SERVICE COMPANY
DATE.          Mon Mar 07 02:06:39 2005: LOG DATE
API.           05 071 08317 00: UNIQUE WELL ID
~Curve Information Block
DEPT.FT            0 000 00 00: Depth
DCAL.in                       : CDL Caliper
RHOB.g/cc                     : CDL Bulk Density
RHOC.g/cc                     : CDL Density Correction
DPOR.pu                       : CDL Density Porosity
GR.GAPI                       : Gamma Ray
NPOR.pu                       : Neutron Porosity
~Parameter Information Block
~A  Depth       DCAL        RHOB        RHOC        DPOR         GR         NPOR    
# ...
   756.8000      7.9271      2.4463     -0.0553     12.3462    130.6862     25.6460
   756.9000      7.9271      2.4630      0.0046     11.3328    132.9898     25.5325
   757.0000      7.9262      2.4632     -0.0342     11.3185    130.1138     25.4839
   757.1000      7.9262      2.4649     -0.0887     11.2170    125.4884     25.3717
   757.2000      7.9262      2.4767     -0.0362     10.5029    121.0705     25.1800
   757.3000      7.9200      2.4797     -0.0132     10.3200    118.0353     25.2188
   757.4000      7.9200      2.4717     -0.0315     10.8082    119.4121     25.3095
   757.5000      7.8972      2.4691     -0.0124     10.9617    124.5709     24.8891
   757.6000      7.8972      2.4702      0.0140     10.8975    125.0480     24.2329
   757.7000      7.8972      2.4600     -0.0050     11.5147    115.9982     23.8645
   757.8000      7.9004      2.4352     -0.0148     13.0196    108.9128     23.7184
   757.9000      7.9004      2.4000     -0.0239     15.1545    115.5620     23.4240
   758.0000      7.8999      2.3649     -0.0801     17.2805    127.8242     22.9999
   758.1000      7.8999      2.3423     -0.0434     18.6483    132.3862     22.4957
   758.2000      7.8999      2.3424     -0.0676     18.6409    127.8596     21.6933
   758.3000      7.9338      2.3678     -0.0037     17.1059    123.6005     21.0473
   758.4000      7.9338      2.4029     -0.0067     14.9764    129.6254     21.0171
   758.5000      7.9609      2.4378      0.0015     12.8587    143.2139     21.3097
   758.6000      7.9609      2.4698      0.0746     10.9211    150.8740     21.7230
   758.7000      7.9609      2.4807      0.1399     10.2612    148.9339     22.1089
   758.8000      8.0406      2.4658      0.0593     11.1657    147.1487     22.0630
   758.9000      8.0406      2.4485      0.0216     12.2126    150.7409     21.5574
   759.0000      8.1023      2.4350      0.1207     13.0284    153.6931     21.0901
   759.1000      8.1023      2.4146      0.0235     14.2643    151.0644     20.8686
   759.2000      8.1023      2.3934     -0.0075     15.5511    147.7033     20.8203
   759.3000      8.0903      2.3852     -0.0913     16.0468    147.7374     20.9204
   759.4000      8.0903      2.3934      0.0238     15.5508    147.8767     21.0987
   759.5000      7.9265      2.4081      0.0449     14.6589    146.8932     21.0759
   759.6000      7.9265      2.4207      0.0258     13.8983    146.6139     20.6649
   759.7000      7.9265      2.4228      0.0563     13.7725    144.5457     20.5131
   759.8000      7.8707      2.4061      0.0626     14.7841    141.2677     21.3175
   759.9000      7.8707      2.3742      0.0239     16.7147    143.1895     22.8062
   760.0000      7.8684      2.3394     -0.0149     18.8265    149.2274     24.1564
   760.1000      7.8684      2.3102     -0.0157     20.5969    152.7221     24.7345
   760.2000      7.8684      2.2946     -0.0038     21.5374    152.1447     24.3690
   760.3000      7.8695      2.2974      0.0100     21.3704    150.8546     23.6134
   760.4000      7.8695      2.3002      0.0595     21.1984    150.7868     22.9570
   760.5000      7.8684      2.2859     -0.0071     22.0677    149.7216     22.6159
   760.6000      7.8684      2.2716     -0.0348     22.9326    145.6869     22.8440
   760.7000      7.8684      2.2755      0.0189     22.6957    141.5404     23.0224
   760.8000      7.8688      2.2887      0.0649     21.8967    145.4485     22.6905
   760.9000      7.8688      2.2972      0.0857     21.3791    157.2904     22.3916
   761.0000      7.8682      2.3004      0.0165     21.1885    163.4204     22.3104
   761.1000      7.8682      2.3015      0.0535     21.1185    157.0296     22.2829
   761.2000      7.8682      2.2968      0.0062     21.4045    147.3866     22.3096
   761.3000      7.8678      2.2908     -0.0028     21.7689    142.7963     22.4927
   761.4000      7.8678      2.3020     -0.0291     21.0925    140.8240     23.0058
   761.5000      7.8677      2.3365      0.0687     19.0028    142.0798     23.5259
   761.6000      7.8677      2.3695      0.1462     16.9990    149.2107     23.5853
   761.7000      7.8677      2.3691      0.1675     17.0256    153.2699     23.3999
   761.8000      7.8672      2.3298      0.1059     19.4070    147.7203     23.4729
   761.9000      7.8672      2.2780      0.0452     22.5475    140.5440     23.8992
   762.0000      7.8675      2.2447     -0.0114     24.5663    139.3873     24.3104
   762.1000      7.8675      2.2329      0.0455     25.2789    142.7079     24.4115
   762.2000      7.8675      2.2290     -0.0119     25.5173    146.1960     24.5532
   762.3000      7.8616      2.2358     -0.0228     25.1012    145.7627     24.6098
   762.4000      7.8616      2.2579      0.0046     23.7660    143.3655     24.0648
   762.5000      7.8666      2.2781      0.0583     22.5417    146.3633     23.5734
   762.6000      7.8666      2.2783      0.0445     22.5248    153.3841     23.8373
   762.7000      7.8666      2.2636     -0.0111     23.4192    157.8955     24.2872
   762.8000      7.8674      2.2536     -0.0070     24.0245    157.6103     24.2427
   762.9000      7.8674      2.2631     -0.0499     23.4489    152.0120     23.8975
   763.0000      7.8657      2.2860      0.0052     22.0619    145.6348     23.5544
   763.1000      7.8657      2.2941      0.0590     21.5672    144.6643     23.2265
   763.2000      7.8657      2.2762      0.0448     22.6520    147.6023     23.3252
   763.3000      7.8665      2.2600     -0.0212     23.6375    149.5965     24.2263
   763.4000      7.8665      2.2646      0.0517     23.3556    149.3436     24.9567
   763.5000      7.8660      2.2775      0.0284     22.5767    147.8971     24.6325
   763.6000      7.8660      2.2929     -0.0245     21.6447    145.5707     23.8906
   763.7000      7.8660      2.3146      0.0775     20.3284    140.3215     23.8091
   763.8000      7.8715      2.3316      0.0972     19.2969    132.5847     24.6063
   763.9000      7.8715      2.3317      0.1162     19.2911    131.0991     25.4416
   764.0000      7.8670      2.3201      0.0825     19.9927    139.6281     25.3744
   764.1000      7.8670      2.3115      0.1065     20.5122    149.7426     24.6670
   764.2000      7.8670      2.3120      0.0870     20.4840    154.9468     24.3727
   764.3000      7.8685      2.3207      0.0546     19.9588    156.2854     25.0752
   764.4000      7.8685      2.3334      0.0519     19.1857    158.2632     26.0338
   764.5000      7.8779      2.3437      0.0712     18.5665    163.2771     25.9512
   764.6000      7.8779      2.3469      0.0630     18.3708    166.9068     25.1166
   764.7000      7.8779      2.3449      0.0431     18.4887    167.4188     24.6546
   764.8000      7.8780      2.3496      0.0053     18.2060    167.5479     24.9818
   764.9000      7.8780      2.3718      0.0215     16.8584    163.9812     25.5260
   765.0000      7.8787      2.4044      0.0584     14.8829    153.6094     25.4470
   765.1000      7.8787      2.4299      0.0513     13.3410    142.6916     24.7892
   765.2000      7.8787      2.4345      0.0610     13.0597    138.0475     24.1022
   765.3000      7.8782      2.4175      0.0390     14.0890    142.6896     23.6763
   765.4000      7.8782      2.3934      0.0447     15.5529    151.8841     23.6926
   765.5000      7.8785      2.3723     -0.0138     16.8319    156.2039     23.8282
   765.6000      7.8785      2.3463      0.0301     18.4058    153.0036     23.2102
   765.7000      7.8785      2.3042      0.0338     20.9582    148.7421     21.9191
   765.8000      7.8789      2.2588     -0.0301     23.7065    149.8770     20.7385
   765.9000      7.8789      2.2394     -0.0141     24.8823    155.5844     19.9610
   766.0000      7.8766      2.2491      0.0275     24.2972    162.4590     19.5176
   766.1000      7.8766      2.2642      0.0875     23.3843    168.1390     19.0414
   766.2000      7.8766      2.2718      0.0517     22.9200    172.3319     17.9090
   766.3000      7.8565      2.2766      0.0702     22.6290    172.7366     16.0597
