~Version Information
VERS.                      2.0: CWLS Log ASCII Standard - VERSION 2.0
WRAP.                       NO: One line per depth step
~Well Information Block
STRT.FT                -1.5000: 
STOP.FT              1317.0000: 
STEP.FT                 0.2500: 
NULL.                -999.2500: 
COMP.          Pioneer Natural Resources: COMPANY
WELL.              Border 21-3: WELL
FLD.           Purgatoire River: FIELD
LOC.           865' FNL & 1415' FWL: LOCATION
PROV.                 Colorado: PROVINCE
CNTY.               Las Animas: COUNTRY
SRVC.                Patterson: SERVICE COMPANY
DATE.          Tue Dec 14 14:08:05 2004: LOG DATE
UWI.           05 071 08169 00: UNIQUE WELL ID
~Curve Information Block
DEPT.FT            0 000 00 00: Depth
GR.GAPI                       : Gamma Ray
CCL.                          : Casing Collar Locator
TT3.usec                      : CBL 3' Travel Time
AMP3.mV                       : CBL 3' Amplitude
~Parameter Information Block
~A  Depth        GR         CCL         TT3         AMP3    
# ...
   601.5000    135.9139      0.0000    741.9288      8.7583
   601.7500    132.5517      0.0000    745.6230      8.7367
   602.0000    126.2302      0.0000    751.9500      8.7004
   602.2500    117.8919      0.0000    757.2280      8.6806
   602.5000    110.3367      0.0000    759.9675      8.7052
   602.7500    105.5913      0.0000    761.2138      8.7747
   603.0000    103.4905      0.0000    762.6931      8.8616
   603.2500    102.9733      0.0000    764.8353      8.9336
   603.5000    104.0644      0.0000    766.6516      8.9712
   603.7500    107.8259      0.0000    767.1738      8.9688
   604.0000    114.4284      0.0000    766.3730      8.9310
   604.2500    121.9879      0.0000    764.7817      8.8757
   604.5000    127.7368      0.0000    763.1027      8.8307
   604.7500    130.1649      0.0000    762.3624      8.8160
   605.0000    129.9353      0.0000    763.5317      8.8280
   605.2500    128.9711      0.0000    766.5341      8.8431
   605.5000    128.7550      0.0000    770.1171      8.8349
   605.7500    129.3768      0.0000    772.9668      8.7903
   606.0000    129.9930      0.0000    774.6442      8.7185
   606.2500    130.0359      0.0000    775.4440      8.6473
   606.5000    129.9517      0.0000    775.7776      8.6056
   606.7500    130.7671      0.0000    775.8830      8.6026
   607.0000    132.8682      0.0000    775.8840      8.6221
   607.2500    135.2689      0.0000    775.8764      8.6378
   607.5000    136.3398      0.0000    775.9147      8.6348
   607.7500    135.2080      0.0000    775.9987      8.6220
   608.0000    132.2010      0.0000    776.1022      8.6258
   608.2500    128.3367      0.0000    776.1859      8.6680
   608.5000    125.0372      0.0000    776.1890      8.7450
   608.7500    123.9597      0.0000    776.0669      8.8274
   609.0000    126.0116      0.0000    775.8604      8.8856
   609.2500    130.1562      0.0000    775.7022      8.9193
   609.5000    133.7264      0.0000    775.7396      8.9578
   609.7500    134.3528      0.0000    776.0427      9.0316
   610.0000    131.7059      0.0000    776.5597      9.1447
   610.2500    127.6993      0.0000    777.1297      9.2698
   610.5000    125.1472      0.0000    777.5485      9.3671
   610.7500    125.8451      0.0000    777.6583      9.4126
   611.0000    129.4823      0.0000    777.4148      9.4105
   611.2500    134.1259      0.0000    776.8978      9.3791
   611.5000    137.5095      0.0000    776.2711      9.3248
   611.7500    137.9353      0.0000    775.7158      9.2372
   612.0000    134.5939      0.0000    775.3599      9.1118
   612.2500    127.7309      0.0000    775.2355      8.9704
   612.5000    118.7660      0.0000    775.2297      8.8494
   612.7500    110.0490      0.0000    774.9973      8.7671
   613.0000    104.0494      0.0000    773.8241      8.7067
   613.2500    102.2072      0.0000    770.7336      8.6331
   613.5000    104.1397      0.0000    765.1973      8.5252
   613.7500    107.9066      0.0000    758.1809      8.3953
   614.0000    111.3241      0.0000    752.2614      8.2782
   614.2500    113.3765      0.0000    750.0571      8.2028
   614.5000    114.6178      0.0000    751.9473      8.1760
   614.7500    116.3312      0.0000    755.7939      8.1852
   615.0000    119.2163      0.0000    760.3436      8.2001
   615.2500    122.8126      0.0000    769.4116      8.1704
   615.5000    126.1196      0.0000    789.8846      8.0516
   615.7500    128.4655      0.0000    822.6143      7.8555
   616.0000    129.5272      0.0000    856.8502      7.6542
   616.2500    129.1611      0.0000    877.3500      7.5189
   616.5000    128.0412     -2.0000    877.2496      7.4654
   616.7500    127.9715     -2.0000    862.3871      7.4639
   617.0000    130.4052      2.0000    844.2173      7.4818
   617.2500    134.5067      0.0000    830.8995      7.5147
   617.5000    137.4206      0.0000    824.0162      7.5909
   617.7500    136.8342      0.0000    820.3669      7.7342
   618.0000    133.1012      0.0000    815.6949      7.9111
   618.2500    128.7793      0.0000    808.0228      8.0414
   618.5000    126.2971      0.0000    798.5720      8.0921
   618.7500    126.1544      0.0000    790.0471      8.1226
   619.0000    127.1337      0.0000    784.2813      8.2033
   619.2500    127.8422      0.0000    781.4376      8.3275
   619.5000    127.7766      0.0000    780.7733      8.4394
   619.7500    127.1372      0.0000    781.7244      8.5101
   620.0000    126.1945      0.0000    784.2687      8.5579
   620.2500    125.2456      0.0000    788.3844      8.6143
   620.5000    125.0672      0.0000    793.1371      8.6922
   620.7500    126.8549      0.0000    796.5723      8.7782
   621.0000    131.2174      0.0000    797.0560      8.8451
   621.2500    137.2531      0.0000    794.8832      8.8761
   621.5000    142.9085      0.0000    792.1136      8.8791
   621.7500    146.2252      0.0000    790.5781      8.8770
   622.0000    146.2624      0.0000    790.2642      8.8854
   622.2500    143.2569      0.0000    789.7721      8.9065
   622.5000    138.3636      0.0000    788.0848      8.9387
   622.7500    133.3440      0.0000    785.5596      8.9869
   623.0000    130.2420      0.0000    783.2872      9.0621
   623.2500    130.7047      0.0000    782.0125      9.1727
   623.5000    134.9197      0.0000    781.9049      9.3105
   623.7500    141.0909      0.0000    782.9868      9.4439
   624.0000    146.2825      0.0000    785.3472      9.5326
   624.2500    148.0428      0.0000    788.7324      9.5571
   624.5000    145.6359      0.0000    791.9481      9.5316
   624.7500    140.3949      0.0000    793.1135      9.4868
   625.0000    134.9103      0.0000    791.1730      9.4489
   625.2500    131.1521      0.0000    787.1509      9.4350
   625.5000    129.2373      0.0000    783.3177      9.4590
   625.7500    128.3760      0.0000    781.1464      9.5344
   626.0000    128.6503      0.0000    780.5192      9.6734
   626.2500    131.0358      0.0000    780.6100      9.8797
   626.5000    135.7054      0.0000    780.8322     10.1336
   626.7500    141.0257      0.0000    780.9680     10.3836
   627.0000    144.5426      0.0000    780.9420     10.5698
   627.2500    144.8260      0.0000    780.7342     10.6690
   627.5000    142.3229      0.0000    780.3914     10.7140
   627.7500    138.5596      0.0000    780.0009     10.7652
   628.0000    134.6585      0.0000    779.6512     10.8654
   628.2500    130.7693      0.0000    779.4058     11.0145
   628.5000    126.7674      0.0000    779.2986     11.1750
   628.7500    123.0019      0.0000    779.3328     11.2951
   629.0000    120.1946      0.0000    779.4699     11.3346
   629.2500    118.8523      0.0000    779.6239     11.2757
   629.5000    118.8414      0.0000    779.6997     11.1145
   629.7500    119.3996      0.0000    779.6660     10.8570
   630.0000    119.6003      0.0000    779.5779     10.5299
   630.2500    118.9960      0.0000    779.5126     10.1829
   630.5000    118.1483      0.0000    779.4921      9.8630
   630.7500    118.6110      0.0000    779.4824      9.5877
   631.0000    121.8192      0.0000    779.4462      9.3490
   631.2500    127.5213      0.0000    779.3723      9.1389
   631.5000    133.5451      0.0000    779.2696      8.9619
   631.7500    137.3711      0.0000    779.1558      8.8240
   632.0000    137.8816      0.0000    779.0568      8.7181
   632.2500    135.8550      0.0000    779.0409      8.6258
   632.5000    133.1887      0.0000    779.2789      8.5326
   632.7500    131.5565      0.0000    780.0748      8.4407
   633.0000    131.3730      0.0000    781.7287      8.3656
   633.2500    131.6949      0.0000    784.1445      8.3218
   633.5000    131.0265      0.0000    786.4756      8.3096
   633.7500    128.4163      0.0000    787.3771      8.3110
   634.0000    123.9963      0.0000    785.8873      8.3020
   634.2500    118.6524      0.0000    781.9600      8.2706
   634.5000    113.5253      0.0000    776.1686      8.2264
   634.7500    109.9028      0.0000    769.5195      8.1924
