~Version Information
VERS.                      2.0: CWLS Log ASCII Standard - VERSION 2.0
WRAP.                       NO: One line per depth step
~Well Information Block
STRT.FT               652.0000: 
STOP.FT              1880.5000: 
STEP.FT                 0.2500: 
NULL.                -999.2500: 
COMP.          Pioneer Natural Resources: COMPANY
WELL.          Corkscrew 33-12 Tr: WELL
FLD.           Purgatoire River: FIELD
LOC.           1870' FSL & 1706' FEL: LOCATION
PROV.                 Colorado: PROVINCE
CNTY.               Las Animas: COUNTRY
SRVC.                Patterson: SERVICE COMPANY
DATE.          Mon Mar 28 22:58:28 2005: LOG DATE
UWI.           05 071 08295 00: UNIQUE WELL ID
~Curve Information Block
DEPT.FT            0 000 00 00: Depth
SN.Ohm-m                      : IEL Short Normal
SP.mV                         : IEL Spontaneous Potential
DIR.Ohm-m                     : IEL Induction Resistivity
GR.GAPI                       : Gamma Ray
~Parameter Information Block
~A  Depth        SN          SP         DIR          GR     
# ...
   987.0000   2000.0000   2000.0000      0.1867    118.3631
   987.2500   2000.0000   2000.0000      0.4519    116.3864
   987.5000   2000.0000   2000.0000      1.1399    115.0595
   987.7500   2000.0000   2000.0000      4.3357    114.6695
   988.0000   2000.0000   2000.0000 100000.0000    114.1481
   988.2500   2000.0000   2000.0000 100000.0000    113.8053
   988.5000   2000.0000   2000.0000 100000.0000    113.7262
   988.7500   2000.0000   2000.0000 100000.0000    114.3486
   989.0000   2000.0000   2000.0000 100000.0000    116.9149
   989.2500   2000.0000   2000.0000 100000.0000    119.9861
   989.5000   2000.0000   2000.0000 100000.0000    126.8490
   989.7500   2000.0000   2000.0000 100000.0000    132.7135
   990.0000   2000.0000   2000.0000 100000.0000    142.0764
   990.2500   2000.0000   2000.0000 100000.0000    147.4502
   990.5000   2000.0000   2000.0000 100000.0000    152.4780
   990.7500   2000.0000   2000.0000 100000.0000    153.6947
   991.0000   2000.0000   2000.0000 100000.0000    153.6798
   991.2500   2000.0000   2000.0000 100000.0000    153.3784
   991.5000   2000.0000   2000.0000 100000.0000    152.9636
   991.7500   2000.0000   2000.0000 100000.0000    152.4830
   992.0000   2000.0000   2000.0000 100000.0000    151.5128
   992.2500   2000.0000   2000.0000 100000.0000    151.1589
   992.5000   2000.0000   2000.0000 100000.0000    151.4506
   992.7500   2000.0000   2000.0000 100000.0000    151.7023
   993.0000   2000.0000   2000.0000 100000.0000    150.7970
   993.2500   2000.0000   2000.0000 100000.0000    149.0827
   993.5000   2000.0000   2000.0000 100000.0000    145.9443
   993.7500   2000.0000   2000.0000     27.8917    144.3316
   994.0000   2000.0000   2000.0000     13.4418    142.6789
   994.2500   2000.0000   2000.0000      9.8870    141.1600
   994.5000     10.7721    -27.4647      8.5518    136.5648
   994.7500     11.3391    -27.3704      8.0298    131.8028
   995.0000     11.9914    -27.2621      7.8896    123.6865
   995.2500     12.6379    -27.1563      7.9692    119.2580
   995.5000     13.2480    -27.0829      8.2146    116.7222
   995.7500     13.8330    -27.0663      8.6181    118.3475
   996.0000     14.3726    -27.1063      9.1834    124.4348
   996.2500     14.7786    -27.1746      9.9052    129.3246
   996.5000     14.9650    -27.2306     10.7568    135.6307
   996.7500     14.9398    -27.2451     11.6865    138.7748
   997.0000     14.7963    -27.2170     12.6174    142.5245
   997.2500     14.6428    -27.1721     13.4550    144.6613
   997.5000     14.5460    -27.1460     14.1063    146.8030
   997.7500     14.5125    -27.1609     14.5142    147.0679
   998.0000     14.5235    -27.2139     14.6859    145.8970
   998.2500     14.5589    -27.2755     14.6886    144.6998
   998.5000     14.5771    -27.3014     14.6146    143.2579
   998.7500     14.5281    -27.2553     14.5409    142.7419
   999.0000     14.4234    -27.1326     14.5066    142.4746
   999.2500     14.3435    -26.9629     14.5080    142.2747
   999.5000     14.3460    -26.7821     14.5119    141.1016
   999.7500     14.3964    -26.6071     14.4761    139.5626
  1000.0000     14.4113    -26.4392     14.3727    137.0461
  1000.2500     14.3536    -26.2844     14.1997    136.1977
  1000.5000     14.2603    -26.1592     13.9745    137.2456
  1000.7500     14.1920    -26.0758     13.7161    139.3032
  1001.0000     14.1722    -26.0320     13.4319    142.9543
  1001.2500     14.1599    -26.0166     13.1179    144.7451
  1001.5000     14.0735    -26.0226     12.7695    145.2862
  1001.7500     13.8452    -26.0543     12.3921    144.0583
  1002.0000     13.4445    -26.1238     12.0036    140.4289
  1002.2500     12.8763    -26.2449     11.6276    137.5116
  1002.5000     12.2188    -26.4275     11.2823    133.6770
  1002.7500     11.6265    -26.6757     10.9740    131.9955
  1003.0000     11.1936    -26.9892     10.6994    130.9145
  1003.2500     10.8738    -27.3684     10.4531    130.8151
  1003.5000     10.6017    -27.8149     10.2351    130.9927
  1003.7500     10.3713    -28.3244     10.0523    131.2928
  1004.0000     10.1938    -28.8783      9.9134    132.2181
  1004.2500     10.0732    -29.4427      9.8213    133.0563
  1004.5000     10.0229    -29.9776      9.7658    134.0871
  1004.7500     10.0626    -30.4459      9.7248    134.3334
  1005.0000     10.1971    -30.8203      9.6753    133.9404
  1005.2500     10.4029    -31.0905      9.6099    133.4075
  1005.5000     10.6177    -31.2695      9.5448    133.0083
  1005.7500     10.7471    -31.3908      9.5118    133.3998
  1006.0000     10.7257    -31.4921      9.5430    134.9649
  1006.2500     10.5821    -31.5964      9.6627    136.3639
  1006.5000     10.4415    -31.7012      9.8888    138.6554
  1006.7500     10.4885    -31.7797     10.2364    140.3354
  1007.0000     10.9213    -31.7931     10.7138    143.1204
  1007.2500     11.8883    -31.7155     11.3111    144.9289
  1007.5000     13.4174    -31.5601     11.9896    146.4270
  1007.7500     15.4105    -31.3798     12.6879    145.5488
  1008.0000     17.7329    -31.2356     13.3519    139.7208
  1008.2500     20.3034    -31.1617     13.9753    132.6257
  1008.5000     23.0938    -31.1617     14.6136    119.0120
  1008.7500     26.0966    -31.2218     15.3508    110.1206
  1009.0000     29.3333    -31.3201     16.2348    101.0134
  1009.2500     32.8118    -31.4277     17.2115     98.9907
  1009.5000     36.3919    -31.5166     18.1011    101.0715
  1009.7500     39.7225    -31.5723     18.6729    104.0888
  1010.0000     42.3966    -31.5999     18.8132    108.3423
  1010.2500     44.2018    -31.6140     18.6260    110.4375
  1010.5000     45.2319    -31.6236     18.3458    112.8922
  1010.7500     45.7966    -31.6284     18.1775    114.5647
  1011.0000     46.2270    -31.6266     18.2267    117.8708
  1011.2500     46.7033    -31.6220     18.5284    120.7015
  1011.5000     47.2245    -31.6270     19.1017    124.8282
  1011.7500     47.7054    -31.6612     19.9722    126.2689
  1012.0000     48.0826    -31.7463     21.1366    124.8260
  1012.2500     48.3450    -31.8923     22.4830    121.6260
  1012.5000     48.5229    -32.0847     23.7070    115.6816
  1012.7500     48.6735    -32.2837     24.3094    112.4936
  1013.0000     48.8215    -32.4431     23.7969    110.1325
  1013.2500     48.8681    -32.5355     22.0650    109.9222
  1013.5000     48.6039    -32.5674     19.5757    110.7696
  1013.7500     47.8570    -32.5750     17.0355    111.9896
  1014.0000     46.6364    -32.6054     14.9557    115.0603
  1014.2500     45.0606    -32.6961     13.5315    117.7929
  1014.5000     43.1408    -32.8560     12.7577    122.0517
  1014.7500     40.7913    -33.0553     12.5555    124.7063
  1015.0000     38.0818    -33.2290     12.8291    128.8621
  1015.2500     35.3297    -33.3063     13.4689    132.0316
  1015.5000     32.8935    -33.2535     14.3320    136.5559
  1015.7500     30.9673    -33.0966     15.2301    138.2283
  1016.0000     29.6066    -32.9024     15.9598    137.0581
  1016.2500     28.8480    -32.7373     16.3718    133.7627
  1016.5000     28.7525    -32.6395     16.4276    126.0636
  1016.7500     29.4064    -32.6156     16.1875    119.5966
  1017.0000     30.9308    -32.6540     15.7476    107.9720
  1017.2500     33.4784    -32.7399     15.1897     98.8207
  1017.5000     37.2002    -32.8634     14.5766     83.3222
  1017.7500     42.1762    -33.0166     13.9695     72.5334
  1018.0000     48.2778    -33.1854     13.4313     57.6667
  1018.2500     54.9871    -33.3513     13.0137     49.8060
  1018.5000     61.3899    -33.5018     12.7524     42.0304
  1018.7500     66.4657    -33.6369     12.6916     39.3315
  1019.0000     69.4693    -33.7650     12.9386     38.4382
  1019.2500     70.1151    -33.9012     13.7552     40.0250
  1019.5000     68.4703    -34.0701     15.7815     46.3238
  1019.7500     64.7461    -34.3030     20.9741     53.3381
  1020.0000     59.2594    -34.6232     40.0606     67.7452
  1020.2500     52.6263    -35.0304 100000.0000     79.3130
