~Version Information
VERS.                      2.0: CWLS Log ASCII Standard - VERSION 2.0
WRAP.                       NO: One line per depth step
~Well Information Block
STRT.FT               580.0000: 
STOP.FT              1756.7500: 
STEP.FT                 0.2500: 
NULL.                -999.2500: 
COMP.          Pioneer Natural Resources: COMPANY
WELL.          Lookout Point 31-23 Tr: WELL
FLD.           Purgatoire River: FIELD
LOC.           541' FNL & 1786' FEL: LOCATION
PROV.                 Colorado: PROVINCE
CNTY.               Las Animas: COUNTRY
SRVC.                Patterson: SERVICE COMPANY
DATE.          Sun Jan 23 04:14:25 2005: LOG DATE
UWI.           05 071 08260 00: UNIQUE WELL ID
~Curve Information Block
DEPT.FT            0 000 00 00: Depth
DIR.Ohm-m                     : IEL Induction Resistivity
GR.GAPI                       : Gamma Ray
SN.Ohm-m                      : IEL Short Normal
SP.mV                         : IEL Spontaneous Potential
~Parameter Information Block
~A  Depth       DIR          GR          SN          SP     
# ...
  1417.5000     13.9678    114.2222     16.5559    178.8815
  1417.7500     14.7480    110.2370     17.7260    177.5510
  1418.0000     15.5780    105.3838     18.8125    176.4661
  1418.2500     16.3922    101.9338     19.6517    175.7046
  1418.5000     17.1024     95.8133     20.1379    175.3054
  1418.7500     17.6293     91.6877     20.2894    175.2652
  1419.0000     17.9372     87.3722     20.2415    175.5473
  1419.2500     18.0425     86.7126     20.1644    176.0973
  1419.5000     17.9907     89.7422     20.1548    176.8622
  1419.7500     17.8224     94.2856     20.1825    177.8031
  1420.0000     17.5549    103.6585     20.1284    178.8984
  1420.2500     17.1865    110.4282     19.8777    180.1362
  1420.5000     16.7121    119.3033     19.3887    181.4991
  1420.7500     16.1384    123.5533     18.6906    182.9510
  1421.0000     15.4869    126.8431     17.8394    184.4323
  1421.2500     14.7883    127.1881     16.8909    185.8692
  1421.5000     14.0756    126.5453     15.9075    187.1922
  1421.7500     13.3807    126.8186     14.9625    188.3540
  1422.0000     12.7341    130.3920     14.1213    189.3399
  1422.2500     12.1648    135.2234     13.4256    190.1640
  1422.5000     11.6972    144.9907     12.8988    190.8586
  1422.7500     11.3470    151.8003     12.5515    191.4603
  1423.0000     11.1181    159.8067     12.3766    191.9980
  1423.2500     11.0040    162.5167     12.3505    192.4850
  1423.5000     10.9932    161.7917     12.4489    192.9145
  1423.7500     11.0771    158.0756     12.6674    193.2630
  1424.0000     11.2548    148.2487     13.0265    193.5004
  1424.2500     11.5330    139.9213     13.5602    193.6056
  1424.5000     11.9215    127.5308     14.3009    193.5767
  1424.7500     12.4269    120.4925     15.2672    193.4309
  1425.0000     13.0494    111.7314     16.4581    193.1918
  1425.2500     13.7829    106.4648     17.8480    192.8712
  1425.5000     14.6187     99.0289     19.3871    192.4573
  1425.7500     15.5481     94.5994     21.0149    191.9175
  1426.0000     16.5634     88.8865     22.6836    191.2136
  1426.2500     17.6582     85.4389     24.3736    190.3239
  1426.5000     18.8268     80.4902     26.0840    189.2612
  1426.7500     20.0623     77.5772     27.8071    188.0787
  1427.0000     21.3529     74.5242     29.5088    186.8626
  1427.2500     22.6763     73.4513     31.1284    185.7125
  1427.5000     23.9964     72.5086     32.6010    184.7204
  1427.7500     25.2673     71.7014     33.8818    183.9560
  1428.0000     26.4413     69.6315     34.9505    183.4652
  1428.2500     27.4725     67.6818     35.7911    183.2801
  1428.5000     28.3061     64.2639     36.3649    183.4285
  1428.7500     28.8621     62.0397     36.6058    183.9340
  1429.0000     29.0444     59.7218     36.4479    184.8027
  1429.2500     28.7934     59.4270     35.8629    186.0070
  1429.5000     28.1379     61.5103     34.8749    187.4783
  1429.7500     27.1857     64.6932     33.5518    189.1148
  1430.0000     26.0578     72.0143     31.9923    190.8011
  1430.2500     24.8409     78.3698     30.3188    192.4275
  1430.5000     23.5955     89.4888     28.6564    193.9021
  1430.7500     22.3826     97.5078     27.0939    195.1553
  1431.0000     21.2670    109.6147     25.6590    196.1445
  1431.2500     20.2969    117.0926     24.3369    196.8609
  1431.5000     19.4898    125.8513     23.1175    197.3386
  1431.7500     18.8363    129.1736     22.0180    197.6543
  1432.0000     18.3123    129.9146     21.0567    197.9137
  1432.2500     17.8888    128.0698     20.2181    198.2264
  1432.5000     17.5350    123.2727     19.4548    198.6781
  1432.7500     17.2181    119.5313     18.7252    199.3085
  1433.0000     16.9047    114.3542     18.0327    200.1047
  1433.2500     16.5682    112.0474     17.4368    201.0081
  1433.5000     16.2013    111.8877     17.0232    201.9308
  1433.7500     15.8207    114.5280     16.8488    202.7780
  1434.0000     15.4560    121.9468     16.8986    203.4670
  1434.2500     15.1304    127.6722     17.0883    203.9413
  1434.5000     14.8476    133.7271     17.3064    204.1786
  1434.7500     14.5976    134.4359     17.4659    204.1965
  1435.0000     14.3724    130.3744     17.5306    204.0578
  1435.2500     14.1782    125.5173     17.5060    203.8726
  1435.5000     14.0305    117.4853     17.4044    203.7874
  1435.7500     13.9359    112.5102     17.2133    203.9563
  1436.0000     13.8738    106.1865     16.8910    204.4990
  1436.2500     13.7945    102.7661     16.3949    205.4614
  1436.5000     13.6379     98.7487     15.7259    206.7979
  1436.7500     13.3632     97.0917     14.9519    208.3855
  1437.0000     12.9654     97.8679     14.1836    210.0641
  1437.2500     12.4695    101.9801     13.5127    211.6835
  1437.5000     11.9108    114.7982     12.9620    213.1388
  1437.7500     11.3210    127.0002     12.4840    214.3825
  1438.0000     10.7247    147.2604     12.0048    215.4139
  1438.2500     10.1427    159.7604     11.4744    216.2567
  1438.5000      9.5948    174.1516     10.8878    216.9379
  1438.7500      9.1000    180.0145     10.2713    217.4768
  1439.0000      8.6754    183.1521      9.6599    217.8867
  1439.2500      8.3335    182.2601      9.0855    218.1837
  1439.5000      8.0805    178.7510      8.5748    218.3952
  1439.7500      7.9159    176.2129      8.1493    218.5623
  1440.0000      7.8326    173.0592      7.8223    218.7335
  1440.2500      7.8180    171.3060      7.5946    218.9544
  1440.5000      7.8561    168.8588      7.4522    219.2568
  1440.7500      7.9295    167.2794      7.3757    219.6543
  1441.0000      8.0216    164.6390      7.3555    220.1439
  1441.2500      8.1186    162.2012      7.4018    220.7123
  1441.5000      8.2102    157.0299      7.5365    221.3433
  1441.7500      8.2900    153.0510      7.7734    222.0208
  1442.0000      8.3566    148.1085      8.0990    222.7279
  1442.2500      8.4136    146.3504      8.4655    223.4435
  1442.5000      8.4684    146.0168      8.8033    224.1391
  1442.7500      8.5301    146.5857      9.0533    224.7818
  1443.0000      8.6047    147.1750      9.2014    225.3414
  1443.2500      8.6928    146.9392      9.2817    225.7995
  1443.5000      8.7883    145.4741      9.3379    226.1553
  1443.7500      8.8804    143.6911      9.3825    226.4266
  1444.0000      8.9569    139.7283      9.3983    226.6450
  1444.2500      9.0074    136.5139      9.3688    226.8467
  1444.5000      9.0278    132.0670      9.2987    227.0637
  1444.7500      9.0233    130.1167      9.2087    227.3157
  1445.0000      9.0073    129.1929      9.1213    227.6055
  1445.2500      8.9952    129.6725      9.0509    227.9180
  1445.5000      8.9964    131.4652      9.0007    228.2231
  1445.7500      9.0104    133.2359      8.9649    228.4815
  1446.0000      9.0289    136.5293      8.9338    228.6552
  1446.2500      9.0415    138.7103      8.8999    228.7185
  1446.5000      9.0405    140.6961      8.8610    228.6677
  1446.7500      9.0225    140.5199      8.8195    228.5249
  1447.0000      8.9885    137.8193      8.7785    228.3333
  1447.2500      8.9439    134.8526      8.7378    228.1447
  1447.5000      8.8975    129.9301      8.6931    228.0030
  1447.7500      8.8586    127.2078      8.6402    227.9289
  1448.0000      8.8330    125.4763      8.5787    227.9106
  1448.2500      8.8206    126.4456      8.5114    227.9054
  1448.5000      8.8178    130.8327      8.4413    227.8540
  1448.7500      8.8209    134.9248      8.3710    227.7030
  1449.0000      8.8289    141.0821      8.3044    227.4256
  1449.2500      8.8421    144.3180      8.2490    227.0328
  1449.5000      8.8605    146.9662      8.2158    226.5679
  1449.7500      8.8816    147.1567      8.2182    226.0894
  1450.0000      8.9013    145.5239      8.2656    225.6519
  1450.2500      8.9164    143.7010      8.3583    225.2926
  1450.5000      8.9252    141.0724      8.4861    225.0299
  1450.7500      8.9284    139.9450      8.6305    224.8698
