~Version Information
VERS.                      2.0: CWLS Log ASCII Standard - VERSION 2.0
WRAP.                       NO: One line per depth step
~Well Information Block
STRT.FT               -10.0000: 
STOP.FT              2297.5000: 
STEP.FT                 0.2500: 
NULL.                -999.2500: 
COMP.          Pioneer Natural Resources: COMPANY
WELL.              Bobsy 34-11: WELL
FLD.           Purgatorie River: FIELD
LOC.           1937' FEL & 451' FSL----------: LOCATION
PROV.                       CO: PROVINCE
CNTY.               Las Animas: COUNTRY
SRVC.          Patterson Wireline: SERVICE COMPANY
DATE.          Mon Apr 18 09:37:11 2005: LOG DATE
UWI.           05 071 08330 00: UNIQUE WELL ID
~Curve Information Block
DEPT.FT            0 000 00 00: Depth
CCL.                          : Casing Collar Locator
TT3.usec                      : CBL 3' Travel Time
AMP3.mV                       : CBL 3' Amplitude
GR.GAPI                       : Gamma Ray
~Parameter Information Block
~A  Depth       CCL         TT3         AMP3         GR     
# ...
  1363.5000      0.0000    682.7238      4.9662     79.6630
  1363.7500      0.0000    676.5920      5.1931     78.5765
  1364.0000      0.0000    675.3037      5.2893     76.8417
  1364.2500      0.0000    675.6769      5.2215     75.9961
  1364.5000      0.0000    675.0875      4.9943     77.3399
  1364.7500      0.0000    673.2175      4.6601     80.5106
  1365.0000      0.0000    671.2270      4.3113     83.8989
  1365.2500      0.0000    670.0554      4.0511     86.2840
  1365.5000      0.0000    669.7750      3.9555     87.5702
  1365.7500      0.0000    669.9618      4.0473     88.1386
  1366.0000      0.0000    670.1321      4.2928     88.2059
  1366.2500      0.0000    669.8219      4.6181     87.9689
  1366.5000      0.0000    668.4678      4.9291     87.9107
  1366.7500      0.0000    665.4883      5.1316     88.5995
  1367.0000      0.0000    660.8356      5.1560     90.0438
  1367.2500      0.0000    655.7719      4.9867     91.2726
  1367.5000      0.0000    652.8148      4.6762     90.8639
  1367.7500      0.0000    654.1937      4.3293     88.1754
  1368.0000      0.0000    659.9935      4.0633     84.0138
  1368.2500      0.0000    667.9150      3.9645     79.9450
  1368.5000      0.0000    674.8416      4.0622     77.0048
  1368.7500      0.0000    678.7264      4.3239     75.2647
  1369.0000      0.0000    679.6116      4.6685     74.5609
  1369.2500      0.0000    679.2686      4.9892     75.2188
  1369.5000      0.0000    679.5835      5.1814     77.7857
  1369.7500      0.0000    681.0303      5.1810     82.1120
  1370.0000      0.0000    682.7524      5.0016     86.8943
  1370.2500      0.0000    683.9107      4.7422     90.3819
  1370.5000      0.0000    684.5620      4.5443     91.6444
  1370.7500      0.0000    685.4630      4.5088     91.0335
  1371.0000      0.0000    687.5798      4.6273     89.4628
  1371.2500      0.0000    691.5252      4.7849     87.5256
  1371.5000      0.0000    696.7151      4.8436     85.3115
  1371.7500      0.0000    701.1174      4.7474     82.7822
  1372.0000      0.0000    702.1276      4.5683     80.1590
  1372.2500      0.0000    697.9620      4.4456     77.8926
  1372.5000      0.0000    689.0783      4.4640     76.2118
  1372.7500      0.0000    678.9301      4.5798     74.8329
  1373.0000      0.0000    672.1690      4.6667     73.3675
  1373.2500      0.0000    670.5366      4.6363     71.9781
  1373.5000      0.0000    671.0328      4.5184     71.3969
  1373.7500      0.0000    669.1135      4.4262     72.2995
  1374.0000      0.0000    663.0393      4.4419     74.8092
  1374.2500      0.0000    654.9188      4.5374     78.6685
  1374.5000      0.0000    648.9722      4.6046     83.8800
  1374.7500      0.0000    649.2245      4.5614     90.9206
  1375.0000      0.0000    657.3638      4.4328     99.7579
  1375.2500      0.0000    671.5164      4.3342    108.6611
  1375.5000      0.0000    687.1648      4.3691    114.8804
  1375.7500      0.0000    699.8991      4.5365    117.1717
  1376.0000      0.0000    707.6823      4.7302    117.3004
  1376.2500      0.0000    710.9219      4.8175    118.5284
  1376.5000      0.0000    710.9074      4.7227    122.7636
  1376.7500      0.0000    708.4554      4.4653    129.4223
  1377.0000      0.0000    703.8842      4.1465    136.6222
  1377.2500      0.0000    697.9042      3.8960    142.7131
  1377.5000      0.0000    692.0099      3.7978    146.5992
  1377.7500      0.0000    687.6842      3.8459    147.3893
  1378.0000      0.0000    685.4203      3.9758    144.5812
  1378.2500      0.0000    684.7921      4.1364    138.8459
  1378.5000      0.0000    685.0369      4.3126    132.3711
  1378.7500      0.0000    685.3361      4.4793    127.9993
  1379.0000      0.0000    685.3113      4.5741    127.5487
  1379.2500      0.0000    685.7927      4.5499    130.4930
  1379.5000      0.0000    688.4283      4.4362    133.9465
  1379.7500      0.0000    693.8701      4.3147    134.1170
  1380.0000      0.0000    700.7198      4.2418    128.5009
  1380.2500      0.0000    706.7201      4.2201    117.3850
  1380.5000      0.0000    710.6120      4.2374    103.5913
  1380.7500      0.0000    712.5671      4.2898     90.8275
  1381.0000      0.0000    713.3716      4.3637     81.9504
  1381.2500      0.0000    713.6848      4.4287     78.0207
  1381.5000      0.0000    713.8601      4.4614     78.3073
  1381.7500      0.0000    714.0414      4.4595     81.1166
  1382.0000      0.0000    714.2491      4.4324     84.9202
  1382.2500      0.0000    714.4490      4.3824     88.9965
  1382.5000      0.0000    714.5929      4.3017     93.1472
  1382.7500      0.0000    714.6767      4.1889     96.9446
  1383.0000      0.0000    714.7437      4.0657     99.4343
  1383.2500      0.0000    714.7584      3.9740     99.6898
  1383.5000      0.0000    714.3600      3.9509     97.7281
  1383.7500      0.0000    712.8610      3.9991     94.8789
  1384.0000      0.0000    709.8281      4.0761     92.9886
  1384.2500      0.0000    706.0817      4.1155     92.7636
  1384.5000      0.0000    704.1692      4.0764     92.7075
  1384.7500      0.0000    707.6304      3.9817     90.0512
  1385.0000      0.0000    719.4301      3.9022     83.2912
  1385.2500      0.0000    740.4044      3.8946     73.9467
  1385.5000      0.0000    768.1010      3.9576     65.6563
  1385.7500      2.0000    796.4753      4.0405     61.3719
  1386.0000      2.0000    817.3972      4.0862     61.2387
  1386.2500      0.0000    824.0569      4.0772     63.0340
  1386.5000      0.0000    814.3406      4.0502     64.5751
  1386.7500      0.0000    791.8285      4.0623     65.6497
  1387.0000      0.0000    763.9469      4.1300     67.7599
  1387.2500      0.0000    738.6488      4.2122     72.5025
  1387.5000      0.0000    721.2295      4.2594     80.4200
  1387.7500      0.0000    712.6450      4.2553     90.6938
  1388.0000      0.0000    710.2731      4.2049    101.1401
  1388.2500      0.0000    710.5393      4.1197    108.7971
  1388.5000      0.0000    711.1274      4.0298    111.4206
  1388.7500      0.0000    711.3228      3.9743    108.7113
  1389.0000      0.0000    711.1619      3.9617    102.0544
  1389.2500      0.0000    710.7698      3.9617     93.4232
  1389.5000      0.0000    710.2599      3.9466     84.7162
  1389.7500      0.0000    709.7964      3.9279     77.4625
  1390.0000      0.0000    709.5212      3.9465     72.3864
  1390.2500      0.0000    709.4434      4.0279     69.0952
  1390.5000      0.0000    709.4591      4.1477     66.4928
  1390.7500      0.0000    709.4859      4.2406     63.7758
  1391.0000      0.0000    709.5392      4.2525     61.1008
  1391.2500      0.0000    709.6745      4.1851     59.2543
  1391.5000      0.0000    709.8938      4.0931     58.7282
  1391.7500      0.0000    710.1407      4.0446     59.2019
  1392.0000      0.0000    710.3659      4.0812     59.8348
  1392.2500      0.0000    710.5668      4.1966     59.9349
  1392.5000      0.0000    710.7711      4.3397     59.3899
  1392.7500      0.0000    711.0086      4.4472     58.5855
  1393.0000      0.0000    711.2972      4.4901     57.9659
  1393.2500      0.0000    711.6300      4.4854     57.6742
  1393.5000      0.0000    711.9852      4.4630     57.5565
  1393.7500      0.0000    712.3837      4.4282     57.3812
  1394.0000      0.0000    713.0712      4.3670     56.9670
  1394.2500      0.0000    714.8705      4.2823     56.1530
  1394.5000      0.0000    719.7013      4.2083     54.7962
  1394.7500      0.0000    730.6736      4.1842     52.8194
  1395.0000      0.0000    750.6151      4.2181     50.2572
  1395.2500      0.0000    779.0103      4.2841     47.4116
  1395.5000      0.0000    809.9990      4.3583     45.0553
  1395.7500      0.0000    834.1641      4.4436     44.3223
  1396.0000      0.0000    843.1060      4.5505     46.1933
  1396.2500      0.0000    833.5026      4.6673     51.0277
  1396.5000      0.0000    808.8762      4.7726     58.5395
  1396.7500      0.0000    778.3412      4.8669     68.0425
