~Version Information
VERS.                      2.0: CWLS Log ASCII Standard - VERSION 2.0
WRAP.                       NO: One line per depth step
~Well Information Block
STRT.FT               300.0000: 
STOP.FT               871.2000: 
STEP.FT                 0.1000: 
NULL.                -999.2500: 
COMP.          Pioneer Natural Resources: COMPANY
WELL.            Hustler 12-17: WELL
FLD.           Purgatoire River: FIELD
LOC.           2150' FNL & 450' FWL: LOCATION
PROV.                 Colorado: PROVINCE
CNTY.               Las Animas: COUNTRY
SRVC.                Patterson: SERVICE COMPANY
DATE.          Mon Dec 20 11:14:19 2004: LOG DATE
UWI.           05 071 08236 00: UNIQUE WELL ID
~Curve Information Block
DEPT.FT            0 000 00 00: Depth
DCAL.in                       : CDL Caliper
RHOB.g/cc                     : CDL Bulk Density
RHOC.g/cc                     : CDL Density Correction
DPOR.pu                       : CDL Density Porosity
NPOR.pu                       : Neutron Porosity
GR.GAPI                       : Gamma Ray
~Parameter Information Block
~A  Depth       DCAL        RHOB        RHOC        DPOR        NPOR         GR     
# ...
   549.6000      7.9954      2.4283      0.0023     13.4364     21.9872    109.5086
   549.7000      7.9954      2.4283      0.0499     13.4390     22.0117    106.6176
   549.8000      7.9873      2.4273      0.0667     13.4986     21.8309    108.4570
   549.9000      7.9873      2.4201      0.0371     13.9304     21.5390    110.2052
   550.0000      7.9816      2.4079      0.0332     14.6751     21.4049    107.9306
   550.1000      7.9816      2.3949      0.0324     15.4635     21.2078    106.0075
   550.2000      7.9816      2.3844      0.0168     16.0986     20.6009    105.6977
   550.3000      7.9800      2.3796      0.0112     16.3874     19.8219    103.7927
   550.4000      7.9800      2.3850      0.0076     16.0601     19.3472    101.0596
   550.5000      7.9801      2.3989      0.0437     15.2179     19.1358    101.5163
   550.6000      7.9801      2.4120      0.0636     14.4255     18.8189    104.8774
   550.7000      7.9801      2.4244      0.0401     13.6701     18.5283    104.7462
   550.8000      7.9789      2.4480      0.0588     12.2436     18.7047     98.1555
   550.9000      7.9789      2.4795      0.0989     10.3356     19.1544     90.7706
   551.0000      7.9727      2.5007      0.1148      9.0511     19.4442     87.2056
   551.1000      7.9727      2.5089      0.0654      8.5492     19.7858     87.4096
   551.2000      7.9727      2.5171      0.0579      8.0546     20.5083     88.5193
   551.3000      7.9634      2.5301      0.0806      7.2652     21.2376     88.0742
   551.4000      7.9634      2.5440      0.1247      6.4270     21.4856     88.9576
   551.5000      7.9575      2.5519      0.0991      5.9466     21.3907     93.4656
   551.6000      7.9575      2.5522      0.0422      5.9246     21.2831     97.7556
   551.7000      7.9575      2.5494      0.0614      6.0993     21.3111     97.6215
   551.8000      7.9546      2.5436      0.0725      6.4456     21.3821     95.0726
   551.9000      7.9546      2.5377      0.0747      6.8087     21.3304     96.0482
   552.0000      7.9538      2.5416      0.0666      6.5703     21.0715    100.6752
   552.1000      7.9538      2.5583      0.0666      5.5604     20.4820    102.8501
   552.2000      7.9538      2.5755      0.0653      4.5165     19.6396    101.5001
   552.3000      7.9526      2.5755      0.0905      4.5136     18.8720     98.3265
   552.4000      7.9526      2.5577      0.0160      5.5935     18.4008     92.1011
   552.5000      7.9459      2.5471      0.0371      6.2386     18.3875     86.0395
   552.6000      7.9459      2.5588      0.0314      5.5278     18.7962    123.0665
   552.7000      7.9459      2.5780      0.0602      4.3637     19.3422    116.7342
   552.8000      7.9397      2.5833      0.0608      4.0414     19.7715    111.2691
   552.9000      7.9397      2.5748      0.0190      4.5549     19.9296    111.4655
   553.0000      7.9435      2.5642      0.0357      5.2023     19.8796    114.4631
   553.1000      7.9435      2.5530      0.0395      5.8786     19.8841    113.0944
   553.2000      7.9435      2.5448      0.0190      6.3786     20.1382    108.5060
   553.3000      7.9460      2.5475      0.0091      6.2118     20.6777    105.9739
   553.4000      7.9460      2.5584      0.0268      5.5534     21.3091    105.3123
   553.5000      7.9459      2.5721     -0.0032      4.7208     21.5631    103.7829
   553.6000      7.9459      2.5943      0.0236      3.3786     21.2210    101.5564
   553.7000      7.9459      2.6166      0.0798      2.0237     20.6054    101.0621
   553.8000      7.9501      2.6200      0.0572      1.8153     20.1607    103.8353
   553.9000      7.9501      2.6093      0.0180      2.4654     19.8974    107.9756
   554.0000      7.9548      2.5974      0.0284      3.1907     19.6099    109.3839
   554.1000      7.9548      2.5821      0.0457      4.1181     19.3017    107.0594
   554.2000      7.9548      2.5666      0.0180      5.0517     19.0256    103.1673
   554.3000      7.9579      2.5613      0.0251      5.3751     18.7363     98.6376
   554.4000      7.9579      2.5576      0.0236      5.5993     18.4951     94.4467
   554.5000      7.9583      2.5453     -0.0006      6.3462     18.5472     94.5809
   554.6000      7.9583      2.5355      0.0080      6.9423     18.9651    101.4526
   554.7000      7.9583      2.5371     -0.0057      6.8429     19.3945    109.7218
   554.8000      7.9569      2.5390      0.0114      6.7293     19.6183    111.0607
   554.9000      7.9569      2.5324     -0.0153      7.1247     19.7676    104.2724
   555.0000      7.9558      2.5291     -0.0151      7.3243     19.7920     95.5326
   555.1000      7.9558      2.5376      0.0321      6.8126     19.7689     91.0736
   555.2000      7.9558      2.5457      0.0387      6.3214     19.7385     91.0687
   555.3000      7.9566      2.5421      0.0251      6.5405     19.6025     91.6095
   555.4000      7.9566      2.5310      0.0170      7.2101     19.4789     90.6880
   555.5000      7.9587      2.5208      0.0188      7.8328     19.4902     87.8340
   555.6000      7.9587      2.5163     -0.0183      8.1027     19.5488     85.5870
   555.7000      7.9587      2.5225      0.0017      7.7270     19.4925     87.2967
   555.8000      7.9609      2.5355      0.0069      6.9385     19.3787     90.4474
   555.9000      7.9609      2.5448      0.0491      6.3743     19.2907     89.6070
   556.0000      7.9591      2.5492      0.0223      6.1073     19.1826     83.5057
   556.1000      7.9591      2.5486      0.0382      6.1438     19.0845     77.7498
   556.2000      7.9591      2.5346      0.0498      6.9910     19.2091     77.5193
   556.3000      7.9560      2.5185      0.0207      7.9697     19.6247     81.2033
   556.4000      7.9560      2.5241     -0.0007      7.6329     19.9113     84.7607
   556.5000      7.9551      2.5422      0.0466      6.5351     19.8457     88.3604
   556.6000      7.9551      2.5472      0.0323      6.2282     19.7483     93.2601
   556.7000      7.9551      2.5376      0.0167      6.8093     19.7925     98.1331
   556.8000      7.9554      2.5264      0.0389      7.4930     20.0581     97.7921
   556.9000      7.9554      2.5244     -0.0108      7.6125     20.6254     91.3257
   557.0000      7.9539      2.5374      0.0317      6.8222     21.0565     85.9181
   557.1000      7.9539      2.5581      0.0230      5.5722     20.9260     85.3945
   557.2000      7.9539      2.5760      0.0549      4.4870     20.3038     87.7424
   557.3000      7.9527      2.5853      0.0858      3.9230     19.3902     91.2906
   557.4000      7.9527      2.5824      0.0674      4.0958     18.5655     94.3019
   557.5000      7.9535      2.5729      0.0618      4.6707     18.0655     95.7471
   557.6000      7.9535      2.5625      0.0694      5.3045     17.8053     97.3302
   557.7000      7.9535      2.5506      0.0107      6.0234     17.7765     98.9369
   557.8000      7.9552      2.5385      0.0663      6.7567     18.1043     97.6541
   557.9000      7.9552      2.5312      0.0225      7.1998     18.6530     93.4480
   558.0000      7.9574      2.5353      0.0472      6.9532     18.8133     90.0996
   558.1000      7.9574      2.5415      0.0647      6.5756     18.4298     89.3417
   558.2000      7.9574      2.5367      0.0563      6.8664     18.0800     93.5708
   558.3000      7.9586      2.5318      0.0189      7.1655     17.9669    103.3273
   558.4000      7.9586      2.5414      0.0577      6.5831     17.9309    108.8741
   558.5000      7.9612      2.5588      0.0627      5.5280     18.1798    104.4727
   558.6000      7.9612      2.5666      0.0912      5.0575     18.6440     98.0018
   558.7000      7.9612      2.5504      0.0667      6.0350     18.8593     93.0661
   558.8000      7.9692      2.5220     -0.0207      7.7605     18.8214     86.1932
   558.9000      7.9692      2.5096      0.0007      8.5083     18.9267     80.2201
   559.0000      7.9785      2.5133      0.0376      8.2874     19.3157     79.4061
   559.1000      7.9785      2.5151      0.0215      8.1755     19.6878     80.2100
