~Version Information
VERS.                      2.0: CWLS Log ASCII Standard - VERSION 2.0
WRAP.                       NO: One line per depth step
~Well Information Block
STRT.FT               533.0000: 
STOP.FT              1578.0000: 
STEP.FT                 0.2500: 
NULL.                -999.2500: 
COMP.          Pioneer Natural Resources: COMPANY
WELL.           Telna 24-22 Tr: WELL
FLD.           Purgatoire River: FIELD
LOC.           748' FSL & 1931' FWL: LOCATION
PROV.                 Colorado: PROVINCE
CNTY.               Las Animas: COUNTRY
SRVC.                Patterson: SERVICE COMPANY
DATE.          Sun May 01 14:14:42 2005: LOG DATE
UWI.           05 071 08304 00: UNIQUE WELL ID
~Curve Information Block
DEPT.FT            0 000 00 00: Depth
SN.Ohm-m                      : IEL Short Normal
SP.mV                         : IEL Spontaneous Potential
DIR.Ohm-m                     : IEL Induction Resistivity
GR.GAPI                       : Gamma Ray
~Parameter Information Block
~A  Depth        SN          SP         DIR          GR     
   533.0000   2000.0000   2000.0000     87.2393    123.3171
   533.2500   2000.0000   2000.0000     86.9859    120.1130
   533.5000   2000.0000   2000.0000     86.4042    114.5634
   533.7500   2000.0000   2000.0000     85.7889    111.1517
   534.0000   2000.0000   2000.0000     85.3500    107.4057
   534.2500   2000.0000   2000.0000     85.2087    105.6256
   534.5000   2000.0000   2000.0000     85.4362    102.6177
   534.7500   2000.0000   2000.0000     86.0864     99.6730
   535.0000   2000.0000   2000.0000     87.1535     93.8085
   535.2500   2000.0000   2000.0000     88.4586     89.5158
   535.5000   2000.0000   2000.0000     89.5706     83.7813
   535.7500   2000.0000   2000.0000     89.9430     81.0488
   536.0000   2000.0000   2000.0000     89.2963     79.2916
   536.2500   2000.0000   2000.0000     87.8824     79.9590
   536.5000   2000.0000   2000.0000     86.3073     84.0013
   536.7500   2000.0000   2000.0000     85.0551     88.5380
   537.0000   2000.0000   2000.0000     84.1568     96.6677
   537.2500   2000.0000   2000.0000     83.2101    101.6652
   537.5000   2000.0000   2000.0000     81.7395    106.8639
   537.7500   2000.0000   2000.0000     79.6825    108.8469
   538.0000   2000.0000   2000.0000     77.5497    111.3062
   538.2500   2000.0000   2000.0000     76.0773    113.7448
   538.5000   2000.0000   2000.0000     75.7094    119.3430
   538.7500   2000.0000   2000.0000     76.3214    123.8664
   539.0000   2000.0000   2000.0000     77.2887    130.1481
   539.2500   2000.0000   2000.0000     77.8963    133.1895
   539.5000   2000.0000   2000.0000     77.8687    135.5358
   539.7500   2000.0000   2000.0000     77.5379    135.5112
   540.0000   2000.0000   2000.0000     77.4892    132.3874
   540.2500   2000.0000   2000.0000     78.1033    127.8047
   540.5000   2000.0000   2000.0000     79.4307    117.6653
   540.7500   2000.0000   2000.0000     81.3800    109.8632
   541.0000   2000.0000   2000.0000     83.9495     98.7427
   541.2500   2000.0000   2000.0000     87.2011     92.4050
   541.5000   2000.0000   2000.0000     90.9199     84.6484
   541.7500   2000.0000   2000.0000     94.2396     80.4994
   542.0000   2000.0000   2000.0000     95.8160     75.7956
   542.2500   2000.0000   2000.0000     94.8241     73.8116
   542.5000   2000.0000   2000.0000     91.8501     72.5752
   542.7500   2000.0000   2000.0000     88.4303     72.6069
   543.0000   2000.0000   2000.0000     85.8551     73.2572
   543.2500   2000.0000   2000.0000     84.5551     73.9886
   543.5000   2000.0000   2000.0000     84.1999     75.9062
   543.7500   2000.0000   2000.0000     84.0877     77.8782
   544.0000   2000.0000   2000.0000     83.5583     81.5108
   544.2500   2000.0000   2000.0000     82.3169     84.0266
   544.5000   2000.0000   2000.0000     80.5805     87.8363
   544.7500   2000.0000   2000.0000     78.9863     90.7168
   545.0000   2000.0000   2000.0000     78.2867     96.1824
   545.2500   2000.0000   2000.0000     78.9286    100.6353
   545.5000   2000.0000   2000.0000     80.6602    107.8220
   545.7500   2000.0000   2000.0000     82.2955    112.3163
   546.0000   2000.0000   2000.0000     82.0351    117.7899
   546.2500   2000.0000   2000.0000     78.6255    120.3312
   546.5000   2000.0000   2000.0000     72.4534    122.0132
   546.7500   2000.0000   2000.0000     65.2848    121.5337
   547.0000   2000.0000   2000.0000     59.1557    119.3514
   547.2500   2000.0000   2000.0000     55.7670    118.2949
   547.5000   2000.0000   2000.0000     56.7534    119.0953
   547.7500   2000.0000   2000.0000     64.8166    120.8402
   548.0000   2000.0000   2000.0000     86.6949    122.8908
   548.2500   2000.0000   2000.0000    143.0179    122.8091
   548.5000   2000.0000   2000.0000    305.4589    120.3385
   548.7500   2000.0000   2000.0000    677.4846    117.5556
   549.0000   2000.0000   2000.0000    561.2733    112.4330
   549.2500   2000.0000   2000.0000    283.1475    108.8766
   549.5000   2000.0000   2000.0000    174.2386    104.7121
   549.7500   2000.0000   2000.0000    131.7603    103.7637
   550.0000   2000.0000   2000.0000    115.9321    106.2114
   550.2500   2000.0000   2000.0000    116.1401    110.0622
   550.5000   2000.0000   2000.0000    134.9016    117.0828
   550.7500   2000.0000   2000.0000    191.4424    121.4092
   551.0000   2000.0000   2000.0000    335.5978    126.4905
   551.2500   2000.0000   2000.0000    409.3562    128.8625
   551.5000   2000.0000   2000.0000    184.3672    130.7344
   551.7500   2000.0000   2000.0000     81.0811    122.0310
   552.0000   2000.0000   2000.0000     47.7774    120.7359
   552.2500   2000.0000   2000.0000     37.5651    119.7886
   552.5000   2000.0000   2000.0000     40.7171    119.9798
   552.7500   2000.0000   2000.0000     82.4731    113.0361
   553.0000   2000.0000   2000.0000 100000.0000    117.2799
   553.2500   2000.0000   2000.0000 100000.0000    120.5952
   553.5000   2000.0000   2000.0000 100000.0000    125.2073
   553.7500   2000.0000   2000.0000 100000.0000    117.8284
   554.0000   2000.0000   2000.0000 100000.0000    119.9164
   554.2500   2000.0000   2000.0000 100000.0000    120.2660
   554.5000   2000.0000   2000.0000     31.5471    119.1434
   554.7500   2000.0000   2000.0000      7.9930    102.7913
   555.0000   2000.0000   2000.0000      4.7835     99.8962
   555.2500   2000.0000   2000.0000      3.9375     97.7808
   555.5000   2000.0000   2000.0000      3.9906     94.7869
   555.7500   2000.0000   2000.0000      4.7298     93.3646
   556.0000   2000.0000   2000.0000      6.3687     93.4698
   556.2500   2000.0000   2000.0000      9.7667     95.9552
   556.5000   2000.0000   2000.0000     18.6871    104.0045
   556.7500   2000.0000   2000.0000     85.4462    111.5935
   557.0000   2000.0000   2000.0000 100000.0000    123.3078
   557.2500   2000.0000   2000.0000 100000.0000    129.1722
   557.5000   2000.0000   2000.0000 100000.0000    132.5977
   557.7500   2000.0000   2000.0000 100000.0000    131.3293
   558.0000   2000.0000   2000.0000 100000.0000    126.2841
   558.2500   2000.0000   2000.0000 100000.0000    122.4309
   558.5000   2000.0000   2000.0000    145.0625    117.8407
   558.7500   2000.0000   2000.0000     52.6069    116.1254
   559.0000   2000.0000   2000.0000     38.5961    115.9468
   559.2500   2000.0000   2000.0000     34.1679    117.2996
   559.5000   2000.0000   2000.0000     32.4537    120.5144
   559.7500   2000.0000   2000.0000     31.6258    122.6589
   560.0000   2000.0000   2000.0000     31.1215    125.3696
   560.2500   2000.0000   2000.0000     30.9092    127.3807
   560.5000   2000.0000   2000.0000     31.2705    132.2098
   560.7500   2000.0000   2000.0000     32.6153    136.9185
   561.0000   2000.0000   2000.0000     35.2480    144.7922
   561.2500   2000.0000   2000.0000     38.9556    149.1808
   561.5000   2000.0000   2000.0000     42.5033    152.9437
   561.7500   2000.0000   2000.0000     43.9150    153.6240
   562.0000   2000.0000   2000.0000     42.3219    152.8112
   562.2500   2000.0000   2000.0000     38.9098    151.3724
   562.5000   2000.0000   2000.0000     35.3088    147.7414
   562.7500   2000.0000   2000.0000     32.2981    144.2747
   563.0000   2000.0000   2000.0000     29.9460    138.1849
   563.2500   2000.0000   2000.0000     28.0942    134.2923
   563.5000   2000.0000   2000.0000     26.6276    129.7780
   563.7500   2000.0000   2000.0000     25.5267    127.8549
   564.0000   2000.0000   2000.0000     24.8089    126.3394
   564.2500   2000.0000   2000.0000     24.4582    126.0008
   564.5000   2000.0000   2000.0000     24.3934    126.4177
   564.7500   2000.0000   2000.0000     24.4772    127.4148
   565.0000   2000.0000   2000.0000     24.5504    129.7752
   565.2500   2000.0000   2000.0000     24.4725    131.4370
   565.5000   2000.0000   2000.0000     24.1563    133.4467
   565.7500   2000.0000   2000.0000     23.5857    134.7179
   566.0000   2000.0000   2000.0000     22.8168    137.7397
   566.2500   2000.0000   2000.0000     21.9585    141.0858
