~Version Information
 VERS.                                  2.0 : CWLS LAS VERSION
 WRAP.                                   NO : WRAPING MODE
 SWARE .                 MController 2.5.0J : SOFTWARE VERSION
~Well Information
 WELL.                         Squeal 11-26 : WELL
 COMP.    Pioneer Natural Resources USA Inc : COMPANY
 FLD.                      Purgatoire River : FIELD
 LOC.                NW/NW Sec 26 T32S R67W : LOCATION
 DATE.                         6/13-14/2005 : DATE(S) LOGGED
 SRVC.       Blanco Geological Services LLC : SERVICE COMPANY
 STAT.                                   CO : STATE
 CNTY.                           Las Animas : COUNTY
 CTRY.                                  USA : COUNTRY
 API.                       05-071-08404-00 : API NUMBER
 STRT.FT                             285.00 : START DEPTH
 STOP.FT                            2760.00 : STOP DEPTH
 STEP.FT                               1.00 : DEPTH INCREMENT
 NULL.                                -9999 : NULL VALUE
~Curve information
 DEPTH.FT                                   :
 ROP.MIN/FT                                 :
 GAS.UNITS                                  :
~ASCII Log data
# ...
       485.0         0.37          8.4 
       486.0         0.27          8.2 
       487.0         0.23          8.6 
       488.0         0.27          8.2 
       489.0         0.25          8.7 
       490.0         0.23          8.3 
       491.0         0.27          8.5 
       492.0         0.23          8.3 
       493.0         0.23          8.4 
       494.0         0.27          8.5 
       495.0         0.23          8.4 
       496.0         0.23          8.5 
       497.0         0.27          8.5 
       498.0         0.30          8.6 
       499.0         0.23          8.5 
       500.0         0.30          8.4 
       501.0         0.27          8.8 
       502.0         0.35          8.4 
       503.0         0.27          8.2 
       504.0         0.27          8.3 
       505.0         0.30          8.4 
       506.0         0.37          8.4 
       507.0         0.33          8.5 
       508.0         0.37          8.7 
       509.0         0.37          8.9 
       510.0         8.28          9.5 
       511.0         0.23          8.7 
       512.0         0.23          8.7 
       513.0         0.30          8.9 
       514.0         0.27          9.4 
       515.0         0.27          8.8 
       516.0         0.27          9.0 
       517.0         0.30          9.5 
       518.0         0.27          8.8 
       519.0         0.23          8.9 
       520.0         0.25          9.0 
       521.0         0.20          9.0 
       522.0         0.20          9.0 
       523.0         0.23          9.1 
       524.0         0.23          9.2 
       525.0         0.27          9.1 
       526.0         0.30          9.2 
       527.0         0.30          9.2 
       528.0         0.23          9.0 
       529.0         0.23          9.1 
       530.0         0.20          9.0 
       531.0         0.20          9.1 
       532.0         0.23          9.4 
       533.0         0.23          9.0 
       534.0         0.28         10.2 
       535.0         0.27         11.0 
       536.0         0.30         11.3 
       537.0         0.27         11.0 
       538.0         0.20         10.4 
       539.0         0.40         10.0 
       540.0         8.10         23.0 
       541.0         0.40         11.5 
       542.0         0.38          8.6 
       543.0         0.33          8.5 
       544.0         0.30          9.0 
       545.0         0.30          8.5 
       546.0         0.47          9.0 
       547.0         0.30          8.7 
       548.0         0.30          8.6 
       549.0         0.27          8.5 
       550.0         0.40          8.6 
       551.0         0.27          8.8 
       552.0         0.28          8.5 
       553.0         0.27          8.5 
       554.0         0.30          8.9 
       555.0         0.33          8.5 
       556.0         0.27          9.0 
       557.0         0.33          9.2 
       558.0         0.40          8.8 
       559.0         0.43          8.8 
       560.0         0.40          8.4 
       561.0         0.35          8.5 
       562.0         0.33          8.4 
       563.0         0.30          8.4 
       564.0         0.33          8.4 
       565.0         0.33          8.2 
       566.0         0.33          7.9 
       567.0         0.30          8.3 
       568.0         0.30          8.1 
       569.0         0.37          8.1 
       570.0         9.48         31.0 
       571.0         0.47         10.4 
       572.0         0.50          8.1 
       573.0         0.35          8.1 
       574.0         0.30          8.3 
       575.0         0.33          8.6 
       576.0         0.33          8.3 
       577.0         0.37          8.3 
       578.0         0.30          7.9 
       579.0         0.33          8.2 
       580.0         0.33          7.8 
       581.0         0.30          8.1 
       582.0         0.33          8.0 
       583.0         0.32          8.4 
       584.0         0.30          8.0 
       585.0         0.30          8.0 
       586.0         0.33          8.7 
       587.0         0.27          8.1 
       588.0         0.37          8.2 
       589.0         0.47          7.8 
       590.0         0.50          7.7 
       591.0         0.23          7.9 
       592.0         0.27          7.9 
       593.0         0.32          8.0 
       594.0         0.27          8.4 
       595.0         0.27          8.0 
       596.0         0.33          8.1 
       597.0         0.37          7.9 
       598.0         0.37          7.9 
       599.0         0.43          8.2 
       600.0         8.75         10.0 
       601.0         0.37          8.2 
       602.0         0.27          7.7 
       603.0         0.37          7.5 
       604.0         0.33          7.7 
       605.0         0.37          7.5 
       606.0         0.33          7.6 
       607.0         0.45          7.9 
       608.0         0.33          8.1 
       609.0         0.37          8.1 
       610.0         0.37          8.1 
       611.0         0.43          8.4 
       612.0         0.40          8.4 
       613.0         0.33          8.3 
       614.0         0.33          8.4 
       615.0         0.37          8.2 
       616.0         0.33          8.2 
       617.0         0.38          8.6 
       618.0         0.33          8.1 
       619.0         0.33          8.2 
       620.0         0.37          8.0 
       621.0         0.33          7.9 
       622.0         0.40          8.2 
       623.0         0.27          8.2 
       624.0         0.37          8.1 
       625.0         0.23          8.4 
       626.0         0.27          8.7 
       627.0         0.28          8.4 
       628.0         0.30          8.5 
       629.0         0.27          8.6 
       630.0         8.90          9.4 
       631.0         0.48          8.7 
       632.0         0.33          8.7 
       633.0         0.37          8.6 
       634.0         0.30          8.7 
       635.0         0.33          8.8 
       636.0         0.47          8.8 
       637.0         0.50          9.0 
       638.0         0.47          8.6 
       639.0         0.33          8.6 
       640.0         0.42          8.6 
       641.0         0.40          8.5 
       642.0         0.40          8.8 
       643.0         0.37          8.4 
       644.0         0.33          8.5 
       645.0         0.50          8.6 
       646.0         0.30          8.3 
       647.0         0.27          8.5 
       648.0         0.30          9.1 
       649.0         0.32          8.5 
       650.0         0.33          8.5 
       651.0         0.33          8.6 
       652.0         0.27          8.5 
       653.0         0.33          8.6 
       654.0         0.27          8.4 
       655.0         0.30          8.9 
       656.0         0.30          8.4 
       657.0         0.33          8.5 
       658.0         0.40          8.4 
       659.0         0.33          8.8 
       660.0         8.42         10.2 
       661.0         0.40          8.9 
       662.0         0.53          9.4 
       663.0         0.43          8.8 
       664.0         0.42          8.9 
       665.0         0.27          9.0 
       666.0         0.23          9.0 
       667.0         0.23          8.9 
       668.0         0.30          9.4 
       669.0         0.33          9.0 
       670.0         0.27          9.2 
       671.0         0.43          9.1 
       672.0         0.63          9.2 
       673.0         0.33          8.9 
       674.0         0.25          9.0 
       675.0         0.27          8.8 
       676.0         0.27          9.4 
       677.0         0.30          9.1 
       678.0         0.30          8.9 
       679.0         0.27          8.8 
       680.0         0.30          8.9 
       681.0         0.30          9.1 
       682.0         0.30          8.8 
       683.0         0.27          9.1 
       684.0         0.30          9.2 
