~Version Information
VERS.                      2.0: CWLS Log ASCII Standard - VERSION 2.0
WRAP.                       NO: One line per depth step
~Well Information Block
STRT.FT               743.8000: 
STOP.FT              1975.8000: 
STEP.FT                 0.1000: 
NULL.                -999.2500: 
COMP.          Petrogulf Corporation: COMPANY
WELL.            Montoya 6-14V: WELL
FLD.           Purgatorie River: FIELD
LOC.           318' FSL & 882' FWL: LOCATION
CNTY.               Las Animas: COUNTY
SRVC.                         : SERVICE COMPANY
DATE.          Sat Aug 14 09:19:43 2004: LOG DATE
UWI.           05 071 08020 00: UNIQUE WELL ID
STAT.                 Colorado: STATE
~Curve Information Block
DEPT.FT            0 000 00 00: Depth
DCAL.in                       : CDL Caliper
RHOB.g/cc                     : CDL Bulk Density
RHOC.g/cc                     : CDL Density Correction
DPOR.pu                       : CDL Density Porosity
GR.GAPI                       : Gamma Ray
NPOR.pu                       : Neutron Porosity
~Parameter Information Block
~A  Depth       DCAL        RHOB        RHOC        DPOR         GR         NPOR    
# ...
  1281.4000      7.7387      2.7132      0.2335     -3.8282     53.6646      7.8344
  1281.5000      7.7825      2.6924      0.1266     -2.5707     57.1500      8.1014
  1281.6000      7.7825      2.6552      0.1070     -0.3134     58.3403      8.5520
  1281.7000      7.7825      2.6240      0.0406      1.5773     59.5559      8.8853
  1281.8000      7.7875      2.6088      0.0520      2.4989     61.7867      9.1506
  1281.9000      7.7875      2.5963      0.0630      3.2526     63.0592      9.4884
  1282.0000      7.7957      2.5798      0.0200      4.2552     62.1371      9.9207
  1282.1000      7.7957      2.5721      0.0100      4.7208     62.2635     10.6866
  1282.2000      7.7957      2.5790      0.0028      4.3044     67.5757     11.9728
  1282.3000      7.8034      2.5838      0.0425      4.0141     75.3173     13.2813
  1282.4000      7.8034      2.5763     -0.0122      4.4637     80.3781     14.1355
  1282.5000      7.7559      2.5736      0.0141      4.6322     81.8919     14.9571
  1282.6000      7.7559      2.5854      0.0449      3.9128     84.0947     15.9917
  1282.7000      7.7559      2.6013      0.0407      2.9539     92.9274     17.2475
  1282.8000      7.7163      2.6134      0.0336      2.2177    102.2224     18.4757
  1282.9000      7.7163      2.6228      0.0458      1.6511    100.5862     19.3872
  1283.0000      7.6918      2.6308      0.0451      1.1609     94.0230     20.6829
  1283.1000      7.6918      2.6368      0.0656      0.7993     95.7867     22.6700
  1283.2000      7.6918      2.6428      0.0417      0.4348    103.5817     24.6446
  1283.3000      7.6589      2.6615      0.0576     -0.6999    108.5700     26.4846
  1283.4000      7.6589      2.6992      0.1071     -2.9840    114.2221     28.1005
  1283.5000      7.6966      2.7349      0.1822     -5.1451    123.2983     28.6803
  1283.6000      7.6966      2.7399      0.1411     -5.4505    129.1893     28.1439
  1283.7000      7.6966      2.7095      0.1265     -3.6052    129.0321     27.6614
  1283.8000      7.7917      2.6524      0.1095     -0.1459    126.4886     27.9607
  1283.9000      7.7917      2.5788      0.0408      4.3156    125.9386     28.3159
  1284.0000      7.8468      2.5045     -0.0524      8.8164    128.0784     28.1620
  1284.1000      7.8468      2.4542     -0.1117     11.8688    129.5176     28.0463
  1284.2000      7.8468      2.4482     -0.1389     12.2324    128.6644     28.0321
  1284.3000      7.8508      2.4804     -0.0238     10.2806    126.9156     27.8238
  1284.4000      7.8508      2.5242      0.0284      7.6249    129.3092     27.5471
  1284.5000      7.8626      2.5640      0.0889      5.2101    138.2462     27.6353
  1284.6000      7.8626      2.6002      0.1140      3.0175    143.4660     28.1488
  1284.7000      7.8626      2.6320      0.1514      1.0903    139.1705     28.1788
  1284.8000      7.8005      2.6493      0.2025      0.0433    131.0047     27.2358
  1284.9000      7.8005      2.6472      0.1968      0.1694    123.4133     26.0145
  1285.0000      7.8747      2.6381      0.1376      0.7229    119.4668     25.1869
  1285.1000      7.8747      2.6291      0.1673      1.2643    121.6774     24.8508
  1285.2000      7.8747      2.6140      0.0997      2.1815    129.4358     25.0865
  1285.3000      7.8794      2.5991      0.0621      3.0876    139.0709     25.9404
  1285.4000      7.8794      2.6001      0.0615      3.0220    146.4442     26.7639
  1285.5000      7.9084      2.6221      0.0410      1.6893    148.5332     27.2705
  1285.6000      7.9084      2.6614      0.0191     -0.6907    145.7048     27.6937
  1285.7000      7.9084      2.7029      0.0981     -3.2081    140.1879     27.3625
  1285.8000      7.9058      2.7188      0.1137     -4.1708    133.0338     26.0488
  1285.9000      7.9058      2.6931      0.0875     -2.6133    125.3762     24.8268
  1286.0000      7.8724      2.6392      0.0694      0.6549    120.8540     24.1093
  1286.1000      7.8724      2.5753      0.0561      4.5272    121.2155     23.3238
  1286.2000      7.8724      2.5128     -0.0294      8.3163    124.1681     22.3482
  1286.3000      7.7619      2.4743     -0.1090     10.6469    123.4572     21.8851
  1286.4000      7.7619      2.4747     -0.0806     10.6224    115.1447     22.0282
  1286.5000      7.6512      2.5052     -0.1203      8.7748    104.5422     22.0653
  1286.6000      7.6512      2.5545     -0.0979      5.7891     98.4091     22.1545
  1286.7000      7.6512      2.6064      0.0608      2.6449    100.5774     22.7588
  1286.8000      7.6040      2.6396      0.1315      0.6281    110.3649     23.2593
  1286.9000      7.6040      2.6516      0.1373     -0.0982    118.5589     23.1913
  1287.0000      7.6096      2.6564      0.2023     -0.3885    121.1891     22.9682
  1287.1000      7.6096      2.6701      0.1520     -1.2163    124.2581     23.0771
  1287.2000      7.6096      2.7008      0.1679     -3.0774    127.5532     23.4807
  1287.3000      7.6458      2.7362      0.1770     -5.2264    124.0308     23.7923
  1287.4000      7.6458      2.7637      0.1317     -6.8930    114.3153     23.5695
  1287.5000      7.6851      2.7819      0.1824     -7.9948    107.5595     22.7685
  1287.6000      7.6851      2.7847      0.2055     -8.1653    110.0414     21.9305
  1287.7000      7.6851      2.7654      0.2005     -6.9964    119.3041     21.3816
  1287.8000      7.7125      2.7217      0.1684     -4.3461    126.7061     21.2943
  1287.9000      7.7125      2.6616      0.0928     -0.7017    126.3826     21.7370
  1288.0000      7.7263      2.6050      0.0076      2.7299    122.8352     22.4095
  1288.1000      7.7263      2.5600     -0.0216      5.4532    122.9068     23.1119
  1288.2000      7.7263      2.5179     -0.0490      8.0048    124.6916     23.8430
  1288.3000      7.7412      2.4855     -0.1280      9.9716    125.1602     24.4425
  1288.4000      7.7412      2.4797     -0.0228     10.3218    128.1287     24.7294
  1288.5000      7.7789      2.4832      0.0442     10.1119    133.4366     24.9023
  1288.6000      7.7789      2.4676      0.0242     11.0558    134.1649     25.2329
  1288.7000      7.7789      2.4413      0.0105     12.6477    130.0808     25.8368
  1288.8000      7.8244      2.4231      0.0349     13.7509    130.5858     26.4936
  1288.9000      7.8244      2.4098      0.0459     14.5577    138.9657     27.0467
  1289.0000      7.8833      2.3976      0.0177     15.2955    145.4887     27.4972
  1289.1000      7.8833      2.3946      0.0390     15.4773    142.9363     27.4549
  1289.2000      7.8833      2.4015      0.0324     15.0612    139.9433     27.0131
  1289.3000      7.9260      2.4051      0.0415     14.8413    145.7584     27.1367
  1289.4000      7.9260      2.3940      0.0423     15.5136    153.3550     28.0546
  1289.5000      7.8587      2.3740      0.0749     16.7267    150.9067     28.7869
  1289.6000      7.8587      2.3593      0.0995     17.6201    140.3544     28.6800
  1289.7000      7.8587      2.3455      0.1630     18.4572    131.3596     28.2866
  1289.8000      7.8558      2.3148      0.1206     20.3160    126.6643     28.3736
  1289.9000      7.8558      2.2768      0.0416     22.6156    126.5214     28.9806
  1290.0000      7.9281      2.2642      0.0327     23.3835    128.7039     29.5745
  1290.1000      7.9281      2.2925      0.0828     21.6677    127.3201     29.6748
  1290.2000      7.9281      2.3522      0.1352     18.0500    123.3845     29.4989
  1290.3000      8.0604      2.4205      0.2833     13.9066    122.9572     29.6988
  1290.4000      8.0604      2.4765      0.2901     10.5135    126.8494     29.7469
  1290.5000      8.1057      2.5129      0.3150      8.3077    131.8353     28.9586
  1290.6000      8.1057      2.5342      0.2737      7.0175    135.3142     28.1917
  1290.7000      8.1057      2.5561      0.2380      5.6885    136.2146     28.1458
  1290.8000      7.9430      2.5825      0.2452      4.0933    133.4794     28.0977
  1290.9000      7.9430      2.5923      0.1950      3.4943    128.3837     27.5702
