~Version Information
VERS.                      2.0: CWLS Log ASCII Standard - VERSION 2.0
WRAP.                       NO: One line per depth step
~Well Information Block
STRT.FT                 5.5000: 
STOP.FT              1635.7500: 
STEP.FT                 0.2500: 
NULL.                -999.2500: 
COMP.          Pioneer Natural Resources: COMPANY
WELL.                Mead 11-9: WELL
FLD.           Purgatoire River: FIELD
LOC.           1127' FNL & 668' FWL: LOCATION
PROV.                 Colorado: PROVINCE
CNTY.               Las Animas: COUNTRY
SRVC.                Patterson: SERVICE COMPANY
DATE.          Wed Mar 02 13:48:38 2005: LOG DATE
UWI.           05 071 08160 00: UNIQUE WELL ID
~Curve Information Block
DEPT.FT            0 000 00 00: Depth
CCL.                          : Casing Collar Locator
TT3.usec                      : CBL 3' Travel Time
AMP3.mV                       : CBL 3' Amplitude
GR.GAPI                       : Gamma Ray
~Parameter Information Block
~A  Depth       CCL         TT3         AMP3         GR     
     5.5000   -999.2500   -999.2500   -999.2500   -999.2500
     5.7500   -999.2500   -999.2500   -999.2500    101.6318
     6.0000   -999.2500   -999.2500   -999.2500     97.5488
     6.2500   -999.2500   -999.2500   -999.2500     88.6908
     6.5000   -999.2500   -999.2500   -999.2500     79.1019
     6.7500   -999.2500   -999.2500   -999.2500     72.5459
     7.0000   -999.2500   -999.2500   -999.2500     70.7869
     7.2500   -999.2500   -999.2500   -999.2500     73.9255
     7.5000   -999.2500   -999.2500   -999.2500     81.1601
     7.7500   -999.2500   -999.2500   -999.2500     91.0201
     8.0000   -999.2500   -999.2500   -999.2500    101.6882
     8.2500   -999.2500   -999.2500   -999.2500    111.8402
     8.5000   -999.2500   -999.2500   -999.2500    121.0969
     8.7500   -999.2500   -999.2500   -999.2500    129.3985
     9.0000   -999.2500   -999.2500   -999.2500    136.2875
     9.2500   -999.2500   -999.2500   -999.2500    141.2415
     9.5000   -999.2500   -999.2500   -999.2500    144.3382
     9.7500   -999.2500   -999.2500   -999.2500    145.9564
    10.0000   -999.2500   -999.2500   -999.2500    146.0515
    10.2500   -999.2500   -999.2500   -999.2500    144.3167
    10.5000   -999.2500   -999.2500   -999.2500    140.8614
    10.7500   -999.2500   1422.0000      0.7231    136.3142
    11.0000   -999.2500   1422.0000      0.7102    131.4481
    11.2500   -999.2500   1422.0000      0.7014    126.9089
    11.5000   -999.2500   1421.9249      0.6984    123.0701
    11.7500   -999.2500   1421.4359      0.7165    119.9693
    12.0000   -999.2500   1418.9520      0.8307    117.5223
    12.2500   -999.2500   1409.1270      1.2892    115.7586
    12.5000   -999.2500   1378.8606      2.6997    114.6193
    12.7500   -999.2500   1306.2480      6.1233    113.7154
    13.0000   -999.2500   1170.5542     12.7049    112.6007
    13.2500   -999.2500    973.1384     22.7103    111.1148
    13.5000   -999.2500    749.9368     34.6773    109.3050
    13.7500   -999.2500    555.1155     45.7468    107.2697
    14.0000   -999.2500    426.6356     53.1898    105.1858
    14.2500   -999.2500    366.7744     55.8473    103.1651
    14.5000   -999.2500    351.0175     54.4259    101.0173
    14.7500   -999.2500    349.9344     50.7852     98.5112
    15.0000   -999.2500    345.5709     46.9337     95.8008
    15.2500   -999.2500    335.0098     44.2593     93.2710
    15.5000   -999.2500    323.4053     43.2039     91.1338
    15.7500   -999.2500    315.2511     43.4113     89.3611
    16.0000   -999.2500    311.1376     44.2064     87.8395
    16.2500     -3.0000    309.5089     45.0900     86.5598
    16.5000      0.0000    308.7759     45.9637     85.7849
    16.7500      0.0000    307.8739     47.0915     85.8161
    17.0000      0.0000    305.9803     48.9346     86.3234
    17.2500      0.0000    302.4415     51.8930     86.1843
    17.5000      0.0000    297.0603     55.9823     84.4309
    17.7500      0.0000    290.3160     60.6878     81.2676
    18.0000      0.0000    283.1324     65.2190     77.9328
    18.2500      0.0000    276.4993     68.9477     75.7655
    18.5000      0.0000    271.2198     71.6283     75.6371
    18.7500      0.0000    267.6893     73.3396     77.9305
    19.0000      0.0000    265.7579     74.3366     82.4482
    19.2500      0.0000    264.9035     74.9085     88.1934
    19.5000      0.0000    264.5906     75.2750     93.5720
    19.7500      0.0000    264.4832     75.5534     97.1108
    20.0000      0.0000    264.4371     75.7882     98.2755
    20.2500      0.0000    264.4164     75.9857     97.7840
    20.5000      0.0000    264.4688     76.1044     97.1688
    20.7500      0.0000    264.7835     76.0048     97.8248
    21.0000      0.0000    265.8582     75.3882    100.0134
    21.2500      0.0000    268.6271     73.8175    102.4260
    21.5000      0.0000    274.6729     70.8804    103.0074
    21.7500      0.0000    286.8159     66.4079    100.7518
    22.0000      0.0000    310.5429     60.5595     96.6813
    22.2500      0.0000    354.5988     53.7189     92.7153
    22.5000      0.0000    427.1008     46.3465     89.7766
    22.7500      0.0000    527.3965     38.9127     87.4729
    23.0000      0.0000    641.9378     31.8753     85.3485
    23.2500      0.0000    750.7647     25.6227     83.6382
    23.5000      0.0000    838.4066     20.3922     82.6776
    23.7500      0.0000    898.4879     16.2283     82.3049
    24.0000      0.0000    931.5389     13.0184     82.2793
    24.2500      0.0000    942.4590     10.5846     82.8401
    24.5000      0.0000    939.3702      8.7699     84.4436
    24.7500      0.0000    931.1792      7.4698     87.1099
    25.0000      0.0000    924.1555      6.6085     90.3129
    25.2500      0.0000    921.1411      6.1011     93.4260
    25.5000      0.0000    922.7731      5.8433     96.0984
    25.7500      0.0000    926.5599      5.7303     98.0792
    26.0000      0.0000    925.1265      5.6812     98.8026
    26.2500      0.0000    909.3075      5.6511     97.5907
    26.5000      0.0000    876.2966      5.6269     94.4300
    26.7500      0.0000    835.4114      5.6108     90.3198
    27.0000      0.0000    803.7037      5.6031     86.7392
    27.2500      0.0000    792.4279      5.5972     84.7530
    27.5000      0.0000    797.1782      5.5843     84.5020
    27.7500      0.0000    801.4950      5.5607     85.4520
    28.0000      0.0000    788.0031      5.5295     86.9399
    28.2500      0.0000    747.0846      5.4980     88.1363
    28.5000      0.0000    682.0188      5.4710     87.7940
    28.7500      0.0000    610.9611      5.4448     84.9742
    29.0000      0.0000    560.8718      5.4086     80.2858
    29.2500      0.0000    553.0856      5.3526     75.8433
    29.5000      0.0000    590.3278      5.2750     73.8060
    29.7500      0.0000    656.0542      5.1833     75.0154
    30.0000      0.0000    727.0052      5.0900     78.5741
    30.2500      0.0000    788.1904      5.0091     82.3930
    30.5000      0.0000    837.2949      4.9509     84.7052
    30.7500      0.0000    877.4908      4.9173     85.5613
    31.0000      0.0000    909.4684      4.9016     86.3948
    31.2500      0.0000    930.8979      4.8928     87.8511
    31.5000      0.0000    940.6804      4.8838     88.7684
    31.7500      0.0000    940.8647      4.8753     87.7874
    32.0000      0.0000    934.9534      4.8739     85.2147
    32.2500      0.0000    926.7356      4.8867     82.4433
    32.5000      0.0000    921.4482      4.9157     79.9717
    32.7500      0.0000    926.1600      4.9536     77.0750
    33.0000      0.0000    947.3154      4.9836     73.6102
    33.2500      0.0000    987.6522      4.9861     71.1564
    33.5000      0.0000   1043.1696      4.9543     71.6072
    33.7500      0.0000   1098.8829      4.9014     75.0307
    34.0000      0.0000   1129.5182      4.8520     79.6891
    34.2500      0.0000   1113.7587      4.8253     84.0373
    34.5000      0.0000   1053.1876      4.8270     87.8042
    34.7500      0.0000    973.9308      4.8512     90.8266
    35.0000      0.0000    907.8948      4.8853     92.0066
    35.2500      0.0000    874.6177      4.9164     90.6337
    35.5000      0.0000    878.6616      4.9346     88.1339
    35.7500      0.0000    915.1661      4.9326     86.9704
    36.0000      0.0000    971.8625      4.9022     87.8073
    36.2500      0.0000   1029.0006      4.8390     88.9837
    36.5000      0.0000   1066.0160      4.7525     88.9524
    36.7500      0.0000   1073.9309      4.6669     88.2617
    37.0000      0.0000   1060.4678      4.6072     88.6463
    37.2500      0.0000   1041.1250      4.5830     90.6460
    37.5000      0.0000   1026.5317      4.5878     92.8076
    37.7500      0.0000   1018.4993      4.6069     93.4105
    38.0000      0.0000   1014.1924      4.6271     92.5131
    38.2500      0.0000   1011.2897      4.6390     91.7434
    38.5000      0.0000   1010.7910      4.6374     92.3408
    38.7500      0.0000   1017.6324      4.6205     94.1247
