~Version Information
VERS.                      2.0: CWLS Log ASCII Standard - VERSION 2.0
WRAP.                       NO: One line per depth step
~Well Information Block
STRT.FT               395.0000: 
STOP.FT              1998.0000: 
STEP.FT                 0.2500: 
NULL.                -999.2500: 
COMP.          Pioneer Natural Resources: COMPANY
WELL.          Easton 12-30 Tr: WELL
FLD.           Purgatoire River: FIELD
LOC.           549' FWL & 2416' FNL--: LOCATION
PROV.                 Colorado: PROVINCE
CNTY.               Las Animas: COUNTRY
SRVC.                Patterson: SERVICE COMPANY
DATE.          Wed Jun 01 17:36:02 2005: LOG DATE
UWI.           05 071 08379 00: UNIQUE WELL ID
~Curve Information Block
DEPT.FT            0 000 00 00: Depth
SN.Ohm-m                      : IEL Short Normal
SP.mV                         : IEL Spontaneous Potential
DIR.Ohm-m                     : IEL Induction Resistivity
GR.GAPI                       : Gamma Ray
~Parameter Information Block
~A  Depth        SN          SP         DIR          GR     
# ...
   495.5000   2000.0000   -999.2500     21.8240    134.6865
   495.7500   2000.0000   -999.2500     21.8096    134.4231
   496.0000   2000.0000   -999.2500     21.8928    134.0548
   496.2500   2000.0000   -999.2500     22.0665    133.6414
   496.5000   2000.0000   -999.2500     22.3128    132.1794
   496.7500   2000.0000   -999.2500     22.6198    130.4421
   497.0000   2000.0000   -999.2500     22.9911    127.1425
   497.2500   2000.0000   -999.2500     23.4466    125.0871
   497.5000   2000.0000   -999.2500     24.0142    122.7688
   497.7500   2000.0000   -999.2500     24.7162    121.4000
   498.0000   2000.0000   -999.2500     25.5562    118.6801
   498.2500   2000.0000   -999.2500     26.5098    116.3435
   498.5000   2000.0000   -999.2500     27.5246    112.8699
   498.7500   2000.0000   -999.2500     28.5300    111.1209
   499.0000   2000.0000   -999.2500     29.4516    109.6472
   499.2500   2000.0000   -999.2500     30.2239    109.2406
   499.5000   2000.0000   -999.2500     30.7981    108.9259
   499.7500   2000.0000   -999.2500     31.1502    108.5602
   500.0000   2000.0000   -999.2500     31.2886    107.1885
   500.2500   2000.0000   -999.2500     31.2517    105.5262
   500.5000   2000.0000   -999.2500     31.0891    102.3140
   500.7500   2000.0000   -999.2500     30.8361    100.4644
   501.0000   2000.0000   -999.2500     30.5068     99.7911
   501.2500   2000.0000   -999.2500     30.1099    101.3904
   501.5000   2000.0000   -999.2500     29.6716    106.8628
   501.7500   2000.0000   -999.2500     29.2384    111.9839
   502.0000   2000.0000   -999.2500     28.8564    120.3047
   502.2500   2000.0000   -999.2500     28.5474    125.2551
   502.5000   2000.0000   -999.2500     28.3027    130.3645
   502.7500   2000.0000   -999.2500     28.0995    131.8589
   503.0000   2000.0000   -999.2500     27.9250    131.5253
   503.2500   2000.0000   -999.2500     27.7891    130.1560
   503.5000   2000.0000   -999.2500     27.7162    127.5825
   503.7500   2000.0000   -999.2500     27.7272    126.0801
   504.0000   2000.0000   -999.2500     27.8284    124.5337
   504.2500   2000.0000   -999.2500     28.0159    123.8666
   504.5000   2000.0000   -999.2500     28.2896    122.9216
   504.7500   2000.0000   -999.2500     28.6599    122.0215
   505.0000   2000.0000   -999.2500     29.1408    119.9406
   505.2500   2000.0000   -999.2500     29.7358    118.0614
   505.5000   2000.0000   -999.2500     30.4283    114.8278
   505.7500   2000.0000   -999.2500     31.1814    112.7014
   506.0000   2000.0000   -999.2500     31.9404    109.9563
   506.2500   2000.0000   -999.2500     32.6369    108.4460
   506.5000   2000.0000   -999.2500     33.1992    106.5315
   506.7500   2000.0000   -999.2500     33.5760    105.5264
   507.0000   2000.0000   -999.2500     33.7609    104.7209
   507.2500   2000.0000   -999.2500     33.7961    104.8701
   507.5000   2000.0000   -999.2500     33.7435    106.6105
   507.7500   2000.0000   -999.2500     33.6440    109.0754
   508.0000   2000.0000   -999.2500     33.4953    114.5885
   508.2500   2000.0000   -999.2500     33.2671    118.7462
   508.5000   2000.0000   -999.2500     32.9409    123.9926
   508.7500   2000.0000   -999.2500     32.5448    126.2853
   509.0000   2000.0000   -999.2500     32.1525    128.3024
   509.2500   2000.0000   -999.2500     31.8471    129.2529
   509.5000   2000.0000   -999.2500     31.6785    130.5239
   509.7500   2000.0000   -999.2500     31.6464    131.1446
   510.0000   2000.0000   -999.2500     31.7147    131.4551
   510.2500   2000.0000   -999.2500     31.8423    131.2927
   510.5000   2000.0000   -999.2500     32.0083    130.9259
   510.7500   2000.0000   -999.2500     32.2201    130.8776
   511.0000   2000.0000   -999.2500     32.5084    131.1747
   511.2500   2000.0000   -999.2500     32.9165    131.3531
   511.5000   2000.0000   -999.2500     33.4833    131.0335
   511.7500   2000.0000   -999.2500     34.2208    130.3017
   512.0000   2000.0000   -999.2500     35.0968    128.4359
   512.2500   2000.0000   -999.2500     36.0428    126.5864
   512.5000   2000.0000   -999.2500     36.9852    122.6462
   512.7500   2000.0000   -999.2500     37.8794    119.3073
   513.0000   2000.0000   -999.2500     38.7153    113.8527
   513.2500   2000.0000   -999.2500     39.4905    110.3549
   513.5000   2000.0000   -999.2500     40.1772    105.9316
   513.7500   2000.0000   -999.2500     40.7155    103.8935
   514.0000   2000.0000   -999.2500     41.0336    102.7510
   514.2500   2000.0000   -999.2500     41.0793    103.2760
   514.5000   2000.0000   -999.2500     40.8417    105.3395
   514.7500   2000.0000   -999.2500     40.3591    107.1674
   515.0000   2000.0000   -999.2500     39.7071    110.6327
   515.2500   2000.0000   -999.2500     38.9649    113.8022
   515.5000   2000.0000   -999.2500     38.1753    120.1901
   515.7500   2000.0000   -999.2500     37.3293    125.2443
   516.0000   2000.0000   -999.2500     36.3899    132.9635
   516.2500   2000.0000   -999.2500     35.3379    137.6127
   516.5000   2000.0000   -999.2500     34.1985    143.0335
   516.7500   2000.0000   -999.2500     33.0321    145.1489
   517.0000   2000.0000   -999.2500     31.9061    145.5065
   517.2500   2000.0000   -999.2500     30.8738    143.9901
   517.5000   2000.0000   -999.2500     29.9692    140.1590
   517.7500   2000.0000   -999.2500     29.2101    137.3686
   518.0000   2000.0000   -999.2500     28.6033    133.9149
   518.2500   2000.0000   -999.2500     28.1486    132.4919
   518.5000   2000.0000   -999.2500     27.8399    131.9614
   518.7500   2000.0000   -999.2500     27.6656    132.5963
   519.0000   2000.0000   -999.2500     27.6094    134.3979
   519.2500   2000.0000   -999.2500     27.6539    135.5515
   519.5000   2000.0000   -999.2500     27.7835    136.1751
   519.7500   2000.0000   -999.2500     27.9847    135.5343
   520.0000   2000.0000   -999.2500     28.2450    132.9562
   520.2500   2000.0000   -999.2500     28.5544    130.2235
   520.5000   2000.0000   -999.2500     28.9115    124.7946
   520.7500   2000.0000   -999.2500     29.3309    120.6612
   521.0000   2000.0000   -999.2500     29.8452    114.7804
   521.2500   2000.0000   -999.2500     30.4941    111.5378
   521.5000   2000.0000   -999.2500     31.3053    107.3958
   521.7500   2000.0000   -999.2500     32.2763    104.4166
   522.0000   2000.0000   -999.2500     33.3695     98.6108
   522.2500   2000.0000   -999.2500     34.5256     93.8478
   522.5000   2000.0000   -999.2500     35.6847     86.2700
   522.7500   2000.0000   -999.2500     36.8017     81.5232
   523.0000   2000.0000   -999.2500     37.8432     75.2500
   523.2500   2000.0000   -999.2500     38.7684     71.4409
   523.5000   2000.0000   -999.2500     39.5091     65.6953
   523.7500   2000.0000   -999.2500     39.9684     61.6843
   524.0000   2000.0000   -999.2500     40.0470     55.8038
   524.2500   2000.0000   -999.2500     39.6866     52.5588
   524.5000   2000.0000   -999.2500     38.8998     49.8562
   524.7500   2000.0000   -999.2500     37.7691     49.9982
   525.0000   2000.0000   -999.2500     36.4163     53.3659
   525.2500   2000.0000   -999.2500     34.9640     57.4457
   525.5000   2000.0000   -999.2500     33.5072     65.4625
   525.7500   2000.0000   -999.2500     32.1062     71.6972
   526.0000   2000.0000   -999.2500     30.7924     82.3433
   526.2500   2000.0000   -999.2500     29.5782     90.3626
   526.5000   2000.0000   -999.2500     28.4616    103.1248
   526.7500   2000.0000   -999.2500     27.4291    111.3015
   527.0000   2000.0000   -999.2500     26.4635    122.0003
   527.2500   2000.0000   -999.2500     25.5546    128.0570
   527.5000   2000.0000   -999.2500     24.7049    135.7965
   527.7500   2000.0000   -999.2500     23.9264    139.8807
   528.0000   2000.0000   -999.2500     23.2307    143.8465
   528.2500   2000.0000   -999.2500     22.6230    145.1409
   528.5000   2000.0000   -999.2500     22.1005    145.9629
   528.7500   2000.0000   -999.2500     21.6564    146.2086
