~Version Information
VERS.                      2.0: CWLS Log ASCII Standard - VERSION 2.0
WRAP.                       NO: One line per depth step
~Well Information Block
STRT.FT                -9.5000: 
STOP.FT              1862.5000: 
STEP.FT                 0.2500: 
NULL.                -999.2500: 
COMP.          Petrogulf Corporation: COMPANY
WELL.             State 16-34R: WELL
FLD.           Purgatoire River: FIELD
LOC.           1095' FSL & 1498' FEL--: LOCATION
CNTY.               Las Animas: COUNTY
SRVC.                         : SERVICE COMPANY
DATE.          Mon May 10 14:56:57 2004: LOG DATE
UWI.                          : UNIQUE WELL ID
STAT.                       CO: STATE
~Curve Information Block
DEPT.FT            0 000 00 00: Depth
GR.GAPI                       : Gamma Ray
CCL.                          : Casing Collar Locator
TT3.usec                      : CBL 3' Travel Time
AMP3.mV                       : CBL 3' Amplitude
~Parameter Information Block
~A  Depth        GR         CCL         TT3         AMP3    
# ...
   727.5000     78.0823      0.0000    847.3393      5.0312
   727.7500     71.1352      0.0000    841.5823      4.8231
   728.0000     67.8176      0.0000    822.7264      4.7854
   728.2500     68.2470      0.0000    805.8289      5.0550
   728.5000     70.6886      0.0000    804.2402      5.4596
   728.7500     73.4047      0.0000    817.6954      5.7355
   729.0000     76.0982      0.0000    841.2985      5.8323
   729.2500     79.3958      0.0000    876.5381      5.7735
   729.5000     83.3705      0.0000    924.5161      5.5444
   729.7500     87.2461      0.0000    973.2119      5.2649
   730.0000     90.4071     -4.9438   1006.8124      5.1199
   730.2500     93.0989     -5.0000   1020.8167      5.1811
   730.5000     96.0330      0.0000   1019.2999      5.3732
   730.7500     99.6042      0.0000   1005.6821      5.4825
   731.0000    103.5937      0.0000    979.6306      5.3838
   731.2500    107.3394      0.0000    946.3929      5.2572
   731.5000    109.9505      0.0000    927.1592      5.3763
   731.7500    110.7329      0.0000    941.3500      5.7878
   732.0000    110.0023      0.0000    978.5090      6.2952
   732.2500    109.3577      0.0000   1012.4435      6.7831
   732.5000    110.4726      0.0000   1033.6805      7.2694
   732.7500    113.3664      0.0000   1043.9097      7.4749
   733.0000    116.2656      0.0000   1035.5110      7.0719
   733.2500    117.3995      0.0000    999.6556      6.3073
   733.5000    116.6906      0.0000    946.0516      5.6476
   733.7500    115.4637      0.0000    894.3990      5.2592
   734.0000    114.7901      0.0000    859.3546      5.1388
   734.2500    114.5529      0.0000    846.6569      5.2325
   734.5000    114.1023      0.0000    843.0392      5.3481
   734.7500    113.3417      0.0000    836.3224      5.2873
   735.0000    112.6667      0.0000    835.8755      5.1097
   735.2500    111.7413      0.0000    841.3909      5.0331
   735.5000    108.8595      0.0000    840.8987      5.1084
   735.7500    102.1949      0.0000    837.6920      5.2230
   736.0000     91.7190      0.0000    829.6451      5.2774
   736.2500     79.5498      0.0000    804.1513      5.2163
   736.5000     68.4082      0.0000    768.7704      5.0779
   736.7500     59.8618      0.0000    742.6573      5.0428
   737.0000     53.9801      0.0000    733.0882      5.2183
   737.2500     50.4526      0.0000    737.6442      5.4542
   737.5000     49.6796      0.0000    752.0127      5.5433
   737.7500     52.5518      0.0000    773.0014      5.4425
   738.0000     59.2949      0.0000    796.9204      5.2527
   738.2500     68.7045      0.0000    819.0048      5.1184
   738.5000     78.5576      0.0000    846.4837      5.1368
   738.7500     86.7791      0.0000    896.8550      5.2607
   739.0000     92.2920      0.0000    965.2969      5.3460
   739.2500     95.0498      0.0000   1027.9214      5.3608
   739.5000     95.6654      0.0000   1083.1371      5.4141
   739.7500     95.0658      0.0000   1139.1909      5.5745
   740.0000     94.1527      0.0000   1171.4132      5.7308
   740.2500     93.5084      0.0000   1150.3477      5.6665
   740.5000     93.2307      0.0000   1093.7681      5.3446
   740.7500     93.0128      0.0000   1040.8866      5.0115
   741.0000     92.6293      0.0000   1003.9324      4.9030
   741.2500     92.5493      0.0000    978.3636      5.0043
   741.5000     93.7764      0.0000    969.9313      5.1523
   741.7500     96.7314      0.0000    983.0215      5.2162
   742.0000    100.5050      0.0000   1004.1678      5.1868
   742.2500    103.5530      0.0000   1016.4677      5.1411
   742.5000    104.9969      0.0000   1011.3026      5.1348
   742.7500    105.1551      0.0000    990.7727      5.1562
   743.0000    105.0352      0.0000    973.5206      5.1524
   743.2500    105.3790      0.0000    976.5274      5.1022
   743.5000    106.0897      0.0000    992.0369      5.0499
   743.7500    106.6239      0.0000   1005.4146      5.0535
   744.0000    106.8278      0.0000   1019.1913      5.1327
   744.2500    107.1231      0.0000   1042.8599      5.2415
   744.5000    107.9170      0.0000   1073.7023      5.2782
   744.7500    109.0484      0.0000   1098.0771      5.1954
   745.0000    109.8081      0.0000   1105.1726      5.0798
   745.2500    109.4882      0.0000   1096.8827      5.0591
   745.5000    108.0466      0.0000   1086.1860      5.1654
   745.7500    106.2315      0.0000   1081.4265      5.2933
   746.0000    104.9122      0.0000   1076.5792      5.2898
   746.2500    104.2160      0.0000   1060.4783      5.1657
   746.5000    103.3918      0.0000   1024.2565      5.1466
   746.7500    101.5321      0.0000    968.2702      5.3776
   747.0000     98.3181      0.0000    917.1498      5.7192
   747.2500     94.1420      0.0000    902.8299      5.9415
   747.5000     89.7465      0.0000    923.0447      5.9504
   747.7500     85.8329      0.0000    949.2162      5.8284
   748.0000     82.8337      0.0000    957.5766      5.7279
   748.2500     80.8714      0.0000    932.3713      5.6854
   748.5000     79.8933      0.0000    878.6898      5.6454
   748.7500     79.8104      0.0000    827.0706      5.6282
   749.0000     80.4998      0.0000    801.7117      5.6719
   749.2500     81.7959      0.0000    805.7604      5.7204
   749.5000     83.5098      0.0000    832.1688      5.7050
   749.7500     85.3821      0.0000    868.8304      5.6317
   750.0000     87.0223      0.0000    908.2233      5.5439
   750.2500     88.0119      0.0000    950.5358      5.4879
   750.5000     88.2291      0.0000    991.6696      5.4839
   750.7500     88.0414      0.0000   1031.6847      5.4852
   751.0000     87.9439      0.0000   1089.1287      5.4522
   751.2500     87.9676      0.0000   1181.8335      5.4152
   751.5000     87.5360      0.0000   1291.6018      5.3899
   751.7500     85.9325      0.0000   1367.0494      5.3754
   752.0000     82.8936      0.0000   1366.1559      5.4338
   752.2500     78.8069      0.0000   1283.4482      5.5644
   752.5000     74.4512      0.0000   1154.0952      5.5928
   752.7500     70.6995      0.0000   1035.8035      5.4165
   753.0000     68.4806      0.0000    963.2232      5.1772
   753.2500     68.6324      0.0000    928.9315      4.9927
   753.5000     71.2960      0.0000    908.4730      4.7554
   753.7500     75.4229      0.0000    880.6202      4.4111
   754.0000     79.0894      0.0000    838.7556      4.2094
   754.2500     80.3940      0.0000    797.7364      4.3384
   754.5000     78.2311      0.0000    773.2725      4.6005
   754.7500     72.6827      0.0000    763.5714      4.7998
   755.0000     65.1139      0.0000    759.4868      4.9822
   755.2500     57.9540      0.0000    757.8702      5.1891
   755.5000     53.9231      0.0000    761.6036      5.4436
   755.7500     54.7210      0.0000    772.9120      5.8247
   756.0000     59.9752      0.0000    792.3232      6.2519
   756.2500     67.3951      0.0000    818.1769      6.4546
   756.5000     74.0700      0.0000    840.3798      6.3241
   756.7500     77.9792      0.0000    851.2148      6.0101
   757.0000     78.9387      0.0000    860.9290      5.6783
   757.2500     78.6117      0.0000    885.2698      5.4357
   757.5000     79.3852      0.0000    931.6597      5.3421
   757.7500     82.6975      0.0000    993.5024      5.3435
   758.0000     88.1078      0.0000   1040.2834      5.3068
   758.2500     93.7328      0.0000   1041.9386      5.1546
   758.5000     97.5722      0.0000   1009.6237      4.9202
   758.7500     98.8936      0.0000    979.4908      4.7430
   759.0000     98.6187      0.0000    967.2446      4.7722
   759.2500     98.1700      0.0000    962.5208      4.9809
   759.5000     98.1059      0.0000    954.9309      5.2133
   759.7500     98.1289      0.0000    947.0282      5.3563
   760.0000     97.7200      0.0000    945.2021      5.3321
   760.2500     96.1922      0.0000    946.4601      5.1375
   760.5000     93.0479      0.0000    936.3062      4.9264
   760.7500     88.9610      0.0000    912.5059      4.8637
