~Version Information
VERS.                      2.0: CWLS Log ASCII Standard - VERSION 2.0
WRAP.                       NO: One line per depth step
~Well Information Block
STRT.FT               360.0000: 
STOP.FT              2515.2000: 
STEP.FT                 0.1000: 
NULL.                -999.2500: 
COMP.          Pioneer Natural Resources: COMPANY
WELL.            Rancher 12-35: WELL
FLD.           Purgatoire River: FIELD
LOC.           2131' FNL & 297' FWL: LOCATION
PROV.                 Colorado: PROVINCE
CNTY.               Las Animas: COUNTRY
SRVC.                Patterson: SERVICE COMPANY
DATE.          Tue Oct 12 09:11:02 2004: LOG DATE
UWI.           05 071 08179 00: UNIQUE WELL ID
~Curve Information Block
DEPT.FT            0 000 00 00: Depth
DCAL.in                       : CDL Caliper
RHOB.g/cc                     : CDL Bulk Density
RHOC.g/cc                     : CDL Density Correction
DPOR.pu                       : CDL Density Porosity
NPOR.pu                       : Neutron Porosity
GR.GAPI                       : Gamma Ray
~Parameter Information Block
~A  Depth       DCAL        RHOB        RHOC        DPOR        NPOR         GR     
# ...
  1492.8000      8.3134      2.4526      0.0498     11.9628     24.5347    142.0349
  1492.9000      8.3134      2.4808      0.0907     10.2539     24.1747    144.2401
  1493.0000      8.3552      2.5120      0.1370      8.3646     24.2624    143.7393
  1493.1000      8.3552      2.5201      0.0767      7.8734     24.9646    141.3203
  1493.2000      8.3552      2.5061      0.1370      8.7226     25.5350    141.1434
  1493.3000      8.4885      2.4837      0.0788     10.0795     25.6297    143.3354
  1493.4000      8.4885      2.4715      0.1116     10.8206     25.4239    143.6237
  1493.5000      8.5638      2.4681      0.1255     11.0265     24.9654    141.1643
  1493.6000      8.5638      2.4594      0.0986     11.5503     24.2133    137.5564
  1493.7000      8.5638      2.4455      0.1117     12.3961     23.4029    133.6472
  1493.8000      8.4617      2.4294      0.0802     13.3695     22.7636    133.1484
  1493.9000      8.4617      2.4163      0.1119     14.1665     22.2641    138.7873
  1494.0000      8.3764      2.4276      0.0494     13.4769     22.0725    144.8849
  1494.1000      8.3764      2.4743      0.1684     10.6492     22.4843    145.0301
  1494.2000      8.3764      2.5256      0.1986      7.5387     23.3203    141.4232
  1494.3000      8.3579      2.5591      0.1793      5.5084     24.2607    139.2225
  1494.4000      8.3579      2.5880      0.1707      3.7598     25.0856    139.9402
  1494.5000      8.3078      2.6178      0.2480      1.9538     25.6125    142.2568
  1494.6000      8.3078      2.6317      0.2376      1.1061     26.0733    142.6147
  1494.7000      8.3078      2.6227      0.2129      1.6519     26.6902    138.6357
  1494.8000      8.2316      2.6008      0.1631      2.9791     27.3207    134.8340
  1494.9000      8.2316      2.5750      0.1043      4.5427     27.9049    137.7631
  1495.0000      8.1604      2.5422      0.0730      6.5362     28.3190    144.3024
  1495.1000      8.1604      2.4979      0.0167      9.2177     28.4177    143.8157
  1495.2000      8.1604      2.4562     -0.0171     11.7435     28.3017    138.4668
  1495.3000      8.0959      2.4393     -0.0347     12.7692     27.8809    137.7985
  1495.4000      8.0959      2.4461      0.0195     12.3563     27.0554    139.1575
  1495.5000      8.0822      2.4430      0.0279     12.5446     26.3654    137.7471
  1495.6000      8.0822      2.4061      0.0312     14.7841     26.4691    136.3364
  1495.7000      8.0822      2.3509     -0.0516     18.1281     27.1953    138.4793
  1495.8000      8.1580      2.2939      0.0128     21.5792     27.5208    144.6708
  1495.9000      8.1580      2.2251      0.0127     25.7513     26.9461    152.5001
  1496.0000      8.3036      2.1495     -0.0113     30.3311     25.8677    160.0542
  1496.1000      8.3036      2.1062     -0.0398     32.9587     24.7670    164.2561
  1496.2000      8.3036      2.1147      0.0750     32.4434     24.1268    161.9679
  1496.3000      8.4361      2.1480      0.1832     30.4263     23.8284    156.6981
  1496.4000      8.4361      2.1816      0.2063     28.3858     23.2405    152.4528
  1496.5000      8.5101      2.2230      0.2279     25.8764     22.2139    149.6649
  1496.6000      8.5101      2.2760      0.3382     22.6681     21.3339    147.4412
  1496.7000      8.5101      2.3238      0.3494     19.7683     20.7607    147.0343
  1496.8000      8.5810      2.3590      0.3227     17.6371     20.2374    149.2805
  1496.9000      8.5810      2.3925      0.3448     15.6069     20.0012    149.7603
  1497.0000      8.7019      2.4266      0.3596     13.5404     20.2922    146.1078
  1497.1000      8.7019      2.4380      0.4248     12.8457     21.0636    141.7609
  1497.2000      8.7019      2.4055      0.3953     14.8206     22.0906    139.8587
  1497.3000      8.8006      2.3503      0.2247     18.1625     22.7362    139.6458
  1497.4000      8.8006      2.3149      0.1362     20.3071     22.9399    139.5792
  1497.5000      8.8320      2.3066      0.1376     20.8108     23.1476    138.5194
  1497.6000      8.8320      2.2947      0.1876     21.5312     23.0444    135.6416
  1497.7000      8.8320      2.2404      0.1813     24.8214     21.7871    132.3605
  1497.8000      8.8287      2.1270      0.1182     31.6996     18.8661    129.6236
  1497.9000      8.8287      1.9705      0.0751     41.1792     15.1589    127.8454
  1498.0000      8.7810      1.7922      0.0154     51.9884     12.1759    125.1455
  1498.1000      8.7810      1.6027     -0.0145     63.4725      9.9907    117.4527
  1498.2000      8.7810      1.4164     -0.0455     74.7666      7.8998    106.2517
  1498.3000      8.6573      1.2420     -0.1020     85.3316      5.9998     95.9187
  1498.4000      8.6573      1.0842     -0.2062     94.8962      4.8129     87.9299
  1498.5000      8.5437      0.9910     -0.2710    100.5462      4.3146     83.6988
  1498.6000      8.5437      1.0459     -0.2257     97.2179      4.1125     81.7368
  1498.7000      8.5437      1.2612      0.1220     84.1670      4.0716     78.3247
  1498.8000      8.6048      1.5475      0.4318     66.8159      4.2982     73.6245
  1498.9000      8.6048      1.8143      0.5019     50.6511      4.8067     70.2226
  1499.0000      8.7095      2.0181      0.5626     38.2949      5.4225     69.0537
  1499.1000      8.7095      2.1483      0.5276     30.4060      5.9555     68.7010
  1499.2000      8.7095      2.2401      0.3656     24.8411      6.4357     67.2513
  1499.3000      8.5794      2.3405      0.3647     18.7559      6.9450     66.4415
  1499.4000      8.5794      2.4414      0.4223     12.6443      7.5396     69.3437
  1499.5000      8.3587      2.5121      0.3697      8.3598      8.2588     74.7608
  1499.6000      8.3587      2.5568      0.2441      5.6498      9.3548     80.5578
  1499.7000      8.3587      2.5894      0.1533      3.6737     11.0906     86.8272
  1499.8000      8.2338      2.6022      0.1650      2.9000     13.0549     90.3405
  1499.9000      8.2338      2.5873      0.0883      3.7972     14.5583     88.9088
  1500.0000      8.1907      2.5578      0.0020      5.5892     15.5930     88.1162
  1500.1000      8.1907      2.5303      0.0050      7.2529     16.3838     92.5477
  1500.2000      8.1907      2.5141      0.0155      8.2386     16.8767    100.4047
  1500.3000      8.1792      2.5118      0.0085      8.3785     17.3881    104.6986
  1500.4000      8.1792      2.5178      0.0017      8.0117     18.3123    101.7816
  1500.5000      8.1707      2.5263      0.0173      7.4958     19.3174     98.2325
  1500.6000      8.1707      2.5368      0.0203      6.8608     19.9804     97.0413
  1500.7000      8.1707      2.5487     -0.0127      6.1379     20.3779     94.8432
  1500.8000      8.1584      2.5539      0.0476      5.8214     20.8287     93.1743
  1500.9000      8.1584      2.5440      0.0482      6.4246     21.5113     94.2234
  1501.0000      8.1460      2.5305     -0.0005      7.2435     22.3685     96.8307
  1501.1000      8.1460      2.5348      0.0117      6.9820     23.1896    100.5105
  1501.2000      8.1460      2.5616      0.0561      5.3591     23.5258    103.3158
  1501.3000      8.1396      2.5889      0.1285      3.7019     23.1954    103.3391
  1501.4000      8.1396      2.5936      0.0943      3.4152     22.8461    102.4610
  1501.5000      8.1385      2.5829      0.0678      4.0672     23.0426    102.2291
  1501.6000      8.1385      2.5656      0.0794      5.1125     23.6185    103.0943
  1501.7000      8.1385      2.5389      0.0399      6.7331     23.9994    103.6669
  1501.8000      8.1370      2.5126      0.0505      8.3279     23.6488    103.1351
  1501.9000      8.1370      2.5033     -0.0145      8.8910     22.7510    104.1466
  1502.0000      8.1376      2.5157      0.0250      8.1407     21.9475    107.1817
  1502.1000      8.1376      2.5395      0.0491      6.6992     21.5586    110.6065
  1502.2000      8.1376      2.5603      0.0364      5.4391     21.4305    111.1806
  1502.3000      8.1381      2.5695      0.0397      4.8815     21.3012    104.4518
