~Version Information
VERS.                      2.0: CWLS Log ASCII Standard - VERSION 2.0
WRAP.                       NO: One line per depth step
~Well Information Block
STRT.FT               930.0000: 
STOP.FT              2783.2000: 
STEP.FT                 0.1000: 
NULL.                -999.2500: 
COMP.          Pioneer Natural Resources: COMPANY
WELL.           Desoto 13-7TR: WELL
FLD.           Purgatoire River: FIELD
LOC.           1404' FSL & 1115' FWL: LOCATION
PROV.                 Colorado: PROVINCE
CNTY.               Las Animas: COUNTRY
SRVC.                Patterson: SERVICE COMPANY
DATE.          Fri Jan 14 14:42:18 2005: LOG DATE
UWI.           05 071 08216 00: UNIQUE WELL ID
~Curve Information Block
DEPT.FT            0 000 00 00: Depth
DCAL.in                       : CDL Caliper
RHOB.g/cc                     : CDL Bulk Density
RHOC.g/cc                     : CDL Density Correction
DPOR.pu                       : CDL Density Porosity
NPOR.pu                       : Neutron Porosity
GR.GAPI                       : Gamma Ray
~Parameter Information Block
~A  Depth       DCAL        RHOB        RHOC        DPOR        NPOR         GR     
# ...
  1054.8000      9.7667      2.2923      0.0604     21.6809     21.8994    117.7567
  1054.9000      9.7667      2.2509      0.0613     24.1894     21.6208    119.5296
  1055.0000      9.7484      2.2011      0.0107     27.2043     21.5103    125.4638
  1055.1000      9.7484      2.1441      0.0038     30.6604     21.5379    131.7303
  1055.2000      9.7484      2.0835     -0.0549     34.3354     21.6455    135.1392
  1055.3000      9.5740      2.0090      0.0170     38.8489     21.8650    133.5654
  1055.4000      9.5740      1.9118     -0.0052     44.7424     22.3092    128.8845
  1055.5000      9.3582      1.8249     -0.0138     50.0045     22.9187    126.4839
  1055.6000      9.3582      1.7980      0.0594     51.6360     23.2443    127.2232
  1055.7000      9.3582      1.8276      0.1428     49.8426     23.2509    126.8119
  1055.8000      9.2124      1.8743      0.2065     47.0137     23.4771    124.8063
  1055.9000      9.2124      1.9414      0.1879     42.9437     23.7542    126.0309
  1056.0000      9.0716      2.0730      0.3293     34.9715     23.7013    128.9658
  1056.1000      9.0716      2.2663      0.5359     23.2564     23.8297    127.4930
  1056.2000      9.0716      2.4609      0.5982     11.4612     24.5091    123.9386
  1056.3000      8.8701      2.6164      0.5752      2.0341     25.2850    124.7424
  1056.4000      8.8701      2.7276      0.5768     -4.7020     25.6855    128.1025
  1056.5000      8.6997      2.7858      0.5135     -8.2277     25.7483    128.7908
  1056.6000      8.6997      2.7887      0.4997     -8.4031     25.8836    128.1380
  1056.7000      8.6997      2.7589      0.3893     -6.6011     26.1184    128.1548
  1056.8000      8.6258      2.7214      0.3441     -4.3244     26.2618    126.2235
  1056.9000      8.6258      2.6710      0.3640     -1.2722     26.4185    122.0148
  1057.0000      8.6123      2.6004      0.1617      3.0048     26.4420    123.1100
  1057.1000      8.6123      2.5303      0.0431      7.2562     25.9707    133.1535
  1057.2000      8.6123      2.4766      0.0172     10.5104     25.2896    138.7120
  1057.3000      8.6233      2.4430     -0.0156     12.5428     25.0945    131.2578
  1057.4000      8.6233      2.4400     -0.0538     12.7301     25.5650    123.2110
  1057.5000      8.6406      2.4699     -0.0314     10.9123     26.3708    121.1564
  1057.6000      8.6406      2.5155      0.0384      8.1496     26.9918    119.1937
  1057.7000      8.6406      2.5514      0.0569      5.9736     26.9810    117.6024
  1057.8000      8.6339      2.5626      0.0556      5.2943     26.3929    119.5894
  1057.9000      8.6339      2.5513      0.0780      5.9848     25.6529    123.6647
  1058.0000      8.6027      2.5310      0.0507      7.2117     25.1045    128.7997
  1058.1000      8.6027      2.5114      0.0812      8.3973     24.9389    134.1750
  1058.2000      8.6027      2.4898      0.0418      9.7111     25.1567    136.9817
  1058.3000      8.5821      2.4697     -0.0323     10.9281     25.5473    134.5016
  1058.4000      8.5821      2.4569      0.0354     11.7020     25.8921    129.3301
  1058.5000      8.5782      2.4489     -0.0788     12.1854     26.1696    126.0903
  1058.6000      8.5782      2.4458      0.0054     12.3749     26.5604    125.2147
  1058.7000      8.5782      2.4484     -0.0066     12.2182     27.0221    126.9387
  1058.8000      8.5783      2.4620      0.0309     11.3912     27.3900    132.4442
  1058.9000      8.5783      2.4862      0.0620      9.9297     27.5892    140.2617
  1059.0000      8.5790      2.5085      0.0577      8.5773     27.6106    146.4343
  1059.1000      8.5790      2.5196      0.0785      7.9028     27.6476    146.9901
  1059.2000      8.5790      2.5225      0.0205      7.7294     27.7733    142.5227
  1059.3000      8.5786      2.5283      0.0230      7.3760     27.7355    139.8683
  1059.4000      8.5786      2.5350      0.0444      6.9677     27.3989    142.3437
  1059.5000      8.5757      2.5228      0.0857      7.7113     26.7219    143.5492
  1059.6000      8.5757      2.4846      0.0728     10.0225     25.5681    139.9245
  1059.7000      8.5757      2.4432      0.0436     12.5350     24.3414    135.6069
  1059.8000      8.5732      2.4251      0.0513     13.6274     23.5872    133.9591
  1059.9000      8.5732      2.4376      0.0672     12.8699     23.1119    134.6127
  1060.0000      8.5796      2.4746      0.0595     10.6296     22.6445    133.2746
  1060.1000      8.5796      2.5217      0.1077      7.7733     22.4725    127.9442
  1060.2000      8.5796      2.5539      0.1518      5.8220     22.8028    125.6169
  1060.3000      8.6088      2.5656      0.0901      5.1180     23.2365    131.8609
  1060.4000      8.6088      2.5738      0.1405      4.6172     23.6234    141.2636
  1060.5000      8.6433      2.5772      0.1222      4.4127     24.4295    145.4178
  1060.6000      8.6433      2.5664      0.1408      5.0664     25.5420    142.7470
  1060.7000      8.6433      2.5557      0.1272      5.7138     26.4324    140.2767
  1060.8000      8.6156      2.5613      0.1974      5.3752     27.0798    141.5490
  1060.9000      8.6156      2.5746      0.1703      4.5700     27.5272    138.1413
  1061.0000      8.5156      2.5784      0.1099      4.3371     27.5115    128.7675
  1061.1000      8.5156      2.5668      0.0623      5.0411     26.9979    124.6514
  1061.2000      8.5156      2.5492      0.0396      6.1099     26.6723    129.5263
  1061.3000      8.4233      2.5358      0.0310      6.9206     27.1711    138.6802
  1061.4000      8.4233      2.5285      0.0211      7.3616     27.9553    150.8135
  1061.5000      8.3847      2.5337     -0.0234      7.0511     28.2549    163.2608
  1061.6000      8.3847      2.5538      0.0664      5.8290     28.3343    169.7584
  1061.7000      8.3847      2.5733      0.0718      4.6457     28.7171    169.3210
  1061.8000      8.3793      2.5817      0.0826      4.1369     29.2966    163.8397
  1061.9000      8.3793      2.5862      0.0289      3.8651     29.6274    155.7772
  1062.0000      8.3807      2.5881      0.0848      3.7534     29.5026    150.3070
  1062.1000      8.3807      2.5783      0.0331      4.3468     29.1554    151.4665
  1062.2000      8.3807      2.5651      0.0334      5.1449     28.7581    157.5188
  1062.3000      8.3812      2.5605      0.0170      5.4216     28.2456    158.2636
  1062.4000      8.3812      2.5568      0.0470      5.6474     27.7501    150.2087
  1062.5000      8.3821      2.5460      0.0034      6.3047     27.4758    143.5500
  1062.6000      8.3821      2.5324      0.0274      7.1278     27.3346    143.7946
  1062.7000      8.3821      2.5259     -0.0312      7.5188     27.3195    146.7270
  1062.8000      8.3837      2.5356      0.0115      6.9355     27.3797    148.0411
  1062.9000      8.3837      2.5519      0.0619      5.9481     27.2821    145.0870
  1063.0000      8.3843      2.5604      0.0118      5.4281     27.1080    137.8624
  1063.1000      8.3843      2.5631      0.0794      5.2688     26.8781    127.5655
  1063.2000      8.3843      2.5609      0.0540      5.3998     26.5152    119.6215
  1063.3000      8.3841      2.5554      0.0074      5.7363     26.1265    122.3522
  1063.4000      8.3841      2.5505      0.0592      6.0290     25.8859    131.6364
  1063.5000      8.3830      2.5417      0.0593      6.5642     25.6454    135.7410
  1063.6000      8.3830      2.5295      0.0491      7.3000     24.8993    133.8193
  1063.7000      8.3830      2.5276      0.0217      7.4197     23.7788    132.9440
  1063.8000      8.3816      2.5428      0.0391      6.4971     23.0808    134.4277
  1063.9000      8.3816      2.5629      0.0807      5.2761     23.0049    135.8878
  1064.0000      8.3805      2.5713      0.0373      4.7713     22.9698    134.6094
  1064.1000      8.3805      2.5631      0.0809      5.2691     22.8140    128.9241
  1064.2000      8.3805      2.5390      0.0485      6.7290     22.9463    122.7035
  1064.3000      8.3812      2.5142     -0.0025      8.2297     23.3322    120.8221
