~Version Information
VERS.                      2.0: CWLS Log ASCII Standard - VERSION 2.0
WRAP.                       NO: One line per depth step
~Well Information Block
STRT.FT               275.0000: 
STOP.FT              1682.2000: 
STEP.FT                 0.1000: 
NULL.                -999.2500: 
COMP.          Pioneer Natural Resources: COMPANY
WELL.               Elmo 14-21: WELL
FLD.           Purgatoire River: FIELD
LOC.           623' FSL & 450' FWL----: LOCATION
PROV.                 Colorado: PROVINCE
CNTY.               Las Animas: COUNTRY
SRVC.                Patterson: SERVICE COMPANY
DATE.          Wed May 18 08:17:30 2005: LOG DATE
UWI.           05 071 08360 00: UNIQUE WELL ID
~Curve Information Block
DEPT.FT            0 000 00 00: Depth
DCAL.in                       : CDL Caliper
RHOB.g/cc                     : CDL Bulk Density
RHOC.g/cc                     : CDL Density Correction
DPOR.pu                       : CDL Density Porosity
NPOR.pu                       : Neutron Porosity
GR.GAPI                       : Gamma Ray
~Parameter Information Block
~A  Depth       DCAL        RHOB        RHOC        DPOR        NPOR         GR     
# ...
  1004.6000      8.0094      2.6599      0.1109     -0.5975     22.0035     84.3664
  1004.7000      8.0094      2.6804      0.1244     -1.8394     21.5197     86.3431
  1004.8000      8.0283      2.6740      0.1055     -1.4542     20.8035     88.2480
  1004.9000      8.0283      2.6468      0.0775      0.1954     20.6901     89.5620
  1005.0000      8.0547      2.6179      0.0431      1.9436     21.2673     91.1954
  1005.1000      8.0547      2.5973      0.0661      3.1941     22.1190     95.1140
  1005.2000      8.0547      2.5863      0.0500      3.8589     22.9038     99.1276
  1005.3000      8.0743      2.5808      0.0721      4.1933     23.6439    100.5832
  1005.4000      8.0743      2.5763      0.0518      4.4651     24.4628    103.3543
  1005.5000      8.0819      2.5780      0.0305      4.3636     25.2107    115.7743
  1005.6000      8.0819      2.5870      0.0611      3.8165     25.6547    137.7146
  1005.7000      8.0819      2.5946      0.0444      3.3559     25.8462    156.7915
  1005.8000      8.0833      2.5930      0.0713      3.4540     25.9087    164.6579
  1005.9000      8.0833      2.5810      0.0541      4.1810     25.7265    166.0097
  1006.0000      8.0830      2.5679      0.0648      4.9750     25.3184    169.2856
  1006.1000      8.0830      2.5583      0.0744      5.5549     25.2381    176.7753
  1006.2000      8.0830      2.5529      0.0291      5.8828     25.6687    184.8240
  1006.3000      8.0815      2.5577      0.0156      5.5926     26.0137    189.4578
  1006.4000      8.0815      2.5609      0.0808      5.4001     25.8282    188.2945
  1006.5000      8.0807      2.5487      0.0185      6.1395     25.0400    180.6834
  1006.6000      8.0807      2.5393      0.0309      6.7095     24.0209    170.5836
  1006.7000      8.0807      2.5460      0.0634      6.3054     23.4783    164.5517
  1006.8000      8.0819      2.5564      0.0587      5.6745     23.4735    161.8490
  1006.9000      8.0819      2.5594      0.0665      5.4894     23.3494    156.2943
  1007.0000      8.0821      2.5515      0.0579      5.9703     22.7752    143.8521
  1007.1000      8.0821      2.5368      0.0502      6.8619     22.0101    127.1594
  1007.2000      8.0821      2.5275      0.0282      7.4216     21.2744    113.9242
  1007.3000      8.0797      2.5338      0.0322      7.0410     20.6742    108.9838
  1007.4000      8.0797      2.5553      0.0621      5.7390     20.1065    110.2067
  1007.5000      8.0788      2.5786      0.0810      4.3283     19.3999    112.2554
  1007.6000      8.0788      2.5858      0.0673      3.8897     18.7707    110.7122
  1007.7000      8.0788      2.5835      0.0005      4.0310     18.4445    104.3141
  1007.8000      8.0823      2.5907      0.0714      3.5943     18.0294     96.4370
  1007.9000      8.0823      2.6041      0.0324      2.7839     17.1976     90.0594
  1008.0000      8.0862      2.6142      0.0542      2.1711     16.5817     86.9463
  1008.1000      8.0862      2.6190      0.0395      1.8769     16.7165     89.3336
  1008.2000      8.0862      2.6161      0.0887      2.0516     17.3291     92.8943
  1008.3000      8.0850      2.6085      0.0621      2.5125     17.9087     90.6391
  1008.4000      8.0850      2.6068      0.0677      2.6204     18.0843     83.6838
  1008.5000      8.0809      2.6100      0.0801      2.4215     17.5293     78.2286
  1008.6000      8.0809      2.6072      0.0679      2.5919     16.4088     76.9453
  1008.7000      8.0809      2.5993      0.0392      3.0718     15.6397     76.6348
  1008.8000      8.0785      2.5918      0.0724      3.5247     15.9176     75.4448
  1008.9000      8.0785      2.5838      0.0284      4.0142     16.6657     75.6377
  1009.0000      8.0784      2.5774      0.0482      4.4001     16.9813     76.9504
  1009.1000      8.0784      2.5752      0.0243      4.5312     16.9710     76.3772
  1009.2000      8.0784      2.5794      0.0353      4.2777     16.8193     74.4559
  1009.3000      8.0795      2.5856      0.0495      3.9050     16.5494     71.7515
  1009.4000      8.0795      2.5778      0.0814      4.3783     16.8339     67.0911
  1009.5000      8.0817      2.5541      0.0156      5.8100     17.6774     63.9058
  1009.6000      8.0817      2.5363      0.0040      6.8896     18.1218     66.1102
  1009.7000      8.0817      2.5402      0.0326      6.6563     17.8857     71.6163
  1009.8000      8.0833      2.5643      0.0376      5.1934     17.3017     73.4929
  1009.9000      8.0833      2.5920      0.0664      3.5175     16.6192     70.7760
  1010.0000      8.0829      2.5998      0.0808      3.0453     16.3112     70.0365
  1010.1000      8.0829      2.5851      0.0322      3.9363     16.9153     73.2398
  1010.2000      8.0829      2.5706      0.0399      4.8144     17.9606     76.6502
  1010.3000      8.0828      2.5752      0.0457      4.5359     18.4314     78.5992
  1010.4000      8.0828      2.5906      0.0607      3.6006     18.1762     78.2104
  1010.5000      8.0834      2.5952      0.0704      3.3193     17.8764     75.1199
  1010.6000      8.0834      2.5875      0.0313      3.7907     18.0943     74.0989
  1010.7000      8.0834      2.5796      0.0787      4.2645     18.7044     77.6864
  1010.8000      8.0837      2.5729      0.0493      4.6700     19.3588     83.1371
  1010.9000      8.0837      2.5680      0.0356      4.9719     20.1361     88.5354
  1011.0000      8.0834      2.5651      0.0366      5.1473     21.2563     93.4736
  1011.1000      8.0834      2.5574      0.0228      5.6105     22.3234     96.5728
  1011.2000      8.0834      2.5467     -0.0041      6.2600     23.1239     97.0409
  1011.3000      8.0834      2.5405      0.0196      6.6384     23.9122     99.5414
  1011.4000      8.0834      2.5392      0.0041      6.7161     24.5958    111.2632
  1011.5000      8.0833      2.5398      0.0504      6.6802     25.0402    128.7051
  1011.6000      8.0833      2.5417      0.0195      6.5663     25.2670    141.1781
  1011.7000      8.0833      2.5471      0.0332      6.2359     25.3143    143.6835
  1011.8000      8.0825      2.5532      0.0491      5.8663     25.2590    139.5025
  1011.9000      8.0825      2.5547      0.0605      5.7756     25.1621    134.6782
  1012.0000      8.0807      2.5516      0.0608      5.9651     24.9356    132.2107
  1012.1000      8.0807      2.5533      0.0121      5.8632     24.6544    132.3456
  1012.2000      8.0807      2.5644      0.0629      5.1853     24.6871    138.6936
  1012.3000      8.0797      2.5655      0.0978      5.1189     24.9688    152.5748
  1012.4000      8.0797      2.5460      0.0356      6.3014     25.1078    165.5687
  1012.5000      8.0802      2.5232      0.0226      7.6850     25.0007    167.2918
  1012.6000      8.0802      2.5123      0.0226      8.3438     25.0583    158.0408
  1012.7000      8.0802      2.5209      0.0148      7.8258     25.7967    151.3678
  1012.8000      8.0814      2.5410      0.0753      6.6078     26.6930    159.5928
  1012.9000      8.0814      2.5467      0.0783      6.2604     26.9020    175.0722
  1013.0000      8.0821      2.5287      0.0412      7.3510     26.6411    183.8987
  1013.1000      8.0821      2.5045      0.0077      8.8194     26.5257    184.4861
  1013.2000      8.0821      2.4968      0.0080      9.2859     26.3324    181.2431
  1013.3000      8.0815      2.5106      0.0496      8.4458     25.7260    178.8004
  1013.4000      8.0815      2.5264      0.0658      7.4931     25.3035    177.0768
  1013.5000      8.0819      2.5255      0.0575      7.5467     25.5561    174.1235
  1013.6000      8.0819      2.5193      0.0347      7.9189     25.9379    170.4168
  1013.7000      8.0819      2.5273      0.0524      7.4362     25.7240    167.4975
  1013.8000      8.0825      2.5473      0.0918      6.2267     24.9555    166.1448
  1013.9000      8.0825      2.5663      0.0946      5.0714     23.9818    164.0291
  1014.0000      8.0826      2.5789      0.1101      4.3114     23.0314    159.0000
  1014.1000      8.0826      2.5901      0.0666      3.6315     22.1926    153.1900
