~Version Information
VERS.                      2.0: CWLS Log ASCII Standard - VERSION 2.0
WRAP.                       NO: One line per depth step
~Well Information Block
STRT.FT              1727.9000: 
STOP.FT              1961.0000: 
STEP.FT                 0.1000: 
NULL.                -999.2500: 
COMP.          Petrogulf Corporation: COMPANY
WELL.              Royal 8-33R: WELL
FLD.           Purgatorie River: FIELD
LOC.           2401' FSL & 2270' FEL: LOCATION
CNTY.               Las Animas: COUNTY
SRVC.                         : SERVICE COMPANY
DATE.          Mon Apr 26 06:57:24 2004: LOG DATE
UWI.           05 071 08041 00: UNIQUE WELL ID
STAT.                 Colorado: STATE
~Curve Information Block
DEPT.FT            0 000 00 00: Depth
DCAL.in                       : CDL Caliper
RHOB.g/cc                     : CDL Bulk Density
RHOC.g/cc                     : CDL Density Correction
DPOR.pu                       : CDL Density Porosity
GR.GAPI                       : Gamma Ray
~Parameter Information Block
~A  Depth       DCAL        RHOB        RHOC        DPOR         GR     
# ...
  1839.9000      8.0055      2.5876      0.0672      3.7827    142.0485
  1840.0000      8.0425      2.6169      0.1725      2.0083    143.4022
  1840.1000      8.0425      2.6095      0.0675      2.4540    146.9115
  1840.2000      8.0425      2.5699      0.0822      4.8574    140.2717
  1840.3000      7.9140      2.5426      0.0552      6.5096    132.7040
  1840.4000      7.9140      2.5355      0.1702      6.9403    141.8256
  1840.5000      7.8951      2.5333      0.0471      7.0736    158.9599
  1840.6000      7.8951      2.5380      0.0988      6.7860    166.5054
  1840.7000      7.8951      2.5503      0.0552      6.0411    155.9791
  1840.8000      7.9031      2.5759      0.0612      4.4933    136.8769
  1840.9000      7.9031      2.6198      0.1234      1.8308    129.3846
  1841.0000      7.8907      2.6560      0.2068     -0.3628    137.6986
  1841.1000      7.8907      2.6477      0.1164      0.1413    145.6999
  1841.2000      7.8907      2.5916      0.0495      3.5416    138.6886
  1841.3000      7.8746      2.5279     -0.0127      7.4003    123.8009
  1841.4000      7.8746      2.4950      0.0524      9.3955    111.0958
  1841.5000      7.8686      2.4855     -0.0041      9.9694    100.8283
  1841.6000      7.8686      2.4938     -0.0439      9.4685    103.5653
  1841.7000      7.8686      2.5251      0.0435      7.5694    120.6941
  1841.8000      7.8749      2.5534     -0.0297      5.8525    133.0101
  1841.9000      7.8749      2.5534      0.0459      5.8536    136.5423
  1842.0000      7.8845      2.5297     -0.0332      7.2918    139.7688
  1842.1000      7.8845      2.4995     -0.0179      9.1191    136.9616
  1842.2000      7.8845      2.4774     -0.0505     10.4610    122.5674
  1842.3000      7.8902      2.4724      0.0446     10.7636    106.6611
  1842.4000      7.8902      2.4747      0.0528     10.6239    100.9672
  1842.5000      7.8733      2.4692      0.0034     10.9569    108.7828
  1842.6000      7.8733      2.4598      0.0394     11.5284    125.8773
  1842.7000      7.8733      2.4646      0.0213     11.2386    140.8405
  1842.8000      7.8632      2.5038      0.0493      8.8586    139.9857
  1842.9000      7.8632      2.5599      0.0943      5.4589    121.0811
  1843.0000      7.8624      2.5792      0.0541      4.2933     98.1589
  1843.1000      7.8624      2.5473      0.0245      6.2236     82.0803
  1843.2000      7.8624      2.4993      0.1146      9.1334     75.7097
  1843.3000      7.8649      2.4696     -0.0126     10.9304     86.1407
  1843.4000      7.8649      2.4689     -0.0070     10.9751    108.7963
  1843.5000      7.8690      2.4788      0.0290     10.3765    122.9007
  1843.6000      7.8690      2.4822      0.0798     10.1712    115.9558
  1843.7000      7.8690      2.4835      0.0078     10.0907     98.6592
  1843.8000      7.8698      2.4987      0.0041      9.1705     82.7477
  1843.9000      7.8698      2.5265      0.0937      7.4869     71.6573
  1844.0000      7.8790      2.5442      0.0678      6.4141     74.6611
  1844.1000      7.8790      2.5407      0.0667      6.6219     92.2984
  1844.2000      7.8790      2.5332      0.0441      7.0811    110.4480
  1844.3000      7.8712      2.5468      0.1273      6.2571    117.1429
  1844.4000      7.8712      2.5798      0.1416      4.2567    111.8366
  1844.5000      7.8277      2.6067      0.0904      2.6213    105.4359
  1844.6000      7.8277      2.6188      0.0670      1.8924     99.4621
  1844.7000      7.8277      2.6306      0.0416      1.1757     93.0937
  1844.8000      7.7871      2.6375      0.1059      0.7575     91.2367
  1844.9000      7.7871      2.6175      0.0402      1.9699     89.3970
  1845.0000      7.7735      2.5747     -0.0285      4.5651     83.3863
  1845.1000      7.7735      2.5277      0.0069      7.4127     81.2748
  1845.2000      7.7735      2.5015     -0.1467      9.0019     88.5732
  1845.3000      7.8099      2.5220      0.0168      7.7601     97.3142
  1845.4000      7.8099      2.5644      0.0900      5.1899     97.2501
  1845.5000      7.8376      2.5747      0.0989      4.5624     85.8585
  1845.6000      7.8376      2.5419      0.0010      6.5541     69.1347
  1845.7000      7.8376      2.5007      0.0169      9.0460     58.2565
  1845.8000      7.8579      2.4864      0.0049      9.9154     56.7628
  1845.9000      7.8579      2.5046      0.0944      8.8119     57.7298
  1846.0000      7.8741      2.5292      0.0782      7.3219     54.8285
  1846.1000      7.8741      2.5330      0.0894      7.0936     50.9361
  1846.2000      7.8741      2.5170      0.0062      8.0588     50.3393
  1846.3000      7.8850      2.4948      0.0793      9.4076     48.8394
  1846.4000      7.8850      2.4669      0.0736     11.0948     46.9872
  1846.5000      7.8867      2.4259      0.1336     13.5807     48.8856
  1846.6000      7.8867      2.3813     -0.0352     16.2857     52.0229
  1846.7000      7.8867      2.3657     -0.0099     17.2287     53.4739
  1846.8000      7.8764      2.3944     -0.0401     15.4884     53.5075
  1846.9000      7.8764      2.4407      0.0644     12.6821     52.5714
  1847.0000      7.8768      2.4667      0.0882     11.1108     50.8212
  1847.1000      7.8768      2.4644      0.1074     11.2473     48.7882
  1847.2000      7.8768      2.4524      0.0131     11.9746     46.2960
  1847.3000      7.8752      2.4470      0.0581     12.3027     43.3512
  1847.4000      7.8752      2.4377      0.0981     12.8643     42.0842
  1847.5000      7.8680      2.4107      0.0801     14.5049     44.2888
  1847.6000      7.8680      2.3963      0.0124     15.3785     49.2709
  1847.7000      7.8680      2.4210      0.0122     13.8800     54.3744
  1847.8000      7.8584      2.4539      0.0834     11.8841     57.2649
  1847.9000      7.8584      2.4617      0.0851     11.4110     55.5986
  1848.0000      7.8585      2.4444      0.1277     12.4597     47.6352
  1848.1000      7.8585      2.4171      0.0223     14.1180     36.5753
  1848.2000      7.8585      2.4005      0.0206     15.1228     30.5024
  1848.3000      7.8606      2.4015      0.0633     15.0615     31.9425
  1848.4000      7.8606      2.4075      0.0844     14.6968     34.1256
  1848.5000      7.8607      2.4104      0.0493     14.5220     32.5518
  1848.6000      7.8607      2.4156      0.0356     14.2037     31.2024
  1848.7000      7.8607      2.4249      0.0207     13.6440     35.1102
  1848.8000      7.8603      2.4297      0.0697     13.3533     40.4646
  1848.9000      7.8603      2.4354      0.0271     13.0065     42.1898
  1849.0000      7.8642      2.4596      0.0506     11.5417     41.7568
  1849.1000      7.8642      2.4881      0.1084      9.8105     40.5739
  1849.2000      7.8642      2.4848      0.1388     10.0116     39.6493
  1849.3000      7.8665      2.4506      0.0872     12.0852     42.5648
  1849.4000      7.8665      2.4196      0.0349     13.9620     50.9334
  1849.5000      7.8733      2.4087      0.0788     14.6268     64.1718
  1849.6000      7.8733      2.4085      0.0287     14.6348     85.8881
  1849.7000      7.8733      2.4093      0.0280     14.5900    116.1375
  1849.8000      7.8778      2.4229     -0.0042     13.7631    138.2972
  1849.9000      7.8778      2.4671     -0.0151     11.0821    141.8728
  1850.0000      7.8711      2.5216      0.0291      7.7826    140.9600
  1850.1000      7.8711      2.5478      0.1534      6.1948    143.5270
  1850.2000      7.8711      2.5421      0.1236      6.5382    142.2527
  1850.3000      7.8803      2.5385      0.1538      6.7558    137.9085
  1850.4000      7.8803      2.5567      0.1264      5.6515    142.8117
  1850.5000      7.8830      2.5761      0.0725      4.4758    158.3486
  1850.6000      7.8830      2.5694      0.1118      4.8846    173.8440
  1850.7000      7.8830      2.5432      0.0636      6.4748    184.5138
  1850.8000      7.9142      2.5276      0.0411      7.4172    186.5414
  1850.9000      7.9142      2.5298      0.1178      7.2838    174.4549
  1851.0000      7.9261      2.5333      0.1288      7.0713    154.7615
