~Version Information
VERS.                      2.0: CWLS Log ASCII Standard - VERSION 2.0
WRAP.                       NO: One line per depth step
~Well Information Block
STRT.FT                -8.2500: 
STOP.FT              2356.2500: 
STEP.FT                 0.2500: 
NULL.                -999.2500: 
COMP.          Petrogulf Corporation: COMPANY
WELL.             State 16-12V: WELL
FLD.           Purgatorie River: FIELD
LOC.           1992' FNL & 1237' FWL: LOCATION
PROV.                 Colorado: PROVINCE
CNTY.               Las Animas: COUNTRY
SRVC.                Patterson: SERVICE COMPANY
DATE.          Thu Aug 11 14:44:06 2005: LOG DATE
UWI.                          : UNIQUE WELL ID
~Curve Information Block
DEPT.FT            0 000 00 00: Depth
GR.GAPI                       : Gamma Ray
CCL.                          : Casing Collar Locator
TT3.usec                      : CBL 3' Travel Time
AMP3.mV                       : CBL 3' Amplitude
~Parameter Information Block
~A  Depth        GR         CCL         TT3         AMP3    
# ...
   159.2500     44.7779      0.0000    400.9869     21.2790
   159.5000     43.8724      0.0000    389.8045     21.7419
   159.7500     43.3140      0.0000    381.7320     22.2225
   160.0000     43.7786      0.0000    379.5752     22.6057
   160.2500     45.5033      0.0000    384.9643     22.9432
   160.5000     48.0358      0.0000    406.6652     23.3568
   160.7500     50.5047      0.0000    457.2717     23.8616
   161.0000     52.2269      0.0000    530.9020     24.3994
   161.2500     53.2151      0.0000    587.6852     25.0186
   161.5000     53.9302      0.0000    584.7074     25.8038
   161.7500     54.4885      0.0000    521.6808     26.6949
   162.0000     54.4055      0.0000    438.6845     27.5166
   162.2500     53.1059      0.0000    376.2978     28.1112
   162.5000     50.4956      0.0000    346.9131     28.4508
   162.7500     47.2608      0.0000    340.1457     28.6343
   163.0000     44.6922      0.0000    342.2563     28.7656
   163.2500     43.7482      0.0000    344.0489     28.8958
   163.5000     44.0846      0.0000    341.8577     29.0427
   163.7500     44.3129      0.0000    337.7184     29.2083
   164.0000     43.4001      0.0000    334.9076     29.4054
   164.2500     41.6961      0.0000    334.0357     29.6587
   164.5000     40.5346      0.0000    334.1094     29.9443
   164.7500     40.9180      0.0000    334.3930     30.1586
   165.0000     42.7298      0.0000    334.6559     30.1948
   165.2500     45.1279      0.0000    334.8692     30.0727
   165.5000     47.3892      0.0000    335.0085     29.9685
   165.7500     49.2362      0.0000    335.0630     30.0463
   166.0000     50.6210      0.0000    335.3357     30.2694
   166.2500     51.4484      0.0000    336.8465     30.4631
   166.5000     51.4851      0.0000    341.3802     30.5316
   166.7500     50.5208      0.0000    350.0363     30.5268
   167.0000     48.6005      0.0000    360.8149     30.5415
   167.2500     46.0807      0.0000    369.5841     30.5918
   167.5000     43.6539      0.0000    374.1260     30.6136
   167.7500     42.4111      0.0000    374.7831     30.5418
   168.0000     43.5295      0.0000    372.1910     30.3694
   168.2500     47.5547      0.0000    367.7979     30.1613
   168.5000     54.0546      0.0000    365.2913     30.0233
   168.7500     61.9801      0.0000    367.1720     30.0270
   169.0000     70.1926      0.0000    371.3036     30.1299
   169.2500     77.8049      0.0000    374.3058     30.1750
   169.5000     84.4985      0.0000    375.3641     30.0341
   169.7500     90.5953      0.0000    375.1373     29.7484
   170.0000     96.4508      0.0000    373.5477     29.5038
   170.2500    101.6392      0.0000    369.1448     29.4629
   170.5000    105.0319      0.0000    360.6858     29.6043
   170.7500    105.8266      0.0000    349.9682     29.7538
   171.0000    104.2961      0.0000    341.1301     29.7638
   171.2500    101.4790      0.0000    336.3415     29.6186
   171.5000     98.3580      0.0000    334.5963     29.4166
   171.7500     95.4745      0.0000    334.1555     29.3159
   172.0000     93.0738      0.0000    334.0613     29.3711
   172.2500     91.2995      0.0000    334.0219     29.4091
   172.5000     90.3465      0.0000    334.0015     29.2198
   172.7500     90.6187      0.0000    334.0058     28.8337
   173.0000     92.5638      0.0000    334.0947     28.5228
   173.2500     96.0876      0.0000    334.3573     28.5152
   173.5000    100.2051      0.0000    334.9211     28.7556
   173.7500    103.3530      0.0000    336.3175     29.0020
   174.0000    104.1783      0.0000    339.3998     29.0773
   174.2500    102.5027      0.0000    343.5206     28.9842
   174.5000     99.6460      0.0000    345.4359     28.8687
   174.7500     97.2814      0.0000    343.0356     28.8979
   175.0000     95.7815      0.0000    338.6376     29.1600
   175.2500     94.0528      0.0000    335.4791     29.6311
   175.5000     90.9739      0.0000    334.1018     30.1645
   175.7500     86.6602      0.0000    333.5833     30.5562
   176.0000     82.3647      0.0000    333.3449     30.6988
   176.2500     79.5787      0.0000    333.2566     30.6883
   176.5000     79.2954      0.0000    333.2644     30.7486
   176.7500     81.5627      0.0000    333.2670     31.0120
   177.0000     85.1919      0.0000    333.1756     31.3696
   177.2500     88.2255      0.0000    333.0085     31.6221
   177.5000     89.4753      0.0000    332.8853     31.7594
   177.7500     89.6830      0.0000    332.9151     31.9664
   178.0000     90.6757      0.0000    333.1117     32.3669
   178.2500     93.3253      0.0000    333.4050     32.8440
   178.5000     96.7315      0.0000    333.7672     33.1280
   178.7500     99.3895      0.0000    334.4604     33.0324
   179.0000    100.6087      0.0000    336.3993     32.6063
   179.2500    100.6082      0.0000    341.2849     32.0579
   179.5000     99.7638      0.0000    350.1815     31.5531
   179.7500     98.2947      0.0000    361.0297     31.1353
   180.0000     96.4071      0.0000    369.6447     30.7733
   180.2500     94.1357      0.0000    374.0401     30.4191
   180.5000     91.1591      0.0000    375.4731     30.0743
   180.7500     87.5043      0.0000    376.0061     29.7999
   181.0000     84.4006      0.0000    377.7669     29.6212
   181.2500     83.4970      0.0000    384.8804     29.4897
   181.5000     84.8737      0.0000    402.8023     29.3738
   181.7500     86.5023      0.0000    427.6486     29.3030
   182.0000     86.1204      0.0000    438.9514     29.2666
   182.2500     83.2792      0.0000    421.5187     29.1503
   182.5000     79.3920      0.0000    387.5540     28.8817
   182.7500     76.2327      0.0000    358.7609     28.5538
   183.0000     74.6005      0.0000    343.0733     28.2717
   183.2500     74.1297      0.0000    336.9946     27.9989
   183.5000     74.0825      0.0000    335.3475     27.6555
   183.7500     74.2830      0.0000    335.2863     27.2383
   184.0000     75.2201      0.0000    336.6616     26.7975
   184.2500     77.1602      0.0000    341.1585     26.3824
   184.5000     79.3569      0.0000    350.0013     25.9614
   184.7500     80.4886      0.0000    361.0725     25.3896
   185.0000     80.0089      0.0000    369.9944     24.5856
   185.2500     78.8807      0.0000    374.6379     23.6818
   185.5000     78.7088      0.0000    376.1835     22.8623
   185.7500     80.2824      0.0000    376.4748     22.1415
   186.0000     83.1830      0.0000    376.4180     21.4523
   186.2500     86.4476      0.0000    376.1943     20.8676
   186.5000     89.1106      0.0000    375.9104     20.5645
   186.7500     90.2509      0.0000    376.3016     20.5879
   187.0000     89.1656      0.0000    379.6270     20.7261
   187.2500     85.9152      0.0000    389.6280     20.6391
   187.5000     81.5388      0.0000    407.2076     20.1377
   187.7500     77.4391      0.0000    424.7628     19.3741
   188.0000     74.4744      0.0000    432.2291     18.6966
   188.2500     72.6304      0.0000    429.8991     18.2700
   188.5000     71.4200      0.0000    425.1295     17.9940
   188.7500     70.4475      0.0000    420.2667     17.7822
   189.0000     69.6555      0.0000    412.6035     17.6585
   189.2500     69.2645      0.0000    402.9110     17.5797
   189.5000     69.5562      0.0000    399.3318     17.4158
   189.7500     70.5488      0.0000    407.6697     17.1290
   190.0000     71.6981      0.0000    421.7452     16.7872
   190.2500     72.0871      0.0000    432.7986     16.3220
   190.5000     71.1862      0.0000    444.0535     15.3960
   190.7500     69.4363      0.0000    466.1897     13.8024
   191.0000     68.0447      0.0000    500.0463     12.0768
   191.2500     68.3098      0.0000    536.4489     11.1144
   191.5000     71.0005      0.0000    580.7495     10.9048
   191.7500     75.8816      0.0000    648.0035     10.6659
   192.0000     81.5462      0.0000    716.5129     10.1912
   192.2500     86.0536      0.0000    741.0618      9.8345
   192.5000     88.3444      0.0000    718.3104      9.7222
