~Version Information
 VERS.                                  2.0 : CWLS LAS VERSION
 WRAP.                                   NO : WRAPING MODE
 SWARE .                 MController 2.5.0E : SOFTWARE VERSION
~Well Information
 WELL.                        Rangely 22-28 : WELL
 COMP.             Evergreen Operating Corp : COMPANY
 FLD.                      Purgatorie River : FIELD
 LOC.                SE/NW Sec 28 T32S R67W : LOCATION
 DATE.                09/14/2004-09/15/2004 : DATE(S) LOGGED
 SRVC.       Blanco Geological Services LLC : SERVICE COMPANY
 STAT.                                   CO : STATE
 CNTY.                           Las Animas : COUNTY
 CTRY.                                  USA : COUNTRY
 API.                       05-071-08044-00 : API NUMBER
 STRT.FT                             858.00 : START DEPTH
 STOP.FT                            2847.00 : STOP DEPTH
 STEP.FT                               1.00 : DEPTH INCREMENT
 NULL.                                -9999 : NULL VALUE
~Curve information
 DEPTH.FT                                   :
 ROP.MIN/FT                                 :
 GAS.UNITS                                  :
~ASCII Log data
# ...
     2658.00        0.733       1287.2 
     2659.00        0.600       1296.6 
     2660.00        0.733       1334.0 
     2661.00        1.050       1334.7 
     2662.00        0.733       1332.7 
     2663.00        0.633       1314.1 
     2664.00        0.400       1212.7 
     2665.00        0.533       1209.3 
     2666.00        5.200       2628.8 
     2667.00        0.333       2075.9 
     2668.00        0.333       2078.6 
     2669.00        0.367       2039.2 
     2670.00        0.500       1907.1 
     2671.00        0.517       1709.7 
     2672.00        0.467       1530.1 
     2673.00        0.500       1371.7 
     2674.00        0.467       1312.8 
     2675.00        0.500       1294.2 
     2676.00        0.533       1300.0 
     2677.00        0.500       1303.0 
     2678.00        0.550       1295.6 
     2679.00        0.567       1271.0 
     2680.00        0.600       1258.9 
     2681.00        0.600       1243.4 
     2682.00        0.600       1220.1 
     2683.00        0.633       1216.4 
     2684.00        0.617       1214.7 
     2685.00        0.567       1201.6 
     2686.00        0.533       1209.3 
     2687.00        0.600       1240.3 
     2688.00        0.633       1255.2 
     2689.00        0.617       1259.2 
     2690.00        0.667       1256.2 
     2691.00        0.633       1240.3 
     2692.00        0.667       1233.6 
     2693.00        0.667       1239.0 
     2694.00        0.683       1261.9 
     2695.00        0.533       1253.1 
     2696.00        5.517       3104.5 
     2697.00        0.367       2149.3 
     2698.00        0.950       1933.0 
     2699.00        1.100       1749.4 
     2700.00        0.783       1411.2 
     2701.00        0.700       1352.9 
     2702.00        0.733       1381.5 
     2703.00        0.850       1368.4 
     2704.00        0.867       1344.1 
     2705.00        0.933       1306.0 
     2706.00        1.117       1243.0 
     2707.00        1.100       1187.1 
     2708.00        1.000       1188.1 
     2709.00        1.117       1207.0 
     2710.00        1.067       1225.2 
     2711.00        1.067       1218.4 
     2712.00        1.017       1216.8 
     2713.00        1.133       1219.5 
     2714.00        1.133       1211.4 
     2715.00        1.217       1216.4 
     2716.00        1.133       1228.6 
     2717.00        1.100       1237.6 
     2718.00        1.317       1227.9 
     2719.00        1.400       1247.4 
     2720.00        1.367       1185.8 
     2721.00        1.350       1236.6 
     2722.00        1.333       1273.4 
     2723.00        1.083       1283.5 
     2724.00        0.700       1482.6 
     2725.00        0.700       1572.9 
     2726.00        5.167       2746.7 
     2727.00        0.767       1634.2 
     2728.00        0.900       1573.9 
     2729.00        1.067       1412.5 
     2730.00        0.883       1402.1 
     2731.00        1.000       1390.9 
     2732.00        1.233       1352.2 
     2733.00        1.317       1273.4 
     2734.00        1.333       1285.8 
     2735.00        1.450       1249.8 
     2736.00        1.533       1207.0 
     2737.00        1.500       1257.2 
     2738.00        1.617       1270.3 
     2739.00        1.567       1297.6 
     2740.00        1.550       1275.7 
     2741.00        1.633       1259.2 
     2742.00        1.717       1225.9 
     2743.00        1.667       1209.3 
     2744.00        1.717       1198.9 
     2745.00        1.667       1214.4 
     2746.00        1.817       1270.7 
     2747.00        1.367       1263.3 
     2748.00        1.983       1233.9 
     2749.00        2.283       1206.3 
     2750.00        2.167       1274.0 
     2751.00        1.883       1157.1 
     2752.00        0.967       1327.6 
     2753.00        0.800       1610.9 
     2754.00        0.617       1664.5 
     2755.00        0.533       1365.0 
     2756.00        4.383       2486.9 
     2757.00        0.567       2386.5 
     2758.00        0.500       2182.7 
     2759.00        0.500       1932.7 
     2760.00        0.550       1573.9 
     2761.00        0.467       1378.5 
     2762.00        0.500       1260.9 
     2763.00        0.500       1221.8 
     2764.00        0.467       1196.2 
     2765.00        0.500       1166.9 
     2766.00        0.517       1128.5 
     2767.00        0.467       1101.5 
     2768.00        0.500       1087.0 
     2769.00        0.500       1087.7 
     2770.00        0.500       1094.5 
     2771.00        0.533       1095.1 
     2772.00        0.533       1096.1 
     2773.00        0.617       1094.8 
     2774.00        0.667       1088.1 
     2775.00        0.667       1081.0 
     2776.00        0.600       1091.1 
     2777.00        0.633       1083.7 
     2778.00        1.150       1033.5 
     2779.00        0.700       1042.6 
     2780.00        0.700       1072.9 
     2781.00        0.700       1090.1 
     2782.00        0.717       1098.2 
     2783.00        0.700       1100.9 
     2784.00        0.733       1088.4 
     2785.00        0.733       1067.8 
     2786.00        5.467       1710.0 
     2787.00        0.533       1607.2 
     2788.00        0.467       1722.5 
     2789.00        0.433       1844.1 
     2790.00        0.367       1874.1 
     2791.00        0.367       1814.8 
     2792.00        0.383       1768.3 
     2793.00        0.333       1671.9 
     2794.00        0.367       1597.5 
     2795.00        0.367       1469.4 
     2796.00        0.433       1437.1 
     2797.00        0.433       1398.7 
     2798.00        0.367       1394.6 
     2799.00        0.467       1375.4 
     2800.00        0.783       1307.1 
     2801.00        0.633       1195.2 
     2802.00        0.667       1217.4 
     2803.00        0.400       1306.7 
     2804.00        0.400       1385.2 
     2805.00        0.817       1402.1 
     2806.00        0.567       1392.3 
     2807.00        0.400       1317.2 
     2808.00        0.767       1297.3 
     2809.00        0.800       1235.6 
     2810.00        0.633       1240.7 
     2811.00        0.817       1323.2 
     2812.00        0.767       1380.5 
     2813.00        0.767       1386.6 
     2814.00        0.600       1311.4 
     2815.00        1.017       1293.9 
     2816.00        5.883       2023.3 
     2817.00        0.450       1954.9 
     2818.00        0.800       1920.6 
     2819.00        0.800       1569.5 
     2820.00        0.767       1357.9 
     2821.00        0.983       1425.3 
     2822.00        0.800       1462.7 
     2823.00        1.067       1425.0 
     2824.00        0.833       1330.6 
     2825.00        0.717       1284.5 
     2826.00        0.800       1243.7 
     2827.00        0.900       1253.5 
     2828.00        0.767       1257.5 
     2829.00        0.750       1250.1 
     2830.00        0.700       1228.6 
     2831.00        0.733       1222.1 
     2832.00        0.800       1223.5 
     2833.00        0.700       1217.1 
     2834.00        0.650       1205.6 
     2835.00        0.967       1233.6 
     2836.00        0.800       1230.2 
     2837.00        0.667       1215.7 
     2838.00        1.017       1231.6 
     2839.00        0.800       1228.6 
     2840.00        0.700       1218.4 
     2841.00        0.733       1209.0 
     2842.00        0.917       1236.0 
     2843.00        0.967       1235.6 
     2844.00        0.733       1226.2 
     2845.00        0.867      -9999.0 
     2846.00        0.850      -9999.0 
     2847.00        0.933          0.0 
