~Version Information
VERS.                      2.0: CWLS Log ASCII Standard - VERSION 2.0
WRAP.                       NO: One line per depth step
~Well Information Block
STRT.FT               240.0000: 
STOP.FT               966.2000: 
STEP.FT                 0.1000: 
NULL.                -999.2500: 
COMP.          Pioneer Natural Resources: COMPANY
WELL.          New Mexico 21-5: WELL
FLD.           Purgatoire River: FIELD
LOC.           175' FNL & 1700' FWL: LOCATION
PROV.                 Colorado: PROVINCE
CNTY.               Las Animas: COUNTRY
SRVC.                Patterson: SERVICE COMPANY
DATE.          Mon Dec 13 06:55:26 2004: LOG DATE
UWI.           05 071 08234 00: UNIQUE WELL ID
~Curve Information Block
DEPT.FT            0 000 00 00: Depth
DCAL.in                       : CDL Caliper
RHOB.g/cc                     : CDL Bulk Density
RHOC.g/cc                     : CDL Density Correction
DPOR.pu                       : CDL Density Porosity
NPOR.pu                       : Neutron Porosity
GR.GAPI                       : Gamma Ray
~Parameter Information Block
~A  Depth       DCAL        RHOB        RHOC        DPOR        NPOR         GR     
# ...
   288.0000      8.2058      2.3481     -0.0316     18.2977     25.6472    120.7253
   288.1000      8.2058      2.3225     -0.0395     19.8499     25.3610    119.2546
   288.2000      8.2058      2.3269     -0.0264     19.5802     24.6304    125.5037
   288.3000      8.2399      2.3492      0.0450     18.2306     23.7502    136.6594
   288.4000      8.2399      2.3697      0.0262     16.9856     22.8835    144.8312
   288.5000      8.2502      2.3838      0.0659     16.1313     22.1955    144.2248
   288.6000      8.2502      2.3974      0.0598     15.3067     21.9018    136.8354
   288.7000      8.2502      2.4196      0.0834     13.9606     21.7086    130.4941
   288.8000      8.2478      2.4495      0.1166     12.1497     21.4774    129.1993
   288.9000      8.2478      2.4708      0.1004     10.8614     21.3883    132.7809
   289.0000      8.2514      2.4709      0.0938     10.8541     21.5040    141.9226
   289.1000      8.2514      2.4640     -0.0082     11.2740     21.9367    153.7765
   289.2000      8.2514      2.4738      0.0284     10.6803     22.6768    158.4480
   289.3000      8.2579      2.4946      0.0692      9.4199     23.4871    152.3550
   289.4000      8.2579      2.5076      0.0750      8.6304     23.9712    143.6030
   289.5000      8.2625      2.5092      0.0237      8.5312     24.0254    139.7993
   289.6000      8.2625      2.5011      0.0581      9.0228     24.0174    139.1912
   289.7000      8.2625      2.4833      0.0710     10.1051     23.9893    137.3450
   289.8000      8.2714      2.4660      0.0173     11.1545     23.7766    135.3399
   289.9000      8.2714      2.4651      0.0514     11.2089     23.5157    135.4105
   290.0000      8.2821      2.4820      0.0796     10.1833     23.2453    138.3403
   290.1000      8.2821      2.5023      0.1435      8.9544     22.8285    142.3140
   290.2000      8.2821      2.5079      0.1562      8.6103     22.4528    144.1294
   290.3000      8.2813      2.4974      0.0913      9.2464     22.4522    144.2857
   290.4000      8.2813      2.4936      0.0532      9.4803     22.7424    142.8955
   290.5000      8.2712      2.5162      0.0815      8.1091     22.9755    139.7324
   290.6000      8.2712      2.5557      0.1064      5.7124     23.2227    138.3943
   290.7000      8.2712      2.5885      0.1336      3.7300     23.7872    140.6048
   290.8000      8.2642      2.6004      0.1464      3.0079     24.5707    140.9539
   290.9000      8.2642      2.5910      0.1245      3.5731     25.3243    136.7727
   291.0000      8.2606      2.5660      0.1048      5.0897     25.6846    133.4795
   291.1000      8.2606      2.5382      0.0265      6.7752     25.5035    136.3491
   291.2000      8.2606      2.5249      0.0298      7.5832     25.2567    142.4591
   291.3000      8.2539      2.5330      0.0154      7.0891     25.1722    141.6249
   291.4000      8.2539      2.5553      0.0425      5.7393     25.0486    132.5254
   291.5000      8.2448      2.5685      0.0917      4.9378     24.9239    127.1402
   291.6000      8.2448      2.5595      0.0110      5.4867     24.9439    132.4431
   291.7000      8.2448      2.5409      0.0633      6.6127     25.0739    140.7249
   291.8000      8.2447      2.5241      0.0292      7.6317     25.1774    143.6294
   291.9000      8.2447      2.5081      0.0413      8.6008     25.2182    143.6635
   292.0000      8.2707      2.4864      0.0326      9.9123     25.1824    143.4071
   292.1000      8.2707      2.4628     -0.0082     11.3439     25.1422    141.3081
   292.2000      8.2707      2.4484     -0.0006     12.2177     25.3517    137.4744
   292.3000      8.3060      2.4455      0.0148     12.3962     25.6350    132.4067
   292.4000      8.3060      2.4471      0.0641     12.2945     25.4491    126.6280
   292.5000      8.3108      2.4440      0.0270     12.4843     24.6379    124.7432
   292.6000      8.3108      2.4285      0.0280     13.4239     23.6028    128.8689
   292.7000      8.3108      2.3914      0.0641     15.6716     22.6866    133.8736
   292.8000      8.3030      2.3332      0.0097     19.1986     21.8173    135.0837
   292.9000      8.3030      2.2776     -0.0241     22.5710     21.0555    131.4698
   293.0000      8.2974      2.2473     -0.0225     24.4068     20.5466    126.3278
   293.1000      8.2974      2.2436     -0.0037     24.6325     20.1695    126.8007
   293.2000      8.2974      2.2542      0.0152     23.9895     19.9116    131.4271
   293.3000      8.2970      2.2640      0.0441     23.3941     19.9103    132.3925
   293.4000      8.2970      2.2711      0.0625     22.9635     19.9789    130.6986
   293.5000      8.3210      2.2808      0.0946     22.3734     19.7347    132.3515
   293.6000      8.3210      2.2845      0.1891     22.1515     19.2514    136.9564
   293.7000      8.3210      2.2824      0.2370     22.2781     18.9281    140.0429
   293.8000      8.3651      2.3067      0.2327     20.8032     19.0173    140.6212
   293.9000      8.3651      2.3697      0.3247     16.9906     19.5116    139.0733
   294.0000      8.3801      2.4237      0.3562     13.7134     19.9887    135.5134
   294.1000      8.3801      2.4262      0.2861     13.5650     20.3148    134.9496
   294.2000      8.3801      2.4014      0.1718     15.0647     20.7883    140.3154
   294.3000      8.3519      2.4050      0.1849     14.8497     21.1221    148.1495
   294.4000      8.3519      2.4537      0.3393     11.8998     20.8461    151.1012
   294.5000      8.3020      2.5239      0.3411      7.6397     20.4696    144.1974
   294.6000      8.3020      2.5936      0.4282      3.4157     20.6235    132.2158
   294.7000      8.3020      2.6453      0.4569      0.2829     21.0890    123.9523
   294.8000      8.2610      2.6581      0.3955     -0.4909     21.6094    123.6405
   294.9000      8.2610      2.6236      0.2436      1.5989     22.1414    129.4088
   295.0000      8.2358      2.5669      0.1044      5.0375     22.5354    136.3965
   295.1000      8.2358      2.5332      0.0541      7.0794     22.8877    140.8977
   295.2000      8.2358      2.5422      0.0834      6.5358     23.4378    140.9532
   295.3000      8.1986      2.5671      0.1476      5.0270     23.9857    135.8414
   295.4000      8.1986      2.5693      0.1328      4.8903     24.0528    127.9124
   295.5000      8.1543      2.5428      0.0356      6.4943     23.8330    122.1784
   295.6000      8.1543      2.5124      0.0358      8.3367     23.8647    119.8814
   295.7000      8.1543      2.5020      0.0136      8.9717     23.9518    118.6044
   295.8000      8.1291      2.5143      0.0482      8.2269     23.8317    116.4446
   295.9000      8.1291      2.5271      0.0788      7.4467     23.8932    114.5164
   296.0000      8.1230      2.5208      0.0752      7.8308     24.1841    116.4193
   296.1000      8.1230      2.5051      0.0594      8.7807     24.2380    121.3711
   296.2000      8.1230      2.4935      0.0682      9.4856     24.0415    122.7758
   296.3000      8.1209      2.4768      0.0791     10.4996     23.9683    121.5508
   296.4000      8.1209      2.4467      0.0529     12.3206     24.1125    125.1666
   296.5000      8.1188      2.4198     -0.0103     13.9488     24.1857    134.4264
   296.6000      8.1188      2.4217      0.0213     13.8376     24.0579    142.8684
   296.7000      8.1188      2.4548      0.0407     11.8286     24.0116    144.1656
   296.8000      8.1184      2.5003      0.0759      9.0742     24.1715    139.6828
   296.9000      8.1184      2.5407      0.1321      6.6217     24.3528    136.9002
   297.0000      8.1160      2.5667      0.1651      5.0473     24.5984    139.5073
   297.1000      8.1160      2.5699      0.1766      4.8554     25.0809    144.1678
   297.2000      8.1160      2.5498      0.1222      6.0733     25.3311    143.3753
   297.3000      8.1057      2.5179      0.1258      8.0070     25.0076    135.0107
   297.4000      8.1057      2.4888      0.0997      9.7692     24.5845    127.2835
   297.5000      8.0953      2.4801      0.0519     10.2986     24.3480    126.7482
