~Version Information
 VERS.                                  2.0 : CWLS LAS VERSION
 WRAP.                                   NO : WRAPING MODE
 SWARE .                 MController 2.5.0E : SOFTWARE VERSION
~Well Information
 WELL.                      Robinson 15-11v : WELL
 COMP.                       Petrogulf Corp : COMPANY
 FLD.                      Purgatoire River : FIELD
 LOC.                NW/NW Sec 15 T33S R67W : LOCATION
 DATE.                               8/3/04 : DATE(S) LOGGED
 SRVC.       Blanco Geological Services LLC : SERVICE COMPANY
 STAT.                                   CO : STATE
 CNTY.                           Las Animas : COUNTY
 CTRY.                                  USA : COUNTRY
 API.                       05-071-08027-00 : API NUMBER
 STRT.FT                             588.00 : START DEPTH
 STOP.FT                            2101.00 : STOP DEPTH
 STEP.FT                               1.00 : DEPTH INCREMENT
 NULL.                                -9999 : NULL VALUE
~Curve information
 DEPTH.FT                                   :
 ROP.MIN/FT                                 :
 GAS.UNITS                                  :
~ASCII Log data
# ...
      988.00        1.217        140.3 
      989.00        0.167        138.3 
      990.00        0.367        128.9 
      991.00        0.233         97.9 
      992.00        0.200         80.7 
      993.00        0.133         68.0 
      994.00        0.133         60.2 
      995.00        0.100         54.4 
      996.00        0.133         52.1 
      997.00        0.167         48.4 
      998.00        0.133         43.7 
      999.00        0.200         41.0 
     1000.00        0.233         38.9 
     1001.00        0.267         36.9 
     1002.00        0.217         34.9 
     1003.00        0.200         31.6 
     1004.00        0.200         31.5 
     1005.00        0.200         28.2 
     1006.00        0.133         26.4 
     1007.00        0.133         27.2 
     1008.00        0.133         28.2 
     1009.00        0.133         28.6 
     1010.00        0.133         28.2 
     1011.00        0.133         28.3 
     1012.00        0.100         27.0 
     1013.00        0.100         27.4 
     1014.00        0.167         26.2 
     1015.00        0.133         22.7 
     1016.00        0.167         20.7 
     1017.00        0.133         17.7 
     1018.00        3.050        119.8 
     1019.00        0.200         44.3 
     1020.00        0.300         39.7 
     1021.00        0.300         33.3 
     1022.00        0.333         30.0 
     1023.00        0.167         27.6 
     1024.00        0.217         27.0 
     1025.00        0.167         25.0 
     1026.00        0.200         25.9 
     1027.00        0.200         25.3 
     1028.00        0.133         25.5 
     1029.00        0.167         25.6 
     1030.00        0.167         25.3 
     1031.00        0.167         25.1 
     1032.00        0.233         24.9 
     1033.00        0.167         24.9 
     1034.00        0.233         26.6 
     1035.00        0.133         25.5 
     1036.00        0.133         24.8 
     1037.00        0.133         23.7 
     1038.00        0.133         21.8 
     1039.00        0.167         20.3 
     1040.00        0.167         18.6 
     1041.00        0.167         16.0 
     1042.00        0.167         15.2 
     1043.00        0.150         15.3 
     1044.00        0.100         15.9 
     1045.00        0.100         17.5 
     1046.00        0.133         21.9 
     1047.00        0.300         34.2 
     1048.00        1.100         87.0 
     1049.00        0.600         72.5 
     1050.00        0.267         46.0 
     1051.00        0.233         40.1 
     1052.00        0.200         35.1 
     1053.00        0.217         32.7 
     1054.00        0.200         30.6 
     1055.00        0.167         27.4 
     1056.00        0.167         27.6 
     1057.00        0.167         26.0 
     1058.00        0.200         25.7 
     1059.00        0.167         25.3 
     1060.00        0.167         24.5 
     1061.00        0.167         25.7 
     1062.00        0.167         28.9 
     1063.00        0.167         35.2 
     1064.00        0.167         41.4 
     1065.00        0.200         50.2 
     1066.00        0.167         53.7 
     1067.00        0.133         57.9 
     1068.00        0.167         58.2 
     1069.00        0.133         53.0 
     1070.00        0.200         47.6 
     1071.00        0.167         41.2 
     1072.00        0.217         32.7 
     1073.00        0.167         24.6 
     1074.00        0.167         20.3 
     1075.00        0.167         19.0 
     1076.00        0.167         19.9 
     1077.00        0.133         23.6 
     1078.00        2.950        120.9 
     1079.00        0.267         32.6 
     1080.00        0.233         27.6 
     1081.00        0.267         24.7 
     1082.00        0.333         22.0 
     1083.00        0.267         22.0 
     1084.00        0.233         21.0 
     1085.00        0.200         20.8 
     1086.00        0.300         23.0 
     1087.00        0.233         24.0 
     1088.00        0.233         24.0 
     1089.00        0.200         22.0 
     1090.00        0.350         22.0 
     1091.00        0.267         22.1 
     1092.00        0.167         21.0 
     1093.00        0.200         21.2 
     1094.00        0.200         18.9 
     1095.00        0.200         18.3 
     1096.00        0.233         21.0 
     1097.00        0.167         22.0 
     1098.00        0.200         21.6 
     1099.00        0.167         21.7 
     1100.00        0.233         19.6 
     1101.00        0.267         16.4 
     1102.00        0.267         13.2 
     1103.00        0.233         16.4 
     1104.00        0.100         18.5 
     1105.00        0.583         55.8 
     1106.00        0.267         92.5 
     1107.00        0.167        103.4 
     1108.00        1.467        104.8 
     1109.00        0.100         35.3 
     1110.00        0.200         32.6 
     1111.00        0.300         30.1 
     1112.00        0.300         26.3 
     1113.00        0.133         23.7 
     1114.00        0.183         21.9 
     1115.00        0.133         21.8 
     1116.00        0.167         21.4 
     1117.00        0.233         21.4 
     1118.00        0.267         21.1 
     1119.00        0.200         20.6 
     1120.00        0.267         20.3 
     1121.00        0.233         19.7 
     1122.00        0.200         18.3 
     1123.00        0.133         18.9 
     1124.00        0.133         19.0 
     1125.00        0.133         19.9 
     1126.00        0.167         19.6 
     1127.00        0.200         19.4 
     1128.00        0.267         20.5 
     1129.00        0.267         19.2 
     1130.00        0.250         17.6 
     1131.00        0.167         15.5 
     1132.00        0.100         12.1 
     1133.00        0.200         11.4 
     1134.00        0.233         11.4 
     1135.00        0.167         12.5 
     1136.00        0.200         17.0 
     1137.00        0.233         22.2 
     1138.00        2.250        177.8 
     1139.00        0.200         67.5 
     1140.00        0.167         54.0 
     1141.00        0.200         45.7 
     1142.00        0.200         37.7 
     1143.00        0.167         32.2 
     1144.00        0.200         29.8 
     1145.00        0.167         26.5 
     1146.00        0.267         25.2 
     1147.00        0.167         22.2 
     1148.00        0.133         21.6 
     1149.00        0.133         20.6 
     1150.00        0.133         19.8 
     1151.00        0.167         20.1 
     1152.00        0.167         20.1 
     1153.00        0.167         19.9 
     1154.00        0.200         19.3 
     1155.00        0.350         19.5 
     1156.00        0.233         19.0 
     1157.00        0.133         19.2 
     1158.00        0.167         19.0 
     1159.00        0.133         20.0 
     1160.00        0.167         19.3 
     1161.00        0.133         17.0 
     1162.00        0.133         16.7 
     1163.00        0.133         13.9 
     1164.00        0.167         11.7 
     1165.00        0.267         10.3 
     1166.00        0.267         11.4 
     1167.00        0.167         12.7 
     1168.00        1.983        152.8 
     1169.00        0.300        111.0 
     1170.00        0.300         81.8 
     1171.00        0.333         57.1 
     1172.00        0.233         40.9 
     1173.00        0.300         32.8 
     1174.00        0.233         26.6 
     1175.00        0.300         24.1 
     1176.00        0.167         20.2 
     1177.00        0.283         19.7 
     1178.00        0.233         18.2 
     1179.00        0.167         17.0 
     1180.00        0.167         16.3 
     1181.00        0.133         15.8 
     1182.00        0.167         16.2 
     1183.00        0.267         15.8 
     1184.00        0.267         15.7 
     1185.00        0.233         14.7 
     1186.00        0.167         14.4 
     1187.00        0.133         14.7 
