~Version Information
VERS.                      2.0: CWLS Log ASCII Standard - VERSION 2.0
WRAP.                       NO: One line per depth step
~Well Information Block
STRT.FT               898.0000: 
STOP.FT              2360.0000: 
STEP.FT                 0.2500: 
NULL.                -999.2500: 
COMP.          Pioneer Natural Resources: COMPANY
WELL.             Trimax 44-23: WELL
FLD.           Purgatoire River: FIELD
LOC.           527' FSL & 1064' FEL: LOCATION
PROV.                 Colorado: PROVINCE
CNTY.               Las Animas: COUNTRY
SRVC.                Patterson: SERVICE COMPANY
DATE.          Sun Mar 13 04:57:04 2005: LOG DATE
UWI.           05 071 08326 00: UNIQUE WELL ID
~Curve Information Block
DEPT.FT            0 000 00 00: Depth
SN.Ohm-m                      : IEL Short Normal
SP.mV                         : IEL Spontaneous Potential
DIR.Ohm-m                     : IEL Induction Resistivity
GR.GAPI                       : Gamma Ray
~Parameter Information Block
~A  Depth        SN          SP         DIR          GR     
# ...
  1367.0000   2000.0000   2000.0000     26.8912     72.2094
  1367.2500   2000.0000   2000.0000     25.1459     77.1264
  1367.5000     35.7424   -108.1843     23.4616     85.5689
  1367.7500     32.4282   -108.1630     21.9363     92.4937
  1368.0000     28.2299   -108.2115     20.6062    105.2400
  1368.2500     23.8413   -108.3212     19.4557    114.9391
  1368.5000     20.1222   -108.4911     18.4415    129.7951
  1368.7500     17.5203   -108.7232     17.5173    138.8461
  1369.0000     15.8880   -109.0098     16.6516    149.5273
  1369.2500     14.7357   -109.3286     15.8313    154.1418
  1369.5000     13.5822   -109.6449     15.0574    157.4548
  1369.7500     12.2049   -109.9147     14.3389    157.9931
  1370.0000     10.7135   -110.0920     13.6902    157.7055
  1370.2500      9.4648   -110.1490     13.1276    157.2749
  1370.5000      8.8297   -110.0928     12.6629    156.7874
  1370.7500      8.9409   -109.9582     12.2978    156.8455
  1371.0000      9.6397   -109.7861     12.0209    157.4770
  1371.2500     10.6032   -109.6057     11.8122    157.8385
  1371.5000     11.4863   -109.4267     11.6500    157.6324
  1371.7500     12.0565   -109.2428     11.5184    157.0127
  1372.0000     12.2926   -109.0479     11.4098    155.9239
  1372.2500     12.3247   -108.8523     11.3235    155.4537
  1372.5000     12.2790   -108.6816     11.2630    155.2569
  1372.7500     12.2143   -108.5605     11.2345    155.0367
  1373.0000     12.1549   -108.4995     11.2443    153.3781
  1373.2500     12.1376   -108.4926     11.2952    151.0330
  1373.5000     12.1890   -108.5233     11.3832    146.3747
  1373.7500     12.2637   -108.5775     11.4949    143.4774
  1374.0000     12.2921   -108.6514     11.6094    140.9052
  1374.2500     12.2684   -108.7448     11.7034    140.5614
  1374.5000     12.2380   -108.8508     11.7576    141.0800
  1374.7500     12.2504   -108.9569     11.7608    141.1530
  1375.0000     12.3304   -109.0502     11.7110    139.9127
  1375.2500     12.4442   -109.1182     11.6122    138.5194
  1375.5000     12.4921   -109.1482     11.4715    137.1604
  1375.7500     12.3652   -109.1319     11.2965    137.4995
  1376.0000     12.0332   -109.0676     11.0952    140.1766
  1376.2500     11.5622   -108.9552     10.8761    143.2008
  1376.5000     11.0399   -108.7962     10.6482    148.9401
  1376.7500     10.5251   -108.6021     10.4192    152.9070
  1377.0000     10.0631   -108.4033     10.1939    157.5191
  1377.2500      9.6945   -108.2466      9.9733    159.0013
  1377.5000      9.4358   -108.1793      9.7553    158.8777
  1377.7500      9.2703   -108.2235      9.5371    157.9721
  1378.0000      9.1693   -108.3603      9.3198    156.7608
  1378.2500      9.1078   -108.5376      9.1102    156.3368
  1378.5000      9.0625   -108.6980      8.9196    155.9584
  1378.7500      9.0133   -108.8073      8.7586    155.6445
  1379.0000      8.9492   -108.8687      8.6321    154.9517
  1379.2500      8.8763   -108.9158      8.5390    154.3798
  1379.5000      8.8192   -108.9884      8.4763    153.6496
  1379.7500      8.8047   -109.1062      8.4438    153.5305
  1380.0000      8.8477   -109.2554      8.4450    154.1431
  1380.2500      8.9426   -109.3932      8.4835    154.8578
  1380.5000      9.0683   -109.4652      8.5589    155.4674
  1380.7500      9.2219   -109.4319      8.6659    154.9600
  1381.0000      9.4268   -109.2959      8.7984    152.3708
  1381.2500      9.6874   -109.1133      8.9534    149.8137
  1381.5000      9.9730   -108.9739      9.1318    146.3665
  1381.7500     10.2507   -108.9558      9.3358    145.2734
  1382.0000     10.5071   -109.0847      9.5668    146.0895
  1382.2500     10.7475   -109.3282      9.8258    147.9921
  1382.5000     10.9855   -109.6251     10.1158    151.7432
  1382.7500     11.2406   -109.9223     10.4432    154.0918
  1383.0000     11.5401   -110.1940     10.8148    156.2151
  1383.2500     11.8982   -110.4400     11.2351    156.0355
  1383.5000     12.2944   -110.6688     11.7025    152.4433
  1383.7500     12.7228   -110.8811     12.2086    147.8547
  1384.0000     13.2643   -111.0728     12.7395    139.1307
  1384.2500     14.0272   -111.2520     13.2825    133.2715
  1384.5000     15.0024   -111.4462     13.8327    125.5690
  1384.7500     16.0587   -111.6907     14.3966    121.0676
  1385.0000     17.0813   -112.0109     14.9836    114.5802
  1385.2500     18.0591   -112.4111     15.5922    110.2498
  1385.5000     19.0910   -112.8683     16.2011    104.1213
  1385.7500     20.3545   -113.3351     16.7758    100.7914
  1386.0000     21.9139   -113.7576     17.2880     97.9596
  1386.2500     23.4787   -114.1019     17.7315     97.9527
  1386.5000     24.5610   -114.3706     18.1174    100.7833
  1386.7500     24.9282   -114.5912     18.4515    104.1850
  1387.0000     24.7424   -114.7885     18.7094    110.7902
  1387.2500     24.3169   -114.9643     18.8326    115.7236
  1387.5000     23.8348   -115.0975     18.7561    122.3033
  1387.7500     23.2136   -115.1571     18.4537    124.5393
  1388.0000     22.2331   -115.1139     17.9634    122.2355
  1388.2500     20.8510   -114.9432     17.3664    117.0021
  1388.5000     19.3238   -114.6260     16.7430    107.1179
  1388.7500     18.0456   -114.1536     16.1484    102.1645
  1389.0000     17.3813   -113.5356     15.6153    101.0175
  1389.2500     17.4657   -112.8093     15.1653    105.0130
  1389.5000     18.0048   -112.0446     14.8100    116.4494
  1389.7500     18.5106   -111.3373     14.5461    125.8319
  1390.0000     18.7556   -110.7811     14.3534    139.2106
  1390.2500     18.7625   -110.4272     14.2007    146.1941
  1390.5000     18.5445   -110.2606     14.0538    152.5045
  1390.7500     18.1208   -110.2127     13.8829    154.0014
  1391.0000     17.6255   -110.2012     13.6709    153.5630
  1391.2500     17.2309   -110.1727     13.4218    152.6985
  1391.5000     17.0096   -110.1245     13.1593    152.2152
  1391.7500     16.9200   -110.0959     12.9154    152.6823
  1392.0000     16.8934   -110.1341     12.7129    153.7578
  1392.2500     16.8831   -110.2630     12.5571    153.9319
  1392.5000     16.8450   -110.4712     12.4391    152.4935
  1392.7500     16.7367   -110.7220     12.3474    150.6135
  1393.0000     16.5208   -110.9722     12.2798    147.7783
  1393.2500     16.1111   -111.1910     12.2449    146.4642
  1393.5000     15.3795   -111.3718     12.2553    144.9342
  1393.7500     14.3152   -111.5296     12.3184    143.5026
  1394.0000     13.1376   -111.6836     12.4314    140.2924
  1394.2500     12.1752   -111.8334     12.5836    137.9582
  1394.5000     11.6657   -111.9500     12.7616    135.5011
  1394.7500     11.6543   -111.9917     12.9524    134.8815
  1395.0000     11.9952   -111.9307     13.1437    134.7289
  1395.2500     12.4474   -111.7719     13.3239    134.2931
  1395.5000     12.8174   -111.5544     13.4820    132.1766
  1395.7500     13.0776   -111.3395     13.6094    129.9127
  1396.0000     13.4017   -111.1875     13.7003    126.3223
  1396.2500     14.0197   -111.1307     13.7505    124.4420
  1396.5000     14.9604   -111.1526     13.7536    122.7987
  1396.7500     15.9878   -111.1880     13.6998    122.3109
  1397.0000     16.8005   -111.1521     13.5800    121.9792
  1397.2500     17.2149   -110.9866     13.3945    121.8628
  1397.5000     17.2155   -110.6911     13.1559    121.8786
  1397.7500     16.9208   -110.3196     12.8807    122.0723
  1398.0000     16.4587   -109.9528     12.5719    122.5654
  1398.2500     15.8505   -109.6630     12.2126    122.8738
  1398.5000     15.0575   -109.4866     11.7785    123.1066
  1398.7500     14.1079   -109.4158     11.2624    123.2187
  1399.0000     13.1133   -109.4122     10.6876    123.9002
  1399.2500     12.1793   -109.4316     10.0962    125.0138
  1399.5000     11.3535   -109.4410      9.5280    127.6001
  1399.7500     10.6537   -109.4243      9.0058    129.4708
  1400.0000     10.0971   -109.3819      8.5349    131.5166
  1400.2500      9.6949   -109.3267      8.1112    132.1226
