~Version Information
VERS.                      2.0: CWLS Log ASCII Standard - VERSION 2.0
WRAP.                       NO: One line per depth step
~Well Information Block
STRT.FT                 0.0000: 
STOP.FT              2025.0000: 
STEP.FT                 0.2500: 
NULL.                -999.2500: 
COMP.          Petrogulf Corporation: COMPANY
WELL.          Robinson 15-12V: WELL
FLD.           Purgatorie River: FIELD
LOC.           1788' FNL & 466' FWL: LOCATION
PROV.                 Colorado: PROVINCE
CNTY.               Las Animas: COUNTRY
SRVC.                Patterson: SERVICE COMPANY
DATE.          Tue Oct 04 11:57:31 2005: LOG DATE
UWI.                          : UNIQUE WELL ID
~Curve Information Block
DEPT.FT            0 000 00 00: Depth
GR.GAPI                       : Gamma Ray
CCL.                          : Casing Collar Locator
TT3.usec                      : CBL 3' Travel Time
AMP3.mV                       : CBL 3' Amplitude
~Parameter Information Block
~A  Depth        GR         CCL         TT3         AMP3    
# ...
  1842.5000     32.5558      0.0000    867.2117     12.7943
  1842.7500     31.3014      0.0000    865.4679     12.8150
  1843.0000     30.1555      0.0000    865.2522     12.7813
  1843.2500     29.5438      0.0000    860.3564     12.5762
  1843.5000     29.6242      0.0000    850.0754     12.1995
  1843.7500     30.2961      0.0000    835.7485     11.7621
  1844.0000     31.5749      0.0000    819.3383     11.3694
  1844.2500     33.6365      0.0000    806.1464     11.0540
  1844.5000     36.3540      0.0000    801.0931     10.8109
  1844.7500     39.0753      0.0000    805.1064     10.6446
  1845.0000     41.0740      0.0000    815.5541     10.5440
  1845.2500     42.0539      0.0000    827.1754     10.4698
  1845.5000     42.0758      0.0000    836.5195     10.3906
  1845.7500     41.2932      0.0000    844.4825     10.2909
  1846.0000     40.0314      0.0000    851.5913     10.1514
  1846.2500     38.8676      0.0000    854.5379      9.9530
  1846.5000     38.3238      0.0000    848.2635      9.7030
  1846.7500     38.5866      0.0000    832.5454      9.4414
  1847.0000     39.6465      0.0000    814.7076      9.2290
  1847.2500     41.4706      0.0000    802.3164      9.1204
  1847.5000     43.8493      0.0000    796.6352      9.1246
  1847.7500     46.2118      0.0000    794.6518      9.2056
  1848.0000     47.8084      0.0000    794.1005      9.3055
  1848.2500     48.1669      0.0000    796.1750      9.3528
  1848.5000     47.3507      0.0000    802.4589      9.3008
  1848.7500     45.7393      0.0000    808.3202      9.1801
  1849.0000     43.6949      0.0000    806.6603      9.0813
  1849.2500     41.5922      0.0000    798.2196      9.0709
  1849.5000     39.9413      0.0000    789.6466      9.1239
  1849.7500     39.0748      0.0000    786.3272      9.1687
  1850.0000     38.7924      0.0000    791.0007      9.1805
  1850.2500     38.7922      0.0000    804.9013      9.1783
  1850.5000     39.4349      0.0000    826.4357      9.1753
  1850.7500     41.4976      0.0000    844.2386      9.1766
  1851.0000     45.0278      0.0000    840.6868      9.1881
  1851.2500     48.8138      0.0000    814.2432      9.1948
  1851.5000     51.1442      0.0000    784.3633      9.1450
  1851.7500     51.0552      0.0000    766.7487      9.0034
  1852.0000     49.0060      0.0000    761.2900      8.8262
  1852.2500     46.4424      0.0000    763.1993      8.7074
  1852.5000     44.5853      0.0000    769.8677      8.6542
  1852.7500     43.6286      0.0000    777.5024      8.6067
  1853.0000     43.1062      0.0000    780.3961      8.5498
  1853.2500     42.6303      0.0000    776.5028      8.5065
  1853.5000     41.9706      0.0000    770.8021      8.4717
  1853.7500     40.9466      0.0000    769.5818      8.4305
  1854.0000     39.8498      0.0000    771.7946      8.3944
  1854.2500     39.5855      0.0000    771.0024      8.3865
  1854.5000     40.7631      0.0000    765.4962      8.4252
  1854.7500     42.8638      0.0000    760.2283      8.5106
  1855.0000     44.7922      0.0000    759.6418      8.6138
  1855.2500     46.0066      0.0000    762.9116      8.7035
  1855.5000     46.6749      0.0000    765.2332      8.7765
  1855.7500     47.0041      0.0000    763.5713      8.8561
  1856.0000     46.9449      0.0000    760.5565      8.9583
  1856.2500     46.5185      0.0000    760.4958      9.0637
  1856.5000     46.0493      0.0000    763.5355      9.1392
  1856.7500     45.9845      0.0000    765.5760      9.1747
  1857.0000     46.6286      0.0000    763.6745      9.1857
  1857.2500     47.9733      0.0000    759.6381      9.1954
  1857.5000     49.6853      0.0000    756.6942      9.2071
  1857.7500     51.4550      0.0000    755.7292      9.1919
  1858.0000     53.4340      0.0000    755.9152      9.1267
  1858.2500     55.9868      0.0000    756.3985      9.0372
  1858.5000     58.7717      0.0000    757.0119      8.9720
  1858.7500     60.3773      0.0000    758.5792      8.9446
  1859.0000     59.3263      0.0000    762.7979      8.9123
  1859.2500     55.5179      0.0000    770.6498      8.8154
  1859.5000     50.4160      0.0000    780.1162      8.6443
  1859.7500     45.7556      0.0000    787.3586      8.4539
  1860.0000     42.3029      0.0000    790.7814      8.3030
  1860.2500     39.8247      0.0000    791.6913      8.1842
  1860.5000     37.8101      0.0000    791.7252      8.0366
  1860.7500     36.0803      0.0000    791.6127      7.8378
  1861.0000     35.0339      0.0000    791.5297      7.6482
  1861.2500     35.5869      0.0000    791.4703      7.5464
  1861.5000     38.7388      0.0000    791.3786      7.5575
  1861.7500     44.8307      0.0000    791.2183      7.6516
  1862.0000     53.0568      0.0000    791.0308      7.7767
  1862.2500     61.7169      0.0000    790.9584      7.9046
  1862.5000     69.0274      0.0000    791.1387      8.0546
  1862.7500     73.7928      0.0000    791.5091      8.2421
  1863.0000     75.6278      0.0000    791.7642      8.4342
  1863.2500     75.0013      0.0000    791.4969      8.5854
  1863.5000     73.1871      0.0000    790.1999      8.6774
  1863.7500     71.7633      0.0000    787.3243      8.7109
  1864.0000     71.6542      0.0000    783.5928      8.6903
  1864.2500     72.5830      0.0000    781.9646      8.6309
  1864.5000     73.6412      0.0000    784.3891      8.5514
  1864.7500     74.3110      0.0000    788.7006      8.4465
  1865.0000     74.7306      0.0000    791.5343      8.2662
  1865.2500     75.1352      0.0000    790.8333      7.9420
  1865.5000     75.4487      0.0000    783.3177      7.5381
  1865.7500     75.5724      0.0000    763.7862      7.3505
  1866.0000     75.8247      0.0000    732.2337      7.5509
  1866.2500     76.7339      0.0000    699.7440      7.8126
  1866.5000     78.3674      0.0000    680.1965      7.7649
  1866.7500     80.0423      0.0000    677.8192      7.5257
  1867.0000     80.7399      0.0000    686.8302      7.3681
  1867.2500     79.7631     -2.0000    702.7830      7.3347
  1867.5000     77.2341     -2.0000    727.7810      7.3608
  1867.7500     74.2348      0.0000    758.5867      7.4161
  1868.0000     72.3964      0.0000    785.3023      7.5023
  1868.2500     72.9581      0.0000    804.0558      7.7070
  1868.5000     75.7639      0.0000    815.2907      8.2283
  1868.7500     79.0702      0.0000    814.9222      9.0438
  1869.0000     80.7061      0.0000    798.6122      9.6397
  1869.2500     79.8267      0.0000    773.0778      9.6281
  1869.5000     77.4754      0.0000    753.7562      9.2904
  1869.7500     75.3381      0.0000    746.6605      9.0263
  1870.0000     74.1912      0.0000    745.9164      8.8971
  1870.2500     73.6597      0.0000    750.7382      8.8286
  1870.5000     73.1286      0.0000    763.6988      8.7776
  1870.7500     72.5223      0.0000    777.6554      8.7322
  1871.0000     72.3395      0.0000    780.9529      8.6975
  1871.2500     73.2439      0.0000    765.6268      8.6716
  1871.5000     75.5736      0.0000    729.9146      8.6348
  1871.7500     78.8683      0.0000    684.6987      8.5730
  1872.0000     81.8626      0.0000    649.0249      8.4986
  1872.2500     83.3307      0.0000    632.5165      8.4494
  1872.5000     83.1187      0.0000    632.0256      8.4601
  1872.7500     82.2692      0.0000    641.9974      8.5344
  1873.0000     82.1244      0.0000    659.0744      8.6465
  1873.2500     83.2475      0.0000    682.7047      8.7619
  1873.5000     84.8980      0.0000    713.8775      8.8588
  1873.7500     85.3067      0.0000    747.7902      8.9397
  1874.0000     82.6967      0.0000    773.6166      9.0162
  1874.2500     76.6092      0.0000    785.8381      9.0813
  1874.5000     68.5297      0.0000    787.7175      9.1075
  1874.7500     61.1159      0.0000    785.0366      9.0741
  1875.0000     56.5927      0.0000    782.2453      8.9952
  1875.2500     55.6343      0.0000    780.1133      8.9181
  1875.5000     57.4386      0.0000    775.9185      8.8923
  1875.7500     60.5455      0.0000    769.6824      8.9310
