~Version Information
VERS.                      2.0: CWLS Log ASCII Standard - VERSION 2.0
WRAP.                       NO: One line per depth step
~Well Information Block
STRT.FT               -11.2500: 
STOP.FT              1597.0000: 
STEP.FT                 0.2500: 
NULL.                -999.2500: 
COMP.          Petrogulf Corporation: COMPANY
WELL.          Great Plains 22-21R: WELL
FLD.           Purgatorie River: FIELD
LOC.           73' FNL & 1992' FWL--: LOCATION
PROV.                       CO: PROVINCE
CNTY.               Las Animas: COUNTRY
SRVC.          Patterson Wireline: SERVICE COMPANY
DATE.          Fri Sep 09 09:02:35 2005: LOG DATE
UWI.           05 071 08343 00: UNIQUE WELL ID
~Curve Information Block
DEPT.FT            0 000 00 00: Depth
CCL.                          : Casing Collar Locator
TT3.usec                      : CBL 3' Travel Time
AMP3.mV                       : CBL 3' Amplitude
GR.GAPI                       : Gamma Ray
~Parameter Information Block
~A  Depth       CCL         TT3         AMP3         GR     
# ...
  1127.7500      0.0000    751.8112      6.0545     80.0892
  1128.0000      0.0000    765.2612      6.1971     74.1869
  1128.2500      0.0000    785.5472      6.2927     69.8774
  1128.5000      0.0000    805.1726      6.3220     68.5675
  1128.7500      0.0000    818.9514      6.2303     71.6152
  1129.0000      0.0000    826.9756      5.9668     79.0114
  1129.2500      0.0000    828.1201      5.5328     88.6684
  1129.5000      0.0000    815.8155      4.9904     97.2943
  1129.7500      0.0000    786.2598      4.4258    102.5030
  1130.0000      0.0000    747.1723      3.9091    104.2204
  1130.2500      0.0000    712.9573      3.4779    103.9006
  1130.5000      0.0000    693.2493      3.1401    102.6218
  1130.7500      0.0000    688.6271      2.8828    100.4282
  1131.0000      0.0000    693.9979      2.6852     97.4906
  1131.2500      0.0000    702.8170      2.5310     95.1745
  1131.5000      0.0000    710.1296      2.4120     95.4120
  1131.7500      0.0000    714.7786      2.3239     99.2001
  1132.0000      0.0000    718.9239      2.2652    105.9860
  1132.2500      0.0000    724.3122      2.2365    114.1538
  1132.5000      0.0000    729.5531      2.2396    121.8373
  1132.7500      0.0000    731.8701      2.2738    127.5710
  1133.0000      0.0000    730.6765      2.3324    130.5960
  1133.2500      0.0000    727.9644      2.4020    130.8776
  1133.5000      0.0000    725.6080      2.4683    129.0488
  1133.7500      0.0000    723.8198      2.5236    126.1286
  1134.0000      0.0000    722.3904      2.5661    122.9443
  1134.2500      0.0000    722.4070      2.5900    119.8106
  1134.5000      0.0000    726.0122      2.5839    116.9019
  1134.7500      0.0000    734.3913      2.5421    114.8277
  1135.0000      0.0000    746.6337      2.4777    114.3974
  1135.2500      0.0000    761.8177      2.4183    115.5543
  1135.5000      0.0000    781.8837      2.3878    117.1527
  1135.7500      0.0000    809.1202      2.3905    118.6047
  1136.0000      0.0000    838.4662      2.4122    121.2622
  1136.2500      0.0000    855.7999      2.4369    126.9489
  1136.5000      0.0000    849.0115      2.4609    135.1951
  1136.7500      0.0000    820.3620      2.4906    143.1013
  1137.0000      0.0000    784.9753      2.5323    148.1562
  1137.2500      0.0000    758.4922      2.5895    150.2079
  1137.5000      0.0000    747.9879      2.6644    150.5766
  1137.7500      0.0000    751.8055      2.7557    150.3376
  1138.0000      0.0000    764.1989      2.8523    149.6458
  1138.2500      0.0000    779.9691      2.9382    147.8453
  1138.5000      0.0000    797.0569      3.0042    144.0823
  1138.7500      0.0000    816.5248      3.0516    138.3542
  1139.0000      0.0000    839.2018      3.0815    131.8586
  1139.2500      0.0000    860.8855      3.0853    125.9194
  1139.5000      0.0000    872.2888      3.0494    120.9486
  1139.7500      0.0000    866.5184      2.9708    116.8533
  1140.0000      0.0000    845.6785      2.8679    113.7258
  1140.2500      0.0000    818.6663      2.7702    111.4937
  1140.5000      0.0000    794.7482      2.6950    109.3572
  1140.7500      0.0000    780.2207      2.6337    106.1914
  1141.0000      0.0000    777.3143      2.5647    101.4975
  1141.2500      0.0000    782.8323      2.4764     95.7871
  1141.5000      0.0000    788.7234      2.3762     90.1200
  1141.7500      0.0000    787.7732      2.2837     85.4137
  1142.0000      0.0000    781.3542      2.2192     82.1971
  1142.2500      0.0000    780.4189      2.1963     80.8155
  1142.5000      0.0000    795.6096      2.2161     81.3896
  1142.7500      0.0000    824.4988      2.2665     83.3673
  1143.0000      0.0000    849.5762      2.3311     85.4416
  1143.2500      0.0000    851.8677      2.3999     86.1966
  1143.5000      0.0000    828.1234      2.4713     84.8116
  1143.7500      0.0000    793.3724      2.5454     81.3103
  1144.0000      0.0000    766.8667      2.6245     76.5215
  1144.2500      0.0000    757.6023      2.7229     71.7632
  1144.5000      0.0000    761.4865      2.8686     68.0482
  1144.7500      0.0000    767.5663      3.0871     65.3905
  1145.0000      0.0000    766.8247      3.3850     63.1376
  1145.2500      0.0000    758.8459      3.7516     61.0579
  1145.5000      0.0000    750.9326      4.1711     59.9128
  1145.7500      0.0000    749.3986      4.6295     60.9257
  1146.0000      0.0000    752.7927      5.1125     64.9420
  1146.2500      0.0000    755.1465      5.6038     72.0512
  1146.5000      0.0000    753.8984      6.0913     81.5830
  1146.7500      0.0000    752.1146      6.5730     92.4362
  1147.0000      0.0000    753.8111      7.0499    103.7194
  1147.2500      0.0000    759.5486      7.5118    115.0754
  1147.5000      0.0000    766.7230      7.9387    126.2800
  1147.7500      0.0000    772.1962      8.3215    136.9925
  1148.0000      0.0000    773.9260      8.6677    147.0603
  1148.2500      0.0000    771.1003      8.9732    156.2411
  1148.5000      0.0000    763.7752      9.1953    163.2208
  1148.7500      0.0000    752.3710      9.2722    165.9722
  1149.0000      0.0000    737.6273      9.1765    163.7894
  1149.2500      0.0000    721.3581      8.9524    158.1773
  1149.5000      0.0000    706.9399      8.7027    151.2276
  1149.7500      0.0000    698.5588      8.5260    143.8653
  1150.0000      0.0000    699.7383      8.4450    136.1156
  1150.2500      0.0000    711.6617      8.4091    128.3451
  1150.5000      0.0000    731.5834      8.3903    121.5087
  1150.7500      0.0000    753.0961      8.4361    116.1362
  1151.0000      0.0000    769.8134      8.5887    111.3487
  1151.2500     -2.0000    779.8558      8.8001    105.2722
  1151.5000      2.0000    785.9460      8.9755     96.7004
  1151.7500      0.0000    790.6638      9.0662     86.2941
  1152.0000      0.0000    792.9711      9.0976     75.9623
  1152.2500      0.0000    790.1242      9.1341     67.1756
  1152.5000      0.0000    781.5838      9.2213     60.1966
  1152.7500      0.0000    769.4705      9.3279     55.0250
  1153.0000      0.0000    755.7380      9.3516     52.3720
  1153.2500      0.0000    740.7363      9.2226     53.0027
  1153.5000      0.0000    725.2247      8.9760     56.4534
  1153.7500      0.0000    712.5209      8.6862     61.2186
  1154.0000      0.0000    707.2095      8.3764     66.1360
  1154.2500      0.0000    711.5975      8.0415     70.9171
  1154.5000      0.0000    723.9478      7.7152     75.5168
  1154.7500      0.0000    740.1287      7.4641     79.9333
  1155.0000      0.0000    756.3023      7.3309     84.7178
  1155.2500      0.0000    770.0907      7.3110     90.8158
  1155.5000      0.0000    780.4045      7.3769     98.7066
  1155.7500      0.0000    787.1992      7.5097    108.1531
  1156.0000      0.0000    791.2551      7.7053    118.4526
  1156.2500      0.0000    793.6017      7.9537    128.3472
  1156.5000      0.0000    794.9689      8.2206    136.2231
  1156.7500      0.0000    795.6994      8.4551    141.1302
  1157.0000      0.0000    795.9761      8.6174    143.2308
  1157.2500      0.0000    795.9808      8.6935    142.8795
  1157.5000      0.0000    795.8820      8.6900    139.9159
  1157.7500      0.0000    795.7806      8.6277    134.4532
  1158.0000      0.0000    795.7193      8.5438    127.8732
  1158.2500      0.0000    795.7171      8.4887    122.2449
  1158.5000      0.0000    795.7494      8.5097    118.7862
  1158.7500      0.0000    795.6922      8.6284    117.4179
  1159.0000      0.0000    795.3080      8.8309    117.7499
  1159.2500      0.0000    794.2814      9.0780    119.7834
  1159.5000      0.0000    792.3521      9.3256    123.3590
  1159.7500      0.0000    789.6216      9.5408    127.3925
  1160.0000      0.0000    786.7696      9.7090    130.3231
  1160.2500      0.0000    784.5240      9.8338    131.6902
  1160.5000      0.0000    782.4765      9.9307    132.9648
  1160.7500      0.0000    778.6989     10.0178    136.1297
  1161.0000      0.0000    771.0739     10.1112    141.3360
