~Version Information
VERS.                      2.0: CWLS Log ASCII Standard - VERSION 2.0
WRAP.                       NO: One line per depth step
~Well Information Block
STRT.FT               819.0000: 
STOP.FT              2499.5000: 
STEP.FT                 0.2500: 
NULL.                -999.2500: 
COMP.          Petrogulf Corporation: COMPANY
WELL.             State 16-21V: WELL
FLD.           Purgatorie River: FIELD
LOC.           1738' FWL & 332' FWL: LOCATION
PROV.                 Colorado: PROVINCE
CNTY.               Las Animas: COUNTRY
SRVC.          Patterson Wireline: SERVICE COMPANY
DATE.          Sun Jul 13 13:34:36 2003: LOG DATE
UWI.           05 071 08829 00: UNIQUE WELL ID
~Curve Information Block
DEPT.FT            0 000 00 00: Depth
SP.mV                         : DIL Spontaneous Potential
RILD.Ohm-m                    : DIL Deep Resistivity
RILM.Ohm-m                    : DIL Medium Resistivity
RLL3.Ohm-m                    : DIL Shallow Resistivity
GR.GAPI                       : Gamma Ray
~Parameter Information Block
~A  Depth        SP         RILD        RILM        RLL3         GR     
# ...
  2247.0000    -28.0990     22.4644     30.3622    114.4493     54.2127
  2247.2500    -27.9642     21.3673     28.9482    124.7585     51.6050
  2247.5000    -27.7240     20.1890     27.2177    130.9017     50.7989
  2247.7500    -27.2486     19.0056     25.2955    132.2917     52.1705
  2248.0000    -26.4133     17.8785     23.3169    126.2198     55.6273
  2248.2500    -25.1808     16.8466     21.3996    110.5044     58.2567
  2248.5000    -23.6451     15.9275     19.6273     86.9851     63.3813
  2248.7500    -21.9979     15.1221     18.0487     61.5515     68.5778
  2249.0000    -20.4438     14.4210     16.6829     40.3742     79.6557
  2249.2500    -19.1300     13.8097     15.5287     26.3330     88.4365
  2249.5000    -18.1245     13.2719     14.5728     18.7049    101.5207
  2249.7500    -17.4294     12.7924     13.7958     15.1830    109.2305
  2250.0000    -17.0001     12.3587     13.1760     13.7176    118.1895
  2250.2500    -16.7614     11.9629     12.6915     13.1247    121.8334
  2250.5000    -16.6277     11.6022     12.3214     12.9065    123.6722
  2250.7500    -16.5255     11.2795     12.0465     12.9346    123.4754
  2251.0000    -16.4095     11.0015     11.8486     13.2370    123.4206
  2251.2500    -16.2640     10.7751     11.7115     13.8618    123.9836
  2251.5000    -16.0904     10.6049     11.6205     14.7495    124.5683
  2251.7500    -15.8931     10.4912     11.5626     15.6727    124.1807
  2252.0000    -15.6759     10.4307     11.5271     16.3213    122.8551
  2252.2500    -15.4504     10.4164     11.5053     16.4874    122.0871
  2252.5000    -15.2445     10.4386     11.4910     16.1950    121.7684
  2252.7500    -15.1040     10.4851     11.4799     15.6709    122.3049
  2253.0000    -15.0817     10.5422     11.4699     15.1904    124.1206
  2253.2500    -15.2197     10.5967     11.4602     14.9154    125.4195
  2253.5000    -15.5304     10.6386     11.4512     14.8318    126.1794
  2253.7500    -15.9843     10.6635     11.4440     14.8172    125.6247
  2254.0000    -16.5129     10.6733     11.4405     14.7633    123.6888
  2254.2500    -17.0305     10.6758     11.4426     14.6488    121.9511
  2254.5000    -17.4668     10.6813     11.4525     14.5233    118.8431
  2254.7500    -17.7914     10.6999     11.4722     14.4475    116.7027
  2255.0000    -18.0212     10.7374     11.5037     14.4501    114.4560
  2255.2500    -18.2091     10.7929     11.5481     14.5268    114.1393
  2255.5000    -18.4196     10.8588     11.6061     14.6693    115.0854
  2255.7500    -18.6996     10.9237     11.6773     14.8992    115.6855
  2256.0000    -19.0592     10.9770     11.7599     15.2751    114.9452
  2256.2500    -19.4702     11.0139     11.8514     15.8752    113.2676
  2256.5000    -19.8837     11.0371     11.9483     16.7712    110.0362
  2256.7500    -20.2526     11.0558     12.0463     17.9805    107.8062
  2257.0000    -20.5503     11.0824     12.1413     19.3727    103.7054
  2257.2500    -20.7755     11.1287     12.2290     20.5983     99.9139
  2257.5000    -20.9468     11.2014     12.3061     21.1892     93.1269
  2257.7500    -21.0949     11.2999     12.3696     20.8577     89.0911
  2258.0000    -21.2581     11.4142     12.4174     19.7574     85.7981
  2258.2500    -21.4770     11.5283     12.4477     18.4258     85.7332
  2258.5000    -21.7822     11.6238     12.4594     17.4267     87.8750
  2258.7500    -22.1787     11.6856     12.4512     17.0089     90.0290
  2259.0000    -22.6409     11.7048     12.4224     17.0509     93.4333
  2259.2500    -23.1236     11.6802     12.3721     17.2607     95.4825
  2259.5000    -23.5822     11.6181     12.2996     17.4021     97.8330
  2259.7500    -23.9857     11.5291     12.2045     17.3758     98.8047
  2260.0000    -24.3167     11.4250     12.0860     17.1695     99.3117
  2260.2500    -24.5675     11.3122     11.9432     16.7892     99.0290
  2260.5000    -24.7371     11.1875     11.7745     16.2460     97.7562
  2260.7500    -24.8278     11.0367     11.5778     15.5986     96.4158
  2261.0000    -24.8404     10.8396     11.3512     15.0153     93.8737
  2261.2500    -24.7703     10.5798     11.0934     14.8136     92.0881
  2261.5000    -24.6085     10.2565     10.8050     15.4248     89.8705
  2261.7500    -24.3474      9.8890     10.4894     17.2234     88.7955
  2262.0000    -23.9854      9.5119     10.1536     20.1801     87.1556
  2262.2500    -23.5320      9.1615      9.8072     23.4995     85.4599
  2262.5000    -23.0113      8.8653      9.4622     25.7044     81.5430
  2262.7500    -22.4627      8.6357      9.1311     25.4677     78.3595
  2263.0000    -21.9325      8.4720      8.8250     22.6315     74.2465
  2263.2500    -21.4569      8.3631      8.5533     18.3737     72.9666
  2263.5000    -21.0500      8.2918      8.3218     14.3311     74.3280
  2263.7500    -20.7056      8.2379      8.1336     11.6047     77.3702
  2264.0000    -20.4092      8.1820      7.9888     10.4532     83.6736
  2264.2500    -20.1476      8.1100      7.8849     10.5710     87.6212
  2264.5000    -19.9109      8.0171      7.8175     11.4453     91.1806
  2264.7500    -19.6878      7.9096      7.7812     12.5526     91.8728
  2265.0000    -19.4611      7.8031      7.7701     13.4555     91.8925
  2265.2500    -19.2062      7.7175      7.7783     13.8878     92.2631
  2265.5000    -18.8990      7.6709      7.8010     13.8131     94.1901
  2265.7500    -18.5279      7.6745      7.8342     13.3933     96.2657
  2266.0000    -18.1017      7.7306      7.8754     12.8629     99.8957
  2266.2500    -17.6491      7.8326      7.9235     12.3939    102.2798
  2266.5000    -17.2129      7.9667      7.9783     12.0387    105.0687
  2266.7500    -16.8410      8.1158      8.0401     11.7737    105.8292
  2267.0000    -16.5745      8.2627      8.1099     11.5814    104.7375
  2267.2500    -16.4323      8.3929      8.1884     11.4981    102.8786
  2267.5000    -16.3973      8.4979      8.2766     11.5974     99.7831
  2267.7500    -16.4216      8.5762      8.3753     11.9300     98.0718
  2268.0000    -16.4569      8.6336      8.4854     12.4581     96.0574
  2268.2500    -16.4935      8.6814      8.6075     13.0239     94.9858
  2268.5000    -16.5702      8.7322      8.7423     13.4004     94.2987
  2268.7500    -16.7418      8.7970      8.8900     13.4225     94.9497
  2269.0000    -17.0334      8.8815      9.0499     13.1098     97.4143
  2269.2500    -17.4234      8.9849      9.2197     12.6743     99.0254
  2269.5000    -17.8611      9.0986      9.3950     12.4113     99.3975
  2269.7500    -18.2968      9.2070      9.5687     12.5645     98.0986
  2270.0000    -18.7006      9.2907      9.7305     13.2446     95.6669
  2270.2500    -19.0674      9.3319      9.8681     14.4057     95.0025
  2270.5000    -19.4113      9.3207      9.9676     15.8644     95.5251
  2270.7500    -19.7539      9.2578     10.0163     17.3449     95.5928
  2271.0000    -20.1110      9.1540     10.0052     18.5369     93.1970
  2271.2500    -20.4818      9.0255      9.9313     19.1611     90.0056
  2271.5000    -20.8477      8.8893      9.7985     19.0433     84.8663
  2271.7500    -21.1826      8.7594      9.6179     18.1784     82.5064
  2272.0000    -21.4731      8.6445      9.4053     16.7408     81.6843
  2272.2500    -21.7357      8.5478      9.1793     15.0291     82.8581
  2272.5000    -22.0172      8.4688      8.9580     13.3720     86.2222
  2272.7500    -22.3766      8.4053      8.7577     12.0332     88.7895
  2273.0000    -22.8593      8.3569      8.5923     11.1478     92.0184
  2273.2500    -23.4760      8.3265      8.4726     10.7095     93.3754
  2273.5000    -24.1932      8.3200      8.4074     10.6096     94.0653
  2273.7500    -24.9406      8.3460      8.4040     10.7019     93.7779
  2274.0000    -25.6326      8.4140      8.4691     10.8674     92.7574
  2274.2500    -26.1948      8.5345      8.6095     11.0582     92.0334
  2274.5000    -26.5813      8.7178      8.8331     11.3263     91.2920
  2274.7500    -26.7795      8.9737      9.1489     11.8607     91.1485
