~Version Information
VERS.                      2.0: CWLS Log ASCII Standard - VERSION 2.0
WRAP.                       NO: One line per depth step
~Well Information Block
STRT.FT               -13.0000: 
STOP.FT              1411.2500: 
STEP.FT                 0.2500: 
NULL.                -999.2500: 
COMP.                         : COMPANY
WELL.                         : WELL
FLD.                          : FIELD
LOC.                          : LOCATION
CNTY.                         : COUNTY
SRVC.                         : SERVICE COMPANY
DATE.          Sat Jan 17 07:25:27 2004: LOG DATE
UWI.                          : UNIQUE WELL ID
STAT.                         : STATE
~Curve Information Block
DEPT.FT            0 000 00 00: Depth
CCL.                          : Casing Collar Locator
TT3.usec                      : CBL 3' Travel Time
AMP3.mV                       : CBL 3' Amplitude
GR.GAPI                       : Gamma Ray
~Parameter Information Block
~A  Depth       CCL         TT3         AMP3         GR     
# ...
    87.5000      0.0000    819.0406      6.1636     42.3394
    87.7500      0.0000    811.8898      5.6547     45.2343
    88.0000      0.0000    801.0678      5.1842     48.5843
    88.2500      0.0000    794.4471      4.6832     53.0293
    88.5000      0.0000    797.1839      4.1719     59.0150
    88.7500      0.0000    807.2626      3.6955     66.0821
    89.0000      0.0000    818.2748      3.2899     72.8187
    89.2500      0.0000    824.9566      2.9891     77.6407
    89.5000      0.0000    825.8675      2.8115     79.8407
    89.7500      0.0000    822.4328      2.7327     80.0143
    90.0000      0.0000    817.0165      2.7006     79.5479
    90.2500      0.0000    811.8055      2.6842     79.6594
    90.5000      0.0000    808.4167      2.6927     80.7148
    90.7500      0.0000    808.2518      2.7390     82.1964
    91.0000      0.0000    813.8935      2.7915     83.1902
    91.2500      0.0000    830.5581      2.7810     82.9961
    91.5000      0.0000    864.1815      2.6647     81.5759
    91.7500      0.0000    913.9652      2.4777     79.5472
    92.0000      0.0000    964.9909      2.3111     77.6481
    92.2500      0.0000    993.1196      2.2394     76.2090
    92.5000      0.0000    983.6967      2.2770     75.3476
    92.7500      0.0000    945.2946      2.3988     75.5440
    93.0000      0.0000    901.1306      2.5698     77.4178
    93.2500      0.0000    868.2095      2.7358     80.7339
    93.5000      0.0000    848.3371      2.8228     84.1554
    93.7500      0.0000    836.5604      2.7927     86.3165
    94.0000      0.0000    830.9250      2.6907     86.8958
    94.2500      0.0000    831.8828      2.6002     86.6266
    94.5000      0.0000    837.6168      2.5495     86.6141
    94.7500      0.0000    844.5560      2.4907     87.6383
    95.0000      0.0000    850.7546      2.3750     89.7116
    95.2500      0.0000    855.9526      2.2190     92.0751
    95.5000      0.0000    859.2827      2.0813     93.7939
    95.7500      0.0000    859.1894      1.9925     94.6508
    96.0000      0.0000    855.1367      1.9304     95.4142
    96.2500      0.0000    847.8388      1.8566     96.9154
    96.5000      0.0000    837.6801      1.7579     99.0302
    96.7500      0.0000    824.2006      1.6482    100.8931
    97.0000      0.0000    807.5836      1.5417    101.8303
    97.2500      0.0000    789.8153      1.4345    101.6491
    97.5000      0.0000    773.7283      1.3174    100.3030
    97.7500      0.0000    760.8270      1.1965     97.8440
    98.0000      0.0000    750.2648      1.0951     94.7196
    98.2500      0.0000    740.7268      1.0359     91.7478
    98.5000      0.0000    733.4688      1.0254     89.5932
    98.7500      0.0000    731.4811      1.0546     88.3946
    99.0000      0.0000    734.1879      1.1178     87.9986
    99.2500      0.0000    735.4354      1.2303     88.3675
    99.5000      0.0000    729.8000      1.4111     89.5217
    99.7500      0.0000    719.9667      1.6460     91.1184
   100.0000      0.0000    714.9853      1.8859     92.4341
   100.2500      0.0000    720.8979      2.0885     92.9184
   100.5000      0.0000    734.8733      2.2434     92.6469
   100.7500      0.0000    749.2321      2.3466     92.1224
   101.0000      0.0000    760.0666      2.3725     91.6651
   101.2500      0.0000    770.7181      2.2974     90.8994
   101.5000      0.0000    787.1899      2.1387     88.9514
   101.7500      0.0000    811.4595      1.9510     85.6110
   102.0000     -4.0000    839.9714      1.7877     82.3237
   102.2500     -4.0000    867.0090      1.6722     81.3651
   102.5000      0.0000    887.0983      1.6052     83.6628
   102.7500      0.0000    894.2574      1.5911     87.7902
   103.0000      0.0000    882.5228      1.6457     91.3120
   103.2500      0.0000    850.7114      1.7595     92.7953
   103.5000      0.0000    806.2748      1.8657     92.3440
   103.7500      0.0000    762.1979      1.8748     90.7060
   104.0000      0.0000    729.5467      1.7535     88.5445
   104.2500      0.0000    712.9370      1.5477     86.4488
   104.5000      0.0000    711.0934      1.3332     84.9313
   104.7500      0.0000    719.5252      1.1683     83.9719
   105.0000      0.0000    732.7537      1.0926     82.8269
   105.2500      0.0000    745.7355      1.1342     80.6772
   105.5000      0.0000    754.7658      1.2977     77.5649
   105.7500      0.0000    758.0049      1.5546     74.5161
   106.0000      0.0000    755.7469      1.8548     72.5430
   106.2500      0.0000    750.3007      2.1434     71.5015
   106.5000      0.0000    745.1396      2.3711     70.0646
   106.7500      0.0000    743.3198      2.5078     66.9311
   107.0000      0.0000    746.0519      2.5563     62.1267
   107.2500      0.0000    752.4036      2.5462     57.2027
   107.5000      0.0000    760.4195      2.5014     54.1943
   107.7500      0.0000    768.8737      2.4259     54.2901
   108.0000      0.0000    777.8379      2.3280     57.2036
   108.2500      0.0000    787.0976      2.2400     61.5217
   108.5000      0.0000    794.0986      2.1868     65.6626
   108.7500      0.0000    793.9903      2.1516     68.7369
   109.0000      0.0000    782.0023      2.1017     70.7348
   109.2500      0.0000    756.4909      2.0454     72.0035
   109.5000      0.0000    721.1607      2.0366     72.5689
   109.7500      0.0000    685.0541      2.1134     72.0183
   110.0000      0.0000    658.5269      2.2516     70.0742
   110.2500      0.0000    647.0526      2.3952     67.1547
   110.5000      0.0000    649.0094      2.5214     64.2086
   110.7500      0.0000    660.3121      2.6538     61.9751
   111.0000      0.0000    679.9697      2.8128     60.5527
   111.2500      0.0000    709.1908      2.9785     59.7242
   111.5000      0.0000    744.7432      3.1142     59.5021
   111.7500      0.0000    775.2805      3.2054     60.2046
   112.0000      0.0000    787.6004      3.2619     62.2631
   112.2500      0.0000    778.5599      3.2941     66.1024
   112.5000      0.0000    760.0256      3.3114     71.7231
   112.7500      0.0000    750.2652      3.3433     78.1182
   113.0000      0.0000    759.4188      3.4395     83.6752
   113.2500      0.0000    782.8177      3.6211     87.3982
   113.5000      0.0000    807.3264      3.8370     89.2070
   113.7500      0.0000    822.8470      3.9954     89.0758
   114.0000      0.0000    827.9430      4.0446     86.7026
   114.2500      0.0000    827.0450      4.0068     82.2117
   114.5000      0.0000    825.0118      3.9312     76.6813
   114.7500      0.0000    824.5944      3.8404     71.7612
   115.0000      0.0000    826.9593      3.7380     68.7813
   115.2500      0.0000    832.6277      3.6473     68.0529
   115.5000      0.0000    841.2829      3.6129     68.9609
   115.7500      0.0000    851.2729      3.6591     70.7648
   116.0000      0.0000    860.0319      3.7743     73.1335
   116.2500      0.0000    865.2776      3.9496     75.8336
   116.5000      0.0000    865.6369      4.2009     78.4210
   116.7500      0.0000    860.5164      4.5214     80.5328
   117.0000      0.0000    850.3653      4.8333     82.1853
   117.2500      0.0000    837.1891      5.0401     83.6838
   117.5000      0.0000    823.2744      5.1334     85.4364
   117.7500      0.0000    808.8519      5.2096     87.4984
   118.0000      0.0000    792.8126      5.3636     88.8955
   118.2500      0.0000    776.6812      5.5985     87.8529
   118.5000      0.0000    765.9556      5.8576     83.3678
   118.7500      0.0000    766.2407      6.1026     76.4381
   119.0000      0.0000    778.5384      6.3173     69.4604
   119.2500      0.0000    797.8284      6.4723     64.6953
   119.5000      4.0000    815.9017      6.5381     63.3399
   119.7500      0.0000    826.7727      6.5119     65.2523
   120.0000      0.0000    829.8366      6.3977     68.9771
   120.2500      0.0000    827.8030      6.1912     72.6750
   120.5000      0.0000    823.3806      5.9135     75.6873
   120.7500      0.0000    819.2941      5.6185     78.7815
