~Version Information
VERS.                      2.0: CWLS Log ASCII Standard - VERSION 2.0
WRAP.                       NO: One line per depth step
~Well Information Block
STRT.FT                -9.7500: 
STOP.FT              2612.5000: 
STEP.FT                 0.2500: 
NULL.                -999.2500: 
COMP.                         : COMPANY
WELL.                         : WELL
FLD.                          : FIELD
LOC.                          : LOCATION
CNTY.                         : COUNTY
SRVC.                         : SERVICE COMPANY
DATE.          Mon Nov 17 14:56:03 2003: LOG DATE
UWI.                          : UNIQUE WELL ID
STAT.                         : STATE
~Curve Information Block
DEPT.FT            0 000 00 00: Depth
CCL.                          : Casing Collar Locator
TT3.usec                      : CBL 3' Travel Time
AMP3.mV                       : CBL 3' Amplitude
GR.GAPI                       : Gamma Ray
~Parameter Information Block
~A  Depth       CCL         TT3         AMP3         GR     
# ...
  1698.7500      0.0000    309.1400     44.8605     79.8208
  1699.0000      0.0000    309.1671     44.4803     85.9547
  1699.2500      0.0000    308.7144     44.8955     89.7365
  1699.5000      0.0000    307.0884     47.0263     89.5018
  1699.7500      0.0000    303.4290     51.1159     86.1406
  1700.0000      0.0000    297.1902     56.5098     82.3787
  1700.2500      0.0000    288.7623     62.0973     80.3722
  1700.5000      0.0000    279.6790     66.8721     80.2208
  1700.7500      0.0000    271.9093     70.2466     80.7507
  1701.0000      0.0000    266.6718     72.1651     81.2906
  1701.2500      0.0000    263.9002     73.0074     82.3675
  1701.5000      0.0000    262.7407     73.2891     84.8309
  1701.7500      0.0000    262.3410     73.3902     88.7252
  1702.0000      0.0000    262.2131     73.4895     93.2723
  1702.2500      0.0000    262.1698     73.6263     97.7678
  1702.5000      0.0000    262.1603     73.7592    102.2063
  1702.7500      0.0000    262.1700     73.8356    107.0264
  1703.0000      0.0000    262.1842     73.8523    112.2884
  1703.2500      0.0000    262.1917     73.8370    117.0193
  1703.5000      0.0000    262.1969     73.7881    119.5733
  1703.7500      0.0000    262.2140     73.6871    118.9855
  1704.0000      0.0000    262.2444     73.5559    115.9154
  1704.2500      0.0000    262.2722     73.4483    111.9840
  1704.5000      0.0000    262.2837     73.3935    108.2639
  1704.7500      0.0000    262.2817     73.3904    104.5289
  1705.0000      0.0000    262.2768     73.4347     99.7830
  1705.2500      0.0000    262.2735     73.5083     93.4887
  1705.5000      0.0000    262.2707     73.5640     86.5699
  1705.7500      0.0000    262.2636     73.5735     81.1044
  1706.0000      0.0000    262.2441     73.5741     78.6662
  1706.2500      0.0000    262.2115     73.6146     79.0627
  1706.5000      0.0000    262.1837     73.6731     80.9328
  1706.7500      0.0000    262.1833     73.6796     83.2071
  1707.0000      0.0000    262.2107     73.6068     85.5770
  1707.2500      0.0000    262.2466     73.4918     87.8373
  1707.5000      0.0000    262.2776     73.3812     89.4040
  1707.7500      0.0000    262.3047     73.2980     89.5817
  1708.0000      0.0000    262.3264     73.2526     88.0723
  1708.2500      0.0000    262.3323     73.2426     85.2271
  1708.5000      0.0000    262.3196     73.2458     82.0085
  1708.7500      0.0000    262.3017     73.2399     79.7402
  1709.0000      0.0000    262.2954     73.2200     79.6595
  1709.2500      0.0000    262.3044     73.1878     82.2898
  1709.5000      0.0000    262.3161     73.1566     86.8176
  1709.7500      0.0000    262.3105     73.1738     91.1235
  1710.0000      0.0000    262.2780     73.2818     93.0802
  1710.2500      0.0000    262.2349     73.4394     92.2082
  1710.5000      0.0000    262.2126     73.5413     89.7655
  1710.7500      0.0000    262.2249     73.5344     87.1919
  1711.0000      0.0000    262.2555     73.4590     85.0129
  1711.2500      0.0000    262.2836     73.3629     83.3313
  1711.5000      0.0000    262.3100     73.2377     82.7392
  1711.7500      0.0000    262.3433     73.0719     84.1928
  1712.0000      0.0000    262.3731     72.9186     87.9849
  1712.2500      0.0000    262.3762     72.8609     93.0473
  1712.5000      0.0000    262.3478     72.9200     97.3175
  1712.7500      0.0000    262.3104     73.0284     98.7487
  1713.0000      0.0000    262.2911     73.0852     96.2221
  1713.2500      0.0000    262.2986     73.0313     90.1005
  1713.5000      0.0000    262.3229     72.8964     82.2915
  1713.7500      0.0000    262.3481     72.7795     75.4895
  1714.0000      0.0000    262.3651     72.7535     71.6474
  1714.2500      0.0000    262.3773     72.7839     70.7943
  1714.5000      0.0000    262.3952     72.7743     71.3837
  1714.7500      0.0000    262.4226     72.6878     71.8983
  1715.0000      0.0000    262.4538     72.5642     72.0678
  1715.2500      0.0000    262.4857     72.4223     72.6740
  1715.5000      0.0000    262.5214     72.2335     74.5568
  1715.7500      0.0000    262.5579     72.0197     78.0081
  1716.0000      0.0000    262.5787     71.8887     82.9312
  1716.2500      0.0000    262.5726     71.9108     89.2894
  1716.5000      0.0000    262.5510     72.0193     97.2513
  1716.7500      0.0000    262.5375     72.1002    106.7008
  1717.0000      0.0000    262.5509     72.1347    116.4236
  1717.2500      0.0000    262.6434     72.1528    123.9827
  1717.5000      0.0000    263.0477     72.0291    127.0467
  1717.7500      0.0000    264.3668     71.3816    125.2954
  1718.0000      0.0000    267.6004     69.7155    120.6757
  1718.2500      0.0000    273.6150     66.7710    115.4333
  1718.5000      0.0000    282.0993     62.8505    110.3365
  1718.7500      0.0000    291.0929     58.7404    105.2388
  1719.0000      0.0000    298.2001     55.1260    100.7619
  1719.2500      0.0000    302.4981     52.1341     98.5179
  1719.5000      0.0000    304.8394     49.6016     99.5734
  1719.7500      0.0000    306.4045     47.5727    103.2423
  1720.0000      0.0000    307.6261     46.2539    107.7800
  1720.2500      0.0000    308.4379     45.6421    112.3227
  1720.5000      2.0000    308.8075     45.4681    118.0504
  1720.7500     -2.0000    308.7714     45.4506    127.2991
  1721.0000     -2.0000    308.1694     45.5830    141.2030
  1721.2500      0.0000    306.4919     46.2881    157.7429
  1721.5000      0.0000    303.0608     48.2401    172.2329
  1721.7500      0.0000    297.5290     51.7635    180.6194
  1722.0000      0.0000    290.2990     56.3511    182.7657
  1722.2500      0.0000    282.4162     60.9872    182.1340
  1722.5000      0.0000    275.1086     64.9041    182.2207
  1722.7500      0.0000    269.3486     67.8711    183.7053
  1723.0000      0.0000    265.5516     69.9422    184.5253
  1723.2500      0.0000    263.5009     71.2214    181.8529
  1723.5000      0.0000    262.6117     71.8420    174.2854
  1723.7500      0.0000    262.3166     72.0036    162.8450
  1724.0000      0.0000    262.2572     71.9477    150.0064
  1724.2500      0.0000    262.2616     71.8654    137.8599
  1724.5000      0.0000    262.2661     71.8233    127.3551
  1724.7500      0.0000    262.2682     71.7868    118.8642
  1725.0000      0.0000    262.2817     71.7341    112.6882
  1725.2500      0.0000    262.3060     71.7102    108.9136
  1725.5000      0.0000    262.3218     71.7656    107.2468
  1725.7500      0.0000    262.3185     71.8737    107.1338
  1726.0000      0.0000    262.3096     71.9523    107.6867
  1726.2500      0.0000    262.3133     71.9584    107.6267
  1726.5000      0.0000    262.3285     71.9210    106.0819
  1726.7500      0.0000    262.3437     71.8743    103.6797
  1727.0000      0.0000    262.3578     71.8149    101.9912
  1727.2500      0.0000    262.3723     71.7527    101.5836
  1727.5000      0.0000    262.3723     71.7539    101.4138
  1727.7500      0.0000    262.3402     71.8633    100.5027
  1728.0000      0.0000    262.2913     72.0052     99.3951
  1728.2500      0.0000    262.2712     72.0312     99.3243
  1728.5000      0.0000    262.3093     71.8838    100.3519
  1728.7500      0.0000    262.3821     71.6667    101.1691
  1729.0000      0.0000    262.4377     71.5279    100.9419
  1729.2500      0.0000    262.4489     71.5045    100.7698
  1729.5000      0.0000    262.4334     71.5143    102.5909
  1729.7500      0.0000    262.4214     71.4922    106.6984
  1730.0000      0.0000    262.4171     71.4753    110.9551
  1730.2500      0.0000    262.4062     71.5164    112.7711
  1730.5000      0.0000    262.3890     71.5688    111.4257
  1730.7500      0.0000    262.3842     71.5405    108.1082
  1731.0000      0.0000    262.3994     71.4362    104.2312
  1731.2500      0.0000    262.4197     71.3507    100.5798
  1731.5000      0.0000    262.4297     71.3214     98.2055
  1731.7500      0.0000    262.4323     71.2845     99.4428
  1732.0000      0.0000    262.4390     71.1958    107.0067
