~Version Information
VERS.                      2.0: CWLS Log ASCII Standard - VERSION 2.0
WRAP.                       NO: One line per depth step
~Well Information Block
STRT.FT               710.0000: 
STOP.FT              2922.5000: 
STEP.FT                 0.2500: 
NULL.                -999.2500: 
COMP.          Petrogulf Corporation: COMPANY
WELL.            Montoya 1-41V: WELL
FLD.           Purgatorie River: FIELD
LOC.           610' FNL & 1205' FEL: LOCATION
PROV.                 Colorado: PROVINCE
CNTY.               Las Animas: COUNTRY
SRVC.                Patterson: SERVICE COMPANY
DATE.          Mon Aug 22 08:00:56 2005: LOG DATE
UWI.                          : UNIQUE WELL ID
~Curve Information Block
DEPT.FT            0 000 00 00: Depth
SP.mV                         : DIL Spontaneous Potential
RILD.Ohm-m                    : DIL Deep Resistivity
RILM.Ohm-m                    : DIL Medium Resistivity
RLL3.Ohm-m                    : DIL Shallow Resistivity
GR.GAPI                       : Gamma Ray
~Parameter Information Block
~A  Depth        SP         RILD        RILM        RLL3         GR     
# ...
  1718.0000    -29.3494     29.9456     38.1030    124.3750     77.3413
  1718.2500    -30.2777     30.4873     41.1075    159.2477     79.8555
  1718.5000    -30.8118     29.4355     37.8340    146.6894     74.6046
  1718.7500    -31.3098     28.7936     34.6338    111.5161     86.6271
  1719.0000    -31.8163     30.3888     32.4277     81.3978     88.7935
  1719.2500    -32.4568     33.6394     33.7323     63.1798    119.9727
  1719.5000    -33.1844     31.7645     31.3772     49.0314    121.4148
  1719.7500    -33.8785     31.9266     30.2701     42.4000    108.3805
  1720.0000    -34.6157     31.5875     30.0410     39.7454     98.3151
  1720.2500    -35.5351     30.9845     32.8570     41.9477     91.3817
  1720.5000    -36.6369     30.7354     34.5667     54.3654     93.6152
  1720.7500    -37.5928     29.2849     35.0069     72.6680     91.8265
  1721.0000    -38.3849     28.9040     33.6810     90.4962     85.3779
  1721.2500    -38.9775     29.3464     31.5612     98.1169     86.7447
  1721.5000    -39.1627     28.1058     30.6255     94.0066     97.4295
  1721.7500    -39.0307     27.4526     30.6988     76.4174     98.7254
  1722.0000    -38.7520     26.0112     30.3751     59.9235    104.2241
  1722.2500    -38.6764     28.7600     28.9513     58.5894    115.2394
  1722.5000    -38.5847     27.1659     28.8960     57.9904    110.2447
  1722.7500    -38.5634     27.1827     28.2866     43.5947     89.0952
  1723.0000    -38.5764     29.7284     27.4771     24.2756     98.6241
  1723.2500    -38.6976     29.6580     28.9530     23.1046     86.9403
  1723.5000    -38.8245     31.6787     30.2116     27.7126     93.0934
  1723.7500    -38.8261     30.5890     33.5203     37.1473     97.1610
  1724.0000    -38.8424     31.9972     35.3499     39.9037     80.4902
  1724.2500    -38.6879     34.0862     38.9572     56.1005     74.3242
  1724.5000    -38.5075     36.9367     42.7865     92.2086     65.5824
  1724.7500    -38.0776     39.1927     45.7142    134.1117     67.4091
  1725.0000    -37.3411     39.1217     47.0776    166.6753     53.5748
  1725.2500    -36.2225     40.7890     47.8949    207.3406     48.1481
  1725.5000    -34.3993     43.2997     49.8040    271.3972     45.9750
  1725.7500    -31.9250     46.1710     57.2848    299.9154     52.4188
  1726.0000    -29.0637     48.6251     61.3207    243.1549     51.4342
  1726.2500    -25.6159     51.1587     70.7752    182.1376     41.4658
  1726.5000    -22.0460     60.5986     82.4062    154.7299     46.9573
  1726.7500    -18.5019     63.2081     73.4198    146.8096     45.1858
  1727.0000    -15.2110     62.9406     83.8980    143.9425     42.0974
  1727.2500    -12.0733     57.6645     83.4270    141.1192     54.4897
  1727.5000     -9.1896     64.8106     99.6360    139.2789     64.5254
  1727.7500     -6.7407     75.1808     87.8246    141.5286     58.3611
  1728.0000     -4.2184     68.9760     86.3946    146.2594     62.5603
  1728.2500     -1.9554     68.8307     86.9419    142.7935     68.1996
  1728.5000     -0.1239     68.9683     80.7619    123.9350     66.5046
  1728.7500      1.4454     69.7986     94.2950    100.9868     69.4100
  1729.0000      2.9136     70.0462    101.2863    100.2273     55.9759
  1729.2500      4.9310     63.6157    124.3795    115.5008     53.9620
  1729.5000      7.5280     59.1482    137.3757    135.5288     57.1230
  1729.7500     10.7564     58.1035    124.1755    147.4519     59.6674
  1730.0000     14.5824     48.2669    112.7995    147.8671     51.2924
  1730.2500     19.0458     41.8554    103.5780    141.5809     50.7589
  1730.5000     24.2013     34.6530     94.4124    132.9086     49.1484
  1730.7500     29.8733     30.5341     70.5049    132.6569     57.3397
  1731.0000     35.2785     25.3786     56.9146    138.2406     60.9588
  1731.2500     41.3428     21.7176     39.7253    130.2359     75.1361
  1731.5000     47.4421     18.3996     30.4308     98.6607     91.3603
  1731.7500     53.1321     16.3824     23.2862     59.1793     92.5966
  1732.0000     57.9683     15.0831     17.9378     33.8401    107.3116
  1732.2500     61.5069     14.0654     14.8536     22.3762    125.3057
  1732.5000     63.9628     12.8170     12.4393     18.7640    129.0774
  1732.7500     65.4871     12.1727     10.8683     17.3202    148.5452
  1733.0000     66.2307     11.2593     10.0369     15.9589    170.8235
  1733.2500     66.6108     10.9264      9.4491     15.7968    151.4923
  1733.5000     66.4811     10.1751      9.1193     16.1385    144.6129
  1733.7500     66.2044      9.6604      8.9710     16.0306    133.0003
  1734.0000     65.8653      9.1641      8.8268     16.8932    150.9408
  1734.2500     65.5013      8.6898      8.6863     17.9930    152.0530
  1734.5000     65.2310      8.3827      8.4424     18.3776    160.0665
  1734.7500     65.1468      8.2128      8.3816     18.3904    149.8617
  1735.0000     65.2493      8.0118      8.1647     18.7438    149.8783
  1735.2500     65.3879      8.0288      8.1349     18.7287    146.9487
  1735.5000     65.4790      8.0559      8.0211     18.0450    136.9803
  1735.7500     65.4589      8.0558      7.9723     17.6756    155.1960
  1736.0000     65.2570      8.0398      7.9495     17.6324    170.5933
  1736.2500     64.8071      8.2691      8.0307     17.2320    160.4112
  1736.5000     64.0166      8.4370      8.0574     17.0380    163.4926
  1736.7500     62.8014      8.5175      8.2298     17.1812    181.6885
  1737.0000     61.0394      8.5984      8.2913     17.0282    157.1122
  1737.2500     58.2725      8.7236      8.4796     17.1504    138.4017
  1737.5000     54.6433      8.7794      8.5878     17.6127    151.9035
  1737.7500     50.1734      8.9508      8.9050     18.2522    139.1419
  1738.0000     45.0613      9.0373      9.1491     19.2234    146.2203
  1738.2500     39.6641      9.0496      9.5115     20.2753    133.3927
  1738.5000     34.3599      9.1340      9.7477     21.2973    126.9916
  1738.7500     29.1839      9.1143     10.0952     22.5183    128.4130
  1739.0000     24.3467      9.0217     10.3083     23.3537    145.0050
  1739.2500     19.5396      9.0233     10.4833     23.9211    151.1360
  1739.5000     15.0145      9.1193     10.4939     23.6144    111.4419
  1739.7500     10.9693      9.1045     10.4476     23.2436    121.0918
  1740.0000      7.6568      8.9817     10.2555     22.9327    145.1324
  1740.2500      4.4961      9.0531     10.0410     21.4880    158.5065
  1740.5000      1.6411      8.8794      9.8676     20.0646    140.0370
  1740.7500     -1.1157      8.8534      9.6846     19.2582    140.0318
  1741.0000     -3.7231      8.6905      9.4767     18.2903    155.9520
  1741.2500     -6.2967      8.6309      9.1923     16.0247    161.6827
  1741.5000     -8.7632      8.5773      8.9148     10.4188    171.2327
  1741.7500    -11.1552      8.5461      8.6952      9.6089    176.6382
  1742.0000    -13.1881      8.4638      8.5233      9.5623    156.5534
  1742.2500    -15.2156      8.4075      8.4025      9.6552    162.2200
  1742.5000    -16.5763      8.6488      8.2663      9.7310    159.6865
  1742.7500    -16.9944      8.9410      8.1981      9.9869    153.3409
  1743.0000    -16.0943      9.1329      8.3300      9.8784    159.8568
  1743.2500    -13.6211      9.2807      8.7081     10.5166    157.9418
  1743.5000     -9.1070      9.2734      9.4177      9.7755    139.2176
  1743.7500     -2.2638      9.4768     10.4105     16.1102    131.1378
  1744.0000      6.7196      9.3756     11.2385     42.1431     97.8899
  1744.2500     16.8232      9.4084     12.0333    100.3862    110.3448
  1744.5000     26.0145      9.6748     12.2203    102.9473    105.8592
  1744.7500     34.9615      9.7929     11.9678     60.5355    104.3429
  1745.0000     42.1137      9.9227     11.7254     30.0263    144.4964
  1745.2500     46.6783     10.1517     11.5065     21.8422    159.5377
  1745.5000     49.1524     10.5540     11.5124     22.5384    152.8872
  1745.7500     50.6707     10.9105     11.5836     23.8719    144.6154
