~Version Information
VERS.                      2.0: CWLS Log ASCII Standard - VERSION 2.0
WRAP.                       NO: One line per depth step
~Well Information Block
STRT.FT                -7.6500: 
STOP.FT              3097.2500: 
STEP.FT                 0.0500: 
NULL.                -999.2500: 
COMP.          Pioneer Natural Resources: COMPANY
WELL.            Paradise 13-8: WELL
FLD.           Purgatoire River: FIELD
LOC.           1896' FSL & 1120' FWL--: LOCATION
PROV.                 Colorado: PROVINCE
CNTY.               Las Animas: COUNTRY
SRVC.                Patterson: SERVICE COMPANY
DATE.          Fri Feb 04 16:52:25 2005: LOG DATE
UWI.           05 071 07946 00: UNIQUE WELL ID
~Curve Information Block
DEPT.FT            0 000 00 00: Depth
CCL.                          : Casing Collar Locator
TT3.usec                      : CBL 3' Travel Time
AMP3.mV                       : CBL 3' Amplitude
GR.GAPI                       : Gamma Ray
~Parameter Information Block
~A  Depth       CCL         TT3         AMP3         GR     
# ...
   823.1500      0.0000    690.6244      3.1624     83.5493
   823.2000      0.0000    690.6244      3.1624     83.5493
   823.2500      0.0000    690.7471      3.1101     82.1474
   823.3000      0.0000    690.7471      3.1101     82.1474
   823.3500      0.0000    690.7471      3.1101     82.1474
   823.4000      0.0000    690.7471      3.1101     82.1474
   823.4500      0.0000    690.7471      3.1101     82.1474
   823.5000      0.0000    690.8405      3.0691     78.6380
   823.5500      0.0000    690.8405      3.0691     78.6380
   823.6000      0.0000    690.8405      3.0691     78.6380
   823.6500      0.0000    690.8405      3.0691     78.6380
   823.7000      0.0000    690.8405      3.0691     78.6380
   823.7500      0.0000    690.8846      3.0371     74.1094
   823.8000      0.0000    690.8846      3.0371     74.1094
   823.8500      0.0000    690.8846      3.0371     74.1094
   823.9000      0.0000    690.8846      3.0371     74.1094
   823.9500      0.0000    690.8846      3.0371     74.1094
   824.0000      0.0000    690.8915      3.0070     69.5730
   824.0500      0.0000    690.8915      3.0070     69.5730
   824.1000      0.0000    690.8915      3.0070     69.5730
   824.1500      0.0000    690.8915      3.0070     69.5730
   824.2000      0.0000    690.8915      3.0070     69.5730
   824.2500      0.0000    690.8800      2.9698     66.1216
   824.3000      0.0000    690.8800      2.9698     66.1216
   824.3500      0.0000    690.8800      2.9698     66.1216
   824.4000      0.0000    690.8800      2.9698     66.1216
   824.4500      0.0000    690.8800      2.9698     66.1216
   824.5000      0.0000    690.8492      2.9206     64.7009
   824.5500      0.0000    690.8492      2.9206     64.7009
   824.6000      0.0000    690.8492      2.9206     64.7009
   824.6500      0.0000    690.8492      2.9206     64.7009
   824.7000      0.0000    690.8492      2.9206     64.7009
   824.7500      0.0000    690.7791      2.8617     65.3151
   824.8000      0.0000    690.7791      2.8617     65.3151
   824.8500      0.0000    690.7791      2.8617     65.3151
   824.9000      0.0000    690.7791      2.8617     65.3151
   824.9500      0.0000    690.7791      2.8617     65.3151
   825.0000      0.0000    690.6565      2.8014     66.5807
   825.0500      0.0000    690.6565      2.8014     66.5807
   825.1000      0.0000    690.6565      2.8014     66.5807
   825.1500      0.0000    690.6565      2.8014     66.5807
   825.2000      0.0000    690.6565      2.8014     66.5807
   825.2500      0.0000    690.5031      2.7489     66.5438
   825.3000      0.0000    690.5031      2.7489     66.5438
   825.3500      0.0000    690.5031      2.7489     66.5438
   825.4000      0.0000    690.5031      2.7489     66.5438
   825.4500      0.0000    690.5031      2.7489     66.5438
   825.5000      0.0000    690.3841      2.7097     64.3251
   825.5500      0.0000    690.3841      2.7097     64.3251
   825.6000      0.0000    690.3841      2.7097     64.3251
   825.6500      0.0000    690.3841      2.7097     64.3251
   825.7000      0.0000    690.3841      2.7097     64.3251
   825.7500      0.0000    690.3892      2.6840     60.9825
   825.8000      0.0000    690.3892      2.6840     60.9825
   825.8500      0.0000    690.3892      2.6840     60.9825
   825.9000      0.0000    690.3892      2.6840     60.9825
   825.9500      0.0000    690.3892      2.6840     60.9825
   826.0000      0.0000    690.6460      2.6677     58.6135
   826.0500      0.0000    690.6460      2.6677     58.6135
   826.1000      0.0000    690.6460      2.6677     58.6135
   826.1500      0.0000    690.6460      2.6677     58.6135
   826.2000      0.0000    690.6460      2.6677     58.6135
   826.2500      0.0000    691.4491      2.6530     58.5714
   826.3000      0.0000    691.4491      2.6530     58.5714
   826.3500      0.0000    691.4491      2.6530     58.5714
   826.4000      0.0000    691.4491      2.6530     58.5714
   826.4500      0.0000    691.4491      2.6530     58.5714
   826.5000      0.0000    693.5101      2.6306     60.5834
   826.5500      0.0000    693.5101      2.6306     60.5834
   826.6000      0.0000    693.5101      2.6306     60.5834
   826.6500      0.0000    693.5101      2.6306     60.5834
   826.7000      0.0000    693.5101      2.6306     60.5834
   826.7500      0.0000    698.0594      2.5926     63.5021
   826.8000      0.0000    698.0594      2.5926     63.5021
   826.8500      0.0000    698.0594      2.5926     63.5021
   826.9000      0.0000    698.0594      2.5926     63.5021
   826.9500      0.0000    698.0594      2.5926     63.5021
   827.0000      0.0000    706.2959      2.5368     66.6007
   827.0500      0.0000    706.2959      2.5368     66.6007
   827.1000      0.0000    706.2959      2.5368     66.6007
   827.1500      0.0000    706.2959      2.5368     66.6007
   827.2000      0.0000    706.2959      2.5368     66.6007
   827.2500      0.0000    718.1605      2.4690     69.8933
   827.3000      0.0000    718.1605      2.4690     69.8933
   827.3500      0.0000    718.1605      2.4690     69.8933
   827.4000      0.0000    718.1605      2.4690     69.8933
   827.4500      0.0000    718.1605      2.4690     69.8933
   827.5000      0.0000    731.5725      2.4006     73.3491
   827.5500      0.0000    731.5725      2.4006     73.3491
   827.6000      0.0000    731.5725      2.4006     73.3491
   827.6500      0.0000    731.5725      2.4006     73.3491
   827.7000      0.0000    731.5725      2.4006     73.3491
   827.7500      0.0000    743.3864      2.3419     76.1871
   827.8000      0.0000    743.3864      2.3419     76.1871
   827.8500      0.0000    743.3864      2.3419     76.1871
   827.9000      0.0000    743.3864      2.3419     76.1871
   827.9500      0.0000    743.3864      2.3419     76.1871
   828.0000      0.0000    751.4100      2.2981     77.0304
   828.0500      0.0000    751.4100      2.2981     77.0304
   828.1000      0.0000    751.4100      2.2981     77.0304
   828.1500      0.0000    751.4100      2.2981     77.0304
   828.2000      0.0000    751.4100      2.2981     77.0304
   828.2500      0.0000    755.3439      2.2669     74.7103
   828.3000      0.0000    755.3439      2.2669     74.7103
   828.3500      0.0000    755.3439      2.2669     74.7103
   828.4000      0.0000    755.3439      2.2669     74.7103
   828.4500      0.0000    755.3439      2.2669     74.7103
   828.5000      0.0000    755.8356      2.2349     69.1811
   828.5500      0.0000    755.8356      2.2349     69.1811
   828.6000      0.0000    755.8356      2.2349     69.1811
   828.6500      0.0000    755.8356      2.2349     69.1811
   828.7000      0.0000    755.8356      2.2349     69.1811
   828.7500      0.0000    752.9785      2.1809     61.9719
   828.8000      0.0000    752.9785      2.1809     61.9719
   828.8500      0.0000    752.9785      2.1809     61.9719
   828.9000      0.0000    752.9785      2.1809     61.9719
   828.9500      0.0000    752.9785      2.1809     61.9719
   829.0000      0.0000    745.9792      2.0939     55.6989
   829.0500      0.0000    745.9792      2.0939     55.6989
   829.1000      0.0000    745.9792      2.0939     55.6989
   829.1500      0.0000    745.9792      2.0939     55.6989
   829.2000      0.0000    745.9792      2.0939     55.6989
   829.2500      0.0000    734.4827      1.9934     52.7106
   829.3000      0.0000    734.4827      1.9934     52.7106
   829.3500      0.0000    734.4827      1.9934     52.7106
   829.4000      0.0000    734.4827      1.9934     52.7106
   829.4500      0.0000    734.4827      1.9934     52.7106
   829.5000      0.0000    720.4758      1.9196     53.6612
   829.5500      0.0000    720.4758      1.9196     53.6612
   829.6000      0.0000    720.4758      1.9196     53.6612
   829.6500      0.0000    720.4758      1.9196     53.6612
   829.7000      0.0000    720.4758      1.9196     53.6612
   829.7500      0.0000    708.6465      1.8907     57.1187
   829.8000      0.0000    708.6465      1.8907     57.1187
