~Version Information
VERS.                      2.0: CWLS Log ASCII Standard - VERSION 2.0
WRAP.                       NO: One line per depth step
~Well Information Block
STRT.FT               620.0000: 
STOP.FT              2663.2500: 
STEP.FT                 0.2500: 
NULL.                -999.2500: 
COMP.          Evergreen Operating Corporation: COMPANY
WELL.             Carbon 34-21: WELL
FLD.           Purgatoire River: FIELD
LOC.           56' FSL & 2304' FEL: LOCATION
PROV.                 Colorado: PROVINCE
CNTY.               Las Animas: COUNTRY
SRVC.                Patterson: SERVICE COMPANY
DATE.          Mon Sep 13 11:41:04 2004: LOG DATE
UWI.           05 071 08117 00: UNIQUE WELL ID
~Curve Information Block
DEPT.FT            0 000 00 00: Depth
DIR.Ohm-m                     : IEL Induction Resistivity
SN.Ohm-m                      : IEL Short Normal
SP.mV                         : IEL Spontaneous Potential
GR.GAPI                       : Gamma Ray
~Parameter Information Block
~A  Depth       DIR          SN          SP          GR     
# ...
  1558.0000      9.8586     10.9615    120.7442    119.0185
  1558.2500      9.8072     10.9159    120.7412    121.8741
  1558.5000      9.7719     10.8927    120.6897    129.6849
  1558.7500      9.7644     10.9025    120.5974    136.0906
  1559.0000      9.7878     10.9355    120.4804    143.6127
  1559.2500      9.8377     10.9622    120.3601    145.0882
  1559.5000      9.9069     10.9534    120.2594    141.3124
  1559.7500      9.9893     10.9017    120.1966    136.3937
  1560.0000     10.0815     10.8261    120.1816    128.8576
  1560.2500     10.1790     10.7577    120.2140    124.6700
  1560.5000     10.2729     10.7205    120.2851    119.3580
  1560.7500     10.3497     10.7203    120.3824    116.1752
  1561.0000     10.3960     10.7438    120.4944    112.5538
  1561.2500     10.4036     10.7659    120.6148    111.6849
  1561.5000     10.3719     10.7656    120.7424    113.1635
  1561.7500     10.3050     10.7406    120.8799    115.2678
  1562.0000     10.2087     10.7098    121.0298    118.0348
  1562.2500     10.0917     10.6974    121.1910    118.9184
  1562.5000      9.9686     10.7152    121.3575    119.1545
  1562.7500      9.8599     10.7590    121.5181    119.1249
  1563.0000      9.7877     10.8208    121.6594    119.0497
  1563.2500      9.7701     10.9046    121.7694    118.8263
  1563.5000      9.8201     11.0309    121.8403    118.4306
  1563.7500      9.9464     11.2268    121.8705    118.5045
  1564.0000     10.1541     11.5108    121.8631    119.5329
  1564.2500     10.4434     11.8843    121.8235    120.9698
  1564.5000     10.8070     12.3331    121.7558    124.5811
  1564.7500     11.2279     12.8352    121.6618    127.8031
  1565.0000     11.6806     13.3655    121.5411    132.3215
  1565.2500     12.1359     13.9002    121.3947    134.0111
  1565.5000     12.5695     14.4235    121.2276    133.8067
  1565.7500     12.9685     14.9349    121.0515    132.1176
  1566.0000     13.3313     15.4481    120.8858    127.9778
  1566.2500     13.6606     15.9794    120.7563    124.6172
  1566.5000     13.9565     16.5348    120.6929    119.8624
  1566.7500     14.2140     17.1027    120.7246    117.4110
  1567.0000     14.4250     17.6540    120.8733    114.3034
  1567.2500     14.5794     18.1479    121.1473    111.7411
  1567.5000     14.6663     18.5432    121.5375    106.4956
  1567.7500     14.6752     18.8108    122.0181    102.6405
  1568.0000     14.6005     18.9415    122.5537     97.9668
  1568.2500     14.4457     18.9379    123.1084     96.0573
  1568.5000     14.2223     18.7983    123.6543     94.4132
  1568.7500     13.9439     18.5102    124.1755     93.5867
  1569.0000     13.6178     18.0584    124.6675     93.0519
  1569.2500     13.2427     17.4368    125.1341     94.0078
  1569.5000     12.8146     16.6524    125.5817     98.1254
  1569.7500     12.3377     15.7294    126.0160    102.0668
  1570.0000     11.8296     14.7124    126.4369    108.2302
  1570.2500     11.3178     13.6629    126.8362    112.1755
  1570.5000     10.8292     12.6464    127.1968    118.2017
  1570.7500     10.3813     11.7200    127.4951    122.4500
  1571.0000      9.9811     10.9258    127.7060    128.8700
  1571.2500      9.6284     10.2902    127.8100    132.9031
  1571.5000      9.3210      9.8269    127.7990    138.5721
  1571.7500      9.0575      9.5453    127.6796    142.3476
  1572.0000      8.8387      9.4594    127.4711    147.8957
  1572.2500      8.6677      9.5901    127.2009    150.7587
  1572.5000      8.5494      9.9499    126.8961    152.1631
  1572.7500      8.4920     10.5146    126.5783    150.8289
  1573.0000      8.5067     11.2046    126.2606    146.1151
  1573.2500      8.6063     11.8982    125.9492    141.8320
  1573.5000      8.7998     12.4714    125.6466    134.6880
  1573.7500      9.0859     12.8342    125.3543    129.9931
  1574.0000      9.4465     12.9480    125.0719    123.9750
  1574.2500      9.8449     12.8348    124.7958    120.8306
  1574.5000     10.2305     12.5843    124.5171    116.3068
  1574.7500     10.5534     12.3551    124.2219    112.0987
  1575.0000     10.7826     12.3480    123.8939    102.5619
  1575.2500     10.9166     12.7488    123.5179     94.8594
  1575.5000     10.9817     13.6632    123.0816     85.5304
  1575.7500     11.0176     15.0810    122.5761     83.4788
  1576.0000     11.0632     16.8938    121.9931     88.2062
  1576.2500     11.1472     18.9501    121.3215     95.0989
  1576.5000     11.2872     21.1097    120.5443    106.6344
  1576.7500     11.4922     23.2679    119.6382    113.1090
  1577.0000     11.7673     25.3566    118.5755    119.5574
  1577.2500     12.1198     27.3518    117.3298    121.2877
  1577.5000     12.5667     29.3086    115.8831    118.7527
  1577.7500     13.1398     31.4287    114.2324    112.8110
  1578.0000     13.8885     34.1255    112.3937     97.6122
  1578.2500     14.8764     37.9995    110.4016     84.6735
  1578.5000     16.1725     43.6351    108.3061     65.0838
  1578.7500     17.8352     51.2482    106.1673     54.4323
  1579.0000     19.8849     60.3903    104.0523     45.1208
  1579.2500     22.2643     69.9671    102.0349     43.7357
  1579.5000     24.8002     78.6178    100.1990     46.8368
  1579.7500     27.2041     85.2038     98.6414     50.0710
  1580.0000     29.1430     89.1028     97.4710     52.7416
  1580.2500     30.3611     90.2186     96.7977     51.7698
  1580.5000     30.7689     88.8066     96.7125     46.4369
  1580.7500     30.4372     85.2462     97.2608     41.5599
  1581.0000     29.5120     79.8792     98.4195     35.0509
  1581.2500     28.1283     73.0273    100.0893     32.6011
  1581.5000     26.3820     65.1589    102.1053     32.9314
  1581.7500     24.3644     56.9745    104.2657     35.8089
  1582.0000     22.2028     49.2347    106.3687     43.3245
  1582.2500     20.0547     42.4584    108.2461     49.8448
  1582.5000     18.0624     36.7783    109.7848     60.8062
  1582.7500     16.3164     32.0477    110.9337     68.3318
  1583.0000     14.8511     28.0510    111.6973     79.3023
  1583.2500     13.6608     24.6507    112.1199     86.4183
  1583.5000     12.7200     21.8205    112.2670     97.3391
  1583.7500     11.9972     19.5935    112.2085    104.8857
  1584.0000     11.4635     17.9879    112.0064    115.5457
  1584.2500     11.0960     16.9579    111.7085    121.1430
  1584.5000     10.8785     16.3955    111.3474    125.9164
  1584.7500     10.7990     16.1723    110.9424    126.4384
  1585.0000     10.8478     16.1833    110.5047    123.5329
  1585.2500     11.0133     16.3606    110.0420    119.7592
  1585.5000     11.2793     16.6551    109.5648    113.2692
  1585.7500     11.6223     17.0148    109.0903    109.6159
  1586.0000     12.0100     17.3833    108.6449    106.3686
  1586.2500     12.4036     17.7145    108.2630    105.8825
  1586.5000     12.7643     17.9822    107.9843    107.7864
  1586.7500     13.0625     18.1766    107.8499    110.6957
  1587.0000     13.2857     18.2958    107.8989    116.1591
  1587.2500     13.4412     18.3452    108.1660    119.0970
  1587.5000     13.5488     18.3412    108.6789    120.4792
  1587.7500     13.6301     18.3098    109.4549    119.3095
  1588.0000     13.7007     18.2781    110.4937    115.8711
  1588.2500     13.7684     18.2634    111.7704    113.3580
  1588.5000     13.8356     18.2671    113.2282    109.9757
  1588.7500     13.9005     18.2754    114.7787    108.2108
  1589.0000     13.9583     18.2671    116.3111    107.1555
  1589.2500     14.0024     18.2247    117.7114    108.0224
  1589.5000     14.0280     18.1444    118.8863    111.3608
  1589.7500     14.0359     18.0399    119.7814    114.0033
  1590.0000     14.0334     17.9389    120.3892    117.0174
  1590.2500     14.0327     17.8734    120.7425    118.1602
  1590.5000     14.0467     17.8672    120.8981    119.1136
  1590.7500     14.0824     17.9252    120.9186    119.4229
  1591.0000     14.1380     18.0305    120.8586    118.8177
  1591.2500     14.2029     18.1532    120.7580    117.2824
