~Version Information
VERS.                      2.0: CWLS Log ASCII Standard - VERSION 2.0
WRAP.                       NO: One line per depth step
~Well Information Block
STRT.FT                -8.2500: 
STOP.FT              1119.7500: 
STEP.FT                 0.2500: 
NULL.                -999.2500: 
COMP.          Pioneer Natural Resources: COMPANY
WELL.             Linda T 32-3: WELL
FLD.           Purgatorie River: FIELD
LOC.           1350' FNL & 2290' FEL------: LOCATION
PROV.                       CO: PROVINCE
CNTY.               Las Animas: COUNTRY
SRVC.                         : SERVICE COMPANY
DATE.          Thu Feb 10 08:20:40 2005: LOG DATE
UWI.          005 071 08215   : UNIQUE WELL ID
~Curve Information Block
DEPT.FT            0 000 00 00: Depth
CCL.                          : Casing Collar Locator
TT3.usec                      : CBL 3' Travel Time
AMP3.mV                       : CBL 3' Amplitude
GR.GAPI                       : Gamma Ray
~Parameter Information Block
~A  Depth       CCL         TT3         AMP3         GR     
# ...
  1030.2500      0.0000    394.7918      7.0118     91.0299
  1030.5000      0.0000    397.2147      7.1293     88.7507
  1030.7500      0.0000    404.7072      7.1748     87.0226
  1031.0000      0.0000    422.6867      7.0793     85.8564
  1031.2500      0.0000    455.4799      6.8675     85.2441
  1031.5000      0.0000    500.6810      6.6568     85.2376
  1031.7500      0.0000    547.2918      6.5457     86.2188
  1032.0000      0.0000    582.9473      6.5097     88.9992
  1032.2500      0.0000    604.2233      6.4273     94.0445
  1032.5000      0.0000    617.4694      6.2193    100.4719
  1032.7500      0.0000    628.9498      5.9425    106.0349
  1033.0000      0.0000    637.4310      5.7284    108.1226
  1033.2500      0.0000    638.6354      5.6391    105.1919
  1033.5000      0.0000    634.4247      5.6100     97.9603
  1033.7500      0.0000    633.5750      5.5401     89.1080
  1034.0000      0.0000    643.1353      5.4132     81.2614
  1034.2500      0.0000    661.6686      5.3086     75.3854
  1034.5000      0.0000    681.5622      5.2852     71.2633
  1034.7500      0.0000    695.5704      5.2815     68.8152
  1035.0000      0.0000    700.2195      5.1596     68.4059
  1035.2500      0.0000    696.0541      4.8492     70.1487
  1035.5000      0.0000    687.5461      4.4214     73.3020
  1035.7500      0.0000    681.4397      4.0191     76.5594
  1036.0000      0.0000    681.8820      3.7406     79.0620
  1036.2500      0.0000    686.7913      3.5926     80.9668
  1036.5000      0.0000    690.8826      3.5215     82.7275
  1036.7500      0.0000    692.3580      3.4789     83.9895
  1037.0000      0.0000    694.4199      3.4731     83.6367
  1037.2500      0.0000    699.7709      3.5559     80.9320
  1037.5000      0.0000    706.1604      3.7452     76.3620
  1037.7500      0.0000    709.1166      3.9790     71.3850
  1038.0000     -2.0000    707.6074      4.1705     67.5963
  1038.2500      2.0000    705.0620      4.3027     66.0406
  1038.5000      0.0000    705.3774      4.4535     66.7916
  1038.7500      0.0000    709.4064      4.7192     68.9243
  1039.0000      0.0000    715.0521      5.1026     71.2128
  1039.2500      0.0000    719.3705      5.4792     73.1113
  1039.5000      0.0000    720.1952      5.7014     74.9124
  1039.7500      0.0000    716.8964      5.7448     76.9387
  1040.0000      0.0000    710.6099      5.7186     78.8160
  1040.2500      0.0000    703.6719      5.7385     79.6166
  1040.5000      0.0000    698.1757      5.8410     78.5673
  1040.7500      0.0000    694.8860      6.0073     75.6370
  1041.0000      0.0000    693.3718      6.2070     71.9204
  1041.2500      0.0000    692.8330      6.4173     69.5998
  1041.5000      0.0000    692.6852      6.6365     70.5628
  1041.7500      0.0000    692.6677      6.8813     74.2843
  1042.0000      0.0000    692.7422      7.1507     77.7154
  1042.2500      0.0000    692.9642      7.4009     78.1566
  1042.5000      0.0000    693.3842      7.5741     76.0314
  1042.7500      0.0000    693.9929      7.6461     74.3251
  1043.0000      0.0000    694.7167      7.6407     75.7628
  1043.2500      0.0000    695.4640      7.6066     81.2069
  1043.5000      0.0000    696.1717      7.5839     89.8981
  1043.7500      0.0000    696.7889      7.5838     99.7068
  1044.0000      0.0000    697.2164      7.5949    107.4098
  1044.2500      0.0000    697.3203      7.6166    110.4647
  1044.5000      0.0000    697.0358      7.6775    109.1448
  1044.7500      0.0000    696.4273      7.7979    106.0710
  1045.0000      0.0000    695.6292      7.9348    103.3265
  1045.2500      0.0000    694.7740      7.9969    100.8186
  1045.5000      0.0000    693.9984      7.9340     97.5767
  1045.7500      0.0000    693.4618      7.8041     93.5435
  1046.0000      0.0000    693.2780      7.7246     89.5062
  1046.2500      0.0000    693.4202      7.7556     85.9833
  1046.5000      0.0000    693.7298      7.8484     82.8073
  1046.7500      0.0000    694.0452      7.9114     79.5077
  1047.0000      0.0000    694.3161      7.9082     75.8575
  1047.2500      0.0000    694.6267      7.8824     72.4003
  1047.5000      0.0000    695.1568      7.9020     70.6482
  1047.7500      0.0000    696.1525      7.9843     72.3022
  1048.0000      0.0000    697.8275      8.0772     77.6655
  1048.2500      0.0000    700.0615      8.1161     84.9473
  1048.5000      0.0000    702.1002      8.0876     91.6936
  1048.7500      0.0000    702.8623      8.0311     96.8409
  1049.0000      0.0000    701.8865      7.9931    100.8994
  1049.2500      0.0000    699.8477      7.9855    104.5255
  1049.5000      0.0000    697.9077      7.9726    107.7271
  1049.7500      0.0000    696.7147      7.9027    110.4007
  1050.0000      0.0000    696.1596      7.7662    112.9225
  1050.2500      0.0000    695.8244      7.6146    115.7731
  1050.5000      0.0000    695.4628      7.5096    118.7544
  1050.7500      0.0000    695.2182      7.4623    120.9183
  1051.0000      0.0000    695.6625      7.4337    121.3304
  1051.2500      0.0000    697.6890      7.3835    119.7130
  1051.5000      0.0000    702.0963      7.3061    116.4153
  1051.7500      0.0000    708.8658      7.2406    112.2018
  1052.0000      0.0000    716.7179      7.2560    108.3215
  1052.2500      0.0000    723.6740      7.3982    106.3642
  1052.5000      0.0000    728.3127      7.6256    107.3533
  1052.7500      0.0000    730.5029      7.8177    110.7903
  1053.0000      0.0000    731.0090      7.8825    114.7796
  1053.2500      0.0000    730.5886      7.8531    117.2564
  1053.5000      0.0000    729.4238      7.8424    117.2056
  1053.7500      0.0000    727.1537      7.9029    114.9123
  1054.0000      0.0000    723.4016      7.9768    111.4743
  1054.2500      0.0000    718.4275      7.9955    108.3457
  1054.5000      0.0000    713.2022      7.9819    107.1662
  1054.7500      0.0000    708.5774      8.0185    109.2400
  1055.0000      0.0000    704.5351      8.1368    114.4950
  1055.2500      0.0000    700.3792      8.2708    121.0563
  1055.5000      0.0000    695.1757      8.3232    126.3745
  1055.7500      0.0000    687.3806      8.2599    128.9988
  1056.0000      0.0000    674.9683      8.1290    129.2103
  1056.2500      0.0000    658.0218      8.0002    128.0479
  1056.5000      0.0000    641.8011      7.9049    126.1654
  1056.7500      0.0000    634.8135      7.8365    123.8048
  1057.0000      0.0000    641.4075      7.7764    121.2451
  1057.2500      0.0000    657.2434      7.7093    118.7400
  1057.5000      0.0000    673.5809      7.6372    116.2897
  1057.7500      0.0000    684.6790      7.5846    113.9343
  1058.0000      0.0000    690.0869      7.5759    112.2195
  1058.2500      0.0000    691.9644      7.6125    111.8774
  1058.5000      0.0000    692.3193      7.6904    112.8690
  1058.7500      0.0000    692.2422      7.8256    114.0522
  1059.0000      0.0000    692.1870      8.0436    114.0289
  1059.2500      0.0000    692.2613      8.3358    112.1502
  1059.5000      0.0000    692.4084      8.6272    108.7114
  1059.7500      0.0000    692.5112      8.8016    104.5686
  1060.0000      0.0000    692.5154      8.7855    100.7981
  1060.2500      0.0000    692.4717      8.6131     98.4517
  1060.5000      0.0000    692.4847      8.3924     98.2566
  1060.7500      0.0000    692.6193      8.2046    100.3476
  1061.0000      0.0000    692.8810      8.0565    104.2885
  1061.2500      0.0000    693.3461      7.9276    109.3719
  1061.5000      0.0000    694.3530      7.8291    114.8101
  1061.7500      0.0000    696.5206      7.8001    119.6240
  1062.0000      0.0000    700.3414      7.8678    122.6065
  1062.2500      0.0000    705.5377      8.0279    122.6562
  1062.5000      0.0000    710.9889      8.2467    119.4628
  1062.7500      0.0000    715.6551      8.4682    114.1779
  1063.0000      0.0000    719.4693      8.6344    109.2025
  1063.2500      0.0000    722.9744      8.7119    106.7436
  1063.5000      0.0000    726.3684      8.7092    107.4371
