~Version Information
 VERS.                                  2.0 : CWLS LAS VERSION
 WRAP.                                   NO : WRAPING MODE
 SWARE .                 MController 2.5.0J : SOFTWARE VERSION
~Well Information
 WELL.              Cock-A-Doodle-Doo 44-27 : WELL
 COMP.      Pioneer Natural Resources, Inc. : COMPANY
 FLD.                      Purgatoire River : FIELD
 LOC.                SE/SE Sec.27 T32S R67W : LOCATION
 DATE.                              6/30/05 : DATE(S) LOGGED
 SRVC.       BLANCO Geological Services LLC : SERVICE COMPANY
 STAT.                                   CO : STATE
 CNTY.                           Las Animas : COUNTY
 CTRY.                                  USA : COUNTRY
 API.                             071 08429 : API NUMBER
 STRT.FT                             394.00 : START DEPTH
 STOP.FT                            2540.00 : STOP DEPTH
 STEP.FT                               1.00 : DEPTH INCREMENT
 NULL.                                -9999 : NULL VALUE
~Curve information
 DEPTH.FT                                   :
 ROP.MIN/FT                                 :
 GAS.UNITS                                  :
~ASCII Log data
# ...
      1194.0         0.13         74.9 
      1195.0         0.17         78.1 
      1196.0         1.82         86.3 
      1197.0         0.23         94.5 
      1198.0         0.40        180.6 
      1199.0         0.33        256.6 
      1200.0         0.27        291.5 
      1201.0         0.20        295.0 
      1202.0         0.20        287.7 
      1203.0         0.27        259.3 
      1204.0         0.20        211.0 
      1205.0         0.20        176.2 
      1206.0         0.23        148.1 
      1207.0         0.23        124.7 
      1208.0         0.23        110.2 
      1209.0         0.32        104.3 
      1210.0         0.23        104.0 
      1211.0         0.20        102.5 
      1212.0         0.20         99.8 
      1213.0         0.30         96.6 
      1214.0         0.57         90.8 
      1215.0         0.23         81.5 
      1216.0         0.13         77.9 
      1217.0         0.17         73.6 
      1218.0         0.20         65.6 
      1219.0         0.20         65.9 
      1220.0         0.20         70.4 
      1221.0         0.23         74.0 
      1222.0         0.20         76.5 
      1223.0         0.18         78.2 
      1224.0         0.20         79.6 
      1225.0         0.20         79.9 
      1226.0         2.23        100.0 
      1227.0         0.33        185.5 
      1228.0         0.38        333.4 
      1229.0         0.33        411.6 
      1230.0         0.27        417.6 
      1231.0         0.27        402.3 
      1232.0         0.27        336.7 
      1233.0         0.27        257.7 
      1234.0         0.23        191.9 
      1235.0         0.27        150.4 
      1236.0         0.33        119.5 
      1237.0         0.13        101.1 
      1238.0         0.13         99.5 
      1239.0         0.43         98.9 
      1240.0         0.23         96.0 
      1241.0         0.13         96.2 
      1242.0         0.25         96.0 
      1243.0         0.17         92.2 
      1244.0         0.20         88.2 
      1245.0         0.27         85.0 
      1246.0         0.20         83.0 
      1247.0         0.30         82.1 
      1248.0         0.27         80.0 
      1249.0         0.17         77.7 
      1250.0         0.17         74.9 
      1251.0         0.17         71.6 
      1252.0         0.17         69.3 
      1253.0         0.13         67.6 
      1254.0         0.13         67.1 
      1255.0         0.20         69.0 
      1256.0         1.75         76.7 
      1257.0         0.20        115.3 
      1258.0         0.27        191.3 
      1259.0         0.13        237.7 
      1260.0         0.27        329.7 
      1261.0         0.47        387.8 
      1262.0         0.17        380.8 
      1263.0         0.13        355.1 
      1264.0         0.23        327.7 
      1265.0         0.23        274.2 
      1266.0         0.22        220.3 
      1267.0         0.27        180.3 
      1268.0         0.27        146.3 
      1269.0         0.30        123.7 
      1270.0         0.27        109.4 
      1271.0         0.23        106.1 
      1272.0         0.23        105.7 
      1273.0         0.23        104.3 
      1274.0         0.20        100.9 
      1275.0         0.20         96.4 
      1276.0         0.17         91.5 
      1277.0         0.20         87.9 
      1278.0         0.17         84.3 
      1279.0         0.13         81.5 
      1280.0         0.10         79.9 
      1281.0         0.17         78.6 
      1282.0         0.22         77.0 
      1283.0         0.27         75.9 
      1284.0         0.10         75.6 
      1285.0         0.27         75.2 
      1286.0         2.03        175.2 
      1287.0         0.27        250.5 
      1288.0         0.20        286.4 
      1289.0         0.18        302.3 
      1290.0         0.17        304.2 
      1291.0         0.40        299.8 
      1292.0         0.57        242.3 
      1293.0         0.43        146.6 
      1294.0         0.40        104.5 
      1295.0         0.33         95.5 
      1296.0         0.33         95.0 
      1297.0         0.37         91.6 
      1298.0         0.45         87.4 
      1299.0         0.43         80.9 
      1300.0         0.13         74.0 
      1301.0         0.10         72.7 
      1302.0         0.33         72.2 
      1303.0         0.17         70.6 
      1304.0         0.13         68.6 
      1305.0         0.17         66.2 
      1306.0         0.13         62.3 
      1307.0         0.13         61.8 
      1308.0         0.10         64.0 
      1309.0         0.17         66.6 
      1310.0         0.13         66.8 
      1311.0         0.17         66.7 
      1312.0         0.17         68.9 
      1313.0         0.20         74.0 
      1314.0         0.23         77.6 
      1315.0         1.42         77.9 
      1316.0         0.23        108.6 
      1317.0         0.17        151.2 
      1318.0         0.17        196.2 
      1319.0         0.27        240.3 
      1320.0         0.23        244.5 
      1321.0         0.30        244.5 
      1322.0         0.23        243.6 
      1323.0         0.30        232.4 
      1324.0         0.13        193.4 
      1325.0         0.25        172.4 
      1326.0         0.20        138.6 
      1327.0         0.13        116.4 
      1328.0         0.23        107.4 
      1329.0         0.23        100.0 
      1330.0         0.23        102.5 
      1331.0         0.20        103.1 
      1332.0         0.17        103.1 
      1333.0         0.20        101.6 
      1334.0         0.20         98.5 
      1335.0         0.17         94.9 
      1336.0         0.30         91.9 
      1337.0         0.20         85.8 
      1338.0         0.10         81.3 
      1339.0         0.13         79.7 
      1340.0         0.17         77.8 
      1341.0         0.23         74.7 
      1342.0         0.22         69.7 
      1343.0         0.23         62.1 
      1344.0         0.27         67.8 
      1345.0         1.30         80.9 
      1346.0         0.13         45.5 
      1347.0         0.57        106.5 
      1348.0         0.43        222.4 
      1349.0         0.35        293.8 
      1350.0         0.23        317.6 
      1351.0         0.30        318.8 
      1352.0         0.33        298.1 
      1353.0         0.30        233.2 
      1354.0         0.37        177.2 
      1355.0         0.33        127.7 
      1356.0         0.27        102.7 
      1357.0         0.37         96.7 
      1358.0         0.27         96.4 
      1359.0         0.30         94.2 
      1360.0         0.28         90.0 
      1361.0         0.27         86.0 
      1362.0         0.30         82.4 
      1363.0         0.27         76.3 
      1364.0         0.27         67.7 
      1365.0         0.27         59.9 
      1366.0         0.43         57.1 
      1367.0         0.27         60.1 
      1368.0         0.23         64.2 
      1369.0         0.30         68.2 
      1370.0         0.20         68.3 
      1371.0         0.30         69.9 
      1372.0         0.22         74.2 
      1373.0         0.20         75.8 
      1374.0         0.17         75.4 
      1375.0         0.10         72.3 
      1376.0         1.80         76.3 
      1377.0         0.13         56.0 
      1378.0         0.13         68.3 
      1379.0         0.23        104.7 
      1380.0         0.33        197.2 
      1381.0         0.25        288.0 
      1382.0         0.27        367.6 
      1383.0         0.27        388.4 
      1384.0         0.27        383.5 
      1385.0         0.23        339.3 
      1386.0         0.17        281.3 
      1387.0         0.20        240.8 
      1388.0         0.20        197.8 
      1389.0         0.27        162.9 
      1390.0         0.27        130.0 
      1391.0         0.30        109.9 
      1392.0         0.23         97.8 
      1393.0         0.23         95.2 
