~Version Information
VERS.                      2.0: CWLS Log ASCII Standard - VERSION 2.0
WRAP.                       NO: One line per depth step
~Well Information Block
STRT.FT                -7.0000: 
STOP.FT               867.2500: 
STEP.FT                 0.2500: 
NULL.                -999.2500: 
COMP.          Pioneer Natural Resources: COMPANY
WELL.          Claim Jumper 41-22: WELL
FLD.           Purgatorie River: FIELD
LOC.           1120' FNL & 977' FEL--: LOCATION
PROV.                       CO: PROVINCE
CNTY.               Las Animas: COUNTRY
SRVC.          Patterson Wireline: SERVICE COMPANY
DATE.          Mon Jun 27 12:47:30 2005: LOG DATE
UWI.           05 071 08405 00: UNIQUE WELL ID
~Curve Information Block
DEPT.FT            0 000 00 00: Depth
CCL.                          : Casing Collar Locator
TT3.usec                      : CBL 3' Travel Time
AMP3.mV                       : CBL 3' Amplitude
GR.GAPI                       : Gamma Ray
~Parameter Information Block
~A  Depth       CCL         TT3         AMP3         GR     
# ...
   160.5000      0.0000    849.3767     10.6930     64.2609
   160.7500      0.0000    843.3179     10.8008     67.9572
   161.0000      0.0000    831.7228     10.8541     73.2040
   161.2500      0.0000    822.3775     10.7860     80.2354
   161.5000      0.0000    821.8802     10.5600     89.0872
   161.7500      0.0000    829.6998     10.2119     98.8162
   162.0000      0.0000    838.3481      9.8348    107.7127
   162.2500      0.0000    839.8232      9.5229    114.4393
   162.5000      0.0000    831.4258      9.3205    118.8272
   162.7500      0.0000    815.7733      9.2119    121.5648
   163.0000      0.0000    797.2931      9.1439    123.3577
   163.2500      0.0000    780.1148      9.0587    124.4402
   163.5000      0.0000    768.3530      8.9202    124.6669
   163.7500      0.0000    766.0819      8.7305    123.8689
   164.0000      0.0000    775.5630      8.5316    122.0271
   164.2500      0.0000    795.0367      8.3881    119.1845
   164.5000      0.0000    818.2496      8.3485    115.5031
   164.7500      0.0000    837.0259      8.4052    111.4677
   165.0000      0.0000    845.5306      8.4840    107.6748
   165.2500      0.0000    843.1155      8.4848    104.2993
   165.5000      0.0000    834.2699      8.3573    101.0460
   165.7500      0.0000    826.1312      8.1451     97.6487
   166.0000      0.0000    824.6611      7.9381     94.2355
   166.2500      0.0000    831.4055      7.7773     91.2291
   166.5000      0.0000    843.3065      7.6387     89.0470
   166.7500      0.0000    855.2541      7.5074     87.8679
   167.0000      0.0000    863.1380      7.4163     87.4149
   167.2500      0.0000    866.6129      7.4025     86.7966
   167.5000     -2.0000    870.0953      7.4653     84.8891
   167.7500      0.0000    878.6185      7.5862     81.2512
   168.0000      0.0000    890.9568      7.7843     76.5118
   168.2500      0.0000    898.9028      8.1426     71.6482
   168.5000      0.0000    894.8840      8.7488     67.2182
   168.7500      0.0000    878.8212      9.5663     63.5640
   169.0000      0.0000    857.5885     10.3718     61.3195
   169.2500      0.0000    840.3868     10.8837     61.2880
   169.5000      0.0000    834.0091     10.9731     63.8506
   169.7500      0.0000    839.0724     10.7286     68.4286
   170.0000      0.0000    849.9859     10.3421     73.5065
   170.2500      0.0000    859.4583      9.9777     77.5914
   170.5000      0.0000    862.6841      9.7247     80.4171
   170.7500      0.0000    857.6428      9.6060     82.9542
   171.0000      0.0000    844.1218      9.6000     86.0968
   171.2500      0.0000    824.6603      9.6645     89.5634
   171.5000      0.0000    805.3588      9.7607     91.9961
   171.7500      0.0000    792.7725      9.8668     91.8061
   172.0000      0.0000    788.7808      9.9777     88.1303
   172.2500      0.0000    789.8506     10.0882     81.4663
   172.5000      0.0000    791.6304     10.1817     73.4968
   172.7500      0.0000    792.1115     10.2385     66.0979
   173.0000      0.0000    790.3178     10.2557     60.3778
   173.2500      0.0000    785.8275     10.2511     56.5048
   173.5000      0.0000    781.2851     10.2495     54.0843
   173.7500      0.0000    781.9026     10.2681     52.4688
   174.0000      0.0000    790.0359     10.3166     50.9818
   174.2500      0.0000    802.4019     10.4040     49.3745
   174.5000      0.0000    814.3484     10.5410     48.2651
   174.7500      0.0000    824.6224     10.7272     48.8226
   175.0000      0.0000    833.7200     10.9321     51.6276
   175.2500      0.0000    839.9866     11.0934     55.8645
   175.5000      0.0000    840.9600     11.1473     59.9094
   175.7500      0.0000    837.9867     11.0677     62.8065
   176.0000      0.0000    836.0579     10.8782     65.0196
   176.2500      0.0000    837.7591     10.6350     67.5792
   176.5000      0.0000    839.1747     10.4018     70.6079
   176.7500      0.0000    833.5911     10.2296     73.1932
   177.0000      0.0000    819.1027     10.1458     74.8710
   177.2500      0.0000    802.1132     10.1544     76.4827
   177.5000      0.0000    793.5679     10.2411     78.9614
   177.7500      0.0000    801.3449     10.3751     81.8866
   178.0000      0.0000    824.9242     10.5103     84.0769
   178.2500      0.0000    856.0701     10.6020     85.1562
   178.5000      0.0000    884.4994     10.6330     85.5461
   178.7500      0.0000    903.4052     10.6279     85.1166
   179.0000      0.0000    910.5392     10.6382     82.9742
   179.2500      0.0000    906.4316     10.7098     79.0356
   179.5000      0.0000    893.7725     10.8610     75.1751
   179.7500      0.0000    877.7267     11.0827     74.0460
   180.0000      0.0000    864.2915     11.3438     76.7059
   180.2500      0.0000    857.9235     11.5915     81.7142
   180.5000      0.0000    861.6357     11.7628     86.4461
   180.7500      0.0000    877.4884     11.8178     88.9433
   181.0000      0.0000    904.1412     11.7720     88.8224
   181.2500      0.0000    934.3275     11.6881     87.0970
   181.5000      0.0000    958.3318     11.6283     85.3407
   181.7500      0.0000    971.9624     11.6110     84.7520
   182.0000      0.0000    978.9249     11.6137     85.6532
   182.2500      0.0000    983.3872     11.6069     87.4763
   182.5000      0.0000    983.1520     11.5810     89.0310
   182.7500      0.0000    973.0042     11.5447     89.0904
   183.0000      0.0000    952.6855     11.5135     87.1251
   183.2500      0.0000    928.7867     11.5041     83.5974
   183.5000      0.0000    909.5372     11.5311     79.6782
   183.7500      0.0000    899.2067     11.5981     76.7627
   184.0000      0.0000    896.7440     11.6893     75.9170
   184.2500      0.0000    897.9593     11.7724     77.3040
   184.5000      0.0000    897.9668     11.8165     79.9986
   184.7500      0.0000    892.2562     11.8110     82.4084
   185.0000      0.0000    877.6822     11.7693     83.0520
   185.2500      0.0000    853.9344     11.7178     81.3030
   185.5000      0.0000    823.5096     11.6879     77.6942
   185.7500      0.0000    788.0096     11.7146     73.4243
   186.0000      0.0000    743.7277     11.8257     69.4095
   186.2500      0.0000    683.3496     12.0212     65.8318
   186.5000      0.0000    605.1802     12.2660     62.5862
   186.7500      0.0000    520.4935     12.5114     59.9269
   187.0000      0.0000    449.2591     12.7321     58.3424
   187.2500      0.0000    408.5827     12.9433     57.8140
   187.5000      0.0000    405.9918     13.1829     57.6191
   187.7500      0.0000    439.2735     13.4770     57.1603
   188.0000      0.0000    495.0350     13.8195     56.7015
   188.2500      0.0000    547.1283     14.1827     56.8702
   188.5000      0.0000    565.7979     14.5438     57.5382
   188.7500      0.0000    537.1001     14.8933     57.6916
   189.0000      0.0000    473.9221     15.2181     56.6033
   189.2500      0.0000    405.0297     15.4821     54.9121
   189.5000      0.0000    353.3639     15.6294     54.3035
   189.7500      0.0000    324.9370     15.6119     56.0667
   190.0000      0.0000    313.9288     15.4244     59.9385
   190.2500      0.0000    312.7321     15.1153     64.2989
   190.5000      0.0000    316.8659     14.7576     67.4552
   190.7500      0.0000    324.6191     14.4047     68.7682
   191.0000      0.0000    335.9013     14.0711     68.7001
   191.2500      0.0000    352.8994     13.7456     68.0648
   191.5000      0.0000    380.5717     13.4224     67.3375
   191.7500      0.0000    422.8047     13.1220     66.5465
   192.0000      0.0000    475.1182     12.8764     65.7719
   192.2500      0.0000    523.8670     12.6915     65.7760
   192.5000      0.0000    558.2613     12.5336     67.7803
   192.7500      0.0000    582.6406     12.3625     72.2152
   193.0000      0.0000    611.2437     12.1724     77.9690
   193.2500      0.0000    650.9547     11.9873     83.3904
   193.5000      0.0000    693.9152     11.8250     87.9079
   193.7500      0.0000    725.2324     11.6811     92.2752
