~Version Information
VERS.                      2.0: CWLS Log ASCII Standard - VERSION 2.0
WRAP.                       NO: One line per depth step
~Well Information Block
STRT.FT                -7.5000: 
STOP.FT              1877.2500: 
STEP.FT                 0.2500: 
NULL.                -999.2500: 
COMP.          Pioneer Natural Resources: COMPANY
WELL.            Nova 11-14 Tr: WELL
FLD.           Purgatorie River: FIELD
LOC.           706' FNL & 1109' FWL--: LOCATION
PROV.                       CO: PROVINCE
CNTY.               Las Animas: COUNTRY
SRVC.          Patterson Wireline: SERVICE COMPANY
DATE.          Tue Jul 26 15:08:01 2005: LOG DATE
UWI.           05 071 08434 00: UNIQUE WELL ID
~Curve Information Block
DEPT.FT            0 000 00 00: Depth
CCL.                          : Casing Collar Locator
TT3.usec                      : CBL 3' Travel Time
AMP3.mV                       : CBL 3' Amplitude
GR.GAPI                       : Gamma Ray
~Parameter Information Block
~A  Depth       CCL         TT3         AMP3         GR     
# ...
   126.5000      0.0000    757.9558     11.0055     63.9928
   126.7500      0.0000    757.2767     10.9298     62.9763
   127.0000      0.0000    760.8810     10.8561     61.4240
   127.2500      0.0000    766.1536     10.8068     60.0476
   127.5000      0.0000    770.2181     10.7859     59.6543
   127.7500      0.0000    771.4576     10.7745     61.3806
   128.0000      0.0000    769.5204     10.7464     65.9393
   128.2500      0.0000    764.9287     10.6906     72.6864
   128.5000      0.0000    759.2998     10.6152     79.8827
   128.7500      0.0000    755.3090     10.5308     85.9020
   129.0000      0.0000    755.2096     10.4374     90.1930
   129.2500      0.0000    758.9825     10.3309     93.3961
   129.5000      0.0000    764.3905     10.2173     96.5129
   129.7500      0.0000    768.9772     10.1169     99.6202
   130.0000      0.0000    771.7046     10.0531    101.4881
   130.2500      0.0000    772.8799     10.0336    100.7636
   130.5000      0.0000    773.2199     10.0427     97.4576
   130.7500      0.0000    773.2382     10.0537     93.2223
   131.0000      0.0000    773.1750     10.0538     90.1923
   131.2500      0.0000    773.1271     10.0533     89.3706
   131.5000      0.0000    773.1392     10.0706     89.9493
   131.7500      0.0000    773.2143     10.1119     90.2222
   132.0000      0.0000    773.2631     10.1628     89.1050
   132.2500      0.0000    773.0125     10.1988     86.8044
   132.5000      0.0000    771.8735     10.2025     84.3413
   132.7500      0.0000    768.9563     10.1749     82.6042
   133.0000      0.0000    763.4850     10.1253     81.7292
   133.2500      0.0000    755.5090     10.0532     81.2193
   133.5000      0.0000    745.9876      9.9399     80.4657
   133.7500      0.0000    735.8964      9.7709     79.1343
   134.0000      0.0000    726.2675      9.5713     77.3586
   134.2500      0.0000    721.1985      9.3999     75.7728
   134.5000      0.0000    730.5394      9.2754     75.2915
   134.7500      0.0000    764.7242      9.1295     76.5884
   135.0000      0.0000    822.9509      8.8823     79.3933
   135.2500      0.0000    889.1671      8.5522     82.2910
   135.5000      0.0000    943.9860      8.2453     83.6475
   135.7500     -2.0000    977.9413      8.0485     83.0624
   136.0000      0.0000    990.5522      7.9744     81.8372
   136.2500      2.0000    982.9583      7.9968     81.9571
   136.5000      0.0000    957.1992      8.1126     84.5495
   136.7500      0.0000    917.9926      8.3668     89.0399
   137.0000      0.0000    871.0270      8.8082     93.4621
   137.2500      0.0000    822.6627      9.3960     95.6411
   137.5000      0.0000    781.5197      9.9785     94.4998
   137.7500      0.0000    755.7031     10.4203     90.5949
   138.0000      0.0000    747.2393     10.7231     85.5900
   138.2500      0.0000    750.9883     10.9736     81.1753
   138.5000      0.0000    758.8712     11.2117     78.1611
   138.7500      0.0000    764.6805     11.4053     76.1434
   139.0000      0.0000    766.2037     11.5190     74.0420
   139.2500      0.0000    764.3723     11.5598     71.3593
   139.5000      0.0000    760.9406     11.5652     69.0567
   139.7500      0.0000    756.5919     11.5769     68.8326
   140.0000      0.0000    751.0745     11.6195     71.3028
   140.2500      0.0000    744.7706     11.6890     75.3202
   140.5000      0.0000    739.5458     11.7583     79.3395
   140.7500      0.0000    737.7780     11.7974     82.6676
   141.0000      0.0000    740.7656     11.7912     84.9002
   141.2500      0.0000    747.8992     11.7412     85.3909
   141.5000      0.0000    756.9074     11.6567     84.3956
   141.7500      0.0000    765.0635     11.5504     83.8739
   142.0000      0.0000    770.6642     11.4400     85.9883
   142.2500      0.0000    773.6193     11.3484     91.0032
   142.5000      0.0000    774.8248     11.2968     97.0670
   142.7500      0.0000    775.2217     11.2967    101.6801
   143.0000      0.0000    775.3603     11.3463    103.1840
   143.2500      0.0000    775.4531     11.4364    101.4274
   143.5000      0.0000    775.5523     11.5544     97.5745
   143.7500      0.0000    775.6548     11.6767     93.1775
   144.0000      0.0000    775.7385     11.7641     89.1965
   144.2500      0.0000    775.7744     11.7790     85.8521
   144.5000      0.0000    775.7471     11.7134     83.1247
   144.7500      0.0000    775.6716     11.5974     80.9562
   145.0000      0.0000    775.5878     11.4781     79.0136
   145.2500      0.0000    775.5319     11.3931     76.6757
   145.5000      0.0000    775.5132     11.3580     73.5936
   145.7500      0.0000    775.5070     11.3679     70.3752
   146.0000      0.0000    775.4596     11.4087     68.4908
   146.2500      0.0000    775.2196     11.4663     69.0698
   146.5000      0.0000    774.3810     11.5290     71.6591
   146.7500      0.0000    772.1257     11.5830     74.3946
   147.0000      0.0000    767.5164     11.6125     75.5355
   147.2500      0.0000    760.5573     11.6091     74.9543
   147.5000      0.0000    753.1232     11.5816     74.4051
   147.7500      0.0000    747.7886     11.5493     76.3266
   148.0000      0.0000    744.9440     11.5258     81.8631
   148.2500      0.0000    742.1897     11.5077     89.6456
   148.5000      0.0000    737.7795     11.4812     96.4826
   148.7500      0.0000    733.4740     11.4386     99.2870
   149.0000      0.0000    732.2326     11.3902     96.6631
   149.2500      0.0000    733.8787     11.3572     89.4519
   149.5000      0.0000    735.0736     11.3530     80.2155
   149.7500      0.0000    733.8116     11.3708     71.7585
   150.0000      0.0000    732.3844     11.3933     65.6532
   150.2500      0.0000    734.9323     11.4086     62.1154
   150.5000      0.0000    742.7685     11.4143     60.9334
   150.7500      0.0000    752.9204     11.4096     61.9316
   151.0000      0.0000    760.6747     11.3898     64.6264
   151.2500      0.0000    762.8630     11.3477     67.9912
   151.5000      0.0000    759.6577     11.2810     70.8789
   151.7500      0.0000    754.5539     11.2002     72.7450
   152.0000      0.0000    752.2632     11.1280     73.9047
   152.2500      0.0000    755.2127     11.0890     74.9644
   152.5000      0.0000    761.8163     11.0989     75.9292
   152.7500      0.0000    768.5044     11.1581     75.9685
   153.0000      0.0000    772.9177     11.2498     74.1766
   153.2500      0.0000    774.8937     11.3423     70.4563
   153.5000      0.0000    775.3166     11.4014     65.5442
   153.7500      0.0000    774.8599     11.4072     60.4427
   154.0000      0.0000    773.4897     11.3598     56.0438
   154.2500      0.0000    770.5278     11.2748     52.8344
   154.5000      0.0000    765.1772     11.1773     50.5314
   154.7500      0.0000    757.4331     11.0968     48.3360
   155.0000      0.0000    748.6044     11.0576     45.9527
   155.2500      0.0000    740.6934     11.0673     44.0654
   155.5000      0.0000    735.1161     11.1129     43.4277
   155.7500      0.0000    732.1292     11.1679     43.6684
   156.0000      0.0000    731.3890     11.2073     43.4772
   156.2500      0.0000    732.6558     11.2184     42.1072
   156.5000      0.0000    735.7380     11.2036     40.2612
   156.7500      0.0000    739.9257     11.1759     39.1421
   157.0000      0.0000    743.8957     11.1497     38.9581
   157.2500      0.0000    746.5641     11.1332     38.8296
   157.5000      0.0000    748.1447     11.1265     38.0045
   157.7500      0.0000    750.1780     11.1268     36.7598
   158.0000      0.0000    754.1312     11.1318     36.1017
   158.2500      0.0000    759.7783     11.1395     36.7077
   158.5000      0.0000    765.1184     11.1480     38.1922
   158.7500      0.0000    767.9901     11.1606     39.5199
   159.0000      0.0000    767.7205     11.1876     40.1965
   159.2500      0.0000    765.3971     11.2399     40.7025
   159.5000      0.0000    762.8397     11.3205     41.5802
   159.7500      0.0000    761.3534     11.4202     42.5092
