~Version Information
VERS.                      2.0: CWLS Log ASCII Standard - VERSION 2.0
WRAP.                       NO: One line per depth step
~Well Information Block
STRT.FT                -7.5000: 
STOP.FT              1129.7500: 
STEP.FT                 0.2500: 
NULL.                -999.2500: 
COMP.          Pioneer Natural Resources: COMPANY
WELL.          Drewmeister 34-34: WELL
FLD.           Purgatorie River: FIELD
LOC.           958' FSL & 1857' FEL: LOCATION
STAT.                       CO: State
CNTY.               Las Animas: COUNTRY
CTRY. USA : Country
SECT. 34 : Section
TOWN. 32S : Township
RANG. 65W : Range
SRVC.          Patterson Wireline: SERVICE COMPANY
DATE.          Fri Oct 14 14:02:00 2005: LOG DATE
API.           05 071 08131 00: UNIQUE WELL ID
~Curve Information Block
DEPT.FT            0 000 00 00: Depth
CCL.                          : Casing Collar Locator
TT3.usec                      : CBL 3' Travel Time
AMP3.mV                       : CBL 3' Amplitude
GR.GAPI                       : Gamma Ray
~Parameter Information Block
~A  Depth       CCL         TT3         AMP3         GR     
# ...
   729.5000      0.0000    746.4501      9.2711    137.9306
   729.7500      0.0000    736.7781      9.3362    137.0922
   730.0000      0.0000    727.3922      9.3798    134.9593
   730.2500      0.0000    723.7303      9.3891    130.3761
   730.5000      0.0000    729.7733      9.3644    123.8214
   730.7500      0.0000    743.9902      9.3103    117.6986
   731.0000      0.0000    760.3073      9.2334    114.9146
   731.2500      0.0000    773.0916      9.1466    116.5212
   731.5000      0.0000    780.5880      9.0680    120.6114
   731.7500      0.0000    784.1902      9.0131    123.8118
   732.0000      0.0000    785.9669      8.9882    124.0432
   732.2500      0.0000    787.3130      8.9885    121.8468
   732.5000      0.0000    789.0704      9.0012    119.2033
   732.7500      0.0000    791.9385      9.0121    117.2886
   733.0000      0.0000    796.2325      9.0097    115.4623
   733.2500      0.0000    801.0964      8.9855    112.5970
   733.5000      0.0000    804.3994      8.9306    109.2259
   733.7500      0.0000    804.2023      8.8325    107.7058
   734.0000      0.0000    800.5367      8.6809    110.0308
   734.2500      0.0000    795.3531      8.4817    115.8405
   734.5000      0.0000    790.7144      8.2647    122.5549
   734.7500      0.0000    787.3989      8.0727    127.0993
   735.0000      0.0000    785.0119      7.9397    127.7471
   735.2500      0.0000    782.6508      7.8753    125.0753
   735.5000      0.0000    779.2605      7.8674    121.4193
   735.7500      0.0000    774.0604      7.8944    119.0731
   736.0000      0.0000    767.4628      7.9361    118.6851
   736.2500      0.0000    761.6185      7.9758    119.3142
   736.5000      0.0000    759.3479      7.9962    120.1006
   736.7500      0.0000    761.9333      7.9824    121.6053
   737.0000      0.0000    767.9822      7.9341    125.0841
   737.2500      0.0000    774.6165      7.8731    130.6730
   737.5000      0.0000    779.6370      7.8338    136.6714
   737.7500      0.0000    782.5322      7.8465    140.6384
   738.0000      0.0000    783.9193      7.9222    141.1283
   738.2500      0.0000    784.5619      8.0447    138.4073
   738.5000      0.0000    784.9033      8.1715    133.6040
   738.7500      0.0000    785.1178      8.2483    127.5924
   739.0000      0.0000    785.2831      8.2342    120.9933
   739.2500      0.0000    785.4676      8.1255    114.7904
   739.5000      0.0000    785.6888      7.9596    110.1793
   739.7500      0.0000    785.7868      7.7918    107.6159
   740.0000      0.0000    785.0923      7.6621    106.2439
   740.2500      0.0000    782.0659      7.5778    104.5208
   740.5000      0.0000    774.6948      7.5215    101.3901
   740.7500      0.0000    762.0410      7.4695     96.6172
   741.0000      0.0000    745.7082      7.4066     90.3230
   741.2500      0.0000    729.3535      7.3278     82.9317
   741.5000      0.0000    716.3447      7.2338     75.4626
   741.7500      0.0000    707.7252      7.1383     69.3160
   742.0000      0.0000    702.7313      7.0792     65.7623
   742.2500      0.0000    701.6282      7.1045     65.6179
   742.5000      0.0000    707.0149      7.2266     68.8177
   742.7500      0.0000    720.7806      7.3925     74.0936
   743.0000      0.0000    740.3326      7.5100     79.4535
   743.2500      0.0000    759.5450      7.5135     83.2550
   743.5000      0.0000    773.4172      7.4040     84.9195
   743.7500      0.0000    780.9448      7.2258     84.8413
   744.0000      0.0000    784.0401      7.0168     83.8171
   744.2500      0.0000    785.0627      6.7928     82.4423
   744.5000      0.0000    785.3900      6.5767     80.8981
   744.7500      0.0000    784.9933      6.4180     79.3238
   745.0000      0.0000    782.3673      6.3629     78.1262
   745.2500      0.0000    775.1603      6.4042     77.3717
   745.5000      0.0000    762.0461      6.4741     76.0644
   745.7500      0.0000    744.5002      6.4949     72.8961
   746.0000      0.0000    726.3330      6.4341     67.6686
   746.2500      0.0000    711.3143      6.3077     61.2722
   746.5000      0.0000    701.5212      6.1375     54.5551
   746.7500      0.0000    697.6465      5.9220     48.0132
   747.0000      0.0000    699.9604      5.6496     42.1978
   747.2500      0.0000    708.2792      5.3261     37.5444
   747.5000      0.0000    720.8959      4.9816     33.8517
   747.7500      0.0000    734.1950      4.6534     30.5135
   748.0000      0.0000    744.3525      4.3667     27.3727
   748.2500      0.0000    749.7546      4.1279     25.0571
   748.5000      0.0000    751.6260      3.9335     24.3911
   748.7500      0.0000    752.6009      3.7851     25.5767
   749.0000      0.0000    754.9798      3.6992     27.8800
   749.2500      0.0000    759.6631      3.7022     29.9043
   749.5000      0.0000    765.8787      3.8168     30.3686
   749.7500      0.0000    771.8788      4.0511     29.1739
   750.0000      0.0000    776.2536      4.3986     27.8017
   750.2500      0.0000    778.7375      4.8443     28.1818
   750.5000      0.0000    779.9316      5.3672     30.9512
   750.7500      0.0000    780.5330      5.9368     35.1104
   751.0000      0.0000    780.7784      6.5143     39.3752
   751.2500      0.0000    780.2635      7.0663     43.3515
   751.5000      0.0000    778.0736      7.5747     47.1715
   751.7500      0.0000    773.3246      8.0273     50.6094
   752.0000      0.0000    766.0421      8.4038     53.2308
   752.2500      0.0000    757.6472      8.6833     55.3035
   752.5000      0.0000    750.3147      8.8676     57.9931
   752.7500      0.0000    745.6960      8.9852     62.4417
   753.0000      0.0000    744.3769      9.0547     68.6723
   753.2500      0.0000    746.3423      9.0333     75.2364
   753.5000      0.0000    751.3238      8.8143     79.8521
   753.7500      0.0000    758.5149      8.3180     80.7077
   754.0000      0.0000    766.9610      7.6066     77.6872
   754.2500      0.0000    777.8901      6.8826     72.7408
   754.5000      0.0000    796.8585      6.3298     69.0237
   754.7500      0.0000    830.7939      5.9712     69.2182
   755.0000      0.0000    879.7133      5.7121     74.0643
   755.2500      0.0000    931.7870      5.4813     81.9346
   755.5000      0.0000    969.4593      5.2865     89.8678
   755.7500     -2.0000    981.5149      5.1659     95.4807
   756.0000      2.0000    969.8290      5.1383     98.2546
   756.2500      0.0000    947.1266      5.1916     99.2713
   756.5000      0.0000    929.0790      5.3164     99.9962
   756.7500      0.0000    924.5679      5.5540    101.2250
   757.0000      0.0000    929.8349      5.9760    102.8137
   757.2500      0.0000    932.0635      6.5833    104.1596
   757.5000      0.0000    920.2661      7.2722    104.7412
   757.7500      0.0000    893.9370      7.9517    104.1422
   758.0000      0.0000    862.0164      8.6271    102.0111
   758.2500      0.0000    834.4913      9.3138     98.4684
   758.5000      0.0000    815.5939      9.9361     94.3557
   758.7500      0.0000    803.7899     10.3822     90.7312
   759.0000      0.0000    795.7064     10.6172     88.2337
   759.2500      0.0000    789.2161     10.6961     86.9822
   759.5000      0.0000    784.1992     10.6929     86.8860
   759.7500      0.0000    781.8918     10.6475     88.0119
   760.0000      0.0000    784.1176     10.5743     90.6614
   760.2500      0.0000    792.8882     10.4890     94.6379
   760.5000      0.0000    809.3336     10.4126     98.4395
   760.7500      0.0000    831.5329     10.3521     99.9526
   761.0000      0.0000    853.5452     10.2898     98.3996
   761.2500      0.0000    867.5870     10.1991     95.1436
   761.5000      0.0000    868.1625     10.0688     92.2723
   761.7500      0.0000    855.3283      9.9081     90.7234
   762.0000      0.0000    834.8264      9.7363     89.8645
   762.2500      0.0000    814.5571      9.5732     88.5946
   762.5000      0.0000    799.8983      9.4394     86.8233
   762.7500      0.0000    791.7440      9.3540     85.7700
