~Version Information
VERS.                      2.0: CWLS Log ASCII Standard - VERSION 2.0
WRAP.                       NO: One line per depth step
~Well Information Block
STRT.FT               430.0000: 
STOP.FT              2417.0000: 
STEP.FT                 0.1000: 
NULL.                -999.2500: 
COMP.          Evergreen Operating Corporation: COMPANY
WELL.          McCullough 34-32: WELL
FLD.           Purgatorie River: FIELD
LOC.           261' FSL & 2098' FEL: LOCATION
PROV.                 Colorado: PROVINCE
CNTY.               Las Animas: COUNTRY
SRVC.                Patterson: SERVICE COMPANY
DATE.          Mon May 17 11:25:23 2004: LOG DATE
UWI.           05 071 07953 00: UNIQUE WELL ID
~Curve Information Block
DEPT.FT            0 000 00 00: Depth
DCAL.in                       : CDL Caliper
RHOB.g/cc                     : CDL Bulk Density
RHOC.g/cc                     : CDL Density Correction
DPOR.pu                       : CDL Density Porosity
NPOR.pu                       : Neutron Porosity
GR.GAPI                       : Gamma Ray
~Parameter Information Block
~A  Depth       DCAL        RHOB        RHOC        DPOR        NPOR         GR     
# ...
  1870.0000      8.1372      2.4573      0.0844     11.6779     29.0195    131.5137
  1870.1000      8.1372      2.4257      0.0693     13.5929     30.6040    132.2524
  1870.2000      8.1372      2.4030      0.0043     14.9708     32.2914    132.8006
  1870.3000      8.1717      2.3819      0.0930     16.2463     33.0061    136.2775
  1870.4000      8.1717      2.3435      0.0709     18.5768     32.9262    143.4915
  1870.5000      8.2151      2.2909      0.0337     21.7645     32.6644    149.3863
  1870.6000      8.2151      2.2420      0.0641     24.7290     32.3931    146.8644
  1870.7000      8.2151      2.1981      0.1013     27.3883     32.1292    138.6173
  1870.8000      8.2548      2.1562      0.1216     29.9259     32.0983    135.2498
  1870.9000      8.2548      2.1293      0.0834     31.5561     32.5075    140.1028
  1871.0000      8.5726      2.1288      0.1595     31.5878     32.9489    145.7875
  1871.1000      8.5726      2.1272      0.2878     31.6869     32.9747    146.7468
  1871.2000      8.5726      2.0806      0.3343     34.5100     32.9018    144.8168
  1871.3000      9.4540      1.9863      0.3129     40.2228     33.2318    140.5024
  1871.4000      9.4540      1.8776      0.2913     46.8139     33.6494    131.8029
  1871.5000     10.6474      1.7826      0.2328     52.5711     33.5783    121.0977
  1871.6000     10.6474      1.7155      0.2188     56.6354     33.2050    115.1251
  1871.7000     10.6474      1.6950      0.1578     57.8776     33.0133    118.3577
  1871.8000     11.0806      1.7431      0.2265     54.9633     33.0989    125.2798
  1871.9000     11.0806      1.8544      0.3215     48.2204     33.2430    128.4607
  1872.0000     11.0314      1.9957      0.3783     39.6573     33.2506    130.3569
  1872.1000     11.0314      2.1320      0.4354     31.3920     33.1864    132.5433
  1872.2000     11.0314      2.2356      0.4744     25.1137     33.0833    130.3641
  1872.3000     10.8932      2.2855      0.4696     22.0914     32.8604    124.5524
  1872.4000     10.8932      2.2787      0.3679     22.5036     32.6663    121.7526
  1872.5000     10.8779      2.2320      0.3104     25.3358     32.6228    124.6853
  1872.6000     10.8779      2.1618      0.2199     29.5882     32.7111    127.1616
  1872.7000     10.8779      2.0843      0.0744     34.2860     32.9278    126.8338
  1872.8000     10.8688      2.0261      0.0580     37.8092     33.2790    129.6425
  1872.9000     10.8688      2.0099      0.1393     38.7931     33.5649    132.2913
  1873.0000     10.2537      2.0381      0.2247     37.0836     33.4765    129.4893
  1873.1000     10.2537      2.0951      0.3009     33.6323     33.2452    127.3414
  1873.2000     10.2537      2.1549      0.3556     30.0048     33.3515    130.4744
  1873.3000      9.5878      2.1917      0.3856     27.7747     33.7101    134.6915
  1873.4000      9.5878      2.1824      0.3994     28.3397     34.1373    134.4495
  1873.5000      9.0795      2.1182      0.3452     32.2280     34.5473    131.9941
  1873.6000      9.0795      2.0256      0.2203     37.8411     34.6596    133.3428
  1873.7000      9.0795      1.9450      0.1999     42.7251     34.3611    136.3729
  1873.8000      9.3058      1.8890      0.1810     46.1186     33.7493    136.2389
  1873.9000      9.3058      1.8514      0.1800     48.3977     33.1008    134.3379
  1874.0000     10.0547      1.8350      0.1626     49.3928     32.7686    130.3232
  1874.1000     10.0547      1.8479      0.2557     48.6122     32.8072    122.8631
  1874.2000     10.0547      1.8873      0.3236     46.2254     32.9502    118.3500
  1874.3000     10.4806      1.9405      0.3465     42.9979     33.0302    119.8678
  1874.4000     10.4806      1.9996      0.3405     39.4177     32.7380    121.9404
  1874.5000     11.0359      2.0676      0.3579     35.2990     31.7493    121.0729
  1874.6000     11.0359      2.1490      0.3774     30.3652     30.7603    120.0503
  1874.7000     11.0359      2.2384      0.3776     24.9452     30.5858    123.8410
  1874.8000     11.0305      2.3256      0.3710     19.6623     30.6947    130.8373
  1874.9000     11.0305      2.3988      0.4094     15.2262     30.2468    131.8222
  1875.0000     10.9489      2.4478      0.4094     12.2518     29.5851    124.7814
  1875.1000     10.9489      2.4746      0.3764     10.6317     29.1206    117.5441
  1875.2000     10.9489      2.4793      0.3540     10.3456     28.6195    112.7598
  1875.3000     10.7116      2.4599      0.2909     11.5204     27.9934    109.2090
  1875.4000     10.7116      2.4322      0.1866     13.2004     27.4663    110.9617
  1875.5000      9.9940      2.4159      0.1208     14.1860     27.4113    119.8626
  1875.6000      9.9940      2.4152      0.0638     14.2301     27.7731    128.8812
  1875.7000      9.9940      2.4275      0.0635     13.4853     27.9601    129.7646
  1875.8000      8.6173      2.4483      0.1002     12.2250     27.6837    124.1082
  1875.9000      8.6173      2.4632      0.1309     11.3196     27.3079    119.2829
  1876.0000      8.2654      2.4631      0.0994     11.3293     27.3001    122.0702
  1876.1000      8.2654      2.4597      0.0586     11.5305     27.5270    132.1602
  1876.2000      8.2654      2.4686      0.0895     10.9950     27.5890    140.0838
  1876.3000      8.2218      2.4844      0.1596     10.0390     27.5820    141.0673
  1876.4000      8.2218      2.4878      0.1287      9.8276     27.6764    142.9010
  1876.5000      8.2157      2.4722      0.1330     10.7734     27.6779    147.5927
  1876.6000      8.2157      2.4486      0.0969     12.2066     27.4356    147.7818
  1876.7000      8.2157      2.4306      0.1380     13.2962     27.1936    144.4128
  1876.8000      8.2242      2.4245      0.1217     13.6691     27.2888    142.1150
  1876.9000      8.2242      2.4275      0.1242     13.4865     27.8363    142.2289
  1877.0000      8.2491      2.4283      0.0871     13.4345     28.6222    143.3056
  1877.1000      8.2491      2.4253      0.0474     13.6194     29.0544    141.4642
  1877.2000      8.2491      2.4278      0.0659     13.4685     28.8291    139.3445
  1877.3000      8.2662      2.4356      0.0597     12.9925     28.2800    141.0260
  1877.4000      8.2662      2.4424      0.0730     12.5793     27.8424    141.7046
  1877.5000      8.2707      2.4473      0.0661     12.2827     27.4826    137.8921
  1877.6000      8.2707      2.4552      0.0397     11.8065     27.2845    134.9319
  1877.7000      8.2707      2.4687      0.0431     10.9883     27.3611    135.0701
  1877.8000      8.2711      2.4858      0.0481      9.9542     27.2882    134.7023
  1877.9000      8.2711      2.5032      0.0694      8.8977     26.8774    136.2834
  1878.0000      8.2663      2.5181      0.0716      7.9923     26.5097    140.1128
  1878.1000      8.2663      2.5296      0.0817      7.2952     26.6244    139.4153
  1878.2000      8.2663      2.5351      0.0850      6.9633     27.1743    130.8254
  1878.3000      8.2728      2.5311      0.1031      7.2090     27.6189    122.6944
  1878.4000      8.2728      2.5229      0.0494      7.7015     27.7000    123.6761
  1878.5000      8.2708      2.5171      0.0686      8.0518     27.7772    129.8044
  1878.6000      8.2708      2.5075      0.0566      8.6370     28.1369    134.4662
  1878.7000      8.2708      2.4891      0.0888      9.7517     28.7563    137.1791
  1878.8000      8.2667      2.4720      0.0430     10.7853     29.4730    136.9786
  1878.9000      8.2667      2.4663      0.0397     11.1342     29.8661    130.5081
  1879.0000      8.2632      2.4619      0.0297     11.3990     29.5463    118.3631
  1879.1000      8.2632      2.4469      0.0484     12.3111     28.8619    108.9402
  1879.2000      8.2632      2.4313      0.0105     13.2546     28.5871    109.3554
  1879.3000      8.2600      2.4360      0.0251     12.9703     28.7379    115.8443
  1879.4000      8.2600      2.4644      0.1026     11.2472     28.8732    122.7798
  1879.5000      8.2644      2.4964      0.1264      9.3118     28.7096    127.8519
