~Version Information
VERS.                      2.0: CWLS Log ASCII Standard - VERSION 2.0
WRAP.                       NO: One line per depth step
~Well Information Block
STRT.FT                -7.7500: 
STOP.FT               973.7500: 
STEP.FT                 0.2500: 
NULL.                -999.2500: 
COMP.          Pioneer Natural Resources: COMPANY
WELL.              Dylan 42-25: WELL
FLD.           Purgatorie River: FIELD
LOC.           2160' FNL & 855' FEL: LOCATION
PROV.                 Colorado: PROVINCE
CNTY.               Las Animas: COUNTRY
SRVC.          Patterson Wireline: SERVICE COMPANY
DATE.          Fri Apr 29 16:36:17 2005: LOG DATE
UWI.           05-071-08229-00: UNIQUE WELL ID
~Curve Information Block
DEPT.FT            0 000 00 00: Depth
CCL.                          : Casing Collar Locator
TT3.usec                      : CBL 3' Travel Time
AMP3.mV                       : CBL 3' Amplitude
GR.GAPI                       : Gamma Ray
~Parameter Information Block
~A  Depth       CCL         TT3         AMP3         GR     
# ...
   193.2500      0.0000    839.4711      5.2056     57.2664
   193.5000      0.0000    834.0454      5.1945     56.9908
   193.7500      0.0000    827.3786      5.2181     56.6295
   194.0000      0.0000    820.1196      5.3138     56.5888
   194.2500      0.0000    812.9626      5.4894     56.8585
   194.5000      0.0000    806.4180      5.7148     57.4281
   194.7500      0.0000    800.4815      5.9394     58.6119
   195.0000      0.0000    795.3594      6.1148     60.8401
   195.2500      0.0000    791.7447      6.2112     63.9878
   195.5000      0.0000    789.5003      6.2268     67.0339
   195.7500      0.0000    786.7850      6.1837     68.7920
   196.0000      0.0000    781.7015      6.1120     69.1382
   196.2500      0.0000    774.9623      6.0362     69.2511
   196.5000      0.0000    770.2781      5.9723     70.3832
   196.7500      0.0000    771.6594      5.9307     72.5966
   197.0000      0.0000    779.9425      5.9181     74.9618
   197.2500      0.0000    791.4715      5.9371     76.6209
   197.5000      0.0000    800.1788      5.9832     77.2656
   197.7500      0.0000    801.6584      6.0431     76.9300
   198.0000      0.0000    796.2571      6.0975     75.7099
   198.2500      0.0000    788.6171      6.1319     73.5251
   198.5000      0.0000    783.5627      6.1454     70.1809
   198.7500      0.0000    781.8401      6.1446     66.0435
   199.0000      0.0000    780.3047      6.1307     62.6345
   199.2500      0.0000    776.5825      6.1027     62.0659
   199.5000      0.0000    772.6641      6.0688     65.4103
   199.7500      0.0000    773.1030      6.0457     71.4638
   200.0000      0.0000    780.0095      6.0467     77.3680
   200.2500      0.0000    790.3578      6.0763     80.7421
   200.5000      0.0000    798.0536      6.1315     81.0647
   200.7500      0.0000    798.3705      6.1969     79.1580
   201.0000      0.0000    790.8956      6.2468     76.3011
   201.2500      0.0000    779.2382      6.2662     74.1944
   201.5000      0.0000    768.5074      6.2646     74.7133
   201.7500      0.0000    762.7982      6.2635     78.7047
   202.0000      0.0000    764.1982      6.2771     85.0615
   202.2500      0.0000    773.1020      6.3111     91.2505
   202.5000      0.0000    788.4504      6.3666     94.7950
   202.7500      0.0000    807.0350      6.4365     94.4970
   203.0000      0.0000    823.1015      6.5036     90.7999
   203.2500      0.0000    830.6890      6.5527     85.3818
   203.5000      0.0000    828.1018      6.5793     80.2751
   203.7500      0.0000    819.9334      6.5856     77.0593
   204.0000      0.0000    813.7767      6.5787     76.6671
   204.2500      0.0000    814.2980      6.5795     79.5750
   204.5000      0.0000    819.7947      6.6203     85.5785
   204.7500      0.0000    824.1806      6.7214     93.2242
   205.0000      0.0000    822.8738      6.8767    100.0061
   205.2500      0.0000    817.2082      7.0705    103.7691
   205.5000      0.0000    813.1019      7.2999    104.1125
   205.7500      0.0000    815.7488      7.5721    102.4493
   206.0000      0.0000    825.6288      7.8810    100.8759
   206.2500      0.0000    838.4743      8.1919    101.0481
   206.5000      0.0000    848.2775      8.4482    103.6145
   206.7500      0.0000    851.3370      8.5970    108.0192
   207.0000      0.0000    848.7641      8.6206    112.6645
   207.2500      0.0000    845.1583      8.5427    115.7480
   207.5000      0.0000    844.2899      8.3985    116.4815
   207.7500      0.0000    846.2720      8.2025    115.5189
   208.0000      0.0000    849.2988      7.9584    113.9531
   208.2500      0.0000    853.0246      7.6922    112.0528
   208.5000      0.0000    858.5678      7.4550    109.2412
   208.7500      0.0000    865.4479      7.2840    105.0728
   209.0000      0.0000    870.2124      7.1728     99.7057
   209.2500      0.0000    868.7025      7.0892     93.4428
   209.5000      0.0000    858.9958      7.0122     86.3420
   209.7500      0.0000    842.2607      6.9426     78.5499
   210.0000      0.0000    822.0523      6.8870     70.8377
   210.2500      0.0000    803.4781      6.8486     64.4998
   210.5000      0.0000    792.1667      6.8296     60.5598
   210.7500      0.0000    792.2249      6.8309     59.1137
   211.0000      0.0000    803.6968      6.8500     59.4750
   211.2500      0.0000    821.9573      6.8856     60.8205
   211.5000      0.0000    840.7765      6.9419     62.5839
   211.7500      0.0000    856.4256      7.0188     64.5353
   212.0000      0.0000    868.3853      7.1019     66.8873
   212.2500      0.0000    876.8904      7.1749     70.2253
   212.5000      0.0000    881.4365      7.2378     74.9897
   212.7500      0.0000    881.6767      7.2992     80.9466
   213.0000      0.0000    878.1738      7.3525     86.9928
   213.2500      0.0000    871.5151      7.3743     91.4007
   213.5000      0.0000    861.4880      7.3467     92.8043
   213.7500      0.0000    848.0592      7.2718     91.3895
   214.0000      0.0000    833.1044      7.1598     88.7682
   214.2500      0.0000    820.5554      7.0128     86.4785
   214.5000      0.0000    814.4235      6.8286     84.9740
   214.7500      0.0000    816.5890      6.6142     84.0481
   215.0000      0.0000    826.0259      6.3887     83.6700
   215.2500      0.0000    839.2789      6.1696     83.9699
   215.5000      0.0000    851.5060      5.9613     84.5046
   215.7500      0.0000    858.1694      5.7578     84.1106
   216.0000      0.0000    857.1569      5.5530     81.9767
   216.2500      0.0000    850.1929      5.3504     78.8029
   216.5000      0.0000    842.6017      5.1643     76.5764
   216.7500      0.0000    840.7629      5.0128     76.9297
   217.0000      0.0000    847.5682      4.9068     79.5907
   217.2500      0.0000    859.1598      4.8478     82.7023
   217.5000      0.0000    866.8307      4.8399     84.8657
   217.7500      0.0000    863.3760      4.8962     86.5237
   218.0000      0.0000    848.4266      5.0232     89.0195
   218.2500      0.0000    828.0561      5.2017     92.7470
   218.5000      0.0000    809.4293      5.3906     96.8028
   218.7500      0.0000    795.9800      5.5529    100.0693
   219.0000      0.0000    787.1749      5.6751    101.8850
   219.2500      0.0000    781.3559      5.7639    101.7657
   219.5000      0.0000    777.7505      5.8289     99.3035
   219.7500      0.0000    776.8127      5.8657     94.9143
   220.0000      0.0000    780.5781      5.8575     90.3753
   220.2500      0.0000    793.4457      5.7948     87.8206
   220.5000      0.0000    821.1707      5.6902     87.9733
   220.7500      0.0000    865.7195      5.5698     89.7631
   221.0000      0.0000    918.6063      5.4519     91.6987
   221.2500      0.0000    961.2818      5.3382     93.1736
   221.5000      0.0000    977.0020      5.2230     94.4996
   221.7500      0.0000    964.1693      5.1033     96.1394
   222.0000      0.0000    936.4632      4.9820     97.9634
   222.2500      0.0000    910.2601      4.8674     99.0714
   222.5000      0.0000    893.6378      4.7693     98.5098
   222.7500      0.0000    885.4283      4.6903     96.3899
   223.0000      0.0000    880.3164      4.6199     94.1832
   223.2500      0.0000    873.5811      4.5437     93.6250
   223.5000      0.0000    863.3522      4.4621     95.1685
   223.7500      0.0000    850.9985      4.3945     97.4865
   224.0000      0.0000    840.5759      4.3612     98.6315
   224.2500      0.0000    837.0496      4.3648     97.7877
   224.5000      0.0000    842.1672      4.3933     95.7687
   224.7500      0.0000    850.9918      4.4399     93.7988
   225.0000      0.0000    855.3071      4.5114     92.1504
   225.2500      0.0000    852.3664      4.6151     90.2510
   225.5000      0.0000    848.7018      4.7436     87.7611
   225.7500      0.0000    853.9392      4.8753     85.0021
   226.0000      0.0000    871.4266      4.9867     82.4256
   226.2500      0.0000    894.7667      5.0642     80.0731
   226.5000      0.0000    912.4812      5.1095     77.5070
