~Version Information
VERS.                      2.0: CWLS Log ASCII Standard - VERSION 2.0
WRAP.                       NO: One line per depth step
~Well Information Block
STRT.FT               605.6000: 
STOP.FT              1938.0000: 
STEP.FT                 0.1000: 
NULL.                -999.2500: 
COMP.          Petrogulf Corporation: COMPANY
WELL.              Graff 9-31R: WELL
FLD.           Purgatorie River: FIELD
LOC.           707' FNL & 1713' FEL: LOCATION
CNTY.               Las Animas: COUNTY
SRVC.                         : SERVICE COMPANY
DATE.          Mon Oct 25 06:13:30 2004: LOG DATE
UWI.           05 071 08037 00: UNIQUE WELL ID
STAT.                 Colorado: STATE
~Curve Information Block
DEPT.FT            0 000 00 00: Depth
DCAL.in                       : CDL Caliper
RHOB.g/cc                     : CDL Bulk Density
RHOC.g/cc                     : CDL Density Correction
DPOR.pu                       : CDL Density Porosity
GR.GAPI                       : Gamma Ray
NPOR.pu                       : Neutron Porosity
~Parameter Information Block
~A  Depth       DCAL        RHOB        RHOC        DPOR         GR         NPOR    
# ...
  1920.8000      7.8911      2.6346      0.0949      0.9363   -999.2500     24.1795
  1920.9000      7.8911      2.6284      0.0782      1.3112   -999.2500     24.0122
  1921.0000      7.8716      2.6161      0.0747      2.0542   -999.2500     24.1795
  1921.1000      7.8716      2.6054      0.0728      2.7015   -999.2500     24.5928
  1921.2000      7.8716      2.5966      0.0315      3.2350   -999.2500     25.1821
  1921.3000      7.8590      2.5864      0.0784      3.8536   -999.2500     25.6865
  1921.4000      7.8590      2.5704      0.0647      4.8269   -999.2500     25.7153
  1921.5000      7.8548      2.5562      0.0058      5.6864   -999.2500     25.2836
  1921.6000      7.8548      2.5490      0.0377      6.1206   -999.2500     24.8227
  1921.7000      7.8548      2.5374      0.0469      6.8237   -999.2500     24.5006
  1921.8000      7.8601      2.5153      0.0156      8.1647   -999.2500     24.5272
  1921.9000      7.8601      2.4841      0.0395     10.0553   -999.2500     24.8493
  1922.0000      7.8606      2.4462      0.0251     12.3514   -999.2500     24.8041
  1922.1000      7.8606      2.4149      0.0115     14.2456   -999.2500     24.3181
  1922.2000      7.8606      2.4050      0.0256     14.8473   -999.2500     24.1473
  1922.3000      7.8220      2.4211      0.0496     13.8738   -999.2500     24.7563
  1922.4000      7.8220      2.4665      0.0422     11.1182   -999.2500     25.6355
  1922.5000      7.7620      2.5342      0.1264      7.0185   -999.2500     26.1230
  1922.6000      7.7620      2.5962      0.2045      3.2633   -999.2500     26.7433
  1922.7000      7.7620      2.6272      0.2872      1.3835   -999.2500     27.6867
  1922.8000      7.8263      2.6274      0.2174      1.3720   -999.2500     27.6746
  1922.9000      7.8263      2.6204      0.2005      1.7918   -999.2500     26.2912
  1923.0000      7.8381      2.6263      0.1886      1.4341   -999.2500     25.1610
  1923.1000      7.8381      2.6402      0.2362      0.5955   -999.2500     26.3420
  1923.2000      7.8381      2.6381      0.2213      0.7200   -999.2500     31.5105
  1923.3000      7.8411      2.6108      0.1633      2.3773   -999.2500     39.4042
  1923.4000      7.8411      2.5790      0.1471      4.3057   -999.2500     45.2321
  1923.5000      7.8234      2.5602      0.1505      5.4439   -999.2500     47.4302
  1923.6000      7.8234      2.5499      0.1351      6.0672   -999.2500     47.8716
  1923.7000      7.8234      2.5430      0.0961      6.4826   -999.2500     47.9188
  1923.8000      7.7416      2.5388      0.1023      6.7397   -999.2500     47.9214
  1923.9000      7.7416      2.5331      0.0866      7.0842   -999.2500   -999.2500
  1924.0000      7.7091      2.5310      0.0657      7.2137   -999.2500   -999.2500
  1924.1000      7.7091      2.5452      0.0617      6.3531   -999.2500   -999.2500
  1924.2000      7.7091      2.5791      0.0857      4.2947   -999.2500   -999.2500
  1924.3000      7.7123      2.6170      0.1571      1.9985   -999.2500   -999.2500
  1924.4000      7.7123      2.6345      0.1444      0.9365   -999.2500   -999.2500
  1924.5000      7.7241      2.6269      0.1512      1.3994   -999.2500   -999.2500
  1924.6000      7.7241      2.6112      0.1254      2.3516   -999.2500   -999.2500
  1924.7000      7.7241      2.6040      0.0866      2.7871   -999.2500   -999.2500
  1924.8000      7.7023      2.5999      0.1058      3.0350   -999.2500   -999.2500
  1924.9000      7.7023      2.5838      0.0818      4.0121   -999.2500   -999.2500
  1925.0000      7.7278      2.5613      0.0726      5.3741   -999.2500   -999.2500
  1925.1000      7.7278      2.5441      0.0819      6.4208   -999.2500   -999.2500
  1925.2000      7.7278      2.5340      0.0600      7.0308   -999.2500   -999.2500
  1925.3000      7.7541      2.5383      0.0669      6.7704   -999.2500   -999.2500
  1925.4000      7.7541      2.5594      0.0834      5.4924   -999.2500   -999.2500
  1925.5000      7.7364      2.5841      0.1008      3.9956   -999.2500   -999.2500
  1925.6000      7.7364      2.6014      0.1461      2.9429   -999.2500   -999.2500
  1925.7000      7.7364      2.6137      0.1082      2.2018   -999.2500   -999.2500
  1925.8000      7.6910      2.6272      0.1477      1.3809   -999.2500   -999.2500
  1925.9000      7.6910      2.6353      0.1626      0.8902   -999.2500   -999.2500
  1926.0000      7.6261      2.6207      0.1927      1.7765   -999.2500   -999.2500
  1926.1000      7.6261      2.5758      0.1384      4.4990   -999.2500   -999.2500
  1926.2000      7.6261      2.5158      0.0965      8.1325   -999.2500   -999.2500
  1926.3000      7.6160      2.4688      0.0632     10.9789   -999.2500   -999.2500
  1926.4000      7.6160      2.4568      0.0569     11.7089   -999.2500   -999.2500
  1926.5000      7.6190      2.4802      0.0666     10.2884   -999.2500   -999.2500
  1926.6000      7.6190      2.5167      0.1030      8.0818   -999.2500   -999.2500
  1926.7000      7.6190      2.5422      0.0946      6.5322   -999.2500   -999.2500
  1926.8000      7.6780      2.5522      0.1393      5.9262   -999.2500   -999.2500
  1926.9000      7.6780      2.5557      0.1350      5.7163   -999.2500   -999.2500
  1927.0000      7.6990      2.5615      0.1833      5.3636   -999.2500   -999.2500
  1927.1000      7.6990      2.5730      0.1769      4.6659   -999.2500   -999.2500
  1927.2000      7.6990      2.5836      0.1948      4.0230   -999.2500   -999.2500
  1927.3000      7.6133      2.5822      0.1646      4.1110   -999.2500   -999.2500
  1927.4000      7.6133      2.5749      0.0966      4.5511   -999.2500   -999.2500
  1927.5000      7.6043      2.5731      0.0827      4.6603   -999.2500   -999.2500
  1927.6000      7.6043      2.5741      0.0925      4.5974   -999.2500   -999.2500
  1927.7000      7.6043      2.5865      0.0684      3.8465   -999.2500   -999.2500
  1927.8000      7.6481      2.6230      0.1500      1.6385   -999.2500   -999.2500
  1927.9000      7.6481      2.6649      0.2035     -0.9021   -999.2500   -999.2500
  1928.0000      7.6317      2.6806      0.2285     -1.8568   -999.2500   -999.2500
  1928.1000      7.6317      2.6687      0.1659     -1.1315   -999.2500   -999.2500
  1928.2000      7.6317      2.6489      0.1806      0.0673   -999.2500   -999.2500
  1928.3000      7.6042      2.6278      0.1436      1.3476   -999.2500   -999.2500
  1928.4000      7.6042      2.6099      0.0762      2.4288   -999.2500   -999.2500
  1928.5000      7.5889      2.6015      0.1193      2.9376   -999.2500   -999.2500
  1928.6000      7.5889      2.5910      0.1012      3.5728   -999.2500   -999.2500
  1928.7000      7.5889      2.5742      0.0462      4.5921   -999.2500   -999.2500
  1928.8000      7.5943      2.5722      0.0496      4.7126   -999.2500   -999.2500
  1928.9000      7.5943      2.5915      0.0815      3.5435   -999.2500   -999.2500
  1929.0000      7.6003      2.6056      0.1445      2.6924   -999.2500   -999.2500
  1929.1000      7.6003      2.5895      0.1419      3.6651   -999.2500   -999.2500
  1929.2000      7.6003      2.5575      0.0361      5.6052   -999.2500   -999.2500
  1929.3000      7.7413      2.5382      0.0889      6.7785   -999.2500   -999.2500
  1929.4000      7.7413      2.5367      0.0185      6.8657   -999.2500   -999.2500
  1929.5000      7.7669      2.5441      0.1091      6.4196   -999.2500   -999.2500
  1929.6000      7.7669      2.5478      0.0525      6.1942   -999.2500   -999.2500
  1929.7000      7.7669      2.5435      0.0656      6.4565   -999.2500   -999.2500
  1929.8000      7.7383      2.5329      0.1073      7.0983   -999.2500   -999.2500
  1929.9000      7.7383      2.5179      0.0621      8.0059   -999.2500   -999.2500
  1930.0000      7.7400      2.5041      0.0550      8.8424   -999.2500   -999.2500
  1930.1000      7.7400      2.4941      0.0759      9.4484   -999.2500   -999.2500
  1930.2000      7.7400      2.4902      0.0458      9.6832   -999.2500   -999.2500
  1930.3000      7.7449      2.4971      0.0631      9.2663   -999.2500   -999.2500
