~Version Information
VERS.                      2.0: CWLS Log ASCII Standard - VERSION 2.0
WRAP.                       NO: One line per depth step
~Well Information Block
STRT.FT               675.0000: 
STOP.FT              2371.5000: 
STEP.FT                 0.1000: 
NULL.                -999.2500: 
COMP.          Pioneer Natural Resources: COMPANY
WELL.            Harrier 44-33: WELL
FLD.           Purgatoire River: FIELD
LOC.           456' FSL & 930' FEL: LOCATION
PROV.                 Colorado: PROVINCE
CNTY.               Las Animas: COUNTRY
SRVC.                Patterson: SERVICE COMPANY
DATE.          Mon Jun 20 10:36:59 2005: LOG DATE
UWI.           05 071 08398 00: UNIQUE WELL ID
~Curve Information Block
DEPT.FT            0 000 00 00: Depth
DCAL.in                       : CDL Caliper
RHOB.g/cc                     : CDL Bulk Density
RHOC.g/cc                     : CDL Density Correction
DPOR.pu                       : CDL Density Porosity
GR.GAPI                       : Gamma Ray
NPOR.pu                       : Neutron Porosity
~Parameter Information Block
~A  Depth       DCAL        RHOB        RHOC        DPOR         GR         NPOR    
# ...
   790.2000      8.2085      2.3734      0.0333     16.7611    109.2519     29.6836
   790.3000      8.0776      2.3870      0.0860     15.9370    122.5842     29.3038
   790.4000      8.0776      2.4051      0.0762     14.8411    135.5785     29.0335
   790.5000      8.0381      2.4253      0.0303     13.6182    143.1124     29.2295
   790.6000      8.0381      2.4468      0.1253     12.3128    145.7456     29.7547
   790.7000      8.0381      2.4675      0.1206     11.0605    147.4117     30.2845
   790.8000      8.0233      2.4915      0.1895      9.6088    147.4248     30.6505
   790.9000      8.0233      2.5172      0.1833      8.0505    143.2500     30.4879
   791.0000      8.0229      2.5372      0.2196      6.8392    136.7528     29.7642
   791.1000      8.0229      2.5540      0.1785      5.8181    133.4818     28.8096
   791.2000      8.0229      2.5885      0.1589      3.7251    135.3861     28.1007
   791.3000      7.9585      2.6475      0.2158      0.1490    136.0889     27.9853
   791.4000      7.9585      2.6923      0.3004     -2.5649    129.0948     27.8837
   791.5000      7.9702      2.6853      0.2134     -2.1396    117.2471     27.1207
   791.6000      7.9702      2.6408      0.1895      0.5603    107.7022     26.0742
   791.7000      7.9702      2.5922      0.1532      3.5042    102.3980     25.4300
   791.8000      7.9609      2.5574      0.0653      5.6096     98.5787     25.2872
   791.9000      7.9609      2.5404      0.0345      6.6417     95.7267     25.4307
   792.0000      7.9749      2.5285      0.0430      7.3611     96.0375     25.5464
   792.1000      7.9749      2.5049      0.0065      8.7915     99.8903     25.3656
   792.2000      7.9749      2.4663      0.0317     11.1352    103.5177     25.4086
   792.3000      7.9833      2.4281     -0.0194     13.4511    102.5236     26.2908
   792.4000      7.9833      2.4189     -0.0460     14.0041     99.0521     27.4430
   792.5000      8.0019      2.4578      0.0022     11.6481    101.4991     28.0541
   792.6000      8.0019      2.5275      0.0925      7.4240    113.0606     28.2106
   792.7000      8.0019      2.5841      0.1545      3.9919    124.1106     28.3881
   792.8000      7.9993      2.6148      0.0903      2.1313    126.2981     28.8921
   792.9000      7.9993      2.6325      0.1792      1.0595    124.4455     29.6481
   793.0000      7.9947      2.6232      0.1755      1.6222    124.1338     30.1559
   793.1000      7.9947      2.5831      0.0914      4.0576    123.4490     29.8321
   793.2000      7.9947      2.5401      0.0920      6.6600    120.0111     28.9934
   793.3000      7.9895      2.5133      0.0459      8.2860    114.7551     28.4472
   793.4000      7.9895      2.5078      0.0288      8.6208    111.9324     28.1853
   793.5000      7.9979      2.5236      0.0324      7.6581    112.9782     27.9667
   793.6000      7.9979      2.5540      0.0403      5.8181    115.8337     27.8823
   793.7000      7.9979      2.5803      0.0869      4.2231    118.3196     27.6843
   793.8000      8.0070      2.5772      0.1195      4.4104    118.0184     27.5714
   793.9000      8.0070      2.5403      0.1274      6.6483    116.3422     28.2898
   794.0000      7.9544      2.4973      0.0891      9.2540    118.3216     29.3812
   794.1000      7.9544      2.4767      0.1142     10.5015    124.3556     29.6922
   794.2000      7.9544      2.4852      0.0907      9.9893    126.9994     29.3929
   794.3000      7.9417      2.5258      0.0911      7.5264    124.5612     29.4250
   794.4000      7.9417      2.6087      0.1154      2.5049    124.2508     29.8218
   794.5000      7.9164      2.7344      0.1768     -5.1156    129.7438     30.0633
   794.6000      7.9164      2.8819      0.2967    -14.0530    135.7306     30.1482
   794.7000      7.9164      3.0169      0.2990    -22.2336    135.6647     30.2124
   794.8000      7.9431      3.1051      0.3849    -27.5823    130.1241     30.0450
   794.9000      7.9431      3.1255      0.3480    -28.8159    122.7196     29.6606
   795.0000      7.9559      3.0793      0.3040    -26.0178    115.2432     29.4147
   795.1000      7.9559      2.9768      0.1839    -19.8088    108.5422     29.1699
   795.2000      7.9559      2.8455      0.0855    -11.8456    105.2989     28.4735
   795.3000      7.9635      2.7250     -0.0337     -4.5466    107.3825     27.5393
   795.4000      7.9635      2.6307     -0.0551      1.1677    110.6605     26.9545
   795.5000      7.9671      2.5614     -0.0725      5.3721    109.6162     26.7697
   795.6000      7.9671      2.5312     -0.0385      7.1970    106.6182     26.7013
   795.7000      7.9671      2.5468      0.0071      6.2573    108.6871     26.6876
   795.8000      7.9740      2.5840      0.0721      4.0000    118.6134     26.8593
   795.9000      7.9740      2.6151      0.0701      2.1172    129.7796     27.1521
   796.0000      8.0262      2.6403      0.0778      0.5879    133.5365     27.4871
   796.1000      8.0262      2.6703      0.1635     -1.2310    131.1046     27.8006
   796.2000      8.0262      2.6964      0.1954     -2.8094    127.6133     27.9473
   796.3000      8.0371      2.7077      0.1523     -3.4982    124.9343     27.9582
   796.4000      8.0371      2.7007      0.1798     -3.0717    123.4985     27.9184
   796.5000      8.0272      2.6705      0.1548     -1.2420    120.9965     27.5839
   796.6000      8.0272      2.6283      0.1060      1.3148    116.8210     26.8247
   796.7000      8.0272      2.5917      0.0942      3.5329    114.4834     26.0868
   796.8000      7.9938      2.5655      0.0363      5.1193    115.3685     25.4074
   796.9000      7.9938      2.5570      0.0340      5.6365    117.3207     24.2417
   797.0000      8.0161      2.5577      0.1139      5.5959    120.1330     22.8238
   797.1000      8.0161      2.5300      0.0975      7.2701    126.5480     21.6442
   797.2000      8.0161      2.4559      0.0759     11.7609    135.3243     20.6221
   797.3000      8.0359      2.3505      0.0239     18.1504    142.6127     19.8392
   797.4000      8.0359      2.2279      0.0226     25.5828    146.7206     19.2806
   797.5000      8.0555      2.0940     -0.0254     33.6986    148.0557     18.7542
   797.6000      8.0555      1.9485     -0.0264     42.5141    147.7753     18.3780
   797.7000      8.0555      1.7892     -0.0918     52.1667    142.5172     18.2253
   797.8000      8.0666      1.6387     -0.1557     61.2902    131.9221     17.8704
   797.9000      8.0666      1.5365     -0.1467     67.4857    122.6285     17.4902
   798.0000      8.0908      1.5010     -0.1133     69.6350    116.5006     17.8891
   798.1000      8.0908      1.5316     -0.0173     67.7807    110.7049     19.0184
   798.2000      8.0908      1.6247      0.1110     62.1375    107.4214     20.2129
   798.3000      8.0936      1.7655      0.2520     53.6053    110.6923     21.0710
   798.4000      8.0936      1.9218      0.3479     44.1303    115.6901     21.5684
   798.5000      8.1022      2.0666      0.3710     35.3561    115.8421     21.8363
   798.6000      8.1022      2.1928      0.3796     27.7078    115.6030     21.9623
   798.7000      8.1022      2.2913      0.3764     21.7385    117.6832     22.2272
   798.8000      8.1757      2.3536      0.2659     17.9641    116.9432     22.8169
   798.9000      8.1757      2.4022      0.2085     15.0198    115.4347     23.5653
   799.0000      8.1147      2.4545      0.2670     11.8465    116.6559     24.1578
   799.1000      8.1147      2.4859      0.2987      9.9444    117.1571     24.3691
   799.2000      8.1147      2.4824      0.1891     10.1564    118.3650     24.4031
   799.3000      8.1151      2.4699      0.1466     10.9170    121.5854     24.4183
   799.4000      8.1151      2.4648      0.1373     11.2227    121.4834     24.4805
   799.5000      8.0946      2.4638      0.1207     11.2866    117.7069     24.7323
   799.6000      8.0946      2.4667      0.1581     11.1087    114.5622     24.9266
   799.7000      8.0946      2.4694      0.1566     10.9425    115.0316     24.7163
