~Version Information
VERS.                      2.0: CWLS Log ASCII Standard - VERSION 2.0
WRAP.                       NO: One line per depth step
~Well Information Block
STRT.FT               757.3000: 
STOP.FT              2418.0000: 
STEP.FT                 0.1000: 
NULL.                -999.2500: 
COMP.          Petrogulf Corporation: COMPANY
WELL.            Montoya 7-21V: WELL
FLD.           Purgatorie River: FIELD
LOC.           738' FSL & 2070' FWL: LOCATION
CNTY.               Las Animas: COUNTY
SRVC.                         : SERVICE COMPANY
DATE.          Fri Aug 20 14:08:15 2004: LOG DATE
UWI.           05 071 08018 00: UNIQUE WELL ID
STAT.                 Colorado: STATE
~Curve Information Block
DEPT.FT            0 000 00 00: Depth
DCAL.in                       : CDL Caliper
RHOB.g/cc                     : CDL Bulk Density
RHOC.g/cc                     : CDL Density Correction
DPOR.pu                       : CDL Density Porosity
GR.GAPI                       : Gamma Ray
NPOR.pu                       : Neutron Porosity
~Parameter Information Block
~A  Depth       DCAL        RHOB        RHOC        DPOR         GR         NPOR    
# ...
  1438.9000      8.2455      2.5249      0.0215      7.5817    174.4085     27.6695
  1439.0000      8.2623      2.5156      0.0046      8.1446    173.4048     27.6860
  1439.1000      8.2623      2.5056     -0.0124      8.7527    177.4133     26.5339
  1439.2000      8.2623      2.4880      0.0105      9.8198    182.6583     25.1752
  1439.3000      8.2800      2.4546     -0.0491     11.8399    184.5877     24.7134
  1439.4000      8.2800      2.4130     -0.0679     14.3654    187.5497     25.1978
  1439.5000      8.3136      2.3725     -0.0351     16.8169    188.4404     25.9765
  1439.6000      8.3136      2.3345     -0.0571     19.1224    180.6243     26.4484
  1439.7000      8.3136      2.3122     -0.1092     20.4738    172.4214     26.8122
  1439.8000      8.4212      2.3212     -0.0661     19.9293    171.0713     27.6381
  1439.9000      8.4212      2.3461     -0.0203     18.4159    171.5453     28.3757
  1440.0000      8.5566      2.3593      0.0106     17.6175    173.8868     27.8637
  1440.1000      8.5566      2.3551      0.0347     17.8744    184.2252     26.6796
  1440.2000      8.5566      2.3504      0.0057     18.1600    197.8080     26.2380
  1440.3000      8.5421      2.3537      0.0505     17.9546    199.0279     26.5322
  1440.4000      8.5421      2.3537      0.0441     17.9558    185.9985     27.0633
  1440.5000      8.4094      2.3533     -0.0215     17.9794    176.9296     27.8928
  1440.6000      8.4094      2.3732     -0.0034     16.7729    180.2822     28.7912
  1440.7000      8.4094      2.4186      0.0381     14.0267    187.5704     29.1272
  1440.8000      8.3358      2.4742      0.0834     10.6530    193.3462     28.8756
  1440.9000      8.3358      2.5301      0.0732      7.2644    198.4871     28.5917
  1441.0000      8.3083      2.5869      0.1323      3.8213    200.2889     28.2321
  1441.1000      8.3083      2.6344      0.1365      0.9469    195.6696     27.2587
  1441.2000      8.3083      2.6559      0.1313     -0.3582    189.8330     25.8561
  1441.3000      8.2764      2.6508      0.0675     -0.0489    186.0553     24.7790
  1441.4000      8.2764      2.6322      0.0576      1.0794    180.4049     24.4385
  1441.5000      8.2413      2.6127      0.0109      2.2629    171.3296     24.6245
  1441.6000      8.2413      2.6034     -0.0547      2.8251    164.0521     24.8095
  1441.7000      8.2413      2.5995     -0.0199      3.0606    166.5168     24.9527
  1441.8000      8.2227      2.5757     -0.0054      4.5044    174.8796     25.1898
  1441.9000      8.2227      2.5314     -0.0540      7.1881    177.6008     25.2445
  1442.0000      8.2193      2.5055     -0.0869      8.7563    175.0128     25.1315
  1442.1000      8.2193      2.5133      0.0092      8.2876    174.3661     25.2235
  1442.2000      8.2193      2.5198      0.0615      7.8917    179.1190     25.3667
  1442.3000      8.2227      2.5073      0.0197      8.6475    184.9381     25.1520
  1442.4000      8.2227      2.5008      0.0255      9.0447    183.4402     24.5853
  1442.5000      8.2222      2.5147      0.0938      8.2013    176.4160     24.3062
  1442.6000      8.2222      2.5361      0.1103      6.9008    171.4930     24.9355
  1442.7000      8.2222      2.5486      0.1536      6.1453    172.5109     26.0670
  1442.8000      8.2177      2.5453      0.1743      6.3456    179.3453     26.7551
  1442.9000      8.2177      2.5305      0.1838      7.2408    188.8848     26.6302
  1443.0000      8.2155      2.5097      0.1657      8.5003    196.8554     26.0133
  1443.1000      8.2155      2.4774      0.1858     10.4625    199.7111     25.8682
  1443.2000      8.2155      2.4162      0.1886     14.1682    199.3884     26.5927
  1443.3000      8.2076      2.3384      0.0654     18.8853    203.2493     27.3805
  1443.4000      8.2076      2.2898      0.0682     21.8330    208.4632     27.8624
  1443.5000      8.2000      2.2843      0.1374     22.1612    202.4403     28.1477
  1443.6000      8.2000      2.3046      0.1100     20.9317    186.1259     28.3432
  1443.7000      8.2000      2.3451      0.1481     18.4807    173.2008     28.4980
  1443.8000      8.2074      2.3985      0.2433     15.2412    173.8846     28.0639
  1443.9000      8.2074      2.4388      0.3091     12.7992    180.0151     26.9534
  1444.0000      8.2279      2.4528      0.3003     11.9490    181.9771     26.0030
  1444.1000      8.2279      2.4592      0.2672     11.5664    186.1841     25.9063
  1444.2000      8.2279      2.4680      0.3304     11.0305    194.5919     26.7526
  1444.3000      8.2449      2.4659      0.2192     11.1552    195.7829     27.8465
  1444.4000      8.2449      2.4571      0.1628     11.6918    185.5420     28.6746
  1444.5000      8.2594      2.4644      0.1952     11.2477    176.0413     29.0135
  1444.6000      8.2594      2.5000      0.2127      9.0882    180.7164     28.1550
  1444.7000      8.2594      2.5642      0.2010      5.1988    198.5452     26.2679
  1444.8000      8.3012      2.6333      0.3863      1.0145    210.9026     24.9830
  1444.9000      8.3012      2.6704      0.3520     -1.2375    204.2873     24.7395
  1445.0000      8.3221      2.6771      0.2536     -1.6434    191.0257     24.2947
  1445.1000      8.3221      2.6774      0.2364     -1.6633    182.9107     23.2283
  1445.2000      8.3221      2.6796      0.2120     -1.7963    178.9622     22.2370
  1445.3000      8.2514      2.6802      0.1360     -1.8288    179.6554     21.4993
  1445.4000      8.2514      2.6719      0.0836     -1.3268    180.1344     20.6747
  1445.5000      8.1206      2.6550      0.0248     -0.3025    171.7805     19.8248
  1445.6000      8.1206      2.6374      0.0462      0.7656    156.7210     19.3934
  1445.7000      8.1206      2.6204      0.0465      1.7930    144.6076     19.6654
  1445.8000      8.0214      2.6092     -0.0491      2.4732    136.6647     19.9633
  1445.9000      8.0214      2.6083     -0.0021      2.5281    128.5544     19.2337
  1446.0000      7.9609      2.6095     -0.0003      2.4528    122.0510     17.7238
  1446.1000      7.9609      2.6111      0.0135      2.3597    118.8569     16.5621
  1446.2000      7.9609      2.6182     -0.0048      1.9249    116.9243     16.0158
  1446.3000      7.9363      2.6232      0.0438      1.6250    111.8955     15.3201
  1446.4000      7.9363      2.6130     -0.0242      2.2418    101.9812     14.3580
  1446.5000      7.9463      2.5953     -0.0289      3.3127     90.7703     13.6421
  1446.6000      7.9463      2.5855     -0.0286      3.9081     83.1514     13.4887
  1446.7000      7.9463      2.5853     -0.0057      3.9240     83.3227     13.9281
  1446.8000      7.9582      2.5860      0.0233      3.8799     87.9873     14.5818
  1446.9000      7.9582      2.5885     -0.0427      3.7257     88.7332     14.7195
  1447.0000      7.9570      2.5916      0.0528      3.5379     83.4763     13.7578
  1447.1000      7.9570      2.5800     -0.0043      4.2451     77.0875     11.9943
  1447.2000      7.9570      2.5620     -0.0438      5.3359     76.0536     10.3265
  1447.3000      7.9508      2.5605     -0.0116      5.4251     80.1786      9.5598
  1447.4000      7.9508      2.5807     -0.0303      4.2005     82.2370      9.8644
  1447.5000      7.9508      2.6119      0.0339      2.3099     81.4600     10.8252
  1447.6000      7.9508      2.6406      0.0226      0.5724     84.7646     11.9310
  1447.7000      7.9508      2.6663      0.0273     -0.9905     90.6032     12.7500
  1447.8000      7.9578      2.6862      0.0929     -2.1959     89.9517     13.2656
  1447.9000      7.9578      2.6812      0.1015     -1.8893     84.2068     13.8065
  1448.0000      7.9600      2.6494      0.0019      0.0334     81.5867     14.2992
  1448.1000      7.9600      2.6175     -0.0069      1.9716     83.7114     14.4459
  1448.2000      7.9600      2.6051      0.0037      2.7234     87.5988     14.7268
  1448.3000      7.9636      2.6053      0.0117      2.7075     91.7907     15.9580
  1448.4000      7.9636      2.5964      0.0523      3.2501     97.8336     17.8271
