~Version Information
 VERS.                                  2.0 : CWLS LAS VERSION
 WRAP.                                   NO : WRAPING MODE
 SWARE .                 MController 2.5.0E : SOFTWARE VERSION
~Well Information
 WELL.                          Lynch 43-30 : WELL
 COMP.        Pioneer Natural Resources Inc : COMPANY
 FLD.                      Purgatoire River : FIELD
 LOC.                NE/SE Sec 30 T32S R67W : LOCATION
 DATE.                             10/25/04 : DATE(S) LOGGED
 SRVC.       Blanco Geological services LLc : SERVICE COMPANY
 STAT.                                   CO : STATE
 CNTY.                           Las Animas : COUNTY
 CTRY.                                  USA : COUNTRY
 API.                       05-071-08170-00 : API NUMBER
 STRT.FT                             410.00 : START DEPTH
 STOP.FT                            2845.00 : STOP DEPTH
 STEP.FT                               1.00 : DEPTH INCREMENT
 NULL.                                -9999 : NULL VALUE
~Curve information
 DEPTH.FT                                   :
 ROP.MIN/FT                                 :
 GAS.UNITS                                  :
~ASCII Log data
      410.00    -9999.000          1.8 
      411.00        0.100          2.7 
      412.00        0.133          2.0 
      413.00        0.100          2.1 
      414.00        0.067          2.2 
      415.00        0.200          2.3 
      416.00        1.717          3.3 
      417.00        0.167          3.2 
      418.00        0.167          2.8 
      419.00        0.167          2.8 
      420.00        0.200          3.3 
      421.00        0.167          3.4 
      422.00        0.133          2.9 
      423.00        0.200          3.1 
      424.00        0.200          3.2 
      425.00        0.200          3.1 
      426.00        0.167          3.0 
      427.00        0.167          2.7 
      428.00        0.167          3.1 
      429.00        0.167          3.1 
      430.00        0.217          2.9 
      431.00        0.233          3.0 
      432.00        0.167          2.9 
      433.00        0.167          3.1 
      434.00        0.167          2.5 
      435.00        0.167          2.6 
      436.00        0.167          3.1 
      437.00        0.167          3.0 
      438.00        0.133          2.8 
      439.00        0.200          2.9 
      440.00        0.200          2.4 
      441.00        0.133          3.1 
      442.00        0.167          3.0 
      443.00        0.167          2.3 
      444.00        0.133          2.9 
      445.00        0.133          2.6 
      446.00        3.083          3.0 
      447.00        0.267          3.1 
      448.00        0.267          3.0 
      449.00        0.133          2.9 
      450.00        0.200          2.9 
      451.00        0.183          2.9 
      452.00        0.167          3.0 
      453.00        0.167          2.7 
      454.00        0.167          3.0 
      455.00        0.167          2.8 
      456.00        0.200          3.0 
      457.00        0.167          2.6 
      458.00        0.167          3.0 
      459.00        0.167          2.5 
      460.00        0.600          3.0 
      461.00        0.233          2.9 
      462.00        0.200          2.8 
      463.00        0.233          2.8 
      464.00        0.200          2.9 
      465.00        0.233          3.0 
      466.00        0.200          2.3 
      467.00        0.217          3.1 
      468.00        0.200          3.1 
      469.00        0.233          2.5 
      470.00        0.267          2.7 
      471.00        0.200          3.0 
      472.00        0.167          2.7 
      473.00        0.167          2.4 
      474.00        0.200          3.1 
      475.00        0.200          1.4 
      476.00        2.350          1.5 
      477.00        0.200          1.6 
      478.00        0.267          1.5 
      479.00        0.233          1.3 
      480.00        0.133          1.0 
      481.00        0.167          1.2 
      482.00        0.133          0.7 
      483.00        0.167          1.2 
      484.00        0.167          1.0 
      485.00        0.167          0.9 
      486.00        0.200          1.3 
      487.00        0.167          1.3 
      488.00        0.167          1.2 
      489.00        0.167          1.4 
      490.00        0.217          1.8 
      491.00        0.200          1.4 
      492.00        0.167          1.4 
      493.00        0.200          1.1 
      494.00        0.233          1.2 
      495.00        0.200          0.7 
      496.00        0.167          1.2 
      497.00        0.133          0.7 
      498.00        0.133          1.1 
      499.00        0.167          1.1 
      500.00        0.133          0.9 
      501.00        0.167          1.4 
      502.00        0.167          1.1 
      503.00        0.167          0.8 
      504.00        0.167          0.8 
      505.00        0.167          1.2 
      506.00        1.750          1.5 
      507.00        0.200          1.5 
      508.00        0.200          1.5 
      509.00        0.233          1.4 
      510.00        0.200          1.3 
      511.00        0.200          1.2 
      512.00        0.233          1.5 
      513.00        0.267          1.4 
      514.00        0.167          1.6 
      515.00        0.200          1.6 
      516.00        0.167          1.3 
      517.00        0.167          1.5 
      518.00        0.217          1.5 
      519.00        0.200          1.1 
      520.00        0.200          7.8 
      521.00        0.200         25.7 
      522.00        0.200         36.5 
      523.00        0.167         48.4 
      524.00        0.200         48.7 
      525.00        0.200         36.7 
      526.00        0.200         22.4 
      527.00        0.200         15.5 
      528.00        0.200         11.5 
      529.00        0.233          9.0 
      530.00        0.200          7.4 
      531.00        0.200          5.3 
      532.00        0.200          4.0 
      533.00        0.200          2.4 
      534.00        0.200          1.8 
      535.00        0.183          0.8 
      536.00        1.700         -0.1 
      537.00        0.233         -0.8 
      538.00        0.200         -0.8 
      539.00        0.300         -0.8 
      540.00        0.233         -0.6 
      541.00        0.233         -0.3 
      542.00        0.200          2.8 
      543.00        0.250          2.3 
      544.00        0.167          2.8 
      545.00        0.233          2.5 
      546.00        0.200          2.7 
      547.00        0.200          2.5 
      548.00        0.200          2.7 
      549.00        0.200          2.7 
      550.00        0.200          2.5 
      551.00        0.167          3.1 
      552.00        0.167          2.8 
      553.00        0.200          2.3 
      554.00        0.167          2.6 
      555.00        0.167          3.1 
      556.00        0.233          3.1 
      557.00        0.200          3.1 
      558.00        0.267          2.4 
      559.00        0.250          3.3 
      560.00        0.167          2.7 
      561.00        0.200          3.2 
      562.00        0.167          3.2 
      563.00        0.200          3.1 
      564.00        0.167          2.7 
      565.00        0.200          3.1 
      566.00        2.417          3.7 
      567.00        0.167          3.1 
      568.00        0.200          3.5 
      569.00        0.300          2.8 
      570.00        0.167          3.5 
      571.00        0.200          3.3 
      572.00        0.233          2.7 
      573.00        0.167          3.5 
      574.00        0.200          3.5 
      575.00        0.200          3.1 
      576.00        0.167          2.7 
      577.00        0.167          3.1 
      578.00        0.167          3.2 
      579.00        0.167          2.7 
      580.00        0.167          3.5 
      581.00        0.217          3.5 
      582.00        0.167          3.8 
      583.00        0.233          3.6 
      584.00        0.167          3.0 
      585.00        0.167          3.5 
      586.00        0.200          3.1 
      587.00        0.167          3.4 
      588.00        0.200          3.1 
      589.00        0.167          3.6 
      590.00        0.200          3.5 
      591.00        0.167          3.1 
      592.00        0.200          3.5 
      593.00        0.200          3.3 
      594.00        0.167          3.0 
      595.00        0.200          3.1 
      596.00        4.067          3.1 
      597.00        0.367          2.7 
      598.00        0.267          2.6 
      599.00        0.267          2.9 
      600.00        0.300          2.9 
      601.00        0.300          2.8 
      602.00        0.300          2.8 
      603.00        0.267          2.9 
      604.00        0.300          3.1 
      605.00        0.267          2.8 
      606.00        0.167          2.9 
      607.00        0.200          3.2 
      608.00        0.167          3.1 
      609.00        0.217          2.5 
