~Version Information
VERS.                      2.0: CWLS Log ASCII Standard - VERSION 2.0
WRAP.                       NO: One line per depth step
~Well Information Block
STRT.FT               240.0000: 
STOP.FT              1452.5000: 
STEP.FT                 0.1000: 
NULL.                -999.2500: 
COMP.          Petrogulf Corporation: COMPANY
WELL.          Robinson 15-12R: WELL
FLD.           Purgatorie River: FIELD
LOC.           1752' FNL & 561' FWL: LOCATION
PROV.                 Colorado: PROVINCE
CNTY.               Las Animas: COUNTRY
SRVC.                Patterson: SERVICE COMPANY
DATE.          Tue Sep 13 15:07:52 2005: LOG DATE
UWI.                          : UNIQUE WELL ID
~Curve Information Block
DEPT.FT            0 000 00 00: Depth
DCAL.in                       : CDL Caliper
RHOB.g/cc                     : CDL Bulk Density
RHOC.g/cc                     : CDL Density Correction
DPOR.pu                       : CDL Density Porosity
GR.GAPI                       : Gamma Ray
NPOR.pu                       : Neutron Porosity
~Parameter Information Block
~A  Depth       DCAL        RHOB        RHOC        DPOR         GR         NPOR    
# ...
   883.2000      8.0372      2.3601      0.0281     17.5713    152.0704     29.9699
   883.3000      8.0654      2.3825      0.0602     16.2092    148.6569     29.9626
   883.4000      8.0654      2.4082      0.1738     14.6516    147.6016     30.4602
   883.5000      8.2052      2.4183      0.1289     14.0412    150.1621     30.8047
   883.6000      8.2052      2.4228      0.1371     13.7708    156.0338     30.8606
   883.7000      8.2052      2.4350      0.1881     13.0290    164.2238     31.0467
   883.8000      8.2581      2.4432      0.2039     12.5361    170.8834     31.4058
   883.9000      8.2581      2.4339      0.1481     13.0977    171.4547     31.5549
   884.0000      8.2467      2.4136      0.0988     14.3270    165.3534     31.4976
   884.1000      8.2467      2.3920      0.0884     15.6385    158.1924     31.4980
   884.2000      8.2467      2.3663      0.1036     17.1925    155.2663     31.5585
   884.3000      8.2448      2.3237      0.1159     19.7766    155.3826     31.5404
   884.4000      8.2448      2.2523      0.0967     24.1033    151.9347     31.4022
   884.5000      8.3026      2.1476      0.0587     30.4474    140.2757     31.4037
   884.6000      8.3026      2.0134     -0.0105     38.5802    124.7389     31.6935
   884.7000      8.3026      1.8661     -0.0339     47.5110    113.5410     32.0320
   884.8000      8.3409      1.7205     -0.0870     56.3344    108.6644     32.3644
   884.9000      8.3409      1.5815     -0.1073     64.7585    104.0833     32.7569
   885.0000      8.3669      1.4603     -0.1023     72.1007     95.4074     33.0516
   885.1000      8.3669      1.3823     -0.0836     76.8330     84.2153     33.2549
   885.2000      8.3669      1.3647     -0.0309     77.8948     75.4123     33.5055
   885.3000      8.4416      1.4012     -0.0009     75.6818     73.9514     33.7132
   885.4000      8.4416      1.4670      0.0792     71.6982     79.1959     33.8671
   885.5000      8.5952      1.5335      0.1189     67.6647     85.4099     33.9910
   885.6000      8.5952      1.5914      0.1082     64.1565     89.5891     33.9832
   885.7000      8.5952      1.6498      0.1302     60.6171     92.4755     33.9053
   885.8000      8.7385      1.7186      0.1249     56.4476     94.9931     33.9913
   885.9000      8.7385      1.8002      0.1260     51.5023     98.1702     34.2507
   886.0000      8.4685      1.8801      0.1590     46.6591    102.9830     34.4874
   886.1000      8.4685      1.9390      0.1191     43.0910    107.9024     34.5425
   886.2000      8.4685      1.9787      0.0832     40.6834    112.6121     34.5305
   886.3000      8.2352      2.0153      0.0907     38.4670    120.1454     34.6156
   886.4000      8.2352      2.0636      0.0841     35.5370    130.3622     34.6852
   886.5000      8.2451      2.1296      0.1179     31.5373    139.4955     34.5928
   886.6000      8.2451      2.1959      0.1620     27.5198    144.4160     34.2759
   886.7000      8.2451      2.2380      0.1363     24.9717    145.7484     33.8266
   886.8000      8.3038      2.2575      0.1118     23.7905    149.6055     33.5342
   886.9000      8.3038      2.2732      0.1025     22.8342    155.0067     33.4984
   887.0000      8.3535      2.2962      0.1440     21.4405    152.6724     33.4621
   887.1000      8.3535      2.3281      0.2009     19.5078    145.9336     33.2391
   887.2000      8.3535      2.3657      0.1478     17.2309    144.0037     33.0769
   887.3000      8.2384      2.3979      0.1696     15.2803    144.9223     33.2418
   887.4000      8.2384      2.4213      0.1205     13.8576    144.3950     33.4635
   887.5000      8.1568      2.4508      0.1578     12.0740    145.1758     33.2741
   887.6000      8.1568      2.4884      0.1910      9.7921    150.9235     32.6719
   887.7000      8.1568      2.5222      0.1918      7.7434    158.8699     32.0385
   887.8000      8.1079      2.5455      0.1874      6.3313    161.9947     31.6895
   887.9000      8.1079      2.5493      0.1907      6.1044    158.2133     31.5837
   888.0000      8.0876      2.5273      0.1471      7.4346    153.2892     31.3862
   888.1000      8.0876      2.4948      0.0796      9.4091    154.0993     31.0586
   888.2000      8.0876      2.4743      0.1231     10.6505    159.4661     31.0286
   888.3000      8.1394      2.4720      0.1316     10.7861    163.4563     31.3023
   888.4000      8.1394      2.4802      0.1557     10.2894    164.1210     31.2659
   888.5000      8.0333      2.4851      0.1673      9.9932    162.8102     30.7425
   888.6000      8.0333      2.4807      0.1306     10.2589    163.6710     30.3257
   888.7000      8.0333      2.4796      0.0980     10.3274    168.2738     30.5022
   888.8000      8.0507      2.4901      0.1289      9.6937    169.5084     30.9771
   888.9000      8.0507      2.4994      0.1365      9.1251    162.6325     31.2138
   889.0000      8.0737      2.4958      0.1501      9.3452    154.4549     31.1668
   889.1000      8.0737      2.4836      0.1069     10.0825    151.7966     31.1256
   889.2000      8.0737      2.4737      0.1162     10.6840    153.7845     31.2568
   889.3000      8.0679      2.4703      0.1108     10.8904    156.4977     31.4504
   889.4000      8.0679      2.4676      0.1509     11.0516    158.0172     31.4629
   889.5000      8.0525      2.4608      0.0807     11.4681    159.8800     31.2276
   889.6000      8.0525      2.4584      0.0755     11.6146    162.5934     30.8430
   889.7000      8.0525      2.4654      0.1039     11.1857    165.3247     30.4370
   889.8000      8.0685      2.4766      0.1226     10.5117    167.2305     30.3472
   889.9000      8.0685      2.4915      0.1017      9.6088    166.0833     30.6218
   890.0000      8.0984      2.5034      0.1642      8.8829    160.3625     30.9070
   890.1000      8.0984      2.4943      0.1693      9.4381    152.7366     31.1464
   890.2000      8.0984      2.4640      0.1364     11.2709    149.0869     31.4264
   890.3000      8.1043      2.4323      0.1236     13.1933    150.6563     31.7176
   890.4000      8.1043      2.4124      0.1462     14.4029    152.7195     32.0203
   890.5000      8.1282      2.4052      0.1383     14.8353    153.7632     32.3481
   890.6000      8.1282      2.4042      0.1724     14.8955    155.1953     32.5607
   890.7000      8.1282      2.3986      0.1734     15.2345    155.8141     32.4466
   890.8000      8.2060      2.3877      0.1319     15.8972    155.5921     32.0842
   890.9000      8.2060      2.3787      0.1580     16.4441    156.9449     31.9925
   891.0000      8.3125      2.3619      0.2322     17.4608    157.6113     32.3648
   891.1000      8.3125      2.3179      0.2262     20.1274    155.3048     32.8269
   891.2000      8.3125      2.2541      0.1307     23.9940    153.9846     33.0886
   891.3000      8.2575      2.1927      0.0971     27.7170    154.0483     33.1203
   891.4000      8.2575      2.1338      0.0811     31.2855    150.7381     33.1191
   891.5000      8.2921      2.0752      0.0259     34.8391    147.1396     33.1756
   891.6000      8.2921      2.0290     -0.0163     37.6386    149.4084     33.2626
   891.7000      8.2921      1.9967     -0.0021     39.5954    153.7654     33.5149
   891.8000      8.2581      1.9715      0.0213     41.1191    151.7175     33.8076
   891.9000      8.2581      1.9557      0.0577     42.0809    143.1301     33.9191
   892.0000      8.2626      1.9513      0.0938     42.3458    135.6034     33.8223
   892.1000      8.2626      1.9566      0.0901     42.0236    132.7312     33.5296
   892.2000      8.2626      1.9689      0.1229     41.2785    132.2495     33.3313
   892.3000      8.2480      1.9830      0.1139     40.4225    132.8073     33.3060
   892.4000      8.2480      1.9950      0.0818     39.6978    135.7020     33.0655
   892.5000      8.1852      2.0082      0.0911     38.8948    141.1344     32.6712
   892.6000      8.1852      2.0304      0.0978     37.5536    147.0347     32.5144
   892.7000      8.1852      2.0656      0.0899     35.4158    150.7285     32.6625
