~Version Information
 VERS.                                  2.0 : CWLS LAS VERSION
 WRAP.                                   NO : WRAPING MODE
 SWARE .                 MController 2.5.0J : SOFTWARE VERSION
~Well Information
 WELL.            Rabbit Bush Federal 44-19 : WELL
 COMP.  Pioneer Natural Resources USA, Inc. : COMPANY
 FLD.                      Purgatoire River : FIELD
 LOC.              SE/SE  Sec 19 T32S  R66W : LOCATION
 DATE.                      8/24/06-8/25/06 : DATE(S) LOGGED
 SRVC.       BLANCO Geological Services LLC : SERVICE COMPANY
 STAT.                                   CO : STATE
 CNTY.                            Las Animas: COUNTY
 CTRY.                               U.S.A. : COUNTRY
 API.                       05-071-08149-00 : API NUMBER
 STRT.FT                             539.00 : START DEPTH
 STOP.FT                            2785.00 : STOP DEPTH
 STEP.FT                               1.00 : DEPTH INCREMENT
 NULL.                                -9999 : NULL VALUE
~Curve information
 DEPTH.FT                                   :
 ROP.MIN/FT                                 :
 GAS.UNITS                                  :
~ASCII Log data
# ...
      1139.0         0.23          4.8 
      1140.0         0.23          5.6 
      1141.0         0.20          5.3 
      1142.0         0.17          4.1 
      1143.0         0.23          4.2 
      1144.0         0.22          4.1 
      1145.0         0.20          3.5 
      1146.0         0.17          3.8 
      1147.0         0.20          3.4 
      1148.0         0.17          3.7 
      1149.0         0.10          4.0 
      1150.0         0.10          4.0 
      1151.0         0.23          3.4 
      1152.0         0.23          4.0 
      1153.0         0.20          4.0 
      1154.0         0.20          3.9 
      1155.0         0.27          3.9 
      1156.0         0.07          3.8 
      1157.0         0.20          3.8 
      1158.0         0.20          3.9 
      1159.0         0.30          3.4 
      1160.0         0.30          3.5 
      1161.0         0.25          3.1 
      1162.0         0.30          3.7 
      1163.0         0.27          4.0 
      1164.0         0.27          3.7 
      1165.0         0.27          4.0 
      1166.0         3.42         10.9 
      1167.0         0.37          5.8 
      1168.0         0.23          5.3 
      1169.0         0.17          5.2 
      1170.0         0.23          5.1 
      1171.0         0.23          4.5 
      1172.0         0.20          4.9 
      1173.0         0.27          4.9 
      1174.0         0.27          4.8 
      1175.0         0.25          4.9 
      1176.0         0.23          5.3 
      1177.0         0.30          5.1 
      1178.0         0.27          4.9 
      1179.0         0.27          4.5 
      1180.0         0.27          4.7 
      1181.0         0.20          4.6 
      1182.0         0.20          5.6 
      1183.0         0.17          4.7 
      1184.0         0.23          4.5 
      1185.0         0.23          4.4 
      1186.0         0.20          4.1 
      1187.0         0.20          4.0 
      1188.0         0.20          4.0 
      1189.0         0.28          4.0 
      1190.0         0.13          4.1 
      1191.0         0.23          3.8 
      1192.0         0.27          4.0 
      1193.0         0.20          4.3 
      1194.0         0.20          4.6 
      1195.0         0.23          5.1 
      1196.0         3.35         10.9 
      1197.0         0.43          6.0 
      1198.0         0.43          5.7 
      1199.0         0.27          4.4 
      1200.0         0.20          4.4 
      1201.0         0.17          5.0 
      1202.0         0.27          5.1 
      1203.0         0.23          4.7 
      1204.0         0.22          5.0 
      1205.0         0.23          4.7 
      1206.0         0.23          4.8 
      1207.0         0.20          4.6 
      1208.0         0.23          4.4 
      1209.0         0.20          4.8 
      1210.0         0.20          4.3 
      1211.0         0.23          4.6 
      1212.0         0.20          3.9 
      1213.0         0.23          3.5 
      1214.0         0.23          4.4 
      1215.0         0.23          3.9 
      1216.0         0.17          3.6 
      1217.0         0.17          3.9 
      1218.0         0.17          3.4 
      1219.0         0.13          4.1 
      1220.0         0.18          4.6 
      1221.0         0.17          4.3 
      1222.0         0.13          4.7 
      1223.0         0.17          4.9 
      1224.0         0.17          4.6 
      1225.0         0.23          5.0 
      1226.0         3.38         12.3 
      1227.0         0.30          6.5 
      1228.0         0.23         10.9 
      1229.0         0.20         13.4 
      1230.0         0.23         13.1 
      1231.0         0.20         13.2 
      1232.0         0.20         12.6 
      1233.0         0.17         11.5 
      1234.0         0.10          9.9 
      1235.0         0.13          9.6 
      1236.0         0.23          8.6 
      1237.0         0.20          7.8 
      1238.0         0.07          7.8 
      1239.0         0.22          8.0 
      1240.0         0.23          7.9 
      1241.0         0.13          7.5 
      1242.0         0.30          7.7 
      1243.0         0.17          7.5 
      1244.0         0.23          6.9 
      1245.0         0.23          6.7 
      1246.0         0.20          5.4 
      1247.0         0.23          4.7 
      1248.0         0.20          4.0 
      1249.0         0.20          4.3 
      1250.0         0.20          4.2 
      1251.0         0.17          4.0 
      1252.0         0.17          4.9 
      1253.0         0.20          4.9 
      1254.0         0.17          5.1 
      1255.0         0.13          6.2 
      1256.0         3.02         14.1 
      1257.0         0.72          8.2 
      1258.0         0.17          7.8 
      1259.0         0.30          8.0 
      1260.0         0.27          8.0 
      1261.0         0.23          7.5 
      1262.0         0.27          7.5 
      1263.0         0.17          8.2 
      1264.0         0.13          7.7 
      1265.0         0.20         10.6 
      1266.0         0.27         21.0 
      1267.0         0.27         22.9 
      1268.0         0.20         18.2 
      1269.0         0.27         13.2 
      1270.0         0.27          9.2 
      1271.0         0.38          8.0 
      1272.0         0.27          8.2 
      1273.0         0.20          8.8 
      1274.0         0.23          8.4 
      1275.0         0.27          6.7 
      1276.0         0.27          6.1 
      1277.0         0.20          4.7 
      1278.0         0.20          5.3 
      1279.0         0.20          5.4 
      1280.0         0.20          5.8 
      1281.0         0.20          5.5 
      1282.0         0.17          5.3 
      1283.0         0.20          5.7 
      1284.0         0.17          6.4 
      1285.0         0.13          7.1 
      1286.0         4.10         24.9 
      1287.0         0.20          7.4 
      1288.0         0.27          6.7 
      1289.0         0.27          7.6 
      1290.0         0.23          8.0 
      1291.0         0.17          7.6 
      1292.0         0.20          7.3 
      1293.0         0.20          8.0 
      1294.0         0.23          7.9 
      1295.0         0.23          8.1 
      1296.0         0.20          8.5 
      1297.0         0.20          8.5 
      1298.0         0.20          9.0 
      1299.0         0.25          8.8 
      1300.0         0.43          7.8 
      1301.0         0.47          8.0 
      1302.0         0.57         10.8 
      1303.0         0.37         10.5 
      1304.0         0.27          9.2 
      1305.0         0.23          8.6 
      1306.0         0.20          8.4 
      1307.0         0.20          6.9 
      1308.0         0.17          6.8 
      1309.0         0.13          6.9 
      1310.0         0.13          6.3 
      1311.0         0.15          6.1 
      1312.0         0.13          6.8 
      1313.0         0.17          5.9 
      1314.0         0.17          6.9 
      1315.0         0.33          6.5 
      1316.0         4.58         30.5 
      1317.0         0.20          8.5 
      1318.0         0.13          7.6 
      1319.0         0.17          8.4 
      1320.0         0.17          7.7 
      1321.0         0.23          8.1 
      1322.0         0.28          8.8 
      1323.0         0.27          8.6 
      1324.0         0.27          8.2 
      1325.0         0.23          8.2 
      1326.0         0.27          8.8 
      1327.0         0.23          8.3 
      1328.0         0.23          8.2 
      1329.0         0.20          8.0 
      1330.0         0.23         12.4 
      1331.0         0.20         19.0 
      1332.0         0.23         25.0 
      1333.0         0.27         30.4 
      1334.0         0.37         29.5 
      1335.0         0.20         23.1 
      1336.0         0.18         18.5 
      1337.0         0.17         13.7 
      1338.0         0.17         12.3 
