~Version Information
VERS.                      2.0: CWLS Log ASCII Standard - VERSION 2.0
WRAP.                       NO: One line per depth step
~Well Information Block
STRT.FT               387.1000: 
STOP.FT              1748.0000: 
STEP.FT                 0.1000: 
NULL.                -999.2500: 
COMP.          Evergreen Operating Corp.: COMPANY
WELL.          Pachorek 13-31 Tr: WELL
FLD.           Cottontail Pass: FIELD
LOC.           1575' FSL & 900' FWL--API# 05-071-07019-00: LOCATION
PROV.                 Colorado: PROVINCE
CNTY.               Las Animas: COUNTRY
SRVC.          Scientific Data Systems, Inc.: SERVICE COMPANY
DATE.          Tue Aug 08 15:02:37 2000: LOG DATE
UWI.                      05071070190000:UNIQUE WELL IDENTIFICATION
~Curve Information Block
DEPT.FT            0 000 00 00: Depth
DCAL.in                       : CDL Caliper
RHOB.g/cc                     : CDL Bulk Density
RHOC.g/cc                     : CDL Density Correction
DPOR.pu                       : CDL Density Porosity
GR.GAPI                       : Gamma Ray
NPOR.pu                       : Neutron Porosity
~Parameter Information Block
~A  Depth       DCAL        RHOB        RHOC        DPOR         GR         NPOR    
# ...
  1462.3000      7.9075      2.5923      0.0468      3.4956    168.2223     23.5991
  1462.4000      7.9075      2.5914      0.0454      3.5531    170.5513     23.8014
  1462.5000      7.9300      2.5901      0.0437      3.6287    172.3802     24.0201
  1462.6000      7.9300      2.5886      0.0419      3.7208    173.6629     24.2477
  1462.7000      7.9300      2.5869      0.0400      3.8272    174.3866     24.4772
  1462.8000      7.9509      2.5849      0.0382      3.9449    174.5813     24.7029
  1462.9000      7.9509      2.5828      0.0365      4.0709    174.3114     24.9213
  1463.0000      7.9731      2.5807      0.0350      4.2022    173.6705     25.1310
  1463.1000      7.9731      2.5785      0.0337      4.3362    172.7780     25.3328
  1463.2000      7.9731      2.5762      0.0328      4.4709    171.7667     25.5291
  1463.3000      7.9914      2.5740      0.0321      4.6048    170.7688     25.7227
  1463.4000      7.9914      2.5718      0.0315      4.7372    169.9078     25.9170
  1463.5000      7.9946      2.5697      0.0311      4.8675    169.2874     26.1143
  1463.6000      7.9946      2.5676      0.0306      4.9954    168.9775     26.3157
  1463.7000      7.9946      2.5655      0.0301      5.1205    169.0123     26.5205
  1463.8000      7.9835      2.5635      0.0294      5.2422    169.3908     26.7264
  1463.9000      7.9835      2.5616      0.0285      5.3595    170.0818     26.9289
  1464.0000      7.9713      2.5597      0.0273      5.4706    171.0338     27.1219
  1464.1000      7.9713      2.5580      0.0260      5.5740    172.1820     27.2975
  1464.2000      7.9713      2.5565      0.0246      5.6680    173.4624     27.4471
  1464.3000      7.9688      2.5551      0.0233      5.7511    174.8099     27.5616
  1464.4000      7.9688      2.5539      0.0223      5.8225    176.1607     27.6325
  1464.5000      7.9743      2.5529      0.0217      5.8825    177.4547     27.6529
  1464.6000      7.9743      2.5521      0.0218      5.9325    178.6304     27.6184
  1464.7000      7.9743      2.5514      0.0226      5.9749    179.6290     27.5279
  1464.8000      7.9853      2.5508      0.0240      6.0133    180.4022     27.3844
  1464.9000      7.9853      2.5501      0.0261      6.0518    180.9152     27.1944
  1465.0000      7.9974      2.5494      0.0285      6.0946    181.1641     26.9674
  1465.1000      7.9974      2.5486      0.0312      6.1452    181.1733     26.7148
  1465.2000      7.9974      2.5476      0.0338      6.2060    181.0044     26.4481
  1465.3000      8.0012      2.5464      0.0363      6.2780    180.7424     26.1778
  1465.4000      8.0012      2.5451      0.0386      6.3600    180.4840     25.9119
  1465.5000      8.0000      2.5436      0.0406      6.4488    180.3291     25.6551
  1465.6000      8.0000      2.5421      0.0425      6.5395    180.3510     25.4095
  1465.7000      8.0000      2.5407      0.0444      6.6260    180.5963     25.1750
  1465.8000      7.9983      2.5394      0.0466      6.7012    181.0722     24.9512
  1465.9000      7.9983      2.5385      0.0491      6.7584    181.7457     24.7381
  1466.0000      7.9970      2.5379      0.0522      6.7915    182.5484     24.5381
  1466.1000      7.9970      2.5379      0.0557      6.7958    183.3825     24.3555
  1466.2000      7.9970      2.5383      0.0598      6.7682    184.1374     24.1971
  1466.3000      7.9999      2.5393      0.0642      6.7082    184.6985     24.0703
  1466.4000      7.9999      2.5408      0.0686      6.6167    184.9646     23.9820
  1466.5000      8.0042      2.5428      0.0729      6.4962    184.8592     23.9365
  1466.6000      8.0042      2.5452      0.0767      6.3505    184.3393     23.9345
  1466.7000      8.0042      2.5480      0.0797      6.1835    183.3974     23.9721
  1466.8000      8.0051      2.5510      0.0818      5.9989    182.0582     24.0412
  1466.9000      8.0051      2.5543      0.0828      5.7997    180.3633     24.1298
  1467.0000      7.9973      2.5578      0.0829      5.5873    178.3592     24.2241
  1467.1000      7.9973      2.5615      0.0822      5.3623    176.0847     24.3103
  1467.2000      7.9973      2.5655      0.0809      5.1233    173.5552     24.3757
  1467.3000      7.9759      2.5697      0.0795      4.8685    170.7684     24.4104
  1467.4000      7.9759      2.5742      0.0784      4.5955    167.7057     24.4083
  1467.5000      7.9532      2.5790      0.0780      4.3020    164.3477     24.3660
  1467.6000      7.9532      2.5842      0.0786      3.9869    160.6904     24.2838
  1467.7000      7.9532      2.5898      0.0803      3.6506    156.7615     24.1644
  1467.8000      7.9386      2.5956      0.0832      3.2954    152.6324     24.0118
  1467.9000      7.9386      2.6017      0.0872      2.9262    148.4167     23.8318
  1468.0000      7.9298      2.6079      0.0919      2.5500    144.2633     23.6309
  1468.1000      7.9298      2.6141      0.0970      2.1756    140.3425     23.4161
  1468.2000      7.9298      2.6201      0.1020      1.8133    136.8215     23.1951
  1468.3000      7.9016      2.6257      0.1065      1.4739    133.8402     22.9757
  1468.4000      7.9016      2.6307      0.1101      1.1675    131.4980     22.7653
  1468.5000      7.8576      2.6351      0.1124      0.9031    129.8368     22.5716
  1468.6000      7.8576      2.6387      0.1130      0.6869    128.8360     22.4018
  1468.7000      7.8576      2.6414      0.1118      0.5219    128.4211     22.2629
  1468.8000      7.8402      2.6433      0.1087      0.4075    128.4766     22.1630
  1468.9000      7.8402      2.6444      0.1040      0.3388    128.8611     22.1106
  1469.0000      7.8520      2.6449      0.0978      0.3070    129.4348     22.1163
  1469.1000      7.8520      2.6450      0.0908      0.3002    130.0695     22.1916
  1469.2000      7.8520      2.6450      0.0834      0.3040    130.6685     22.3485
  1469.3000      7.8643      2.6450      0.0765      0.3033    131.1729     22.5978
  1469.4000      7.8643      2.6453      0.0705      0.2832    131.5634     22.9467
  1469.5000      7.8673      2.6462      0.0660      0.2309    131.8539     23.3962
  1469.6000      7.8673      2.6477      0.0632      0.1372    132.0828     23.9392
  1469.7000      7.8673      2.6500      0.0621     -0.0029    132.3047     24.5588
  1469.8000      7.8608      2.6531      0.0626     -0.1886    132.5758     25.2285
  1469.9000      7.8608      2.6568      0.0643     -0.4136    132.9442     25.9140
  1470.0000      7.8425      2.6610      0.0667     -0.6664    133.4470     26.5766
  1470.1000      7.8425      2.6654      0.0692     -0.9309    134.1047     27.1773
  1470.2000      7.8425      2.6696      0.0712     -1.1877    134.9258     27.6815
  1470.3000      7.8229      2.6734      0.0722     -1.4158    135.9052     28.0633
  1470.4000      7.8229      2.6763      0.0717     -1.5943    137.0372     28.3082
  1470.5000      7.8318      2.6781      0.0696     -1.7043    138.3145     28.4129
  1470.6000      7.8318      2.6785      0.0657     -1.7300    139.7388     28.3856
  1470.7000      7.8318      2.6774      0.0603     -1.6606    141.3173     28.2422
  1470.8000      7.8742      2.6746      0.0538     -1.4904    143.0638     28.0044
  1470.9000      7.8742      2.6701      0.0468     -1.2197    144.9972     27.6956
  1471.0000      7.8929      2.6641      0.0400     -0.8539    147.1320     27.3391
  1471.1000      7.8929      2.6567      0.0342     -0.4031    149.4734     26.9564
  1471.2000      7.8929      2.6480      0.0299      0.1187    152.0128     26.5663
  1471.3000      7.8825      2.6385      0.0274      0.6948    154.7186     26.1847
  1471.4000      7.8825      2.6284      0.0266      1.3070    157.5382     25.8254
  1471.5000      7.8928      2.6181      0.0272      1.9363    160.4016     25.4992
  1471.6000      7.8928      2.6077      0.0286      2.5639    163.2245     25.2153
  1471.7000      7.8928      2.5977      0.0305      3.1717    165.9207     24.9798
  1471.8000      7.9025      2.5882      0.0324      3.7425    168.4156     24.7969
