~Version Information
VERS.                      2.0: CWLS Log ASCII Standard - VERSION 2.0
WRAP.                       NO: One line per depth step
~Well Information Block
STRT.FT               830.0000: 
STOP.FT              3122.7000: 
STEP.FT                 0.1000: 
NULL.                -999.2500: 
COMP.          Pioneer Natural Resources: COMPANY
WELL.              Stones 24-8: WELL
FLD.           Purgatoire River: FIELD
LOC.           648' FSL & 2264' FWL: LOCATION
PROV.                 Colorado: PROVINCE
CNTY.               Las Animas: COUNTRY
SRVC.                Patterson: SERVICE COMPANY
DATE.          Wed Jan 19 15:33:00 2005: LOG DATE
UWI.           05 071 07945 00: UNIQUE WELL ID
~Curve Information Block
DEPT.FT            0 000 00 00: Depth
DCAL.in                       : CDL Caliper
RHOB.g/cc                     : CDL Bulk Density
RHOC.g/cc                     : CDL Density Correction
DPOR.pu                       : CDL Density Porosity
NPOR.pu                       : Neutron Porosity
GR.GAPI                       : Gamma Ray
~Parameter Information Block
~A  Depth       DCAL        RHOB        RHOC        DPOR        NPOR         GR     
# ...
  2798.0000      7.9979      2.5446      0.0406      6.3904     18.3546     83.0127
  2798.1000      7.9979      2.5410      0.0338      6.6082     17.9704     80.5670
  2798.2000      7.9979      2.5488      0.0342      6.1337     17.8974     71.2657
  2798.3000      8.0022      2.5605      0.0183      5.4245     18.2664     60.4259
  2798.4000      8.0022      2.5611      0.0652      5.3889     18.6760     56.5357
  2798.5000      8.0028      2.5499      0.0251      6.0669     18.7119     59.9681
  2798.6000      8.0028      2.5477      0.0191      6.2023     18.4724     66.1954
  2798.7000      8.0028      2.5639      0.0338      5.2203     18.1750     73.6299
  2798.8000      8.0000      2.5861      0.0287      3.8713     17.6559     79.6644
  2798.9000      8.0000      2.6011      0.0676      2.9666     17.0410     81.1029
  2799.0000      7.9970      2.6081      0.0597      2.5371     17.1533     78.2204
  2799.1000      7.9970      2.6115      0.0681      2.3358     18.0433     72.5518
  2799.2000      7.9970      2.6097      0.0755      2.4410     18.3104     66.7518
  2799.3000      7.9963      2.6065      0.0419      2.6346     17.1982     65.5163
  2799.4000      7.9963      2.5984      0.0898      3.1244     15.8187     68.1990
  2799.5000      7.9988      2.5772     -0.0066      4.4130     15.3843     68.5749
  2799.6000      7.9988      2.5601     -0.0166      5.4499     15.9919     65.1654
  2799.7000      7.9988      2.5577      0.0444      5.5958     16.8756     61.2161
  2799.8000      8.0004      2.5523      0.0022      5.9182     17.2970     59.4320
  2799.9000      8.0004      2.5397     -0.0099      6.6855     17.5288     59.7162
  2800.0000      7.9981      2.5343     -0.0092      7.0127     17.7975     60.1850
  2800.1000      7.9981      2.5419      0.0223      6.5541     17.6488     61.5207
  2800.2000      7.9981      2.5506      0.0207      6.0265     17.2402     65.4731
  2800.3000      7.9953      2.5531     -0.0029      5.8729     17.0198     67.8835
  2800.4000      7.9953      2.5654      0.0037      5.1245     17.0003     65.6827
  2800.5000      7.9970      2.5933      0.0430      3.4344     17.1831     64.3046
  2800.6000      7.9970      2.6079      0.0953      2.5512     17.5567     66.9450
  2800.7000      7.9970      2.5968      0.0125      3.2231     18.1818     70.1937
  2800.8000      7.9992      2.5844      0.0271      3.9767     19.1139     69.8567
  2800.9000      7.9992      2.5796      0.0602      4.2671     19.7292     67.3453
  2801.0000      8.0001      2.5695     -0.0054      4.8777     19.5294     65.1713
  2801.1000      8.0001      2.5541      0.0160      5.8105     19.0299     62.5506
  2801.2000      8.0001      2.5451      0.0048      6.3549     18.7758     60.2222
  2801.3000      8.0012      2.5504      0.0108      6.0343     18.6714     60.0382
  2801.4000      8.0012      2.5627      0.0486      5.2884     18.7299     62.5515
  2801.5000      8.0051      2.5694      0.0438      4.8841     18.8005     66.2644
  2801.6000      8.0051      2.5701      0.0323      4.8419     18.3754     70.9978
  2801.7000      8.0051      2.5638      0.0482      5.2257     17.7031     76.0812
  2801.8000      8.0081      2.5525      0.0171      5.9117     17.4527     77.4312
  2801.9000      8.0081      2.5551     -0.0187      5.7523     17.7191     74.8694
  2802.0000      8.0033      2.5744      0.0604      4.5830     17.9723     72.7518
  2802.1000      8.0033      2.5900      0.0212      3.6369     17.9104     71.4467
  2802.2000      8.0033      2.5958      0.0574      3.2830     17.7452     68.6250
  2802.3000      7.9972      2.5970      0.0595      3.2123     17.7388     66.7003
  2802.4000      7.9972      2.5963      0.0589      3.2525     17.8941     68.3382
  2802.5000      7.9962      2.5923      0.0676      3.4942     18.0239     71.7529
  2802.6000      7.9962      2.5808      0.0292      4.1930     17.9797     73.5248
  2802.7000      7.9962      2.5664      0.0286      5.0682     17.6502     68.9913
  2802.8000      7.9964      2.5569      0.0246      5.6402     17.0996     60.6257
  2802.9000      7.9964      2.5533      0.0381      5.8614     16.8287     56.9422
  2803.0000      7.9970      2.5515      0.0517      5.9710     17.1551     57.9094
  2803.1000      7.9970      2.5456      0.0331      6.3290     17.6706     57.7834
  2803.2000      7.9970      2.5317      0.0110      7.1725     17.9289     54.8625
  2803.3000      7.9992      2.5200      0.0040      7.8794     17.8772     52.6581
  2803.4000      7.9992      2.5246      0.0076      7.6011     17.6816     55.2100
  2803.5000      8.0013      2.5379      0.0472      6.7942     17.6642     63.5463
  2803.6000      8.0013      2.5445      0.0042      6.3944     18.0497     72.7571
  2803.7000      8.0013      2.5450      0.0454      6.3653     18.7550     73.5981
  2803.8000      8.0000      2.5449      0.0751      6.3711     19.6031     65.9381
  2803.9000      8.0000      2.5452      0.0496      6.3545     20.0692     60.9831
  2804.0000      7.9979      2.5454      0.0706      6.3372     19.9058     64.1314
  2804.1000      7.9979      2.5501      0.0348      6.0575     19.6270     69.4732
  2804.2000      7.9979      2.5645      0.0356      5.1819     19.5096     71.7200
  2804.3000      7.9982      2.5803      0.0717      4.2270     19.3493     72.4915
  2804.4000      7.9982      2.5844      0.0591      3.9733     19.2993     71.4719
  2804.5000      7.9979      2.5754      0.1004      4.5222     19.3923     65.2203
  2804.6000      7.9979      2.5606      0.0408      5.4166     19.2517     58.6534
  2804.7000      7.9979      2.5556      0.0171      5.7234     18.9410     58.7874
  2804.8000      7.9975      2.5707      0.0412      4.8060     18.4575     60.2620
  2804.9000      7.9975      2.5981      0.0579      3.1466     17.7041     57.4784
  2805.0000      7.9979      2.6195      0.0713      1.8514     17.2212     55.1722
  2805.1000      7.9979      2.6192      0.0838      1.8643     17.1837     57.0889
  2805.2000      7.9979      2.5963      0.0804      3.2518     17.3245     60.2305
  2805.3000      8.0000      2.5689      0.0261      4.9176     17.5857     59.0283
  2805.4000      8.0000      2.5577      0.0024      5.5911     17.9027     54.4047
  2805.5000      8.0074      2.5619      0.0589      5.3415     17.8400     53.8737
  2805.6000      8.0074      2.5653      0.0386      5.1322     17.1367     57.1852
  2805.7000      8.0074      2.5643      0.0195      5.1916     16.5196     57.6001
  2805.8000      8.0189      2.5597      0.0449      5.4712     16.5483     55.2068
  2805.9000      8.0189      2.5503     -0.0136      6.0446     16.7915     54.1561
  2806.0000      8.0254      2.5425      0.0618      6.5171     16.6397     54.5897
  2806.1000      8.0254      2.5448      0.0212      6.3751     16.1901     54.8859
  2806.2000      8.0254      2.5653      0.0260      5.1348     16.0450     56.2236
  2806.3000      8.0271      2.5980      0.0694      3.1516     16.3348     62.4510
  2806.4000      8.0271      2.6151      0.1124      2.1127     16.6806     71.3796
  2806.5000      8.0279      2.6013      0.0459      2.9507     16.8106     72.9540
  2806.6000      8.0279      2.5811      0.0181      4.1741     16.6037     66.9099
  2806.7000      8.0279      2.5827      0.0443      4.0764     16.4952     63.8307
  2806.8000      8.0278      2.5962      0.0703      3.2616     16.8456     65.8674
  2806.9000      8.0278      2.5907      0.0607      3.5961     16.8950     66.1425
  2807.0000      8.0265      2.5567      0.0422      5.6521     16.3360     63.9346
  2807.1000      8.0265      2.5129      0.0059      8.3070     16.0517     64.3638
  2807.2000      8.0265      2.4843     -0.0288     10.0449     16.5014     66.3568
  2807.3000      8.0253      2.4863     -0.0159      9.9197     17.0261     65.6880
  2807.4000      8.0253      2.5157     -0.0204      8.1364     16.9332     63.1585
  2807.5000      8.0250      2.5468      0.0409      6.2553     16.5790     61.1700
