~Version Information
VERS.                      2.0: CWLS Log ASCII Standard - VERSION 2.0
WRAP.                       NO: One line per depth step
~Well Information Block
STRT.FT               250.0000: 
STOP.FT              1573.7000: 
STEP.FT                 0.1000: 
NULL.                -999.2500: 
COMP.          Pioneer Natural Resources: COMPANY
WELL.          Big Cat Federal 44-1: WELL
FLD.           Purgatoire River: FIELD
LOC.           197' FSL & 973' FEL--: LOCATION
CNTY.               Las Animas: COUNTY
SRVC.                Patterson: SERVICE COMPANY
DATE.          Mon Apr 24 08:33:37 2006: LOG DATE
UWI.           05 071 08042 00: UNIQUE WELL ID
STAT.                 Colorado: STATE
~Curve Information Block
DEPT.FT            0 000 00 00: Depth
DCAL.in                       : CDL Caliper
RHOB.g/cc                     : CDL Bulk Density
RHOC.g/cc                     : CDL Density Correction
DPOR.pu                       : CDL Density Porosity
NPOR.pu                       : Neutron Porosity
GR.GAPI                       : Gamma Ray
~Parameter Information Block
~A  Depth       DCAL        RHOB        RHOC        DPOR        NPOR         GR     
# ...
  1200.4000      7.8691      2.5377      0.0645      6.8084     17.2816     85.8949
  1200.5000      7.8683      2.5382      0.0786      6.7739     16.7606     83.6852
  1200.6000      7.8683      2.5381      0.0581      6.7830     16.7555     83.6556
  1200.7000      7.8683      2.5324      0.0975      7.1277     17.2432     85.7867
  1200.8000      7.8659      2.5163      0.0362      8.1047     18.0631     88.2911
  1200.9000      7.8659      2.4984      0.0313      9.1851     19.1519     91.2494
  1201.0000      7.8633      2.4823      0.0350     10.1647     20.0512     93.5362
  1201.1000      7.8633      2.4682      0.0286     11.0209     20.2346     91.5251
  1201.2000      7.8633      2.4757      0.0207     10.5628     19.6349     89.1158
  1201.3000      7.8603      2.5127      0.0688      8.3219     18.8537     91.4328
  1201.4000      7.8603      2.5487      0.1317      6.1372     18.5586     95.0046
  1201.5000      7.8541      2.5577      0.1387      5.5948     18.6861     95.6496
  1201.6000      7.8541      2.5502      0.1225      6.0466     18.8409     94.3473
  1201.7000      7.8541      2.5439      0.1388      6.4333     19.0464     92.4277
  1201.8000      7.8437      2.5408      0.1027      6.6168     19.3302     91.2548
  1201.9000      7.8437      2.5446      0.0811      6.3907     19.3720     91.1392
  1202.0000      7.8356      2.5602      0.0965      5.4419     19.3459     89.1399
  1202.1000      7.8356      2.5781      0.1056      4.3579     19.6312     87.5939
  1202.2000      7.8356      2.5794      0.1134      4.2815     20.1219     94.0754
  1202.3000      7.8350      2.5589      0.0605      5.5226     20.5613    104.9082
  1202.4000      7.8350      2.5307      0.0549      7.2333     20.6606    109.3759
  1202.5000      7.8380      2.5112      0.0426      8.4143     20.2220    107.3017
  1202.6000      7.8380      2.5093      0.0399      8.5245     19.5894    103.9876
  1202.7000      7.8380      2.5224      0.0686      7.7345     19.3374     99.9331
  1202.8000      7.8405      2.5393      0.0797      6.7082     19.7312     94.9886
  1202.9000      7.8405      2.5521      0.1055      5.9360     20.3715     90.8238
  1203.0000      7.8445      2.5582      0.0997      5.5629     20.5437     87.9239
  1203.1000      7.8445      2.5587      0.0853      5.5352     20.0686     87.9720
  1203.2000      7.8445      2.5565      0.0528      5.6646     19.4886     89.4871
  1203.3000      7.8489      2.5557      0.0451      5.7167     19.3885     87.3438
  1203.4000      7.8489      2.5563      0.0631      5.6786     19.9123     83.8054
  1203.5000      7.8521      2.5579      0.0540      5.5846     20.9462     83.6917
  1203.6000      7.8521      2.5614      0.0490      5.3700     21.9134     85.8994
  1203.7000      7.8521      2.5697      0.0474      4.8676     21.9250     89.6287
  1203.8000      7.8541      2.5861      0.0511      3.8704     21.2065     95.0526
  1203.9000      7.8541      2.6056      0.1076      2.6883     20.6920     98.7628
  1204.0000      7.8543      2.6111      0.1088      2.3576     20.3531     97.9960
  1204.1000      7.8543      2.5968      0.0830      3.2227     19.8963     97.6001
  1204.2000      7.8543      2.5813      0.0583      4.1662     19.9072    103.6625
  1204.3000      7.8558      2.5760      0.0874      4.4828     20.5613    109.1546
  1204.4000      7.8558      2.5682      0.0498      4.9590     21.0824    104.7095
  1204.5000      7.8602      2.5506      0.0382      6.0263     21.0513     95.9541
  1204.6000      7.8602      2.5350      0.0175      6.9687     20.7992     91.6514
  1204.7000      7.8602      2.5277      0.0627      7.4097     20.7385     93.3880
  1204.8000      7.8630      2.5272      0.0435      7.4397     20.6962     98.9475
  1204.9000      7.8630      2.5350      0.0246      6.9715     20.4085    104.1378
  1205.0000      7.8635      2.5435      0.0467      6.4529     19.9777    104.8274
  1205.1000      7.8635      2.5425      0.0383      6.5174     19.4599     99.6107
  1205.2000      7.8635      2.5354      0.0535      6.9469     18.9220     92.6957
  1205.3000      7.8644      2.5298      0.0456      7.2850     18.6248     89.9084
  1205.4000      7.8644      2.5220      0.0388      7.7546     18.6533     92.5155
  1205.5000      7.8661      2.5011      0.0595      9.0240     18.7282     97.5046
  1205.6000      7.8661      2.4729      0.0285     10.7363     18.6530     99.8206
  1205.7000      7.8661      2.4648      0.0076     11.2250     18.4976     95.6714
  1205.8000      7.8662      2.4868      0.0543      9.8927     18.2747     87.9559
  1205.9000      7.8662      2.5167      0.0860      8.0785     18.0016     83.9445
  1206.0000      7.8648      2.5317      0.0822      7.1690     17.8917     83.7424
  1206.1000      7.8648      2.5299      0.0698      7.2804     17.9356    125.6023
  1206.2000      7.8648      2.5283      0.0512      7.3749     17.9034    127.1546
  1206.3000      7.8625      2.5374      0.0941      6.8217     17.8148    130.7052
  1206.4000      7.8625      2.5501      0.1102      6.0517     17.8698    134.2106
  1206.5000      7.8592      2.5661      0.1205      5.0825     17.8854    137.3830
  1206.6000      7.8592      2.5871      0.1355      3.8091     17.6011    135.7899
  1206.7000      7.8592      2.6033      0.1581      2.8285     17.2522    125.6434
  1206.8000      7.8580      2.6113      0.1042      2.3467     17.1237    113.8533
  1206.9000      7.8580      2.6120      0.1135      2.3054     17.2189    107.9363
  1207.0000      7.8592      2.6009      0.0904      2.9756     17.3213    104.0860
  1207.1000      7.8592      2.5766      0.1205      4.4484     17.4287     98.8577
  1207.2000      7.8592      2.5451      0.0593      6.3568     17.5891     94.2938
  1207.3000      7.8611      2.5208      0.0642      7.8308     17.3851     89.9961
  1207.4000      7.8611      2.5122      0.0310      8.3491     16.6916     86.7863
  1207.5000      7.8633      2.5155      0.0802      8.1508     15.9412     87.4583
  1207.6000      7.8633      2.5292      0.0187      7.3204     15.4454     92.3966
  1207.7000      7.8633      2.5510      0.0676      5.9990     15.3459    100.0962
  1207.8000      7.8645      2.5617      0.0787      5.3487     15.4381    106.7267
  1207.9000      7.8645      2.5484      0.0917      6.1596     15.1809    106.5985
  1208.0000      7.8642      2.5244      0.0310      7.6092     14.6817    100.0316
  1208.1000      7.8642      2.5162      0.0351      8.1090     14.5551     96.0438
  1208.2000      7.8642      2.5263      0.0658      7.4988     14.7413    100.0921
  1208.3000      7.8633      2.5333      0.0808      7.0699     15.0872    105.8832
  1208.4000      7.8633      2.5331      0.0487      7.0832     15.5124    106.5914
  1208.5000      7.8637      2.5380      0.0657      6.7880     15.5004    105.5523
  1208.6000      7.8637      2.5396      0.1016      6.6892     15.1071    106.1135
  1208.7000      7.8637      2.5238      0.0326      7.6490     14.8433    103.4753
  1208.8000      7.8647      2.5001      0.0194      9.0864     14.8021     97.4655
  1208.9000      7.8647      2.4823      0.0482     10.1610     14.8436     95.6199
  1209.0000      7.8652      2.4777      0.0187     10.4403     14.7738     98.4787
  1209.1000      7.8652      2.4921      0.0108      9.5693     14.5829     99.6883
  1209.2000      7.8652      2.5158      0.0723      8.1307     14.4422     96.1881
  1209.3000      7.8660      2.5293      0.0368      7.3126     14.3608     90.6340
  1209.4000      7.8660      2.5282      0.0568      7.3814     14.3864     88.7980
  1209.5000      7.8670      2.5226      0.0301      7.7201     14.4832     90.9558
  1209.6000      7.8670      2.5237      0.0510      7.6527     14.2424     93.9889
  1209.7000      7.8670      2.5323      0.0538      7.1336     13.6349     94.6354
  1209.8000      7.8673      2.5415      0.0665      6.5735     13.1564     89.2815
  1209.9000      7.8673      2.5436      0.0705      6.4499     12.8092     81.6118
