~Version Information
VERS.                      2.0: CWLS Log ASCII Standard - VERSION 2.0
WRAP.                       NO: One line per depth step
~Well Information Block
STRT.FT               962.7000: 
STOP.FT              2435.5000: 
STEP.FT                 0.1000: 
NULL.                -999.2500: 
COMP.          Petrogulf Corporation: COMPANY
WELL.              Hand 8-44 V: WELL
FLD.           Purgatorie River: FIELD
LOC.           1076' FEL & 820' FSL: LOCATION
CNTY.               Las Animas: COUNTY
SRVC.                         : SERVICE COMPANY
DATE.          Fri Nov 21 14:12:41 2003: LOG DATE
UWI.                          : UNIQUE WELL ID
STAT.                 Colorado: STATE
~Curve Information Block
DEPT.FT            0 000 00 00: Depth
DCAL.in                       : CDL Caliper
RHOB.g/cc                     : CDL Bulk Density
RHOC.g/cc                     : CDL Density Correction
DPOR.pu                       : CDL Density Porosity
GR.GAPI                       : Gamma Ray
NPOR.pu                       : Neutron Porosity
~Parameter Information Block
~A  Depth       DCAL        RHOB        RHOC        DPOR         GR         NPOR    
# ...
  1269.9000      8.1874      2.4190      0.2033     14.0013    111.0502     23.0468
  1270.0000      8.2032      2.4620      0.2900     11.3948    117.3420     23.6432
  1270.1000      8.2032      2.5230      0.3821      7.6980    123.4446     24.3349
  1270.2000      8.2032      2.5745      0.4287      4.5733    126.1280     24.9189
  1270.3000      8.2724      2.6051      0.3098      2.7228    127.1396     25.5879
  1270.4000      8.2724      2.6388      0.2940      0.6778    126.8688     26.4035
  1270.5000      8.4133      2.6866      0.3143     -2.2187    121.8247     27.0244
  1270.6000      8.4133      2.7219      0.4208     -4.3579    113.1403     27.1181
  1270.7000      8.4133      2.7238      0.3367     -4.4757    110.8662     26.7533
  1270.8000      8.5272      2.7135      0.2766     -3.8458    118.3109     26.4693
  1270.9000      8.5272      2.7018      0.2867     -3.1381    125.4041     26.7501
  1271.0000      8.5033      2.6618      0.2856     -0.7125    126.1101     27.1744
  1271.1000      8.5033      2.5926      0.1152      3.4772    124.5525     27.0045
  1271.2000      8.5033      2.5348      0.0624      6.9814    128.1638     26.4287
  1271.3000      8.4780      2.5079      0.0721      8.6094    136.9735     26.0515
  1271.4000      8.4780      2.4952      0.0789      9.3812    144.2428     26.1019
  1271.5000      8.3712      2.4787      0.0809     10.3799    146.0633     26.3249
  1271.6000      8.3712      2.4601      0.0383     11.5061    144.0367     26.0464
  1271.7000      8.3712      2.4528     -0.0289     11.9496    145.0292     25.4230
  1271.8000      8.3957      2.4671      0.0365     11.0820    150.2938     25.6101
  1271.9000      8.3957      2.4999      0.0726      9.0948    151.7191     26.5119
  1272.0000      8.3572      2.5282      0.1189      7.3801    144.8363     26.9352
  1272.1000      8.3572      2.5316      0.1344      7.1755    136.0182     26.2730
  1272.2000      8.3572      2.5174      0.1169      8.0375    131.3245     24.8802
  1272.3000      8.3561      2.4956      0.2140      9.3594    129.3486     23.7011
  1272.4000      8.3561      2.4610      0.2307     11.4546    128.7490     22.7904
  1272.5000      8.3844      2.4091      0.2379     14.6018    128.3314     21.5427
  1272.6000      8.3844      2.3438      0.1266     18.5561    127.7451     20.3300
  1272.7000      8.3844      2.2714      0.1145     22.9429    127.7517     20.0087
  1272.8000      8.4192      2.2009      0.0890     27.2154    126.5276     20.6640
  1272.9000      8.4192      2.1604      0.0568     29.6708    121.8468     21.6704
  1273.0000      8.4472      2.1669      0.3063     29.2790    115.7103     22.5471
  1273.1000      8.4472      2.2025      0.4688     27.1224    113.9930     23.1741
  1273.2000      8.4472      2.2626      0.4957     23.4778    116.3255     23.5454
  1273.3000      8.4660      2.3591      0.5374     17.6309    118.9400     23.8540
  1273.4000      8.4660      2.4777      0.5719     10.4441    124.9625     24.6399
  1273.5000      8.5167      2.5929      0.6906      3.4580    134.5457     25.9877
  1273.6000      8.5167      2.6907      0.7638     -2.4650    140.6453     27.3659
  1273.7000      8.5167      2.7489      0.8409     -5.9953    141.1641     28.1481
  1273.8000      8.7166      2.7391      0.8000     -5.3997    139.5479     27.7375
  1273.9000      8.7166      2.6658      0.5812     -0.9588    138.6996     26.7443
  1274.0000      8.9890      2.5698      0.4500      4.8619    139.3561     26.4528
  1274.1000      8.9890      2.4838      0.3077     10.0729    138.1550     26.9116
  1274.2000      8.9890      2.4256      0.1485     13.6012    131.1325     27.4173
  1274.3000      9.0651      2.4099      0.0412     14.5512    122.0402     27.8000
  1274.4000      9.0651      2.4296      0.0965     13.3550    118.4979     28.5595
  1274.5000      8.7342      2.4612      0.1215     11.4446    119.7436     29.9831
  1274.6000      8.7342      2.5061      0.1522      8.7217    121.7747     31.4967
  1274.7000      8.7342      2.5759      0.2514      4.4927    126.4367     32.5727
  1274.8000      8.6055      2.6420      0.3817      0.4879    131.7415     33.3707
  1274.9000      8.6055      2.6695      0.3781     -1.1845    134.1478     34.2011
  1275.0000      8.5137      2.6696      0.3627     -1.1865    137.7623     34.7934
  1275.1000      8.5137      2.6697      0.2710     -1.1961    143.8237     34.5569
  1275.2000      8.5137      2.6692      0.3348     -1.1607    145.2755     33.5039
  1275.3000      8.5547      2.6626      0.1682     -0.7621    141.2941     31.9662
  1275.4000      8.5547      2.6807      0.0885     -1.8589    138.5623     30.3122
  1275.5000      8.5542      2.7310      0.1705     -4.9091    136.9022     29.2624
  1275.6000      8.5542      2.7637      0.2509     -6.8920    132.5152     29.1104
  1275.7000      8.5542      2.7604      0.0952     -6.6923    124.2318     29.4529
  1275.8000      8.3765      2.7511      0.2155     -6.1271    115.0674     29.7166
  1275.9000      8.3765      2.7397      0.1340     -5.4334    111.9522     29.3646
  1276.0000      8.3149      2.7110      0.1432     -3.6977    113.9489     28.3640
  1276.1000      8.3149      2.6756      0.1023     -1.5532    113.8113     27.2715
  1276.2000      8.3149      2.6648      0.0248     -0.8942    108.6839     26.6830
  1276.3000      8.2839      2.6722      0.1412     -1.3475    102.4470     26.8419
  1276.4000      8.2839      2.6627      0.0695     -0.7724     99.7636     27.4719
  1276.5000      8.2708      2.6417      0.0937      0.5007     99.6529     27.9632
  1276.6000      8.2708      2.6238      0.1949      1.5853     98.8156     27.9027
  1276.7000      8.2708      2.6029      0.0937      2.8563     99.8503     27.4040
  1276.8000      8.2692      2.5835      0.1113      4.0301    104.7992     26.7867
  1276.9000      8.2692      2.5750      0.1286      4.5477    110.3308     26.1760
  1277.0000      8.2713      2.5781      0.1057      4.3553    112.8095     25.7771
  1277.1000      8.2713      2.5924      0.1197      3.4879    112.1890     25.8812
  1277.2000      8.2713      2.6171      0.1072      1.9937    113.3335     26.3281
  1277.3000      8.2623      2.6408      0.1330      0.5579    114.5252     26.4153
  1277.4000      8.2623      2.6434      0.1658      0.4014    108.7495     26.1062
  1277.5000      8.2565      2.6267      0.1283      1.4094    101.9282     26.2649
  1277.6000      8.2565      2.6197      0.1150      1.8391    102.2536     26.9007
  1277.7000      8.2565      2.6282      0.1567      1.3205    104.4546     27.0947
  1277.8000      8.2671      2.6247      0.1771      1.5309    104.3806     26.6981
  1277.9000      8.2671      2.5977      0.1367      3.1701    106.8111     26.4443
  1278.0000      8.2751      2.5667      0.0632      5.0468    113.9714     26.3869
  1278.1000      8.2751      2.5436      0.0914      6.4465    121.0551     26.1464
  1278.2000      8.2751      2.5232      0.0779      7.6848    122.1179     26.1980
  1278.3000      8.2672      2.5128      0.0628      8.3124    118.0481     26.8141
  1278.4000      8.2672      2.5282      0.1211      7.3790    112.6897     27.3842
  1278.5000      8.2702      2.5627      0.1377      5.2925    106.4536     27.4637
  1278.6000      8.2702      2.5952      0.1660      3.3239    103.6407     27.2832
  1278.7000      8.2702      2.6194      0.2204      1.8555    110.0430     27.2625
  1278.8000      8.3218      2.6301      0.2437      1.2068    121.7154     27.4028
  1278.9000      8.3218      2.6183      0.2073      1.9183    132.0300     27.2769
  1279.0000      8.3391      2.5945      0.1408      3.3614    138.2305     26.7353
  1279.1000      8.3391      2.5726      0.1499      4.6885    141.1015     26.1229
  1279.2000      8.3391      2.5554      0.1419      5.7313    142.7915     25.6677
  1279.3000      8.3186      2.5423      0.1674      6.5284    145.2383     25.3587
  1279.4000      8.3186      2.5254      0.1657      7.5525    148.3011     25.1602
