~Version Information
VERS.                      2.0: CWLS Log ASCII Standard - VERSION 2.0
WRAP.                       NO: One line per depth step
~Well Information Block
STRT.FT               952.6000: 
STOP.FT              2511.5000: 
STEP.FT                 0.1000: 
NULL.                -999.2500: 
COMP.          Petrogulf Corporation: COMPANY
WELL.             Royal 8-33 V: WELL
FLD.           Purgatoire River: FIELD
LOC.           2365' FSL & 2336' FEL: LOCATION
PROV.                 Colorado: PROVINCE
CNTY.               Las Animas: COUNTRY
SRVC.                Patterson: SERVICE COMPANY
DATE.          Fri Dec 05 09:15:49 2003: LOG DATE
UWI.                          : UNIQUE WELL ID
~Curve Information Block
DEPT.FT            0 000 00 00: Depth
DCAL.in                       : CDL Caliper
RHOB.g/cc                     : CDL Bulk Density
RHOC.g/cc                     : CDL Density Correction
DPOR.pu                       : CDL Density Porosity
GR.GAPI                       : Gamma Ray
NPOR.pu                       : Neutron Porosity
~Parameter Information Block
~A  Depth       DCAL        RHOB        RHOC        DPOR         GR         NPOR    
# ...
  1173.4000      9.1181      1.3051      0.0113     81.5071     68.2573      6.2520
  1173.5000      9.1171      1.2821      0.0444     82.9040     65.2350      7.1457
  1173.6000      9.1171      1.2850      0.1304     82.7275     64.5514      8.2938
  1173.7000      9.1171      1.2872      0.0827     82.5961     68.8964      8.8332
  1173.8000      9.2662      1.2963      0.1137     82.0404     77.6800      9.1352
  1173.9000      9.2662      1.3433      0.1245     79.1956     85.0525     10.0967
  1174.0000      9.3086      1.4484      0.2758     72.8263     88.4466     11.3032
  1174.1000      9.3086      1.6029      0.3403     63.4581     89.3407     12.1961
  1174.2000      9.3086      1.7759      0.4006     52.9737     90.2820     13.1875
  1174.3000      9.3786      1.9364      0.4532     43.2509     93.8505     14.3410
  1174.4000      9.3786      2.0739      0.4847     34.9162     98.3726     15.2006
  1174.5000      9.2922      2.1908      0.5829     27.8310    101.4148     15.7091
  1174.6000      9.2922      2.2809      0.6048     22.3686    107.4089     16.2424
  1174.7000      9.2922      2.3383      0.6544     18.8899    118.8925     17.3052
  1174.8000      9.3939      2.3682      0.5027     17.0767    128.3564     18.9370
  1174.9000      9.3939      2.3767      0.4542     16.5643    129.9397     20.5612
  1175.0000      9.3263      2.3731      0.3445     16.7848    128.0672     21.8154
  1175.1000      9.3263      2.3871      0.3015     15.9338    127.3562     23.0998
  1175.2000      9.3263      2.4463      0.3220     12.3443    125.9617     25.0198
  1175.3000      9.0827      2.5498      0.3790      6.0699    124.9529     27.2438
  1175.4000      9.0827      2.6675      0.5872     -1.0594    125.5487     28.8921
  1175.5000      9.1480      2.7493      0.6090     -6.0194    127.4010     29.5228
  1175.6000      9.1480      2.7617      0.6016     -6.7694    134.8092     29.1646
  1175.7000      9.1480      2.7192      0.4649     -4.1910    145.7577     28.3755
  1175.8000      9.2084      2.6676      0.2983     -1.0671    151.7346     28.1102
  1175.9000      9.2084      2.6319      0.2124      1.0994    148.4606     28.7769
  1176.0000      8.9989      2.6053      0.1451      2.7113    140.3697     29.4573
  1176.1000      8.9989      2.5828      0.1238      4.0753    137.0441     29.1931
  1176.2000      8.9989      2.5613      0.0993      5.3743    137.5970     28.4040
  1176.3000      8.3865      2.5387      0.1102      6.7471    133.5956     27.9212
  1176.4000      8.3865      2.5307      0.0289      7.2325    126.6599     27.8292
  1176.5000      8.2703      2.5473      0.0703      6.2213    121.8597     27.7340
  1176.6000      8.2703      2.5729      0.0495      4.6742    119.5330     27.6969
  1176.7000      8.2703      2.6022      0.0443      2.8964    120.8939     27.7675
  1176.8000      8.2467      2.6407      0.0963      0.5652    122.6354     27.4282
  1176.9000      8.2467      2.6776      0.1178     -1.6739    118.5896     26.6056
  1177.0000      8.2383      2.6960      0.0878     -2.7875    111.2331     25.8031
  1177.1000      8.2383      2.6923      0.1481     -2.5664    106.7692     25.3353
  1177.2000      8.2383      2.6761      0.0566     -1.5847    106.8177     24.9937
  1177.3000      8.2690      2.6640      0.0178     -0.8463    108.9258     24.6366
  1177.4000      8.2690      2.6620      0.0638     -0.7297    109.6528     24.5444
  1177.5000      8.2551      2.6573      0.0742     -0.4431    109.5244     24.3949
  1177.6000      8.2551      2.6351      0.0942      0.9040    110.9156     23.7438
  1177.7000      8.2551      2.6018      0.0316      2.9186    110.7868     23.0668
  1177.8000      8.1754      2.5869     -0.0021      3.8246    106.2972     22.8929
  1177.9000      8.1754      2.6077      0.0122      2.5628     99.1024     23.2644
  1178.0000      8.1639      2.6473      0.0357      0.1650     92.6846     23.8499
  1178.1000      8.1639      2.6801      0.0165     -1.8248     87.6154     24.2326
  1178.2000      8.1639      2.6901      0.0528     -2.4319     82.5375     24.0220
  1178.3000      8.2007      2.6693      0.0052     -1.1682     79.5369     23.1395
  1178.4000      8.2007      2.6309      0.0352      1.1599     82.4120     22.2265
  1178.5000      8.1990      2.6012      0.0100      2.9566     90.2656     21.7978
  1178.6000      8.1990      2.5938      0.0556      3.4044     98.2183     22.0231
  1178.7000      8.1990      2.5961      0.0347      3.2639    102.0987     23.0694
  1178.8000      8.1430      2.5855      0.1379      3.9076    102.9188     24.6713
  1178.9000      8.1430      2.5670      0.0119      5.0289    100.3982     26.3778
  1179.0000      8.1422      2.5727     -0.0056      4.6871     93.1688     28.1648
  1179.1000      8.1422      2.6054      0.0398      2.7053     88.8875     29.8128
  1179.2000      8.1422      2.6291      0.1260      1.2673     93.2069     30.9358
  1179.3000      8.1530      2.6248      0.1125      1.5300    102.5801     31.8011
  1179.4000      8.1530      2.6260     -0.0034      1.4567    110.6975     32.6643
  1179.5000      8.1385      2.6590      0.0717     -0.5437    111.7796     33.2036
  1179.6000      8.1385      2.6923      0.1539     -2.5625    106.7569     32.8261
  1179.7000      8.1385      2.7107      0.0531     -3.6792     99.9381     31.7825
  1179.8000      8.1324      2.7497      0.1140     -6.0407     92.9325     30.9784
  1179.9000      8.1324      2.8139      0.1827     -9.9316     87.1400     30.3789
  1180.0000      8.1170      2.8653      0.2392    -13.0469     81.9229     29.2976
  1180.1000      8.1170      2.8856      0.1921    -14.2812     76.7113     27.9558
  1180.2000      8.1170      2.8810      0.1989    -13.9998     76.8985     27.0089
  1180.3000      8.0407      2.8468      0.1512    -11.9245     82.0197     26.3475
  1180.4000      8.0407      2.7758      0.0037     -7.6214     83.4022     25.7036
  1180.5000      8.0933      2.6761     -0.0638     -1.5840     79.3872     25.0774
  1180.6000      8.0933      2.5771     -0.1681      4.4186     75.3823     24.2847
  1180.7000      8.0933      2.5263     -0.2376      7.4977     75.0256     23.5224
  1180.8000      8.1398      2.5375     -0.0130      6.8193     80.4490     23.2395
  1180.9000      8.1398      2.5711      0.0689      4.7798     91.2889     23.1899
  1181.0000      8.1762      2.6011      0.1197      2.9635    101.9492     23.2052
  1181.1000      8.1762      2.6299      0.1679      1.2155    109.6829     23.7295
  1181.2000      8.1762      2.6560      0.2461     -0.3635    119.4056     24.7637
  1181.3000      8.1202      2.6753      0.2437     -1.5327    131.6054     25.7373
  1181.4000      8.1202      2.6945      0.2472     -2.6990    138.8230     26.2205
  1181.5000      8.0688      2.7104      0.2752     -3.6635    137.4002     26.3614
  1181.6000      8.0688      2.7073      0.2035     -3.4749    133.9298     26.5716
  1181.7000      8.0688      2.6855      0.2188     -2.1507    136.9735     26.5954
  1181.8000      8.0960      2.6633      0.1174     -0.8050    143.6035     26.1157
  1181.9000      8.0960      2.6535      0.1625     -0.2115    144.5178     25.7073
  1182.0000      8.2269      2.6507      0.1537     -0.0406    139.5544     25.6475
  1182.1000      8.2269      2.6559      0.0788     -0.3598    135.1209     25.6658
  1182.2000      8.2269      2.6703      0.1140     -1.2307    135.4363     25.6773
  1182.3000      8.2745      2.6729      0.1405     -1.3864    140.4688     25.7690
  1182.4000      8.2745      2.6581      0.0928     -0.4909    144.1883     26.0145
  1182.5000      8.3039      2.6537      0.0314     -0.2216    142.2941     26.2280
  1182.6000      8.3039      2.6682      0.1448     -1.1029    141.3760     26.2614
  1182.7000      8.3039      2.6695      0.1079     -1.1793    146.8525     26.2055
  1182.8000      8.2948      2.6370      0.0830      0.7882    152.8359     26.2862
  1182.9000      8.2948      2.5937      0.0037      3.4091    153.8209     26.6165
