~Version Information
VERS.                      2.0: CWLS Log ASCII Standard - VERSION 2.0
WRAP.                       NO: One line per depth step
~Well Information Block
STRT.FT               742.0000: 
STOP.FT              2582.0000: 
STEP.FT                 0.2500: 
NULL.                -999.2500: 
COMP.          Petrogulf Corporation: COMPANY
WELL.            Montoya 7-12V: WELL
FLD.           Purgatorie River: FIELD
LOC.           728' FWL & 1764' FNL: LOCATION
CNTY.               Las Animas: COUNTY
SRVC.                         : SERVICE COMPANY
DATE.          Thu Feb 19 20:58:32 2004: LOG DATE
UWI.           05-071-07887-00: UNIQUE WELL ID
STAT.                 Colorado: STATE
~Curve Information Block
DEPT.FT            0 000 00 00: Depth
SP.mV                         : DIL Spontaneous Potential
RILD.Ohm-m                    : DIL Deep Resistivity
RILM.Ohm-m                    : DIL Medium Resistivity
RLL3.Ohm-m                    : DIL Shallow Resistivity
GR.GAPI                       : Gamma Ray
~Parameter Information Block
~A  Depth        SP         RILD        RILM        RLL3         GR     
# ...
   770.0000   -177.5044     10.6742 100000.0000      0.3671    114.2183
   770.2500   -160.8266     10.6242 100000.0000     -0.3013    113.6213
   770.5000   -149.3883     10.5028 100000.0000     -0.8074    109.5327
   770.7500   -142.9269     10.3522 100000.0000     -0.9547    104.8876
   771.0000   -139.9033     10.2160 100000.0000     -0.7529     96.9547
   771.2500   -138.7455     10.1267 100000.0000     -0.4030     92.5233
   771.5000   -138.3950     10.0979 100000.0000     -0.0421     88.6222
   771.7500   -138.1557     10.1239 100000.0000      0.4571     87.7523
   772.0000   -137.4068     10.1838 100000.0000      1.3780     88.0985
   772.2500   -135.5781     10.2498 100000.0000      2.7710     88.8601
   772.5000   -132.3585     10.2960 100000.0000      4.1820     89.9240
   772.7500   -127.8979     10.3049 100000.0000      4.9587     90.1160
   773.0000   -122.8070     10.2718 100000.0000      4.8944     88.9465
   773.2500   -117.8725     10.2045 100000.0000      4.2860     86.9762
   773.5000   -113.6181     10.1207 100000.0000      3.3297     82.6395
   773.7500   -110.0421     10.0413 100000.0000      1.9255     79.6385
   774.0000   -106.7400      9.9839 100000.0000      0.1643     76.6644
   774.2500   -103.2677      9.9581 100000.0000     -1.4618     76.2060
   774.5000    -99.4373      9.9636 100000.0000     -2.4823     77.2239
   774.7500    -95.3871      9.9920 100000.0000     -2.8397     78.1986
   775.0000    -91.4630     10.0300 100000.0000     -2.8178     78.9920
   775.2500    -88.0220     10.0652 100000.0000     -2.7298     78.9546
   775.5000    -85.2751     10.0899 100000.0000     -2.7242     78.4896
   775.7500    -83.2575     10.1017 100000.0000     -2.7980     78.2365
   776.0000    -81.9128     10.1023 100000.0000     -2.9062     78.2661
   776.2500    -81.1838     10.0954 100000.0000     -3.0156     78.5877
   776.5000    -81.0270     10.0858 100000.0000     -3.0832     79.5126
   776.7500    -81.3645     10.0792 100000.0000     -3.0562     80.4710
   777.0000    -82.0335     10.0790 100000.0000     -2.9309     82.5554
   777.2500    -82.7814     10.0850 100000.0000     -2.7878     84.3514
   777.5000    -83.3259     10.0921 100000.0000     -2.7328     87.1634
   777.7500    -83.4565     10.0921 100000.0000     -2.8027     88.6080
   778.0000    -83.1230     10.0772 100000.0000     -2.9437     89.5720
   778.2500    -82.4642     10.0429 100000.0000     -3.0704     89.5986
   778.5000    -81.7593      9.9886 100000.0000     -3.1251     89.5404
   778.7500    -81.3067      9.9182 100000.0000     -3.0939     89.8254
   779.0000    -81.2772      9.8392 100000.0000     -2.9976     90.9812
   779.2500    -81.6368      9.7608 100000.0000     -2.8726     92.1308
   779.5000    -82.2008      9.6924 100000.0000     -2.7491     93.8827
   779.7500    -82.7709      9.6419 100000.0000     -2.6354     94.6580
   780.0000    -83.2456      9.6154 100000.0000     -2.5137     94.7116
   780.2500    -83.6348      9.6150 100000.0000     -2.3527     93.9987
   780.5000    -83.9918      9.6372 100000.0000     -2.1429     92.5829
   780.7500    -84.3181      9.6705 100000.0000     -1.9340     92.0816
   781.0000    -84.5168      9.6977 100000.0000     -1.7990     92.1108
   781.2500    -84.4526      9.7019 100000.0000     -1.7226     91.7753
   781.5000    -84.0949      9.6754 100000.0000     -1.5366     89.3120
   781.7500    -83.6267      9.6243 100000.0000     -1.0200     86.8146
   782.0000    -83.4093      9.5655 100000.0000     -0.1351     84.3489
   782.2500    -83.8065      9.5176 100000.0000      0.8005     84.5546
   782.5000    -84.9806      9.4927 100000.0000      1.2371     86.9819
   782.7500    -86.7809      9.4930 100000.0000      0.7800     89.0448
   783.0000    -88.7821      9.5129 100000.0000     -0.5110     92.1781
   783.2500    -90.4585      9.5447 100000.0000     -2.1749     94.5415
   783.5000    -91.4168      9.5812 100000.0000     -3.5881     98.5104
   783.7500    -91.5840      9.6160 100000.0000     -4.1025    100.7892
   784.0000    -91.2591      9.6424 100000.0000     -3.1626    102.2624
   784.2500    -90.9763      9.6535 100000.0000     -0.6348    101.7271
   784.5000    -91.2151      9.6449 100000.0000      2.9146     99.6284
   784.7500    -92.1358      9.6182 100000.0000      6.5441     98.1223
   785.0000    -93.5464      9.5817 100000.0000      9.7491     96.0279
   785.2500    -95.1320      9.5467 100000.0000     12.6794     94.3895
   785.5000    -96.7587      9.5214 100000.0000     15.2545     91.1918
   785.7500    -98.6128      9.5072 100000.0000     16.4352     88.8308
   786.0000   -101.0628      9.5001 100000.0000     15.0758     85.8356
   786.2500   -104.3505      9.4961 100000.0000     11.4085     84.6762
   786.5000   -108.3942      9.4961 100000.0000      6.8789     84.7456
   786.7500   -112.8903      9.5063 100000.0000      2.5112     86.0620
   787.0000   -117.5974      9.5342 100000.0000     -1.6930     89.3005
   787.2500   -122.5216      9.5828 100000.0000     -5.7129     91.4776
   787.5000   -127.8397      9.6476 100000.0000     -8.7790     93.3344
   787.7500   -133.6004      9.7184 100000.0000     -9.9715     93.3611
   788.0000   -139.4308      9.7842 100000.0000     -9.1271     92.1962
   788.2500   -144.5282      9.8355 100000.0000     -6.9809     91.0066
   788.5000   -147.9847      9.8627 100000.0000     -4.5837     88.7563
   788.7500   -149.1882      9.8531 100000.0000     -2.6906     87.2032
   789.0000   -148.0781      9.7942 100000.0000     -1.6168     86.0045
   789.2500   -145.2687      9.6869 100000.0000     -1.4933     86.4525
   789.5000   -142.0440      9.5604 100000.0000     -2.4187     88.2821
   789.7500   -140.0506      9.4776 100000.0000     -4.2589     89.3555
   790.0000   -140.6374      9.5204 100000.0000     -6.3962     89.9337
   790.2500   -144.2134      9.7630 100000.0000     -7.8867     89.8737
   790.5000   -150.1245     10.2423 100000.0000     -8.0445     90.0171
   790.7500   -157.1238     10.9278 100000.0000     -6.9232     90.5558
   791.0000   -164.0253     11.7007 100000.0000     -5.2061     91.6586
   791.2500   -170.1109     12.3753 100000.0000     -3.6338     92.0718
   791.5000   -175.1472     12.7909 100000.0000     -2.5321     91.7373
   791.7500   -179.1110     12.9154 100000.0000     -1.7769     91.1607
   792.0000   -181.9041     12.8620 100000.0000     -1.1171     90.8221
   792.2500   -183.3869     12.8196 100000.0000     -0.5453     91.3443
   792.5000   -183.7386     12.9812 100000.0000     -0.3568     92.7430
   792.7500   -183.7201     13.4999 100000.0000     -0.7783     93.2472
   793.0000   -184.4441     14.4335 100000.0000     -1.5916     92.4434
   793.2500   -186.7499     15.6201 100000.0000     -2.2938     91.2782
   793.5000   -190.6749     16.5281 100000.0000     -2.6212     90.4344
   793.7500   -195.4377     16.4418 100000.0000     -2.7369     91.3420
   794.0000   -199.8965     15.1913 100000.0000     -2.9072     94.9537
   794.2500   -203.0702     13.4005 100000.0000     -3.1831     98.1012
   794.5000   -204.3840     11.7699 100000.0000     -3.4344    102.0406
   794.7500   -203.6466     10.6078 100000.0000     -3.5500    103.2287
   795.0000   -200.9382      9.9468 100000.0000     -3.5362    102.4669
   795.2500   -196.5197      9.7562 100000.0000     -3.4575    100.8233
   795.5000   -190.7535     10.0638 100000.0000     -3.3012     98.0803
   795.7500   -183.9864     11.0081 100000.0000     -2.8821     96.5558
   796.0000   -176.3886     12.8023 100000.0000     -1.9139     94.7277
   796.2500   -167.9055     15.3551 100000.0000     -0.2800     93.6819
   796.5000   -158.4992     17.0739 100000.0000      1.6609     92.5196
   796.7500   -148.5764     15.2748 100000.0000      3.0922     92.2167
   797.0000   -139.2346     11.1924 100000.0000      3.3208     92.3976
   797.2500   -132.1239      7.8763 100000.0000      2.6517     92.6304
   797.5000   -129.0174      5.9485 100000.0000      2.9493     92.8819
   797.7500   -131.2023      4.9972 100000.0000      7.6398     93.2487
