~Version Information
VERS.                      2.0: CWLS Log ASCII Standard - VERSION 2.0
WRAP.                       NO: One line per depth step
~Well Information Block
STRT.FT                -8.5000: 
STOP.FT              1968.0000: 
STEP.FT                 0.2500: 
NULL.                -999.2500: 
COMP.          Pioneer Natural Resources: COMPANY
WELL.           Firehawk 34-26: WELL
FLD.           Purgatorie River: FIELD
LOC.           1196' FSL & 1595' FEL--: LOCATION
STAT.                       CO: State
CNTY.               Las Animas: COUNTY
CTRY. USA : Country
SECT. 26 : Section
TOWN. 32S : Township
RANG. 66W : Range 
SRVC.          Patterson Wireline: SERVICE COMPANY
DATE.          Tue Oct 25 14:45:07 2005: LOG DATE
API.           05 071 08389 00: UNIQUE WELL ID
~Curve Information Block
DEPT.FT            0 000 00 00: Depth
CCL.                          : Casing Collar Locator
TT3.usec                      : CBL 3' Travel Time
AMP3.mV                       : CBL 3' Amplitude
GR.GAPI                       : Gamma Ray
~Parameter Information Block
~A  Depth       CCL         TT3         AMP3         GR     
# ...
   762.0000      0.0000    543.1207      5.5079     62.1692
   762.2500      0.0000    523.8675      5.5489     61.9783
   762.5000      0.0000    513.2502      5.6070     64.2735
   762.7500      0.0000    509.2671      5.6611     67.4147
   763.0000      0.0000    509.1986      5.6969     69.2057
   763.2500      0.0000    512.1221      5.7024     68.1282
   763.5000      0.0000    519.5033      5.6645     64.3068
   763.7500      0.0000    534.4579      5.5764     59.5470
   764.0000      0.0000    559.3950      5.4509     56.3054
   764.2500      0.0000    592.8056      5.3212     56.2550
   764.5000      0.0000    628.1077      5.2242     59.5280
   764.7500      0.0000    656.5263      5.1787     65.1792
   765.0000      0.0000    671.3647      5.1774     72.0893
   765.2500      0.0000    669.5981      5.1988     79.1281
   765.5000      0.0000    651.4310      5.2254     84.9064
   765.7500      0.0000    621.0712      5.2523     88.1997
   766.0000      0.0000    587.8330      5.2809     88.6367
   766.2500      0.0000    563.2108      5.3109     86.4961
   766.5000      0.0000    553.9496      5.3402     82.1158
   766.7500      0.0000    557.3776      5.3682     76.0722
   767.0000      0.0000    564.2090      5.3968     69.5784
   767.2500      0.0000    566.5045      5.4277     64.0225
   767.5000      0.0000    563.2585      5.4598     60.2079
   767.7500      0.0000    559.5478      5.4894     58.4072
   768.0000      0.0000    562.0997      5.5121     58.7411
   768.2500      0.0000    575.0327      5.5245     60.8295
   768.5000      0.0000    596.2499      5.5282     63.2815
   768.7500      0.0000    615.9759      5.5376     64.3365
   769.0000      0.0000    621.0950      5.5812     63.1735
   769.2500      0.0000    604.2666      5.6865     60.2049
   769.5000      0.0000    570.1661      5.8501     56.2972
   769.7500      0.0000    532.2363      6.0223     52.2999
   770.0000      0.0000    502.5996      6.1413     49.1472
   770.2500      0.0000    484.5862      6.2007     47.6001
   770.5000      0.0000    475.4829      6.2721     47.7030
   770.7500      0.0000    475.9550      6.4304     48.9127
   771.0000      0.0000    493.0576      6.6561     50.9456
   771.2500      0.0000    530.7797      6.8352     54.4223
   771.5000      0.0000    579.9739      6.8596     60.5966
   771.7500     -2.0000    621.6926      6.7117     70.3499
   772.0000      0.0000    641.1345      6.4579     83.2548
   772.2500      0.0000    638.8436      6.1952     97.4914
   772.5000      0.0000    629.7776      6.0088    110.7023
   772.7500      0.0000    630.5035      5.9436    121.1360
   773.0000      0.0000    645.6372      5.9920    128.1470
   773.2500      0.0000    666.8398      6.1186    132.0159
   773.5000      0.0000    683.6047      6.2844    133.6937
   773.7500      0.0000    692.1152      6.4318    134.3915
   774.0000      0.0000    694.7678      6.4793    134.7829
   774.2500      0.0000    695.2897      6.3749    134.7860
   774.5000      0.0000    696.1428      6.1460    134.3068
   774.7500      0.0000    698.6854      5.8776    133.6741
   775.0000      0.0000    703.6858      5.6481    133.2006
   775.2500      0.0000    711.0485      5.4922    132.7050
   775.5000      0.0000    719.5524      5.4048    131.3763
   775.7500      0.0000    727.5611      5.3615    127.9790
   776.0000      0.0000    734.1935      5.3362    121.5822
   776.2500      0.0000    739.5907      5.3101    112.3016
   776.5000      0.0000    744.1383      5.2729    101.4286
   776.7500      0.0000    747.9514      5.2191     91.2235
   777.0000      0.0000    751.0877      5.1503     84.4364
   777.2500      0.0000    753.4363      5.0799     83.1349
   777.5000      0.0000    754.1478      5.0290     87.3051
   777.7500      0.0000    752.0707      5.0173     94.5519
   778.0000      0.0000    747.2061      5.0533    101.3863
   778.2500      0.0000    741.0378      5.1303    105.3382
   778.5000      0.0000    735.1490      5.2312    106.3574
   778.7500      0.0000    730.1606      5.3439    106.1820
   779.0000      0.0000    726.1535      5.4725    106.3033
   779.2500      0.0000    723.3342      5.6320    106.9044
   779.5000      0.0000    721.9097      5.8268    107.7432
   779.7500      0.0000    721.8814      6.0355    109.0812
   780.0000      0.0000    723.2322      6.2174    111.1215
   780.2500      0.0000    725.8354      6.3394    113.2781
   780.5000      0.0000    729.1050      6.3939    114.8492
   780.7500      0.0000    732.2596      6.3963    116.1299
   781.0000      0.0000    735.0526      6.3701    118.3172
   781.2500      0.0000    737.8785      6.3329    122.2480
   781.5000      0.0000    740.9660      6.2876    127.4047
   781.7500      0.0000    743.5615      6.2237    132.1305
   782.0000      0.0000    744.1402      6.1341    134.6604
   782.2500      0.0000    741.4601      6.0281    134.0143
   782.5000      0.0000    735.1375      5.9264    130.2398
   782.7500      0.0000    725.2653      5.8463    124.1375
   783.0000      0.0000    712.2648      5.7918    116.9230
   783.2500      0.0000    697.5770      5.7560    110.0698
   783.5000      0.0000    683.8860      5.7276    105.1134
   783.7500      0.0000    673.9806      5.7014    103.0876
   784.0000      0.0000    669.3611      5.6861    103.9128
   784.2500      0.0000    669.7782      5.6974    106.6006
   784.5000      0.0000    673.4887      5.7373    110.1883
   784.7500      0.0000    677.6583      5.7793    114.1660
   785.0000      0.0000    679.2534      5.7821    118.0890
   785.2500      0.0000    676.5835      5.7244    121.5115
   785.5000      0.0000    670.5773      5.6272    124.7090
   785.7500      0.0000    664.4938      5.5374    128.7536
   786.0000      0.0000    661.9448      5.4919    133.9950
   786.2500      0.0000    664.6314      5.4973    138.8943
   786.5000      0.0000    671.4132      5.5392    141.4200
   786.7500      0.0000    679.2764      5.5999    141.4099
   787.0000      0.0000    685.3974      5.6630    140.5690
   787.2500      0.0000    688.6237      5.7115    140.3335
   787.5000      0.0000    689.4736      5.7386    140.5743
   787.7500      0.0000    689.4865      5.7657    140.1825
   788.0000      0.0000    690.8012      5.8436    138.1173
   788.2500      0.0000    695.4532      6.0252    133.8070
   788.5000      0.0000    704.0086      6.3245    127.3201
   788.7500      0.0000    714.8177      6.6959    119.9264
   789.0000      0.0000    725.2517      7.0573    114.3739
   789.2500      0.0000    733.7016      7.3457    113.5256
   789.5000      0.0000    740.0740      7.5513    117.9032
   789.7500      0.0000    744.6519      7.6948    124.8580
   790.0000      0.0000    747.3655      7.7841    130.7791
   790.2500      0.0000    748.3856      7.8080    133.8994
   790.5000      0.0000    748.5374      7.7594    134.6485
   790.7500      0.0000    748.4130      7.6478    134.1167
   791.0000      0.0000    747.5978      7.4898    133.2097
   791.2500      0.0000    745.4585      7.2991    132.9961
   791.5000      0.0000    742.3276      7.0832    134.7440
   791.7500      0.0000    739.3306      6.8447    139.0644
   792.0000      0.0000    737.2625      6.5904    145.1524
   792.2500      0.0000    736.0035      6.3376    151.0375
   792.5000      0.0000    734.7707      6.1067    154.8070
   792.7500      0.0000    732.6274      5.9083    155.8324
   793.0000      0.0000    728.9407      5.7435    155.0647
   793.2500      0.0000    723.6761      5.6170    154.1937
   793.5000      0.0000    717.3226      5.5388    154.2364
   793.7500      0.0000    710.5392      5.5134    154.5378
   794.0000      0.0000    703.9980      5.5274    153.3259
   794.2500      0.0000    698.4254      5.5517    149.7002
   794.5000      0.0000    694.4086      5.5572    144.7083
   794.7500      0.0000    692.0502      5.5341    139.8736
   795.0000      0.0000    690.9465      5.4965    135.3345
   795.2500      0.0000    690.5104      5.4640    130.4085
