~Version Information
VERS.                      2.0: CWLS Log ASCII Standard - VERSION 2.0
WRAP.                       NO: One line per depth step
~Well Information Block
STRT.FT               732.2500: 
STOP.FT              2476.0000: 
STEP.FT                 0.2500: 
NULL.                -999.2500: 
COMP.          Petrogulf Corporation: COMPANY
WELL.            Montoya 7-14V: WELL
FLD.           Purgatorie River: FIELD
LOC.           535' FSL & 491' FWL: LOCATION
CNTY.               Las Animas: COUNTY
SRVC.                         : SERVICE COMPANY
DATE.          Mon Aug 23 05:51:43 2004: LOG DATE
UWI.           05 071 08019 00: UNIQUE WELL ID
STAT.                 Colorado: STATE
~Curve Information Block
DEPT.FT            0 000 00 00: Depth
SP.mV                         : DIL Spontaneous Potential
RILD.Ohm-m                    : DIL Deep Resistivity
RILM.Ohm-m                    : DIL Medium Resistivity
RLL3.Ohm-m                    : DIL Shallow Resistivity
GR.GAPI                       : Gamma Ray
~Parameter Information Block
~A  Depth        SP         RILD        RILM        RLL3         GR     
# ...
  1768.2500    -20.2060     17.7400     17.1686     31.7672    141.4171
  1768.5000    -20.1788     18.7868     18.4686     38.5888    137.4926
  1768.7500    -20.0788     19.9346     20.0189     45.4367    134.8592
  1769.0000    -19.8601     21.1773     21.8323     51.4579    130.4274
  1769.2500    -19.5208     22.4944     23.9101     56.4300    127.0253
  1769.5000    -19.1038     23.8583     26.2314     60.8115    121.7425
  1769.7500    -18.6815     25.2450     28.7378     65.2661    118.6842
  1770.0000    -18.3385     26.6308     31.3188     69.9912    115.5561
  1770.2500    -18.1454     27.9749     33.8101     74.3617    114.5845
  1770.5000    -18.1398     29.2002     36.0173     77.1599    114.8682
  1770.7500    -18.3138     30.2004     37.7675     77.2435    116.3080
  1771.0000    -18.6224     30.8797     38.9677     74.2140    120.2983
  1771.2500    -19.0040     31.2025     39.6321     68.6784    123.8314
  1771.5000    -19.4089     31.2207     39.8613     61.9831    129.3868
  1771.7500    -19.8111     31.0575     39.7886     55.6370    132.5942
  1772.0000    -20.2079     30.8599     39.5292     50.7752    135.7132
  1772.2500    -20.6007     30.7474     39.1535     47.8940    136.3125
  1772.5000    -20.9751     30.7732     38.6858     46.8715    134.9498
  1772.7500    -21.2886     30.9105     38.1264     47.1558    132.9102
  1773.0000    -21.4798     31.0710     37.4743     48.0024    129.2920
  1773.2500    -21.4933     31.1521     36.7486     48.6966    127.2766
  1773.5000    -21.3080     31.0899     35.9960     48.7335    126.0836
  1773.7500    -20.9602     30.8868     35.2858     47.9262    126.9416
  1774.0000    -20.5426     30.5916     34.6936     46.4138    130.2571
  1774.2500    -20.1777     30.2542     34.2875     44.5653    132.7927
  1774.5000    -19.9793     29.8927     34.1178     42.8207    135.2024
  1774.7500    -20.0135     29.4927     34.2113     41.5627    135.5792
  1775.0000    -20.2757     29.0330     34.5702     41.1020    135.3029
  1775.2500    -20.6852     28.5128     35.1706     41.8044    135.1397
  1775.5000    -21.1033     27.9582     35.9608     44.2652    134.2810
  1775.7500    -21.3630     27.4077     36.8547     49.3247    131.9679
  1776.0000    -21.3101     26.8894     37.7308     57.7378    123.4715
  1776.2500    -20.8468     26.4123     38.4347     69.5332    113.9462
  1776.5000    -19.9723     25.9697     38.8029     83.4217     95.4685
  1776.7500    -18.8014     25.5506     38.6961     96.7439     82.4503
  1777.0000    -17.5516     25.1473     38.0476    106.1886     65.8931
  1777.2500    -16.4868     24.7565     36.8844    109.0132     58.6943
  1777.5000    -15.8396     24.3748     35.3194    104.1536     55.6432
  1777.7500    -15.7314     23.9964     33.5091     92.6588     59.3326
  1778.0000    -16.1338     23.6186     31.6074     77.2605     73.2485
  1778.2500    -16.8752     23.2462     29.7353     61.3074     86.9846
  1778.5000    -17.7007     22.8943     27.9738     47.5773    110.3359
  1778.7500    -18.3570     22.5841     26.3697     37.5029    124.7832
  1779.0000    -18.6702     22.3322     24.9499     31.0967    140.6830
  1779.2500    -18.5873     22.1371     23.7318     27.4558    146.6606
  1779.5000    -18.1730     21.9725     22.7299     25.4523    150.4686
  1779.7500    -17.5649     21.7922     21.9591     24.2371    151.4743
  1780.0000    -16.9153     21.5531     21.4351     23.4104    152.9086
  1780.2500    -16.3426     21.2459     21.1735     22.9428    153.9352
  1780.5000    -15.9095     20.9134     21.1892     23.0071    155.0003
  1780.7500    -15.6348     20.6424     21.4964     23.8394    155.4265
  1781.0000    -15.5226     20.5348     22.1074     25.6731    155.9300
  1781.2500    -15.5880     20.6778     23.0317     28.7141    155.6465
  1781.5000    -15.8678     21.1265     24.2745     33.0907    152.1662
  1781.7500    -16.4066     21.8942     25.8340     38.7258    146.9769
  1782.0000    -17.2282     22.9472     27.7012     45.1852    135.9415
  1782.2500    -18.3083     24.2002     29.8599     51.6698    128.1550
  1782.5000    -19.5629     25.5237     32.2892     57.2999    118.5034
  1782.7500    -20.8533     26.7732     34.9643     61.6025    113.9206
  1783.0000    -22.0164     27.8385     37.8546     64.8589    108.9876
  1783.2500    -22.9045     28.6819     40.9088     67.9712    106.2002
  1783.5000    -23.4227     29.3412     44.0281     71.8658    101.9247
  1783.7500    -23.5497     29.8974     47.0314     76.8372     98.8818
  1784.0000    -23.3429     30.4302     49.6373     82.2923     94.1458
  1784.2500    -22.9187     30.9842     51.4902     87.0500     91.1652
  1784.5000    -22.4267     31.5579     52.2648     89.9449     87.8841
  1784.7500    -22.0158     32.1131     51.8072     90.2986     87.0082
  1785.0000    -21.8061     32.6111     50.2358     87.9903     87.9901
  1785.2500    -21.8590     33.0528     47.8944     83.2253     90.1609
  1785.5000    -22.1624     33.4967     45.2182     76.3335     95.8342
  1785.7500    -22.6258     34.0300     42.5843     67.8084    101.2656
  1786.0000    -23.1078     34.7068     40.2448     58.4678    111.0544
  1786.2500    -23.4609     35.4843     38.3226     49.4458    117.6371
  1786.5000    -23.5829     36.1904     36.8454     41.9027    125.8057
  1786.7500    -23.4470     36.5609     35.7834     36.6407    129.4416
  1787.0000    -23.0983     36.3537     35.0778     33.8911    131.2981
  1787.2500    -22.6226     35.4861     34.6614     33.3670    129.4683
  1787.5000    -22.1064     34.0898     34.4715     34.4709    121.0134
  1787.7500    -21.6114     32.4367     34.4587     36.5111    111.5164
  1788.0000    -21.1710     30.8049     34.5879     38.8600     93.0874
  1788.2500    -20.8007     29.3891     34.8352     41.0620     79.7401
  1788.5000    -20.5086     28.2839     35.1793     42.9019     61.3850
  1788.7500    -20.2925     27.5013     35.5919     44.4209     51.7600
  1789.0000    -20.1366     26.9959     36.0267     45.8671     42.3737
  1789.2500    -20.0104     26.6812     36.4164     47.5982     39.1523
  1789.5000    -19.8800     26.4442     36.6800     49.9612     37.1217
  1789.7500    -19.7309     26.1712     36.7401     53.1734     36.6001
  1790.0000    -19.5867     25.7813     36.5470     57.2037     36.3873
  1790.2500    -19.5099     25.2541     36.0939     61.6518     37.0245
  1790.5000    -19.5836     24.6334     35.4190     65.6737     40.7639
  1790.7500    -19.8729     23.9981     34.5867     68.0795     46.1870
  1791.0000    -20.3889     23.4240     33.6649     67.7091     59.9577
  1791.2500    -21.0598     22.9524     32.7043     63.9960     72.8376
  1791.5000    -21.7364     22.5802     31.7316     57.3788     95.8332
  1791.7500    -22.2251     22.2685     30.7523     49.2144    111.7312
  1792.0000    -22.3444     21.9683     29.7608     41.1867    133.1219
  1792.2500    -21.9819     21.6503     28.7515     34.5995    144.4285
  1792.5000    -21.1322     21.3219     27.7277     29.9964    156.1929
  1792.7500    -19.9084     21.0227     26.7049     27.2261    160.8692
  1793.0000    -18.5217     20.8008     25.7086     25.7599    164.2109
  1793.2500    -17.2290     20.6893     24.7681     25.0028    164.5507
  1793.5000    -16.2755     20.6951     23.9117     24.4930    163.0439
  1793.7500    -15.8271     20.8021     23.1595     23.9979    161.2668
  1794.0000    -15.9260     20.9838     22.5236     23.5181    158.2168
  1794.2500    -16.4763     21.2165     22.0071     23.1994    155.9247
  1794.5000    -17.2705     21.4830     21.6078     23.1913    151.7496
  1794.7500    -18.0510     21.7633     21.3201     23.5397    148.6568
  1795.0000    -18.5846     22.0259     21.1384     24.1682    144.6230
  1795.2500    -18.7256     22.2310     21.0601     24.9314    142.8387
  1795.5000    -18.4411     22.3552     21.0859     25.6840    141.3744
  1795.7500    -17.7998     22.4236     21.2210     26.3257    140.7008
  1796.0000    -16.9347     22.5227     21.4741     26.8173    139.4809
