~Version Information
 VERS.                                  2.0 : CWLS LAS VERSION
 WRAP.                                   NO : WRAPING MODE
 SWARE .                 MController 2.5.0J : SOFTWARE VERSION
~Well Information
 WELL.                       Montoya 01-41V : WELL
 COMP.                Petrogulf Corporation : COMPANY
 FLD.                      Purgatoire River : FIELD
 LOC.                NE/NE Sec 01 T33S R68W : LOCATION
 DATE.                             08/21/05 : DATE(S) LOGGED
 SRVC.       BLANCO Geological Services LLC : SERVICE COMPANY
 STAT.                                   CO : STATE
 CNTY.                           Las Animas : COUNTY
 CTRY.                                  USA : COUNTRY
 API.                       05-071-08144-00 : API NUMBER
 STRT.FT                             719.00 : START DEPTH
 STOP.FT                            2945.00 : STOP DEPTH
 STEP.FT                               1.00 : DEPTH INCREMENT
 NULL.                                -9999 : NULL VALUE
~Curve information
 DEPTH.FT                                   :
 ROP.MIN/FT                                 :
 GAS.UNITS                                  :
~ASCII Log data
# ...
      1319.0         0.23         11.3 
      1320.0         2.18         16.3 
      1321.0         0.33          4.2 
      1322.0         0.30          3.5 
      1323.0         0.23          3.1 
      1324.0         6.73          4.5 
      1325.0         0.33          3.7 
      1326.0         0.20          3.2 
      1327.0         0.17          3.3 
      1328.0         0.15          3.3 
      1329.0         0.20          3.4 
      1330.0         0.20          2.7 
      1331.0         0.30          2.7 
      1332.0         0.27          2.4 
      1333.0         0.23          2.2 
      1334.0         0.37          2.9 
      1335.0         0.27          1.9 
      1336.0         0.20          1.9 
      1337.0         0.17          2.0 
      1338.0         0.17          2.0 
      1339.0         0.20          2.2 
      1340.0         0.20          1.8 
      1341.0         0.23          1.5 
      1342.0         0.20          1.4 
      1343.0         0.22          1.4 
      1344.0         0.27          1.6 
      1345.0         0.20          1.9 
      1346.0         0.20          1.9 
      1347.0         0.20          1.8 
      1348.0         0.27          2.2 
      1349.0         0.23          2.2 
      1350.0        11.32         36.1 
      1351.0         0.72          3.5 
      1352.0         0.50          2.1 
      1353.0         0.43          1.9 
      1354.0         0.33          1.9 
      1355.0         0.37          2.0 
      1356.0         0.27          2.2 
      1357.0         0.23          1.7 
      1358.0         0.33          1.6 
      1359.0         0.40          2.0 
      1360.0         0.48          1.8 
      1361.0         0.67          1.8 
      1362.0         0.60          1.9 
      1363.0         0.40          2.0 
      1364.0         0.47          2.0 
      1365.0         0.73          1.9 
      1366.0         0.45          2.0 
      1367.0         0.40          1.8 
      1368.0         0.40          2.1 
      1369.0         0.47          2.2 
      1370.0         0.47          1.8 
      1371.0         0.33          2.1 
      1372.0         0.37          2.3 
      1373.0         0.37          2.3 
      1374.0         0.30          2.6 
      1375.0         0.28          2.1 
      1376.0         0.33          1.9 
      1377.0         0.30          3.9 
      1378.0         0.27          7.2 
      1379.0         0.20          7.1 
      1380.0         2.00          5.2 
      1381.0         0.28          2.0 
      1382.0         0.30          2.2 
      1383.0         0.33          2.4 
      1384.0         0.40          2.4 
      1385.0         0.50          2.5 
      1386.0         0.43          2.8 
      1387.0         0.33          2.5 
      1388.0         0.33          2.5 
      1389.0         0.37          2.3 
      1390.0         0.42          2.9 
      1391.0         0.37          2.5 
      1392.0         0.33          2.8 
      1393.0         0.30          2.5 
      1394.0         0.30          2.6 
      1395.0         0.30          2.8 
      1396.0         0.33          2.6 
      1397.0         0.40          2.5 
      1398.0         0.23          2.5 
      1399.0         0.27          2.1 
      1400.0         0.28          3.0 
      1401.0         0.23          2.9 
      1402.0         0.27          2.5 
      1403.0         0.27          2.8 
      1404.0         0.23          2.6 
      1405.0         0.27          2.1 
      1406.0         0.23          2.9 
      1407.0         0.20          3.9 
      1408.0         0.23          5.7 
      1409.0         0.30          7.2 
      1410.0         2.35          8.0 
      1411.0         0.63          3.0 
      1412.0         0.37          3.0 
      1413.0         0.40          2.6 
      1414.0         0.30          2.5 
      1415.0         0.38          2.4 
      1416.0         0.37          2.6 
      1417.0         0.27          2.4 
      1418.0         0.30          2.7 
      1419.0         0.23          2.6 
      1420.0         0.27          3.1 
      1421.0         0.23          2.7 
      1422.0         0.23          2.7 
      1423.0         0.27          2.7 
      1424.0         0.27          2.7 
      1425.0         0.27          2.6 
      1426.0         0.20          2.5 
      1427.0         0.27          2.5 
      1428.0         0.25          2.5 
      1429.0         0.23          2.4 
      1430.0         0.23          2.4 
      1431.0         0.13          2.8 
      1432.0         0.17          3.0 
      1433.0         0.23          2.9 
      1434.0         0.23          2.6 
      1435.0         0.20          2.6 
      1436.0         0.23          2.3 
      1437.0         0.27          2.6 
      1438.0         0.23          3.9 
      1439.0         0.20          4.7 
      1440.0         1.78          5.0 
      1441.0         0.53          2.6 
      1442.0         0.30          2.4 
      1443.0         0.30          2.9 
      1444.0         0.23          2.6 
      1445.0         0.27          2.5 
      1446.0         0.27          2.5 
      1447.0         0.23          2.9 
      1448.0         0.32          2.8 
      1449.0         0.30          2.3 
      1450.0         0.23          2.4 
      1451.0         0.30          2.7 
      1452.0         0.23          2.9 
      1453.0         0.33          2.9 
      1454.0         0.33          2.6 
      1455.0         0.23          2.6 
      1456.0         0.27          2.6 
      1457.0         0.23          3.3 
      1458.0         0.20          2.8 
      1459.0         0.23          2.8 
      1460.0         0.23          2.8 
      1461.0         0.25          2.6 
      1462.0         0.27          3.1 
      1463.0         0.20          3.1 
      1464.0         0.20          2.9 
      1465.0         0.20          3.7 
      1466.0         0.20          5.2 
      1467.0         0.23          6.9 
      1468.0         0.23          8.7 
      1469.0         0.27          6.8 
      1470.0         1.88          4.5 
      1471.0         0.47          2.7 
      1472.0         0.23          2.8 
      1473.0         0.20          2.7 
      1474.0         0.30          2.9 
      1475.0         0.27          3.3 
      1476.0         0.40          3.4 
      1477.0         0.37          3.1 
      1478.0         0.30          2.9 
      1479.0         0.35          2.8 
      1480.0         0.23          2.9 
      1481.0         0.20          2.8 
      1482.0         0.17          3.1 
      1483.0         0.13          3.1 
      1484.0         0.13          3.3 
      1485.0         0.17          3.3 
      1486.0         0.23          3.0 
      1487.0         0.23          2.8 
      1488.0         0.23          2.7 
      1489.0         0.23          2.8 
      1490.0         0.20          3.0 
      1491.0         0.20          3.0 
      1492.0         0.20          3.1 
      1493.0         0.20          3.1 
      1494.0         0.20          3.4 
      1495.0         0.23          3.0 
      1496.0         0.25          3.0 
      1497.0         0.30          3.1 
      1498.0         0.30          3.9 
      1499.0         0.23          5.9 
      1500.0         2.42          7.3 
      1501.0         0.33          3.3 
      1502.0         0.47          3.7 
      1503.0         0.40          3.4 
      1504.0         0.40          3.2 
      1505.0         0.53          3.5 
      1506.0         0.37          3.6 
      1507.0         0.30          3.5 
      1508.0         0.27          3.7 
      1509.0         0.32          3.7 
      1510.0         0.33          3.2 
      1511.0         0.30          3.1 
      1512.0         0.27          3.3 
      1513.0         0.27          3.1 
      1514.0         0.30          3.5 
      1515.0         0.23          3.5 
      1516.0         0.27          3.3 
      1517.0         0.23          3.4 
      1518.0         0.27          3.2 
