~Version Information
VERS.                      2.0: CWLS Log ASCII Standard - VERSION 2.0
WRAP.                       NO: One line per depth step
~Well Information Block
STRT.FT               870.0000: 
STOP.FT              2519.5000: 
STEP.FT                 0.2500: 
NULL.                -999.2500: 
COMP.          Pioneer Natural Resources: COMPANY
WELL.              Tiaga 23-14: WELL
FLD.           Purgatoire River: FIELD
LOC.           2168' FSL & 2030' FWL: LOCATION
PROV.                 Colorado: PROVINCE
CNTY.               Las Animas: COUNTRY
SRVC.                         : SERVICE COMPANY
DATE.          Sat May 07 08:44:43 2005: LOG DATE
UWI.           05 071 08329 00: UNIQUE WELL ID
~Curve Information Block
DEPT.FT            0 000 00 00: Depth
LTEN.lb                       : Surface Line Tension
SN.Ohm-m                      : IEL Short Normal
SP.mV                         : IEL Spontaneous Potential
DIR.Ohm-m                     : IEL Induction Resistivity
GR.GAPI                       : Gamma Ray
~Parameter Information Block
~A  Depth       LTEN         SN          SP         DIR          GR     
# ...
  1514.0000    684.3074     20.9227    -48.4713     17.1413    115.0801
  1514.2500    681.6811     21.0473    -48.6265     17.5784    116.9187
  1514.5000    679.2138     21.2262    -48.7808     18.0272    119.7933
  1514.7500    677.0738     21.4930    -48.9367     18.4694    121.1705
  1515.0000    675.3054     21.8604    -49.0911     18.8899    121.3868
  1515.2500    674.0423     22.3370    -49.2368     19.2885    120.0376
  1515.5000    673.4414     22.9469    -49.3678     19.6873    116.3372
  1515.7500    673.4340     23.7360    -49.4834     20.1263    113.4505
  1516.0000    673.7006     24.7447    -49.5895     20.6498    109.3531
  1516.2500    673.9267     25.9705    -49.6958     21.2942    106.8329
  1516.5000    674.0206     27.3763    -49.8122     22.0772    103.1431
  1516.7500    674.0730     28.9192    -49.9448     22.9909    100.7695
  1517.0000    674.1925     30.5552    -50.0935     23.9995     97.7556
  1517.2500    674.4130     32.2640    -50.2538     25.0564     96.4007
  1517.5000    674.6766     34.1552    -50.4227     26.1423     95.5257
  1517.7500    674.9479     36.5211    -50.6045     27.2970     95.4440
  1518.0000    675.4813     39.6206    -50.8117     28.6081     95.0574
  1518.2500    676.7715     43.3296    -51.0617     30.1449     94.0317
  1518.5000    678.9354     47.0888    -51.3697     31.8838     90.8958
  1518.7500    681.3320     50.2880    -51.7418     33.6832     87.8686
  1519.0000    683.0606     52.7047    -52.1730     35.3405     82.4423
  1519.2500    683.6400     54.5301    -52.6483     36.6989     78.4985
  1519.5000    683.0527     55.9995    -53.1464     37.7119     72.5652
  1519.7500    681.4688     57.1217    -53.6418     38.4113     69.1010
  1520.0000    679.2350     57.7824    -54.1079     38.8414     65.7888
  1520.2500    676.9418     57.9423    -54.5205     39.0424     65.2361
  1520.5000    675.1439     57.6562    -54.8634     39.0944     66.5186
  1520.7500    673.9743     57.0034    -55.1306     39.1430     68.1247
  1521.0000    673.1882     56.0543    -55.3286     39.3499     70.6143
  1521.2500    672.6409     54.8832    -55.4747     39.7977     72.0444
  1521.5000    672.6513     53.6366    -55.5927     40.4203     73.7776
  1521.7500    673.7353     52.5389    -55.7046     41.0186     74.5865
  1522.0000    675.9757     51.7438    -55.8241     41.3531     74.6987
  1522.2500    678.8311     51.2029    -55.9551     41.2638     73.5178
  1522.5000    681.5418     50.7268    -56.0953     40.7347     69.5200
  1522.7500    683.6130     50.1942    -56.2396     39.8691     65.9336
  1523.0000    685.0491     49.6587    -56.3823     38.8082     61.1254
  1523.2500    686.2026     49.1859    -56.5180     37.6604     59.3120
  1523.5000    687.2502     48.6682    -56.6412     36.4749     59.2508
  1523.7500    687.8534     47.9046    -56.7449     35.2545     60.7085
  1524.0000    687.5156     46.7761    -56.8207     33.9787     64.2684
  1524.2500    686.2084     45.2599    -56.8605     32.6268     67.0565
  1524.5000    684.4526     43.3467    -56.8596     31.1949     71.1599
  1524.7500    682.8255     41.0412    -56.8195     29.7098     73.6335
  1525.0000    681.4968     38.4483    -56.7470     28.2253     77.2838
  1525.2500    680.1893     35.7940    -56.6527     26.7988     80.1768
  1525.5000    678.5370     33.3066    -56.5473     25.4641     85.5347
  1525.7500    676.5017     31.0798    -56.4389     24.2215     89.2738
  1526.0000    674.4924     29.0641    -56.3321     23.0508     93.9114
  1526.2500    673.1516     27.1918    -56.2296     21.9369     96.2160
  1526.5000    672.9981     25.4863    -56.1341     20.8888     99.2814
  1526.7500    674.1300     24.0249    -56.0477     19.9363    101.4138
  1527.0000    676.2492     22.8178    -55.9695     19.1069    104.3800
  1527.2500    678.9292     21.7901    -55.8949     18.4051    105.7733
  1527.5000    681.7261     20.8857    -55.8186     17.8128    106.9291
  1527.7500    684.1852     20.1147    -55.7392     17.3063    107.5412
  1528.0000    686.0494     19.4935    -55.6620     16.8731    109.1357
  1528.2500    687.3639     18.9888    -55.5991     16.5136    110.8292
  1528.5000    688.1659     18.5295    -55.5622     16.2291    113.9751
  1528.7500    688.2426     18.0737    -55.5556     16.0052    116.2021
  1529.0000    687.3587     17.6520    -55.5699     15.8048    119.5207
  1529.2500    685.5580     17.3243    -55.5859     15.5805    121.6148
  1529.5000    683.1373     17.1167    -55.5856     15.3026    124.1866
  1529.7500    680.4719     17.0169    -55.5635     14.9837    125.3652
  1530.0000    677.9755     16.9802    -55.5292     14.6748    126.6209
  1530.2500    676.1064     16.9299    -55.5000     14.4354    127.4314
  1530.5000    675.1823     16.8019    -55.4886     14.3041    128.6805
  1530.7500    675.1075     16.6125    -55.4948     14.2865    129.2691
  1531.0000    675.3928     16.4518    -55.5073     14.3588    129.2961
  1531.2500    675.5248     16.4009    -55.5158     14.4779    128.5852
  1531.5000    675.4035     16.4770    -55.5207     14.5952    126.2351
  1531.7500    675.5322     16.6516    -55.5325     14.6702    123.6895
  1532.0000    676.7379     16.8846    -55.5617     14.6811    118.3835
  1532.2500    679.5055     17.1259    -55.6109     14.6270    114.1486
  1532.5000    683.4446     17.3066    -55.6749     14.5237    107.9533
  1532.7500    687.3701     17.3750    -55.7466     14.3969    104.8956
  1533.0000    690.0543     17.3532    -55.8243     14.2766    103.3814
  1533.2500    691.1313     17.3251    -55.9122     14.1941    104.7215
  1533.5000    691.2128     17.3408    -56.0163     14.1780    109.3082
  1533.7500    690.9864     17.3606    -56.1376     14.2491    112.9211
  1534.0000    690.4171     17.3182    -56.2686     14.4166    117.5566
  1534.2500    689.0102     17.2128    -56.3958     14.6793    119.9978
  1534.5000    686.5991     17.1163    -56.5088     15.0300    123.4023
  1534.7500    683.6227     17.1166    -56.6070     15.4600    125.7277
  1535.0000    680.7715     17.2715    -56.7001     15.9591    128.7533
  1535.2500    678.5836     17.6070    -56.8014     16.5145    129.7961
  1535.5000    677.3318     18.1467    -56.9211     17.1142    128.5769
  1535.7500    677.0955     18.9278    -57.0635     17.7533    125.1784
  1536.0000    677.8323     19.9686    -57.2268     18.4372    115.7150
  1536.2500    679.3748     21.2543    -57.4037     19.1802    107.1796
  1536.5000    681.4293     22.7881    -57.5815     20.0022     93.8395
  1536.7500    683.6484     24.6097    -57.7436     20.9321     86.3621
  1537.0000    685.7141     26.7240    -57.8750     22.0111     78.7901
  1537.2500    687.3571     29.0064    -57.9686     23.2875     75.9599
  1537.5000    688.3871     31.1807    -58.0292     24.7992     73.8094
  1537.7500    688.8179     32.9433    -58.0727     26.5459     73.1571
  1538.0000    688.9390     34.1670    -58.1198     28.4681     72.8067
  1538.2500    689.0891     34.9681    -58.1895     30.4421     72.9029
  1538.5000    689.2814     35.5702    -58.2933     32.3047     73.6620
  1538.7500    689.2504     36.1327    -58.4347     33.9015     74.6521
  1539.0000    688.9138     36.6874    -58.6113     35.1341     76.5298
  1539.2500    688.5128     37.1968    -58.8190     35.9764     77.5279
  1539.5000    688.2199     37.6361    -59.0551     36.4615     77.6614
  1539.7500    687.8627     38.0071    -59.3198     36.6594     76.5517
  1540.0000    687.0846     38.3189    -59.6144     36.6649     73.5087
  1540.2500    685.6110     38.5845    -59.9408     36.5963     71.3101
  1540.5000    683.4263     38.8224    -60.2988     36.5854     69.2872
  1540.7500    680.8492     39.0423    -60.6841     36.7538     69.4035
  1541.0000    678.4431     39.2079    -61.0857     37.1852     71.9188
  1541.2500    676.8474     39.2387    -61.4880     37.8971     74.7099
  1541.5000    676.6397     39.0915    -61.8762     38.8129     79.3190
  1541.7500    678.1039     38.8536    -62.2431     39.7356     81.9644
