~Version Information
VERS.                      2.0: CWLS Log ASCII Standard - VERSION 2.0
WRAP.                       NO: One line per depth step
~Well Information Block
STRT.FT                 0.5000: 
STOP.FT              1575.0000: 
STEP.FT                 0.2500: 
NULL.                -999.2500: 
COMP.          Evergreen Operating Corporation: COMPANY
WELL.                Eric 42-9: WELL
FLD.           Purgatorie River: FIELD
LOC.           2050' FNL & 850' FEL: LOCATION
PROV.                 Colorado: PROVINCE
CNTY.               Las Animas: COUNTRY
SRVC.                         : SERVICE COMPANY
DATE.          Tue Nov 09 16:28:59 2004: LOG DATE
UWI.           05 071 07999 00: UNIQUE WELL ID
~Curve Information Block
DEPT.FT            0 000 00 00: Depth
LTEN.lb                       : Surface Line Tension
TT3.usec                      : CBL 3' Travel Time
AMP3.mV                       : CBL 3' Amplitude
ATT3.db/ft                    : CBL 3' Attenuation
GR.GAPI                       : Gamma Ray
CCL.                          : Casing Collar Locator
~Parameter Information Block
~A  Depth       LTEN        TT3         AMP3        ATT3         GR         CCL     
# ...
  1128.5000    708.0646    763.7010      7.8643     -7.2080    119.7881      0.0000
  1128.7500    706.5635    770.9915      7.9510     -7.1762    118.0762      0.0000
  1129.0000    705.1339    774.7729      7.8819     -7.2015    116.1747      0.0000
  1129.2500    704.1646    764.5416      7.7221     -7.2608    114.3741      0.0000
  1129.5000    704.1005    740.0058      7.5634     -7.3209    112.7646      0.0000
  1129.7500    705.3655    712.4404      7.4535     -7.3633    111.9581      0.0000
  1130.0000    707.7054    691.7845      7.3871     -7.3892    112.7639      0.0000
  1130.2500    709.9106    675.4743      7.3502     -7.4037    115.5106      0.0000
  1130.5000    710.8252    654.4675      7.3460     -7.4054    119.8060      0.0000
  1130.7500    710.5021    628.5375      7.3736     -7.3945    124.7797      0.0000
  1131.0000    709.8398    609.8994      7.4099     -7.3803    129.5884      0.0000
  1131.2500    709.3189    611.3568      7.4287     -7.3730    133.6876      0.0000
  1131.5000    708.6750    634.4255      7.4273     -7.3735    136.6018      0.0000
  1131.7500    707.6781    669.3803      7.4253     -7.3743    137.8225      0.0000
  1132.0000    706.8141    702.7108      7.4396     -7.3687    137.1589      0.0000
  1132.2500    707.1243    722.3699      7.4673     -7.3579    134.9499      0.0000
  1132.5000    709.4361    719.8803      7.4925     -7.3482    131.9290      0.0000
  1132.7500    713.6559    693.2585      7.5042     -7.3437    129.0499      0.0000
  1133.0000    718.6298    648.3362      7.5063     -7.3429    127.1726      0.0000
  1133.2500    722.6939    595.0405      7.5110     -7.3411    126.3390      0.0000
  1133.5000    724.7202    542.9464      7.5263     -7.3352    125.3376      0.0000
  1133.7500    724.8864    499.9188      7.5494     -7.3263    122.6537      0.0000
  1134.0000    724.2956    471.1383      7.5718     -7.3177    118.2413      0.0000
  1134.2500    723.7957    457.5268      7.5916     -7.3102    114.0203      0.0000
  1134.5000    723.3470    456.1466      7.6217     -7.2987    112.2530      0.0000
  1134.7500    722.4335    462.4960      7.6874     -7.2738    113.5143      0.0000
  1135.0000    720.8320    472.2128      7.8126     -7.2271    116.2628      0.0000
  1135.2500    719.0237    482.0231      8.0071     -7.1559    118.1363      0.0000
  1135.5000    717.9265    490.3508      8.2600     -7.0658    117.6584      0.0000
  1135.7500    718.1862    496.9951      8.5393     -6.9696    115.0685      0.0000
  1136.0000    719.7849    501.5926      8.7967     -6.8836    111.9093      0.0000
  1136.2500    722.3174    502.5277      8.9883     -6.8212    109.8614      0.0000
  1136.5000    725.3522    497.7168      9.1061     -6.7835    109.6035      0.0000
  1136.7500    728.3363    486.8461      9.1849     -6.7586    110.5448      0.0000
  1137.0000    730.3743    472.8243      9.2639     -6.7338    111.7767      0.0000
  1137.2500    730.4642    460.9263      9.3519     -6.7064    113.2295      0.0000
  1137.5000    728.2672    456.4044      9.4428     -6.6784    115.5705      0.0000
  1137.7500    724.7729    462.7173      9.5446     -6.6473    118.9488      0.0000
  1138.0000    721.8322    480.6842      9.6624     -6.6118    122.2365      0.0000
  1138.2500    720.5584    507.2125      9.7646     -6.5813    123.8467      0.0000
  1138.5000    720.4514    534.9421      9.8076     -6.5686    123.2614      0.0000
  1138.7500    720.4604    555.6781      9.8022     -6.5702    121.4502      0.0000
  1139.0000    720.5032    565.4165      9.8203     -6.5649    119.8027      0.0000
  1139.2500    721.4056    565.1052      9.9203     -6.5356    119.0548      0.0000
  1139.5000    723.6607    558.7593     10.0790     -6.4896    119.1823      0.0000
  1139.7500    726.6801    554.6743     10.2111     -6.4519    119.6599      0.0000
  1140.0000    729.1187    564.7197     10.2488     -6.4412    119.6240      0.0000
  1140.2500    729.8801    594.2658     10.1974     -6.4558    118.2916      0.0000
  1140.5000    729.0083    632.6247     10.1171     -6.4787    115.6170      0.0000
  1140.7500    727.5859    660.2426     10.0572     -6.4959    112.4045      0.0000
  1141.0000    726.6539    667.5377      9.9955     -6.5137    109.5945      0.0000
  1141.2500    726.4001    663.4547      9.8392     -6.5593    107.4825      0.0000
  1141.5000    726.4147    664.4412      9.5089     -6.6582    105.6936      0.0000
  1141.7500    726.2682    678.2391      9.0530     -6.8004    103.7835      0.0000
  1142.0000    725.6607    700.4819      8.6616     -6.9284    101.6615      0.0000
  1142.2500    724.4448    724.0948      8.5222     -6.9754     99.5003      0.0000
  1142.5000    722.7770    747.8268      8.6578     -6.9297     97.5693      0.0000
  1142.7500    720.9634    775.1011      8.9334     -6.8389     96.3294      0.0000
  1143.0000    719.0663    807.9832      9.2086     -6.7511     96.4652      0.0000
  1143.2500    716.9991    844.1133      9.4468     -6.6772     98.4222      0.0000
  1143.5000    715.1240    878.7831      9.6703     -6.6095    101.7380      3.0000
  1143.7500    714.3691    909.7042      9.8515     -6.5557    105.0676     -3.0000
  1144.0000    715.4823    939.0103      9.8906     -6.5442    107.1320      0.0000
  1144.2500    718.1897    968.1697      9.7154     -6.5960    107.7214      0.0000
  1144.5000    721.1363    992.3887      9.3866     -6.6957    107.8234      0.0000
  1144.7500    722.7361   1004.1144      9.0718     -6.7944    108.8167      0.0000
  1145.0000    722.2810   1000.5518      8.8976     -6.8506    111.4645      0.0000
  1145.2500    720.2996    983.9011      8.8410     -6.8690    115.4845      0.0000
  1145.5000    717.8771    956.5889      8.7825     -6.8883    119.9384      0.0000
  1145.7500    715.7953    921.5652      8.6477     -6.9330    123.9697      0.0000
  1146.0000    714.3091    886.1025      8.4660     -6.9945    127.2008      0.0000
  1146.2500    713.3419    860.3022      8.2953     -7.0535    129.5915      0.0000
  1146.5000    712.8009    850.7173      8.1351     -7.1100    131.2261      0.0000
  1146.7500    712.8847    855.9742      7.9279     -7.1847    132.4491      0.0000
  1147.0000    713.9684    868.0574      7.6232     -7.2981    133.8924      0.0000
  1147.2500    715.9957    877.8229      7.2329     -7.4503    135.7707      0.0000
  1147.5000    718.1977    880.4406      6.8400     -7.6120    137.2001      0.0000
  1147.7500    719.6554    876.4341      6.5469     -7.7388    136.8038      0.0000
  1148.0000    720.0088    868.9620      6.4004     -7.8043    134.0644      0.0000
  1148.2500    719.4716    861.4182      6.3702     -7.8180    129.8325      0.0000
  1148.5000    718.2811    856.8413      6.3932     -7.8076    125.7974      0.0000
  1148.7500    716.2871    857.3258      6.4201     -7.7954    123.7118      0.0000
  1149.0000    713.2004    863.0532      6.4253     -7.7931    124.4626      0.0000
  1149.2500    709.2027    872.3834      6.3995     -7.8047    127.2314      0.0000
  1149.5000    705.1492    883.4708      6.3459     -7.8291    129.8959      0.0000
  1149.7500    702.1685    895.5002      6.2738     -7.8622    130.8840      0.0000
  1150.0000    701.2830    907.5267      6.1934     -7.8995    130.5935      0.0000
  1150.2500    703.3095    916.4816      6.1169     -7.9355    130.6334      0.0000
  1150.5000    708.6259    918.2923      6.0617     -7.9617    131.9036      0.0000
  1150.7500    716.4640    911.9761      6.0435     -7.9704    133.9947      0.0000
  1151.0000    724.4063    900.9793      6.0602     -7.9625    136.1669      0.0000
  1151.2500    729.2614    889.3425      6.0867     -7.9498    138.0378      0.0000
  1151.5000    729.2371    878.0078      6.0980     -7.9444    139.2791      0.0000
  1151.7500    725.3740    865.8578      6.1007     -7.9432    139.4326      0.0000
  1152.0000    720.5462    852.9929      6.1383     -7.9254    138.3210      0.0000
  1152.2500    717.0950    841.7717      6.2531     -7.8717    136.1966      0.0000
