~Version Information
VERS.                      2.0: CWLS Log ASCII Standard - VERSION 2.0
WRAP.                       NO: One line per depth step
~Well Information Block
STRT.FT                -6.7500: 
STOP.FT              2058.2500: 
STEP.FT                 0.2500: 
NULL.                -999.2500: 
COMP.          Petrogulf Corporation: COMPANY
WELL.           Schedler 9-23R: WELL
FLD.           Purgatorie River: FIELD
LOC.           2084' FSL & 2331' FWL--: LOCATION
PROV.                       CO: PROVINCE
CNTY.               Las Animas: COUNTRY
SRVC.                         : SERVICE COMPANY
DATE.          Fri Nov 12 13:22:46 2004: LOG DATE
UWI.       005 071 08040 : UNIQUE WELL ID
~Curve Information Block
DEPT.FT            0 000 00 00: Depth
GR.GAPI                       : Gamma Ray
CCL.                          : Casing Collar Locator
TT3.usec                      : CBL 3' Travel Time
AMP3.mV                       : CBL 3' Amplitude
~Parameter Information Block
~A  Depth        GR         CCL         TT3         AMP3    
# ...
  1902.7500     38.6219      0.0000    670.2289      2.2598
  1903.0000     36.9807      0.0000    672.0834      2.3814
  1903.2500     36.4905      0.0000    675.9480      2.5263
  1903.5000     38.0919      0.0000    684.6176      2.7064
  1903.7500     42.8262      0.0000    700.5734      2.9261
  1904.0000     51.8715      0.0000    724.1658      3.1610
  1904.2500     66.1091      0.0000    753.0735      3.3711
  1904.5000     85.4187      0.0000    784.1669      3.5371
  1904.7500    108.3170      0.0000    815.2681      3.6794
  1905.0000    132.0536      0.0000    844.2359      3.8427
  1905.2500    153.0720      0.0000    867.2013      4.0622
  1905.5000    168.0133      0.0000    879.6057      4.3559
  1905.7500    174.9238      0.0000    879.6567      4.7567
  1906.0000    173.8893      0.0000    870.0938      5.3322
  1906.2500    167.0185      0.0000    856.1983      6.1151
  1906.5000    158.0779      0.0000    842.7190      6.9951
  1906.7500    151.4357      0.0000    832.6288      7.7275
  1907.0000    150.0094      2.0000    826.4842      8.0946
  1907.2500    153.5934      1.9800    821.8339      8.0463
  1907.5000    159.6071      0.0000    815.5964      7.6819
  1907.7500    165.8225      0.0000    808.6248      7.1427
  1908.0000    172.1220      0.0000    805.3550      6.5487
  1908.2500    179.6947      0.0000    807.4675      5.9825
  1908.5000    188.9589      0.0000    810.2344      5.4700
  1908.7500    198.2647      0.0000    806.6089      4.9781
  1909.0000    204.3605      0.0000    793.9771      4.4694
  1909.2500    204.2473      0.0000    776.6408      3.9578
  1909.5000    197.0206      0.0000    762.7115      3.4961
  1909.7500    184.3790      0.0000    758.4959      3.1274
  1910.0000    169.6697      0.0000    764.3751      2.8664
  1910.2500    156.1954      0.0000    774.4280      2.7090
  1910.5000    145.6784      0.0000    780.0534      2.6365
  1910.7500    137.7853      0.0000    775.3004      2.6166
  1911.0000    131.0523      0.0000    759.4601      2.6165
  1911.2500    124.3518      0.0000    735.3858      2.6153
  1911.5000    117.5719      0.0000    707.1964      2.6029
  1911.7500    111.1359      0.0000    680.2516      2.5794
  1912.0000    105.3190      0.0000    660.8217      2.5615
  1912.2500    100.3316      0.0000    653.3234      2.5767
  1912.5000     96.6268      0.0000    658.3605      2.6413
  1912.7500     94.3968      0.0000    674.6040      2.7451
  1913.0000     92.7669      0.0000    701.0753      2.8583
  1913.2500     89.9502      0.0000    734.4343      2.9511
  1913.5000     84.4252      0.0000    764.5252      3.0091
  1913.7500     76.0527      0.0000    777.5645      3.0331
  1914.0000     66.3018      0.0000    767.2487      3.0294
  1914.2500     57.3389      0.0000    741.3810      3.0038
  1914.5000     50.5087      0.0000    715.5033      2.9659
  1914.7500     45.6559      0.0000    700.2503      2.9286
  1915.0000     42.0040      0.0000    695.3618      2.9005
  1915.2500     39.3167      0.0000    694.2482      2.8808
  1915.5000     37.9831      0.0000    691.7990      2.8606
  1915.7500     38.3659      0.0000    687.4664      2.8285
  1916.0000     40.2907      0.0000    683.1134      2.7788
  1916.2500     42.8746      0.0000    680.1196      2.7197
  1916.5000     44.7375      0.0000    678.6237      2.6714
  1916.7500     44.6627      0.0000    678.2194      2.6543
  1917.0000     42.4101      0.0000    678.6727      2.6762
  1917.2500     39.0916      0.0000    680.1185      2.7285
  1917.5000     36.6872      0.0000    682.8324      2.7896
  1917.7500     36.8207      0.0000    686.6474      2.8323
  1918.0000     39.7386      0.0000    690.4854      2.8352
  1918.2500     44.4160      0.0000    692.8739      2.7938
  1918.5000     49.4989      0.0000    693.4438      2.7200
  1918.7500     54.1896      0.0000    693.7813      2.6309
  1919.0000     58.6447      0.0000    696.2641      2.5362
  1919.2500     63.6471      0.0000    701.9022      2.4432
  1919.5000     69.4885      0.0000    709.4156      2.3682
  1919.7500     74.9391      0.0000    716.3387      2.3292
  1920.0000     77.5813      0.0000    720.6888      2.3236
  1920.2500     75.6559      0.0000    721.4276      2.3270
  1920.5000     69.8445      0.0000    718.0865      2.3169
  1920.7500     63.0700      0.0000    711.3423      2.2902
  1921.0000     58.3049      0.0000    704.5542      2.2551
  1921.2500     56.5337      0.0000    703.6033      2.2171
  1921.5000     56.8298      0.0000    713.3201      2.1822
  1921.7500     57.9768      0.0000    733.0109      2.1651
  1922.0000     59.4839      0.0000    755.7166      2.1795
  1922.2500     61.1699      0.0000    772.7045      2.2202
  1922.5000     62.4378      0.0000    779.0331      2.2680
  1922.7500     62.2969      0.0000    774.9788      2.3183
  1923.0000     60.0471      0.0000    763.3792      2.3972
  1923.2500     55.8936      0.0000    747.0793      2.5424
  1923.5000     50.9148      0.0000    728.6635      2.7708
  1923.7500     46.4648      0.0000    711.1648      3.0656
  1924.0000     43.6160      0.0000    698.2094      3.3897
  1924.2500     43.1360      0.0000    693.5414      3.7085
  1924.5000     45.6844      0.0000    699.8677      3.9994
  1924.7500     51.6442      0.0000    716.8287      4.2465
  1925.0000     60.7417      0.0000    739.8530      4.4342
  1925.2500     72.1059      0.0000    761.9886      4.5523
  1925.5000     84.6992      0.0000    777.6398      4.6057
  1925.7500     97.4231      0.0000    784.4848      4.6147
  1926.0000    108.7373      0.0000    782.6209      4.6013
  1926.2500    116.5221      0.0000    773.6346      4.5755
  1926.5000    118.8924      0.0000    760.3007      4.5311
  1926.7500    115.6744      0.0000    745.3983      4.4478
  1927.0000    109.2086      0.0000    730.4053      4.3014
  1927.2500    103.2560      0.0000    715.8690      4.0824
  1927.5000    100.4314      0.0000    702.6240      3.8096
  1927.7500    100.5647      0.0000    691.9546      3.5176
  1928.0000    101.8116      0.0000    684.6738      3.2358
  1928.2500    103.1308      0.0000    680.6052      2.9835
  1928.5000    105.1007      0.0000    679.2120      2.7790
  1928.7500    108.3382      0.0000    680.6567      2.6387
  1929.0000    111.8034      0.0000    686.3067      2.5652
  1929.2500    113.3391      0.0000    697.7734      2.5474
  1929.5000    111.8978      0.0000    714.8564      2.5711
  1929.7500    108.6213      0.0000    734.5517      2.6244
  1930.0000    105.3541      0.0000    752.8445      2.6988
  1930.2500    102.5403      0.0000    767.2219      2.7894
  1930.5000     99.0661      0.0000    776.5671      2.8898
  1930.7500     93.8603      0.0000    779.6571      2.9860
  1931.0000     87.0780      0.0000    775.7299      3.0640
  1931.2500     79.7802      0.0000    766.6036      3.1217
  1931.5000     72.8932      0.0000    757.2598      3.1647
  1931.7500     66.6316      0.0000    753.8054      3.1911
  1932.0000     60.6930      0.0000    759.7745      3.1878
  1932.2500     54.9087      0.0000    772.8015      3.1457
  1932.5000     49.8126      0.0000    784.7236      3.0689
  1932.7500     46.6037      0.0000    786.7120      2.9679
  1933.0000     46.3479      0.0000    775.7535      2.8497
  1933.2500     48.9240      0.0000    755.9784      2.7158
  1933.5000     52.6354      0.0000    734.1816      2.5670
  1933.7500     55.0468      0.0000    715.4402      2.4052
  1934.0000     54.6541      0.0000    702.6353      2.2371
  1934.2500     52.0076      0.0000    697.7587      2.0796
  1934.5000     49.2062      0.0000    701.5814      1.9612
  1934.7500     48.4115      0.0000    711.9631      1.9092
  1935.0000     50.8726      0.0000    724.6377      1.9272
  1935.2500     56.7148      0.0000    737.8036      1.9814
  1935.5000     64.8774      0.0000    754.5204      2.0211
  1935.7500     73.5097      0.0000    777.1796      2.0216
  1936.0000     81.3350      0.0000    800.7586      2.0001
