~Version Information
VERS.                      2.0: CWLS Log ASCII Standard - VERSION 2.0
WRAP.                       NO: One line per depth step
~Well Information Block
STRT.FT                -8.2500: 
STOP.FT               871.5000: 
STEP.FT                 0.2500: 
NULL.                -999.2500: 
COMP.          Pioneer Natural Resources: COMPANY
WELL.             Tomcat 32-10: WELL
FLD.           Purgatorie River: FIELD
LOC.           2286' FNL & 2463' FEL------: LOCATION
PROV.                       CO: PROVINCE
CNTY.               Las Animas: COUNTRY
SRVC.          Patterson Wireline: SERVICE COMPANY
DATE.          Mon Mar 28 09:03:25 2005: LOG DATE
UWI.           05 071 08301 00: UNIQUE WELL ID
~Curve Information Block
DEPT.FT            0 000 00 00: Depth
CCL.                          : Casing Collar Locator
TT3.usec                      : CBL 3' Travel Time
AMP3.mV                       : CBL 3' Amplitude
GR.GAPI                       : Gamma Ray
~Parameter Information Block
~A  Depth       CCL         TT3         AMP3         GR     
# ...
    92.2500      0.0000    755.3297      8.0431     94.7945
    92.5000      0.0000    755.5508      8.0639     95.4181
    92.7500      0.0000    757.6696      8.0987     96.3742
    93.0000      0.0000    761.8633      8.1384     97.4185
    93.2500      0.0000    767.4297      8.1683     97.6102
    93.5000      0.0000    772.3903      8.1813     95.8953
    93.7500      0.0000    774.3984      8.1843     92.0724
    94.0000      0.0000    772.5457      8.1903     87.0597
    94.2500      0.0000    768.3582      8.2045     82.1828
    94.5000      0.0000    764.8897      8.2185     78.1514
    94.7500      0.0000    764.6741      8.2213     74.6696
    95.0000      0.0000    768.1233      8.2136     71.1678
    95.2500      0.0000    773.3505      8.2041     68.0857
    95.5000      0.0000    777.4532      8.1940     67.3264
    95.7500      0.0000    778.4838      8.1681     70.9122
    96.0000      0.0000    776.7521      8.1126     78.6690
    96.2500      0.0000    774.4362      8.0384     87.4152
    96.5000      0.0000    773.8184      7.9789     93.1708
    96.7500      0.0000    776.0287      7.9598     94.4839
    97.0000      0.0000    781.4997      7.9792     93.1963
    97.2500      0.0000    790.5825      8.0198     91.9337
    97.5000      0.0000    802.6329      8.0732     91.4943
    97.7500      0.0000    815.4954      8.1428     90.9200
    98.0000      0.0000    827.3317      8.2266     89.4218
    98.2500      0.0000    838.1270      8.3052     87.5231
    98.5000      0.0000    848.4954      8.3539     86.4696
    98.7500      0.0000    858.6009      8.3669     87.1180
    99.0000      0.0000    868.9156      8.3644     89.5789
    99.2500      0.0000    879.7203      8.3720     93.4737
    99.5000      0.0000    888.5677      8.3960     98.0937
    99.7500      0.0000    889.8833      8.4216    102.3822
   100.0000      0.0000    878.7339      8.4289    105.0216
   100.2500      0.0000    855.4209      8.4087    104.7250
   100.5000      0.0000    826.3000      8.3644    100.7308
   100.7500      0.0000    799.6611      8.3051     93.2878
   101.0000      0.0000    780.4106      8.2389     83.6540
   101.2500      0.0000    768.5886      8.1720     73.5891
   101.5000      0.0000    761.9277      8.1116     64.8989
   101.7500      0.0000    758.5709      8.0695     59.2927
   102.0000      0.0000    757.7582      8.0614     58.1782
   102.2500      0.0000    759.3827      8.0979     62.0974
   102.5000      0.0000    763.3422      8.1701     70.1656
   102.7500      0.0000    768.7560      8.2508     80.1677
   103.0000      0.0000    773.5546      8.3135     89.5120
   103.2500      0.0000    775.3377      8.3496     96.4692
   103.5000      0.0000    773.0993      8.3666    100.9165
   103.7500      0.0000    768.0933      8.3756    103.9726
   104.0000      0.0000    762.8751      8.3829    106.6855
   104.2500      0.0000    759.6462      8.3899    108.9404
   104.5000      0.0000    759.5242      8.3983    109.6716
   104.7500      0.0000    762.7230      8.4137    108.1362
   105.0000      0.0000    768.5975      8.4443    104.9588
   105.2500      0.0000    775.5296      8.4937    101.9951
   105.5000      0.0000    781.6074      8.5531    101.0135
   105.7500      0.0000    786.1371      8.6023    102.3226
   106.0000      0.0000    790.3415      8.6236    104.7118
   106.2500      0.0000    795.8222      8.6169    106.6372
   106.5000      0.0000    802.0411      8.5988    107.2041
   106.7500      0.0000    806.1104      8.5886    106.2269
   107.0000      0.0000    805.7613      8.5939    103.9504
   107.2500      0.0000    801.8420      8.6065    100.7757
   107.5000      0.0000    797.2156      8.6149     96.8152
   107.7500      0.0000    793.9441      8.6174     91.6684
   108.0000      0.0000    792.2089      8.6186     85.0246
   108.2500      0.0000    791.2725      8.6162     77.5393
   108.5000      0.0000    790.5986      8.6001     70.8059
   108.7500      0.0000    790.1852      8.5660     66.3320
   109.0000      0.0000    790.4607      8.5220     64.6588
   109.2500      0.0000    792.2521      8.4824     65.5283
   109.5000      0.0000    796.7133      8.4563     68.6609
   109.7500      0.0000    804.8554      8.4405     73.9837
   110.0000      0.0000    816.8837      8.4207     80.8904
   110.2500      0.0000    832.1329      8.3827     87.5842
   110.5000      0.0000    849.4301      8.3255     91.8095
   110.7500      0.0000    866.8167      8.2621     92.5543
   111.0000      0.0000    881.1974      8.2082     90.7834
   111.2500      0.0000    889.5876      8.1736     88.3291
   111.5000      0.0000    891.0519      8.1620     86.3302
   111.7500      0.0000    886.5157      8.1700     84.9534
   112.0000      0.0000    876.7291      8.1872     84.1653
   112.2500      0.0000    861.7786      8.2018     84.1105
   112.5000      0.0000    843.4926      8.2096     84.7028
   112.7500      0.0000    827.4499      8.2163     85.3789
   113.0000      0.0000    820.7394      8.2318     85.4784
   113.2500      0.0000    826.6856      8.2589     84.7574
   113.5000      0.0000    841.9850      8.2858     83.5434
   113.7500      0.0000    859.4121      8.2916     82.3917
   114.0000      0.0000    873.1732      8.2631     81.4174
   114.2500      0.0000    881.7096      8.2094     80.1198
   114.5000      0.0000    886.3776      8.1596     78.3944
   114.7500      0.0000    888.7261      8.1396     77.7398
   115.0000      0.0000    889.2473      8.1492     80.5530
   115.2500      0.0000    887.8129      8.1669     87.3624
   115.5000      0.0000    884.1870      8.1730     95.1637
   115.7500      0.0000    878.0728      8.1635     99.6352
   116.0000      0.0000    869.7817      8.1413     99.1636
   116.2500      0.0000    861.2947      8.1036     95.9382
   116.5000      0.0000    855.3125      8.0404     93.0249
   116.7500      0.0000    852.0294      7.9464     91.2739
   117.0000      0.0000    848.0001      7.8296     89.3941
   117.2500      0.0000    839.9263      7.7081     86.2707
   117.5000      0.0000    829.2325      7.6037     82.4592
   117.7500      0.0000    821.6531      7.5346     79.6383
   118.0000      0.0000    822.2379      7.5088     79.1736
   118.2500      0.0000    830.8907      7.5213     81.2205
   118.5000      0.0000    842.4743      7.5602     84.7628
   118.7500      0.0000    851.7275      7.6161     88.3594
   119.0000      0.0000    859.5714      7.6883     91.0640
   119.2500      0.0000    874.6572      7.7820     92.8409
   119.5000      0.0000    906.6203      7.8966     94.1413
   119.7500      0.0000    956.1296      8.0194     95.0348
   120.0000      0.0000   1012.3153      8.1347     94.8540
   120.2500      0.0000   1060.9349      8.2317     92.9061
   120.5000      0.0000   1094.0298      8.3041     89.5408
   120.7500      0.0000   1110.8586      8.3344     86.3210
   121.0000      0.0000   1112.0837      8.2790     84.9684
   121.2500      0.0000   1097.2972      8.0821     86.0694
   121.5000      0.0000   1069.3395      7.7280     88.7374
   121.7500      0.0000   1037.3203      7.2870     91.4714
   122.0000      0.0000   1011.0611      6.8875     93.1992
   122.2500      0.0000    992.4511      6.6323     93.5400
   122.5000      0.0000    974.8647      6.5425     92.3912
   122.7500      0.0000    951.3419      6.5711     89.6616
   123.0000      0.0000    921.6537      6.6474     85.4383
   123.2500     -2.0000    891.2646      6.7112     80.2794
   123.5000     -2.0000    865.4918      6.7306     75.3405
   123.7500      0.0000    845.9223      6.7194     71.9978
   124.0000      0.0000    831.3326      6.7407     70.8944
   124.2500      0.0000    820.4866      6.8641     71.3710
   124.5000      0.0000    813.8750      7.0891     72.2407
   124.7500      0.0000    812.9614      7.3183     73.0640
   125.0000      0.0000    817.8979      7.4397     74.2394
   125.2500      0.0000    826.4644      7.4271     76.0114
   125.5000      0.0000    835.4708      7.3423     77.9427
