~Version Information
VERS.                      2.0: CWLS Log ASCII Standard - VERSION 2.0
WRAP.                       NO: One line per depth step
~Well Information Block
STRT.FT               580.0000: 
STOP.FT              2729.7500: 
STEP.FT                 0.2500: 
NULL.                -999.2500: 
COMP.          Pioneer Natural Resources: COMPANY
WELL.          Sand Pebbles 13-33: WELL
FLD.           Purgatoire River: FIELD
LOC.           1883' FSL & 63' FWL----: LOCATION
PROV.                 Colorado: PROVINCE
CNTY.               Las Animas: COUNTRY
SRVC.                Patterson: SERVICE COMPANY
DATE.          Fri Mar 11 13:47:45 2005: LOG DATE
UWI.           05 071 08224 00: UNIQUE WELL ID
~Curve Information Block
DEPT.FT            0 000 00 00: Depth
SN.Ohm-m                      : IEL Short Normal
SP.mV                         : IEL Spontaneous Potential
DIR.Ohm-m                     : IEL Induction Resistivity
GR.GAPI                       : Gamma Ray
~Parameter Information Block
~A  Depth        SN          SP         DIR          GR     
# ...
  2556.5000     18.1775     -7.2618     15.7896     53.7042
  2556.7500     18.7375     -9.8169     16.3189     52.8593
  2557.0000     18.9838    -12.6201     16.6701     53.4840
  2557.2500     18.9290    -15.8193     16.8034     54.1532
  2557.5000     18.6356    -19.5862     16.7276     54.9659
  2557.7500     18.1886    -24.0970     16.4929     55.6724
  2558.0000     17.6733    -29.4703     16.1730     57.6652
  2558.2500     17.1543    -35.6723     15.8431     59.6154
  2558.5000     16.6556    -42.4262     15.5600     62.8103
  2558.7500     16.1593    -49.1818     15.3505     75.6746
  2559.0000     15.6316    -55.1862     15.2122     79.5385
  2559.2500     15.0700    -59.6544     15.1236     82.6720
  2559.5000     14.5363    -61.9866     15.0612     87.9476
  2559.7500     14.1513    -61.9477     15.0137    104.1357
  2560.0000     14.0427    -59.7332     14.9887    107.6700
  2560.2500     14.2728    -55.8973     15.0078    108.6711
  2560.5000     14.7918    -51.1790     15.0939    108.8976
  2560.7500     15.4561    -46.3047     15.2577    108.5228
  2561.0000     16.1034    -41.8401     15.4899    106.9986
  2561.2500     16.6288    -38.1284     15.7627    105.1903
  2561.5000     17.0080    -35.3055     16.0400    101.9021
  2561.7500     17.2690    -33.3563     16.2902    100.1751
  2562.0000     17.4526    -32.1768     16.4944     99.4734
  2562.2500     17.5902    -31.6209     16.6446    100.2058
  2562.5000     17.6998    -31.5309     16.7379    101.7824
  2562.7500     17.7909    -31.7555     16.7722    102.3204
  2563.0000     17.8713    -32.1630     16.7468    101.8700
  2563.2500     17.9502    -32.6513     16.6660    100.9657
  2563.5000     18.0364    -33.1526     16.5409     99.3339
  2563.7500     18.1365    -33.6324     16.3888     98.3083
  2564.0000     18.2543    -34.0796     16.2291     96.9918
  2564.2500     18.3880    -34.4932     16.0793     96.2235
  2564.5000     18.5256    -34.8669     15.9505     95.0107
  2564.7500     18.6368    -35.1766     15.8447     93.9335
  2565.0000     18.6681    -35.3757     15.7530     91.6492
  2565.2500     18.5439    -35.3957     15.6550     89.8666
  2565.5000     18.1805    -35.1513     15.5191     87.7803
  2565.7500     17.5176    -34.5464     15.3043     87.5572
  2566.0000     16.5551    -33.4809     14.9671     90.1753
  2566.2500     15.3688    -31.8603     14.4771     94.0837
  2566.5000     14.0880    -29.6147     13.8350    101.9272
  2566.7500     12.8525    -26.7259     13.0787    107.1956
  2567.0000     11.7772    -23.2556     12.2707    114.1156
  2567.2500     10.9384    -19.3611     11.4755    118.7267
  2567.5000     10.3708    -15.2845     10.7428    127.4673
  2567.7500     10.0644    -11.3143     10.1040    134.8110
  2568.0000      9.9660     -7.7270      9.5757    147.1164
  2568.2500      9.9960     -4.7328      9.1655    155.6012
  2568.5000     10.0806     -2.4422      8.8762    168.4677
  2568.7500     10.1814     -0.8654      8.7084    176.8139
  2569.0000     10.3052      0.0624      8.6620    187.5271
  2569.2500     10.4913      0.4452      8.7376    192.8153
  2569.5000     10.7903      0.3946      8.9375    198.6578
  2569.7500     11.2489      0.0120      9.2662    202.2432
  2570.0000     11.9019     -0.6168      9.7316    207.9890
  2570.2500     12.7683     -1.4189     10.3439    211.1860
  2570.5000     13.8444     -2.3287     11.1124    211.7164
  2570.7500     15.0952     -3.2845     12.0382    207.4545
  2571.0000     16.4484     -4.2279     13.1036    194.1305
  2571.2500     17.7984     -5.1046     14.2620    182.9624
  2571.5000     19.0243     -5.8667     15.4374    168.6707
  2571.7500     20.0218     -6.4747     16.5374    163.2849
  2572.0000     20.7415     -6.9008     17.4790    161.7654
  2572.2500     21.2069     -7.1327     18.2155    163.2060
  2572.5000     21.4981     -7.1781     18.7482    164.2633
  2572.7500     21.7030     -7.0667     19.1189    161.9454
  2573.0000     21.8689     -6.8477     19.3882    152.7448
  2573.2500     21.9884     -6.5813     19.6147    143.7983
  2573.5000     22.0280     -6.3290     19.8429    129.2114
  2573.7500     21.9738     -6.1433     20.0989    120.1848
  2574.0000     21.8569     -6.0637     20.3899    109.1247
  2574.2500     21.7433     -6.1170     20.7074    103.9377
  2574.5000     21.6977     -6.3231     21.0344     99.8241
  2574.7500     21.7461     -6.7006     21.3547     98.9899
  2575.0000     21.8591     -7.2714     21.6534     98.4978
  2575.2500     21.9685     -8.0603     21.9103     97.6520
  2575.5000     22.0071     -9.0904     22.0924     95.6216
  2575.7500     21.9434    -10.3754     22.1568     94.6045
  2576.0000     21.7843    -11.9123     22.0666     94.7620
  2576.2500     21.5490    -13.6771     21.8104     95.8408
  2576.5000     21.2480    -15.6245     21.4120     97.6377
  2576.7500     20.8851    -17.6927     20.9234     98.4757
  2577.0000     20.4731    -19.8113     20.4072     99.9245
  2577.2500     20.0401    -21.9107     19.9208    102.1101
  2577.5000     19.6193    -23.9305     19.5081    108.7141
  2577.7500     19.2364    -25.8243     19.1948    115.3625
  2578.0000     18.9046    -27.5587     18.9872    127.0608
  2578.2500     18.6293    -29.1075     18.8743    134.2234
  2578.5000     18.4163    -30.4414     18.8366    140.3210
  2578.7500     18.2775    -31.5223     18.8584    139.7161
  2579.0000     18.2327    -32.3046     18.9346    131.9286
  2579.2500     18.3045    -32.7457     19.0669    123.8078
  2579.5000     18.5065    -32.8234     19.2538    110.6786
  2579.7500     18.8276    -32.5512     19.4820    102.6626
  2580.0000     19.2203    -31.9856     19.7272     92.7706
  2580.2500     19.6058    -31.2194     19.9618     87.6582
  2580.5000     19.9037    -30.3630     20.1610     81.7176
  2580.7500     20.0659    -29.5212     20.3031     78.5517
  2581.0000     20.0907    -28.7728     20.3681     74.7066
  2581.2500     20.0124    -28.1621     20.3428     72.6552
  2581.5000     19.8802    -27.7004     20.2324     70.0444
  2581.7500     19.7397    -27.3770     20.0673     68.5426
  2582.0000     19.6207    -27.1698     19.8958     67.1063
  2582.2500     19.5342    -27.0530     19.7651     67.1269
  2582.5000     19.4787    -27.0006     19.7040     68.9044
  2582.7500     19.4508    -26.9882     19.7173     70.9755
  2583.0000     19.4511    -26.9950     19.7920     74.4730
  2583.2500     19.4831    -27.0067     19.9087     76.4776
  2583.5000     19.5512    -27.0183     20.0495     78.0588
  2583.7500     19.6562    -27.0359     20.1993     77.7776
  2584.0000     19.7922    -27.0750     20.3460     75.5507
  2584.2500     19.9480    -27.1554     20.4815     73.6266
  2584.5000     20.1137    -27.2964     20.6073     71.7879
  2584.7500     20.2863    -27.5116     20.7352     71.8033
  2585.0000     20.4706    -27.8076     20.8811     73.2457
  2585.2500     20.6770    -28.1841     21.0566     74.4283
  2585.5000     20.9201    -28.6347     21.2648     75.6372
  2585.7500     21.2150    -29.1479     21.5048     76.0343
  2586.0000     21.5678    -29.7073     21.7779     76.2929
  2586.2500     21.9682    -30.2928     22.0866     76.1804
  2586.5000     22.3891    -30.8815     22.4260     75.1015
  2586.7500     22.7961    -31.4496     22.7750     73.6637
  2587.0000     23.1640    -31.9752     23.1009     70.9653
  2587.2500     23.4944    -32.4401     23.3785     69.2733
  2587.5000     23.8232    -32.8334     23.6106     67.3424
  2587.7500     24.2029    -33.1528     23.8324     66.5560
  2588.0000     24.6645    -33.4037     24.0924     66.3714
  2588.2500     25.1862    -33.5965     24.4238     67.0523
  2588.5000     25.6975    -33.7409     24.8240     69.1490
  2588.7500     26.1145    -33.8432     25.2551     70.8891
  2589.0000     26.3772    -33.9052     25.6619     73.1785
  2589.2500     26.4673    -33.9259     25.9953     74.2100
  2589.5000     26.4102    -33.9046     26.2279     75.1867
  2589.7500     26.2648    -33.8422     26.3524     75.7418
