~Version Information
VERS.                      2.0: CWLS Log ASCII Standard - VERSION 2.0
WRAP.                       NO: One line per depth step
~Well Information Block
STRT.FT               483.0000: 
STOP.FT              1701.5000: 
STEP.FT                 0.1000: 
NULL.                -999.2500: 
COMP.          Pioneer Natural Resources: COMPANY
WELL.            Mad Dog 42-31: WELL
FLD.           Purgatorie River: FIELD
LOC.           2064' FNL & 479' FEL: LOCATION
PROV.                 Colorado: PROVINCE
CNTY.               Las Animas: COUNTRY
SRVC.                         : SERVICE COMPANY
DATE.          Sun Oct 10 04:38:02 2004: LOG DATE
UWI.           05 071 08195 00: UNIQUE WELL ID
~Curve Information Block
DEPT.FT            0 000 00 00: Depth
LTEN.lb                       : Surface Line Tension
DCAL.in                       : CDL Caliper
RHOB.g/cc                     : CDL Bulk Density
RHOC.g/cc                     : CDL Density Correction
DPOR.pu                       : CDL Density Porosity
GR.GAPI                       : Gamma Ray
NPOR.pu                       : Neutron Porosity
~Parameter Information Block
~A  Depth       LTEN        DCAL        RHOB        RHOC        DPOR         GR         NPOR    
# ...
   886.2000    889.4218      7.9626      2.4771      0.0485     10.4809    147.1638     27.3044
   886.3000    904.5556      8.0143      2.5222      0.0887      7.7428    154.5695     27.5077
   886.4000    904.5556      8.0143      2.5592      0.1437      5.5026    166.6293     27.7646
   886.5000    888.9556      8.0275      2.5680      0.0828      4.9673    175.2635     27.6531
   886.6000    888.9556      8.0275      2.5554      0.1241      5.7323    175.3518     27.4766
   886.7000    888.9556      8.0275      2.5457      0.0707      6.3221    172.5493     27.7484
   886.8000    872.5231      7.9945      2.5643      0.0819      5.1923    172.2712     28.3888
   886.9000    872.5231      7.9945      2.6155      0.0786      2.0909    169.8012     29.0950
   887.0000    908.5030      7.9869      2.6733      0.1439     -1.4148    160.2147     29.4972
   887.1000    908.5030      7.9869      2.7073      0.1372     -3.4705    148.1207     29.5504
   887.2000    908.5030      7.9869      2.7080      0.1617     -3.5138    140.4613     29.3486
   887.3000    914.9420      7.9859      2.6856      0.1068     -2.1548    140.6512     28.8389
   887.4000    914.9420      7.9859      2.6576      0.1222     -0.4618    144.1084     28.2235
   887.5000    876.7818      7.9886      2.6352      0.0949      0.8957    145.3000     27.8005
   887.6000    876.7818      7.9886      2.6222      0.0599      1.6866    146.3488     27.6664
   887.7000    876.7818      7.9886      2.6134      0.0473      2.2160    149.2052     27.7990
   887.8000    858.4248      7.9945      2.5931     -0.0058      3.4503    151.5495     28.1293
   887.9000    858.4248      7.9945      2.5592     -0.0757      5.5040    152.6325     28.3319
   888.0000    890.2301      8.0242      2.5464     -0.1126      6.2764    156.0099     28.1613
   888.1000    890.2301      8.0242      2.5672      0.0452      5.0207    160.5341     27.6710
   888.2000    890.2301      8.0242      2.5693      0.1695      4.8914    163.1342     27.1739
   888.3000    908.5881      8.1252      2.5308      0.0333      7.2268    165.7674     26.7079
   888.4000    908.5881      8.1252      2.5074     -0.0424      8.6449    172.5883     26.1702
   888.5000    900.8871      8.1204      2.5281      0.0652      7.3867    177.2948     26.1521
   888.6000    900.8871      8.1204      2.5536      0.0856      5.8416    168.1302     26.8035
   888.7000    900.8871      8.1204      2.5573      0.0369      5.6198    150.6383     27.3843
   888.8000    922.5388      8.0099      2.5482      0.1060      6.1703    144.3772     27.5672
   888.9000    922.5388      8.0099      2.5385      0.0674      6.7583    156.3628     27.3920
   889.0000    831.6725      8.0201      2.5395      0.0249      6.6980    172.2764     27.0223
   889.1000    831.6725      8.0201      2.5506      0.0629      6.0260    176.7148     26.9060
   889.2000    831.6725      8.0201      2.5519      0.0711      5.9474    166.6176     27.0127
   889.3000    855.4269      8.0245      2.5374      0.0738      6.8240    153.8347     26.8855
   889.4000    855.4269      8.0245      2.5283      0.0263      7.3737    151.5398     26.5644
   889.5000    905.0501      8.0413      2.5340      0.0659      7.0318    154.2777     26.1727
   889.6000    905.0501      8.0413      2.5437      0.0318      6.4420    152.0286     25.9951
   889.7000    905.0501      8.0413      2.5548      0.0502      5.7717    147.0538     26.4947
   889.8000    923.6869      8.0214      2.5679      0.0662      4.9756    146.1877     27.3500
   889.9000    923.6869      8.0214      2.5800      0.0913      4.2410    150.3357     27.8040
   890.0000    885.2415      8.0465      2.5846      0.1220      3.9628    155.6837     27.8071
   890.1000    885.2415      8.0465      2.5768      0.0910      4.4345    159.9854     27.8825
   890.2000    885.2415      8.0465      2.5633      0.0848      5.2527    160.5597     28.0059
   890.3000    882.4152      8.0590      2.5501      0.0475      6.0542    154.6263     27.8830
   890.4000    882.4152      8.0590      2.5357      0.0125      6.9269    145.3909     27.8151
   890.5000    918.4822      8.0536      2.5128      0.0043      8.3170    140.2904     27.8819
   890.6000    918.4822      8.0536      2.4880     -0.0731      9.8202    140.1020     27.7677
   890.7000    918.4822      8.0536      2.4878     -0.0936      9.8288    141.0838     27.7393
   890.8000    917.1665      8.0413      2.5161     -0.0082      8.1178    144.8203     28.1125
   890.9000    917.1665      8.0413      2.5466      0.0404      6.2640    151.6514     28.2510
   891.0000    889.2105      8.0354      2.5640      0.0665      5.2137    155.2784     27.6738
   891.1000    889.2105      8.0354      2.5685      0.0517      4.9379    154.1780     27.0755
   891.2000    889.2105      8.0354      2.5630      0.0548      5.2728    152.9915     27.1714
   891.3000    926.7992      8.0628      2.5564      0.0098      5.6745    157.0301     27.7918
   891.4000    926.7992      8.0628      2.5528      0.0275      5.8899    166.5601     28.2421
   891.5000    910.7919      8.0737      2.5472      0.0124      6.2281    174.9072     28.2282
   891.6000    910.7919      8.0737      2.5439     -0.0193      6.4275    174.9666     27.9103
   891.7000    910.7919      8.0737      2.5444      0.0629      6.3981    168.3018     27.5269
   891.8000    879.6946      8.0641      2.5360      0.0434      6.9099    163.1551     27.1882
   891.9000    879.6946      8.0641      2.5198      0.0043      7.8893    163.4867     26.8318
   892.0000    869.1685      8.0615      2.5147      0.0124      8.2005    166.3586     26.6370
   892.1000    869.1685      8.0615      2.5252      0.0149      7.5657    168.8092     26.6510
   892.2000    869.1685      8.0615      2.5357      0.0442      6.9293    170.0657     26.8251
   892.3000    882.3263      8.0678      2.5379      0.0036      6.7919    170.3158     27.2044
   892.4000    882.3263      8.0678      2.5408      0.0009      6.6199    165.4448     27.3514
   892.5000    893.3152      8.0743      2.5475      0.0460      6.2106    158.2305     27.0557
   892.6000    893.3152      8.0743      2.5502      0.0423      6.0499    161.8636     26.7699
   892.7000    893.3152      8.0743      2.5530      0.0172      5.8812    177.0807     26.7355
   892.8000    900.7633      8.0763      2.5640      0.0613      5.2133    189.3718     26.8417
   892.9000    900.7633      8.0763      2.5711      0.0639      4.7842    191.5069     26.8917
   893.0000    913.2006      8.1091      2.5633      0.0664      5.2516    184.0013     26.8662
   893.1000    913.2006      8.1091      2.5549      0.0027      5.7609    172.9495     27.0942
   893.2000    913.2006      8.1091      2.5567      0.0321      5.6572    170.0691     27.5215
   893.3000    907.7032      8.0899      2.5537      0.0342      5.8377    179.3929     27.5834
   893.4000    907.7032      8.0899      2.5403     -0.0257      6.6475    191.2563     27.2837
   893.5000    893.1199      8.0815      2.5384     -0.0198      6.7648    191.2593     26.8834
   893.6000    893.1199      8.0815      2.5537     -0.0103      5.8386    179.0512     26.5338
   893.7000    893.1199      8.0815      2.5601      0.0290      5.4458    166.9690     26.4703
   893.8000    872.6009      8.0695      2.5462     -0.0116      6.2919    161.4255     26.7555
   893.9000    872.6009      8.0695      2.5298      0.0128      7.2842    159.6070     27.4009
   894.0000    887.6766      8.0609      2.5207      0.0178      7.8356    155.1509     28.1465
   894.1000    887.6766      8.0609      2.5087      0.0621      8.5607    147.5426     28.4881
   894.2000    887.6766      8.0609      2.4903      0.0339      9.6802    145.8572     28.3831
   894.3000    876.6529      8.0595      2.4815     -0.0154     10.2123    152.3711     27.9165
   894.4000    876.6529      8.0595      2.4943     -0.0263      9.4381    157.8331     27.0596
   894.5000    880.3718      8.0500      2.5107      0.0170      8.4427    160.5057     26.3494
