~Version Information
VERS.                      2.0: CWLS Log ASCII Standard - VERSION 2.0
WRAP.                       NO: One line per depth step
~Well Information Block
STRT.FT               664.0000: 
STOP.FT              1615.5000: 
STEP.FT                 0.2500: 
NULL.                -999.2500: 
COMP.          Petrogulf Corporation: COMPANY
WELL.          Great Plains 22-21R: WELL
FLD.           Purgatorie River: FIELD
LOC.           73' FNL & 1992' FWL: LOCATION
PROV.                 Colorado: PROVINCE
CNTY.               Las Animas: COUNTRY
SRVC.                Patterson: SERVICE COMPANY
DATE.          Thu Sep 08 08:05:26 2005: LOG DATE
UWI.                          : UNIQUE WELL ID
~Curve Information Block
DEPT.FT            0 000 00 00: Depth
SP.mV                         : DIL Spontaneous Potential
RILD.Ohm-m                    : DIL Deep Resistivity
RILM.Ohm-m                    : DIL Medium Resistivity
RLL3.Ohm-m                    : DIL Shallow Resistivity
GR.GAPI                       : Gamma Ray
~Parameter Information Block
~A  Depth        SP         RILD        RILM        RLL3         GR     
# ...
   860.0000    158.4935     37.5986     81.8096    553.4957     26.6682
   860.2500    157.6222     39.3535     94.4485    535.5510     28.0252
   860.5000    156.8021     37.3819    107.3578    536.9418     26.0720
   860.7500    155.8824     35.7870    102.4949    527.1148     27.9186
   861.0000    155.0034     32.0896     98.8435    489.1166     30.0873
   861.2500    154.2977     29.0971     83.3509    432.3858     36.9925
   861.5000    153.6241     25.2114     69.5739    362.6528     43.6656
   861.7500    153.0149     21.7859     57.8775    264.5332     49.9533
   862.0000    152.6688     19.0944     39.7700    173.7006     53.2894
   862.2500    152.6772     17.8847     28.7948    105.5873     58.3394
   862.5000    153.0878     16.3271     20.9243     58.8334     76.2673
   862.7500    153.7452     15.5105     16.5246     24.4100     93.4039
   863.0000    154.6080     14.5664     13.7180     12.0090    124.7446
   863.2500    155.3312     13.8685     12.2144      8.7298    142.5431
   863.5000    156.1194     13.0537     11.2646      7.8201    154.6468
   863.7500    156.7610     12.4401     10.8758      8.9458    151.1315
   864.0000    157.3308     11.9021     10.6081      9.9827    139.1105
   864.2500    157.9186     11.2840     10.3654     10.4030    136.9815
   864.5000    158.3647     10.6399     10.1735     11.1344    144.8327
   864.7500    158.8978     10.0172      9.8714     11.9510    144.5818
   865.0000    159.4492      9.6068      9.6276     11.6770    143.1974
   865.2500    160.0816      9.4071      9.4617     11.4077    137.9917
   865.5000    160.6263      9.2519      9.3563     12.1002    140.5881
   865.7500    161.1397      9.0946      9.1885     11.6052    128.0469
   866.0000    161.5300      9.0638      9.1820     11.3350    148.3301
   866.2500    161.9260      8.9681      9.1658     10.5996    143.9112
   866.5000    162.1284      8.8941      9.0314     11.3302    127.3441
   866.7500    162.1576      8.7268      8.9707     10.5326    129.8907
   867.0000    162.0229      8.6788      8.8524     10.1516    134.1352
   867.2500    161.8093      8.5433      8.6277     10.0961    141.6838
   867.5000    161.5141      8.3658      8.4790     10.0224    139.7469
   867.7500    161.0150      8.2231      8.3631     10.4397    133.3864
   868.0000    160.2034      8.0827      8.1099      9.6675    134.7764
   868.2500    159.2977      7.8343      7.9654      9.8767    142.2926
   868.5000    158.3972      7.7027      7.7934      9.8995    139.2790
   868.7500    157.4774      7.4854      7.6573      9.9706    132.8480
   869.0000    156.4914      7.2465      7.3873      9.5844    143.6701
   869.2500    155.6671      7.0838      7.2446      8.5578    144.8565
   869.5000    154.9843      6.8936      7.0189      8.8238    150.1066
   869.7500    154.3879      6.7961      6.8230      9.0386    150.8410
   870.0000    153.8049      6.7174      6.6243      8.3620    136.4231
   870.2500    153.2656      6.6155      6.4856      8.2040    140.0497
   870.5000    152.6074      6.5929      6.3828      8.0228    141.2915
   870.7500    151.9902      6.5244      6.2921      8.0920    140.5168
   871.0000    151.4081      6.5618      6.1969      8.1852    130.3584
   871.2500    150.6934      6.6261      6.1470      7.6261    139.8639
   871.5000    150.0098      6.6403      6.1212      6.9143    155.6063
   871.7500    149.1837      6.7122      6.1399      7.3103    156.4757
   872.0000    148.4099      6.8123      6.2127      7.7156    156.0475
   872.2500    148.0664      6.8627      6.3507      7.9161    145.6368
   872.5000    147.4825      6.9608      6.5524      8.5421    145.0010
   872.7500    146.8754      7.0621      6.8355      8.8928    149.0513
   873.0000    146.2366      7.1989      7.1022     10.0026    153.8599
   873.2500    145.6649      7.3974      7.4172     11.6047    156.7500
   873.5000    145.1836      7.6481      7.6275     12.0246    151.7337
   873.7500    144.7734      7.8624      7.8634     12.0351    150.3375
   874.0000    144.5674      8.1575      8.1140     11.8409    152.2429
   874.2500    144.6971      8.4446      8.4521     11.4406    155.9942
   874.5000    145.2345      8.8389      8.7731     11.0707    148.2343
   874.7500    145.8767      9.2566      9.2471     11.2205    147.4783
   875.0000    146.5357      9.6694      9.7730     12.1238    143.5633
   875.2500    147.1305     10.0661     10.3372     12.3911    139.5931
   875.5000    147.7396     10.4123     11.0888     13.6222    141.8398
   875.7500    148.2320     10.5760     11.8160     15.2026    132.3376
   876.0000    148.5888     10.5906     12.3768     18.0511    125.7160
   876.2500    148.9074     10.7844     12.7801     21.2401    119.5820
   876.5000    149.1328     10.9977     12.9551     23.5542    115.3156
   876.7500    149.3696     11.1125     12.7506     23.3388    121.0449
   877.0000    149.8099     11.3139     12.3813     19.9677    126.0402
   877.2500    150.2246     11.5234     11.9157     16.8004    128.8118
   877.5000    150.6194     11.6993     11.6906     14.7157    138.5221
   877.7500    151.0012     11.9989     11.6900     12.0622    139.4632
   878.0000    151.4443     12.1784     11.9536     11.3310    148.4018
   878.2500    151.7003     12.2597     12.2026     12.8435    155.2273
   878.5000    151.9145     12.3156     12.7453     14.9267    148.9203
   878.7500    152.1684     12.3136     13.0229     17.3991    148.4145
   879.0000    152.5225     12.1099     13.3541     18.0477    142.3989
   879.2500    152.8709     12.0714     13.4701     17.4830    139.7638
   879.5000    153.3224     11.9813     13.6874     18.1839    140.1245
   879.7500    153.8071     12.0377     13.6744     19.6466    134.4782
   880.0000    154.3059     12.1140     13.7413     18.9865    132.0714
   880.2500    154.6385     12.3372     13.9160     18.3664    145.2920
   880.5000    154.8408     12.7500     14.0190     18.8507    147.4337
   880.7500    154.8888     12.9623     14.2159     18.6927    141.0267
   881.0000    154.8338     13.3083     14.4434     18.5458    138.5401
   881.2500    154.8032     13.7447     14.7662     18.4127    145.3215
   881.5000    154.7349     14.2432     14.9545     17.7572    133.0250
   881.7500    154.6996     14.5349     15.2190     17.3531    134.3848
   882.0000    154.7218     15.2733     15.9443     18.0063    150.1671
   882.2500    154.8049     15.3456     16.7884     18.9587    150.7312
   882.5000    154.7606     15.5998     17.5714     21.9795    130.8992
   882.7500    154.5965     15.9451     18.4644     27.5439    133.4978
   883.0000    154.3310     16.4496     19.3020     30.0220    125.4730
   883.2500    154.0666     16.7502     19.9717     28.7345    129.7110
   883.5000    154.0647     17.1179     20.5280     28.1320    120.0014
   883.7500    154.3193     17.7198     20.7126     26.9360    121.4299
   884.0000    154.6412     18.3195     21.5987     25.8297    121.7925
   884.2500    155.0307     18.8882     22.7394     27.7894    123.5766
   884.5000    155.4274     20.0115     23.1070     34.1669    129.0777
   884.7500    155.7846     20.4608     24.2140     37.8175    120.7162
   885.0000    156.4065     21.0623     25.8443     33.4088    123.0965
   885.2500    156.8700     21.8018     27.9670     29.0649    130.4126
   885.5000    157.2929     22.2595     30.0364     32.8368    129.4088
   885.7500    157.7516     22.5964     33.9690     45.7904    119.7782
   886.0000    158.2017     22.1158     37.8815     68.2420    106.8327
   886.2500    158.5452     22.1777     42.5193     89.0638     99.0612
   886.5000    158.8352     21.8701     43.2807     97.7287     90.7706
   886.7500    159.1563     20.5037     43.3468     91.2004     88.7231
   887.0000    159.5890     19.6785     38.9144     85.2900     92.0819
   887.2500    160.1350     18.2255     36.3439     79.6723     90.0218
   887.5000    160.7607     17.2443     32.0965     73.7454     99.7518
   887.7500    161.4013     16.2874     27.2048     71.4721     97.0625
