~Version Information
VERS.                      2.0: CWLS Log ASCII Standard - VERSION 2.0
WRAP.                       NO: One line per depth step
~Well Information Block
STRT.FT               453.5000: 
STOP.FT              1386.0000: 
STEP.FT                 0.1000: 
NULL.                -999.2500: 
COMP.          Petrogulf Corporation: COMPANY
WELL.          Great Plains 22-22R: WELL
FLD.           Purgatoire River: FIELD
LOC.           2042' FNL & 1657' FWL--: LOCATION
PROV.                 Colorado: PROVINCE
CNTY.               Las Animas: COUNTRY
SRVC.                Patterson: SERVICE COMPANY
DATE.          Fri Sep 09 14:42:42 2005: LOG DATE
UWI.           05 071 08028 00: UNIQUE WELL ID
~Curve Information Block
DEPT.FT            0 000 00 00: Depth
DCAL.in                       : CDL Caliper
RHOB.g/cc                     : CDL Bulk Density
RHOC.g/cc                     : CDL Density Correction
DPOR.pu                       : CDL Density Porosity
NPOR.pu                       : Neutron Porosity
GR.GAPI                       : Gamma Ray
~Parameter Information Block
~A  Depth       DCAL        RHOB        RHOC        DPOR        NPOR         GR     
# ...
   463.1000   -999.2500   -999.2500   -999.2500   -999.2500     46.9039     85.9597
   463.2000   -999.2500   -999.2500   -999.2500   -999.2500     47.1691     85.0644
   463.3000   -999.2500   -999.2500   -999.2500   -999.2500     47.3456     85.2778
   463.4000   -999.2500   -999.2500   -999.2500   -999.2500     47.2154     85.1477
   463.5000   -999.2500   -999.2500   -999.2500   -999.2500     46.9159     85.6347
   463.6000   -999.2500   -999.2500   -999.2500   -999.2500     46.5871     84.9598
   463.7000   -999.2500   -999.2500   -999.2500   -999.2500     46.2608     81.7564
   463.8000   -999.2500   -999.2500   -999.2500   -999.2500     46.0035     79.5660
   463.9000   -999.2500   -999.2500   -999.2500   -999.2500     45.8323     78.0713
   464.0000   -999.2500   -999.2500   -999.2500   -999.2500     45.7509     72.6373
   464.1000   -999.2500   -999.2500   -999.2500   -999.2500     45.7162     66.6991
   464.2000   -999.2500   -999.2500   -999.2500   -999.2500     45.7980     66.8707
   464.3000   -999.2500   -999.2500   -999.2500   -999.2500     46.1447     68.2107
   464.4000   -999.2500   -999.2500   -999.2500   -999.2500     46.6787     65.9912
   464.5000   -999.2500   -999.2500   -999.2500   -999.2500     47.0895     64.9669
   464.6000   -999.2500   -999.2500   -999.2500   -999.2500     47.1921     66.9666
   464.7000   -999.2500   -999.2500   -999.2500   -999.2500     46.9849     69.3911
   464.8000   -999.2500   -999.2500   -999.2500   -999.2500     46.4177     71.4432
   464.9000   -999.2500   -999.2500   -999.2500   -999.2500     45.6296     71.0445
   465.0000   -999.2500   -999.2500   -999.2500   -999.2500     45.0912     66.0676
   465.1000   -999.2500   -999.2500   -999.2500   -999.2500     45.0526     59.4963
   465.2000   -999.2500   -999.2500   -999.2500   -999.2500     45.2967     55.8130
   465.3000   -999.2500   -999.2500   -999.2500   -999.2500     45.6096     57.8736
   465.4000   -999.2500   -999.2500   -999.2500   -999.2500     46.0515     64.4013
   465.5000   -999.2500   -999.2500   -999.2500   -999.2500     46.6186     69.1656
   465.6000   -999.2500   -999.2500   -999.2500   -999.2500     46.9967     67.9712
   465.7000   -999.2500   -999.2500   -999.2500   -999.2500     47.0240     65.8785
   465.8000   -999.2500   -999.2500   -999.2500   -999.2500     47.0683     70.0827
   465.9000   -999.2500   -999.2500   -999.2500   -999.2500     47.2132     77.1282
   466.0000   -999.2500   -999.2500   -999.2500   -999.2500     47.1557     80.1828
   466.1000   -999.2500   -999.2500   -999.2500   -999.2500     46.9033     81.7465
   466.2000   -999.2500   -999.2500   -999.2500   -999.2500     46.6844     84.7215
   466.3000   -999.2500   -999.2500   -999.2500   -999.2500     46.7369     84.0319
   466.4000   -999.2500   -999.2500   -999.2500   -999.2500     47.1122     79.4533
   466.5000   -999.2500   -999.2500   -999.2500   -999.2500     47.5235     76.2675
   466.6000   -999.2500   -999.2500   -999.2500   -999.2500     47.6612     75.2447
   466.7000   -999.2500   -999.2500   -999.2500   -999.2500     47.4171     75.6545
   466.8000   -999.2500   -999.2500   -999.2500   -999.2500     47.0981     76.7003
   466.9000   -999.2500   -999.2500      0.3009   -999.2500     47.1402     75.3109
   467.0000   -999.2500   -999.2500      0.2967   -999.2500     47.4400     70.7765
   467.1000   -999.2500   -999.2500      0.3095   -999.2500     47.5803     67.3871
   467.2000   -999.2500   -999.2500      0.3354   -999.2500     47.5866     68.0808
   467.3000   -999.2500   -999.2500      0.3439   -999.2500     47.5592     72.0889
   467.4000   -999.2500      1.9181      0.3638     44.3590     47.3385     74.8613
   467.5000      2.5131      1.9420      0.3587     42.9089     46.7845     73.0939
   467.6000      2.5131      1.9655      0.3640     41.4861     46.0331     69.7422
   467.7000      2.5131      1.9811      0.3618     40.5374     45.6154     67.8650
   467.8000      2.5196      1.9829      0.3492     40.4320     45.5988     66.4744
   467.9000      2.5196      1.9733      0.3381     41.0099     45.4128     64.6612
   468.0000      2.5288      1.9562      0.3102     42.0479     45.0208     63.4426
   468.1000      2.5288      1.9334      0.2734     43.4304     44.9156     63.2196
   468.2000      2.5288      1.9073      0.2756     45.0108     44.9369     63.3102
   468.3000      2.5354      1.8787      0.2474     46.7442     44.6737     63.1026
   468.4000      2.5354      1.8532      0.1898     48.2935     44.4595     63.2370
   468.5000      2.5359      1.8404      0.2021     49.0680     44.4945     63.9089
   468.6000      2.5359      1.8432      0.2005     48.8968     44.5180     64.5612
   468.7000      2.5359      1.8593      0.2190     47.9201     44.6597     64.4855
   468.8000      2.5331      1.8848      0.2342     46.3776     45.0874     61.8085
   468.9000      2.5331      1.9149      0.2531     44.5529     45.4095     57.7492
   469.0000      2.5328      1.9441      0.2643     42.7827     45.0198     56.1760
   469.1000      2.5328      1.9646      0.2638     41.5395     44.1029     57.3717
   469.2000      2.5328      1.9694      0.2794     41.2456     43.5300     59.2854
   469.3000      2.5361      1.9577      0.2903     41.9581     43.5358     59.3467
   469.4000      2.5361      1.9378      0.2423     43.1639     43.8168     57.8937
   469.5000      2.5389      1.9216      0.2257     44.1468     44.1919     59.1938
   469.6000      2.5389      1.9092      0.2291     44.8998     44.3561     62.2854
   469.7000      2.5389      1.8914      0.2257     45.9758     44.2213     61.6498
   469.8000      2.5382      1.8677      0.2106     47.4141     44.2728     57.8479
   469.9000      2.5382      1.8474      0.1960     48.6433     44.5129     57.0609
   470.0000      2.5347      1.8349      0.2153     49.3970     44.3242     59.8126
   470.1000      2.5347      1.8275      0.2172     49.8481     43.6628     60.8854
   470.2000      2.5347      1.8255      0.2036     49.9680     43.1333     59.0396
   470.3000      2.5314      1.8333      0.2247     49.4990     42.9660     57.7791
   470.4000      2.5314      1.8521      0.2456     48.3552     42.9041     58.8746
   470.5000      2.5289      1.8795      0.2581     46.6998     42.6473     60.4442
   470.6000      2.5289      1.9092      0.2955     44.8943     42.2062     60.0581
   470.7000      2.5289      1.9339      0.3218     43.4000     41.9194     59.2891
   470.8000      2.5261      1.9513      0.3160     42.3436     41.8994     60.7060
   470.9000      2.5261      1.9669      0.2930     41.4010     41.8792     61.0570
   471.0000      2.5254      1.9824      0.3015     40.4622     41.6537     56.3800
   471.1000      2.5254      1.9914      0.3216     39.9128     41.3704     50.6226
   471.2000      2.5254      1.9921      0.3031     39.8705     41.3266     50.1143
   471.3000      2.5284      1.9887      0.2909     40.0777     41.3702     54.4460
   471.4000      2.5284      1.9792      0.2894     40.6521     41.1007     57.1068
   471.5000      2.5340      1.9621      0.2632     41.6905     40.6622     55.1246
   471.6000      2.5340      1.9427      0.2570     42.8644     40.6831     52.5935
   471.7000      2.5340      1.9269      0.2175     43.8262     41.3919     52.7217
   471.8000      2.5382      1.9175      0.2264     44.3921     42.2387     54.6242
   471.9000      2.5382      1.9179      0.2116     44.3705     42.8324     56.5301
   472.0000      2.5393      1.9290      0.2368     43.6981     43.3244     56.6942
   472.1000      2.5393      1.9425      0.2329     42.8802     43.6517     53.9047
   472.2000      2.5393      1.9458      0.2397     42.6766     43.6623     49.3532
   472.3000      2.5398      1.9348      0.2239     43.3481     43.6402     45.3601
   472.4000      2.5398      1.9207      0.2213     44.2017     43.6412     41.7244
   472.5000      2.5390      1.9155      0.2443     44.5124     43.4231     38.2480
   472.6000      2.5390      1.9194      0.2129     44.2809     43.2070     38.2908
