~Version Information
VERS.                      2.0: CWLS Log ASCII Standard - VERSION 2.0
WRAP.                       NO: One line per depth step
~Well Information Block
STRT.FT                -8.0000: 
STOP.FT              1357.5000: 
STEP.FT                 0.2500: 
NULL.                -999.2500: 
COMP.          Pioneer Natural Resources: COMPANY
WELL.          Lorencito 6-3-34-66: WELL
FLD.           Purgatorie River: FIELD
LOC.           2545' FNL & 1914' FWL: LOCATION
STAT.                       CO: State
CNTY.               Las Animas: COUNTY
CTRY. USA : Country
SECT. 3 : Section
TOWN. 34S : Township
RANG. 66W : Range
SRVC.          Patterson Wireline: SERVICE COMPANY
DATE.          Tue Sep 27 11:36:13 2005: LOG DATE
API.           05 071 08369 00: UNIQUE WELL ID
~Curve Information Block
DEPT.FT            0 000 00 00: Depth
CCL.                          : Casing Collar Locator
TT3.usec                      : CBL 3' Travel Time
AMP3.mV                       : CBL 3' Amplitude
GR.GAPI                       : Gamma Ray
~Parameter Information Block
~A  Depth       CCL         TT3         AMP3         GR     
# ...
  1332.0000      0.0000    687.0378      3.3458     84.7812
  1332.2500      0.0000    683.4923      3.4133     93.7731
  1332.5000      0.0000    681.6632      3.4879    100.9604
  1332.7500      0.0000    682.1083      3.5723    103.2259
  1333.0000      0.0000    684.9441      3.6573     99.8067
  1333.2500      0.0000    690.0309      3.7343     93.0916
  1333.5000      0.0000    696.1865      3.8039     86.7055
  1333.7500      0.0000    700.6337      3.8740     82.8077
  1334.0000      0.0000    700.1022      3.9515     81.2114
  1334.2500      0.0000    693.2573      4.0360     80.6066
  1334.5000      0.0000    682.1082      4.1197     80.1312
  1334.7500      0.0000    670.6583      4.1932     79.8032
  1335.0000      0.0000    662.0892      4.2522     79.8528
  1335.2500      0.0000    657.2217      4.2988     80.1190
  1335.5000      0.0000    655.1275      4.3377     80.2293
  1335.7500      0.0000    654.5071      4.3737     80.1001
  1336.0000      0.0000    654.4705      4.4101     80.0320
  1336.2500      0.0000    654.5803      4.4441     80.3352
  1336.5000      0.0000    654.6317      4.4646     81.0676
  1336.7500      0.0000    654.5138      4.4589     82.1310
  1337.0000      0.0000    654.1762      4.4240     83.2902
  1337.2500      0.0000    653.4678      4.3712     84.0238
  1337.5000      0.0000    651.6374      4.3188     83.7271
  1337.7500      0.0000    646.6203      4.2790     82.3657
  1338.0000      0.0000    635.0684      4.2516     80.7322
  1338.2500      0.0000    614.5916      4.2303     79.8230
  1338.5000      0.0000    587.7668      4.2147     80.1150
  1338.7500      0.0000    563.6368      4.2141     81.5278
  1339.0000      0.0000    552.2769      4.2361     83.6502
  1339.2500      0.0000    556.0914      4.2760     85.7986
  1339.5000      0.0000    567.8076      4.3188     87.3145
  1339.7500      0.0000    578.5424      4.3520     88.2457
  1340.0000      0.0000    586.5530      4.3755     89.5166
  1340.2500      0.0000    596.6258      4.3970     91.9510
  1340.5000      0.0000    612.2832      4.4222     95.0608
  1340.7500      0.0000    630.8809      4.4504     97.0280
  1341.0000      0.0000    646.4318      4.4798     96.1049
  1341.2500      0.0000    655.5147      4.5101     92.1004
  1341.5000      0.0000    659.4946      4.5409     86.5176
  1341.7500      0.0000    662.2741      4.5716     81.4202
  1342.0000      0.0000    667.4868      4.6066     78.1840
  1342.2500      0.0000    676.9747      4.6572     76.8361
  1342.5000      0.0000    689.7293      4.7333     75.8992
  1342.7500      0.0000    701.9667      4.8306     72.8588
  1343.0000      0.0000    709.7825      4.9296     65.4914
  1343.2500      0.0000    712.3245      5.0069     53.3774
  1343.5000      0.0000    711.2834      5.0508     38.4042
  1343.7500      0.0000    707.7175      5.0652     23.8244
  1344.0000      0.0000    701.5725      5.0591     12.4765
  1344.2500      0.0000    694.7191      5.0350      5.4154
  1344.5000      0.0000    691.9073      4.9894      1.9198
  1344.7500      0.0000    696.8698      4.9249      0.5492
  1345.0000      0.0000    708.0141      4.8542      0.1251
  1345.2500      0.0000    719.1211      4.7934      0.0224
  1345.5000      0.0000    724.8249      4.7536      0.0027
  1345.7500      0.0000    725.3954      4.7369      0.0000
  1346.0000      0.0000    725.5963      4.7382   -999.2500
  1346.2500      0.0000    728.9283      4.7503   -999.2500
  1346.5000      0.0000    734.1549      4.7696   -999.2500
  1346.7500      0.0000    737.6512      4.7947   -999.2500
  1347.0000      0.0000    737.5954      4.8224   -999.2500
  1347.2500      0.0000    735.0413      4.8453   -999.2500
  1347.5000      0.0000    731.6545      4.8546   -999.2500
  1347.7500      0.0000    726.4499      4.8386   -999.2500
  1348.0000      0.0000    713.4715      4.7692   -999.2500
  1348.2500      0.0000    681.5546      4.5843   -999.2500
  1348.5000      0.0000    617.5539      4.1916   -999.2500
  1348.7500      0.0000    514.4670      3.5201   -999.2500
  1349.0000      0.0000    381.2327      2.6019   -999.2500
  1349.2500      0.0000    243.7571      1.6045   -999.2500
  1349.5000      0.0000    131.1426      0.7488   -999.2500
  1349.7500      0.0000     58.2285      0.1718   -999.2500
  1350.0000      0.0000     21.0296     -0.1332   -999.2500
  1350.2500      0.0000      6.1094     -0.2593   -999.2500
  1350.5000      0.0000      1.4139     -0.2999   -999.2500
  1350.7500      0.0000      0.2556     -0.3102   -999.2500
  1351.0000      0.0000      0.0319     -0.3122   -999.2500
  1351.2500      0.0000   -999.2500   -999.2500   -999.2500
  1351.5000      0.0000   -999.2500   -999.2500   -999.2500
  1351.7500      0.0000   -999.2500   -999.2500   -999.2500
  1352.0000      0.0000   -999.2500   -999.2500   -999.2500
  1352.2500      0.0000   -999.2500   -999.2500   -999.2500
  1352.5000      0.0000   -999.2500   -999.2500   -999.2500
  1352.7500      0.0000   -999.2500   -999.2500   -999.2500
  1353.0000      0.0000   -999.2500   -999.2500   -999.2500
  1353.2500      0.0000   -999.2500   -999.2500   -999.2500
  1353.5000      0.0000   -999.2500   -999.2500   -999.2500
  1353.7500      0.0000   -999.2500   -999.2500   -999.2500
  1354.0000      0.0000   -999.2500   -999.2500   -999.2500
  1354.2500      0.0000   -999.2500   -999.2500   -999.2500
  1354.5000      0.0000   -999.2500   -999.2500   -999.2500
  1354.7500      0.0000   -999.2500   -999.2500   -999.2500
  1355.0000      0.0000   -999.2500   -999.2500   -999.2500
  1355.2500      0.0000   -999.2500   -999.2500   -999.2500
  1355.5000      0.0000   -999.2500   -999.2500   -999.2500
  1355.7500      0.0000   -999.2500   -999.2500   -999.2500
  1356.0000      0.0000   -999.2500   -999.2500   -999.2500
  1356.2500      0.0000   -999.2500   -999.2500   -999.2500
  1356.5000      0.0000   -999.2500   -999.2500   -999.2500
  1356.7500      0.0000   -999.2500   -999.2500   -999.2500
  1357.0000   -999.2500   -999.2500   -999.2500   -999.2500
  1357.2500   -999.2500   -999.2500   -999.2500   -999.2500
  1357.5000   -999.2500   -999.2500   -999.2500   -999.2500
