~Version Information
VERS.                      2.0: CWLS Log ASCII Standard - VERSION 2.0
WRAP.                       NO: One line per depth step
~Well Information Block
STRT.FT               745.0000: 
STOP.FT              2945.7000: 
STEP.FT                 0.1000: 
NULL.                -999.2500: 
COMP.          Pioneer Natural Resources: COMPANY
WELL.          Old Yeller 31-32: WELL
FLD.           Purgatoire River: FIELD
LOC.           1832' FEL & 793' FNL--: LOCATION
STAT.                 Colorado: State
CNTY.               Las Animas: COUNTY
CTRY. USA : Country
SECT. 32 : Section
TOWN. 32S : Township
RANG. 67W : Range
SRVC.                Patterson: SERVICE COMPANY
DATE.          Mon Aug 29 11:12:35 2005: LOG DATE
API.           05 071 08356 00: UNIQUE WELL ID
~Curve Information Block
DEPT.FT            0 000 00 00: Depth
DCAL.in                       : CDL Caliper
RHOB.g/cc                     : CDL Bulk Density
RHOC.g/cc                     : CDL Density Correction
DPOR.pu                       : CDL Density Porosity
NPOR.pu                       : Neutron Porosity
GR.GAPI                       : Gamma Ray
~Parameter Information Block
~A  Depth       DCAL        RHOB        RHOC        DPOR        NPOR         GR     
# ...
  2050.6000      8.0391      2.6197      0.0531      1.8394     17.6855    117.1424
  2050.7000      8.0391      2.5920     -0.0226      3.5132     18.4453    116.8895
  2050.8000      8.0403      2.5765      0.0165      4.4516     18.5233    124.9113
  2050.9000      8.0403      2.5704     -0.0005      4.8215     18.1065    131.7907
  2051.0000      8.0396      2.5670      0.0040      5.0296     17.6789    129.1172
  2051.1000      8.0396      2.5609      0.0185      5.4021     17.8169    121.2677
  2051.2000      8.0396      2.5528     -0.0068      5.8883     18.8396    118.0170
  2051.3000      8.0378      2.5507     -0.0073      6.0182     20.0220    121.5533
  2051.4000      8.0378      2.5547      0.0174      5.7765     20.4365    125.5941
  2051.5000      8.0377      2.5568      0.0269      5.6458     20.2900    127.8309
  2051.6000      8.0377      2.5530      0.0353      5.8776     20.2216    132.0318
  2051.7000      8.0377      2.5504      0.0471      6.0367     20.3538    137.0244
  2051.8000      8.0403      2.5545      0.0309      5.7865     20.5669    136.4142
  2051.9000      8.0403      2.5570      0.0688      5.6374     20.9646    131.0968
  2052.0000      8.0422      2.5533     -0.0292      5.8615     21.7157    126.5869
  2052.1000      8.0422      2.5513      0.0578      5.9805     22.5484    126.0900
  2052.2000      8.0422      2.5458      0.0629      6.3146     22.9103    128.4271
  2052.3000      8.0420      2.5399     -0.0197      6.6737     22.6609    131.2918
  2052.4000      8.0420      2.5552      0.0414      5.7482     22.2433    134.7723
  2052.5000      8.0397      2.5873      0.0705      3.7988     22.1237    138.0142
  2052.6000      8.0397      2.6172      0.0800      1.9855     22.3159    140.1898
  2052.7000      8.0397      2.6369      0.1132      0.7910     22.6528    143.0004
  2052.8000      8.0376      2.6347      0.1041      0.9259     22.9336    146.2140
  2052.9000      8.0376      2.6087      0.0521      2.5023     22.9840    146.3934
  2053.0000      8.0375      2.5820      0.0244      4.1233     22.6484    142.7878
  2053.1000      8.0375      2.5703      0.0347      4.8323     22.0090    138.9167
  2053.2000      8.0375      2.5689      0.0692      4.9152     21.4539    136.6149
  2053.3000      8.0369      2.5740      0.0605      4.6065     21.3097    134.2096
  2053.4000      8.0369      2.5850      0.0595      3.9423     21.4992    131.8396
  2053.5000      8.0357      2.5943      0.0545      3.3742     21.5384    131.5388
  2053.6000      8.0357      2.5993      0.0758      3.0719     21.1918    129.9277
  2053.7000      8.0357      2.6090      0.0618      2.4870     20.8502    122.0340
  2053.8000      8.0365      2.6300      0.0681      1.2137     20.8262    113.4332
  2053.9000      8.0365      2.6561      0.0440     -0.3672     20.8750    110.0161
  2054.0000      8.0392      2.6704      0.0785     -1.2363     20.8068    108.7020
  2054.1000      8.0392      2.6590      0.0587     -0.5451     20.8912    108.4139
  2054.2000      8.0392      2.6306      0.0256      1.1787     21.3256    108.9777
  2054.3000      8.0408      2.6007      0.0236      2.9882     21.7380    106.3779
  2054.4000      8.0408      2.5734     -0.0086      4.6402     21.8713    101.5679
  2054.5000      8.0407      2.5587     -0.0239      5.5335     22.1961     99.6001
  2054.6000      8.0407      2.5680      0.0112      4.9717     22.4276    103.2309
  2054.7000      8.0407      2.5937      0.0355      3.4118     21.7732    112.3535
  2054.8000      8.0398      2.6161      0.0867      2.0550     20.9961    121.6810
  2054.9000      8.0398      2.6232      0.0639      1.6265     21.0350    125.0559
  2055.0000      8.0379      2.6235      0.0449      1.6045     21.3581    123.2806
  2055.1000      8.0379      2.6328      0.0701      1.0416     21.1990    119.6193
  2055.2000      8.0379      2.6505      0.0629     -0.0316     20.8976    114.2633
  2055.3000      8.0356      2.6643      0.0774     -0.8684     20.7124    109.7598
  2055.4000      8.0356      2.6702      0.0400     -1.2246     20.3676    109.3301
  2055.5000      8.0358      2.6704      0.0758     -1.2374     20.1424    108.7187
  2055.6000      8.0358      2.6610      0.0769     -0.6636     20.1965    104.2695
  2055.7000      8.0358      2.6405      0.0554      0.5752     20.1369     99.1214
  2055.8000      8.0381      2.6162      0.0093      2.0514     19.8761     98.3174
  2055.9000      8.0381      2.5962      0.0399      3.2576     19.8515    101.6106
  2056.0000      8.0382      2.5891     -0.0375      3.6907     20.4316    104.5954
  2056.1000      8.0382      2.5996      0.0061      3.0560     21.4303    105.2315
  2056.2000      8.0382      2.6110      0.0461      2.3662     22.3424    102.9542
  2056.3000      8.0379      2.6084     -0.0099      2.5196     22.5991    100.1830
  2056.4000      8.0379      2.6067      0.0119      2.6270     22.0284    102.3068
  2056.5000      8.0413      2.6168      0.0302      2.0128     21.2151    107.1016
  2056.6000      8.0413      2.6262      0.0506      1.4430     20.9913    108.2749
  2056.7000      8.0413      2.6252      0.0238      1.5001     21.3902    109.0412
  2056.8000      8.0434      2.6206      0.0411      1.7829     21.6852    114.1669
  2056.9000      8.0434      2.6196      0.0369      1.8414     21.5439    120.2165
  2057.0000      8.0422      2.6212      0.0191      1.7469     21.4206    122.2578
  2057.1000      8.0422      2.6205      0.0552      1.7884     21.5804    119.5406
  2057.2000      8.0422      2.6116      0.0620      2.3269     21.5569    116.6165
  2057.3000      8.0419      2.5937      0.0161      3.4121     21.0725    115.0609
  2057.4000      8.0419      2.5781      0.0173      4.3551     20.4147    111.6244
  2057.5000      8.0430      2.5722      0.0120      4.7172     20.0715    107.6933
  2057.6000      8.0430      2.5714     -0.0019      4.7644     20.4017    105.1104
  2057.7000      8.0430      2.5709      0.0022      4.7965     20.9566    102.3414
  2057.8000      8.0430      2.5654      0.0188      5.1256     20.9559    101.1997
  2057.9000      8.0430      2.5518      0.0033      5.9518     20.4608    101.6789
  2058.0000      8.0430      2.5404     -0.0056      6.6400     20.0282     99.6332
  2058.1000      8.0430      2.5474      0.0496      6.2182     19.8029     94.9753
  2058.2000      8.0430      2.5673      0.0476      5.0116     19.4487     89.6939
  2058.3000      8.0421      2.5779      0.0605      4.3726     18.8286     83.8306
  2058.4000      8.0421      2.5704      0.0312      4.8241     18.2368     78.1782
  2058.5000      8.0378      2.5559      0.0340      5.7000     17.7130     74.2053
  2058.6000      8.0378      2.5452      0.0294      6.3514     17.3225     71.5249
  2058.7000      8.0378      2.5432      0.0092      6.4742     17.3362     69.2227
  2058.8000      8.0339      2.5509      0.0004      6.0077     17.5349     67.8992
  2058.9000      8.0339      2.5616      0.0314      5.3584     17.4552     68.5989
  2059.0000      8.0327      2.5660      0.0818      5.0893     17.2912     69.5148
  2059.1000      8.0327      2.5644     -0.0019      5.1857     17.4536     68.0354
  2059.2000      8.0327      2.5595      0.0579      5.4843     17.4874     66.0392
  2059.3000      8.0332      2.5460     -0.0016      6.3041     17.0959     64.9384
  2059.4000      8.0332      2.5284      0.0225      7.3680     16.9299     61.0275
  2059.5000      8.0355      2.5176      0.0326      8.0254     17.3394     55.2223
  2059.6000      8.0355      2.5172      0.0177      8.0496     17.7022     52.0371
  2059.7000      8.0355      2.5261      0.0275      7.5080     17.4905     50.1372
  2059.8000      8.0390      2.5375      0.0466      6.8198     17.0418     48.3442
  2059.9000      8.0390      2.5441      0.0231      6.4188     16.7671     49.1899
  2060.0000      8.0403      2.5436      0.0795      6.4506     16.7059     52.7194
  2060.1000      8.0403      2.5364      0.0276      6.8821     16.6019     55.0633
