~Version Information
VERS.                      2.0: CWLS Log ASCII Standard - VERSION 2.0
WRAP.                       NO: One line per depth step
~Well Information Block
STRT.FT               420.0000: 
STOP.FT              1527.5000: 
STEP.FT                 0.1000: 
NULL.                -999.2500: 
COMP.          Evergreen Operating Corporation: COMPANY
WELL.              Chase 21-10: WELL
FLD.           Purgatoire River: FIELD
LOC.           1122' FNL & 1544' FWL: LOCATION
PROV.                       CO: PROVINCE
CNTY.               Las Animas: COUNTRY
SRVC.                         : SERVICE COMPANY
DATE.          Tue May 25 08:18:37 2004: LOG DATE
UWI.           05 071 08006 00: UNIQUE WELL ID
~Curve Information Block
DEPT.FT            0 000 00 00: Depth
DCAL.in                       : CDL Caliper
RHOB.g/cc                     : CDL Bulk Density
RHOC.g/cc                     : CDL Density Correction
DPOR.pu                       : CDL Density Porosity
GR.GAPI                       : Gamma Ray
NPOR.pu                       : Neutron Porosity
~Parameter Information Block
~A  Depth       DCAL        RHOB        RHOC        DPOR         GR         NPOR    
# ...
   708.0000      7.9589      2.6697      0.1125     -1.1964    106.2327     27.3879
   708.1000      7.9589      2.6482      0.1337      0.1113    104.3991     27.7930
   708.2000      7.9589      2.6137      0.1243      2.2003     97.7524     27.8823
   708.3000      7.9440      2.5690      0.1299      4.9110     89.2931     27.5253
   708.4000      7.9440      2.5305      0.0229      7.2427     83.6804     27.2470
   708.5000      7.9431      2.5244      0.0342      7.6149     84.7877     27.2102
   708.6000      7.9431      2.5441      0.0830      6.4193     90.2757     27.2410
   708.7000      7.9431      2.5622      0.1177      5.3218     91.8518     27.2359
   708.8000      7.9574      2.5685      0.0253      4.9365     87.6553     27.0296
   708.9000      7.9574      2.5695      0.0668      4.8808     83.5647     26.6839
   709.0000      7.9669      2.5564      0.0902      5.6730     80.9245     26.5095
   709.1000      7.9669      2.5228      0.0722      7.7078     77.3131     26.6745
   709.2000      7.9669      2.5048     -0.0036      8.8000     75.5484     26.9202
   709.3000      7.9571      2.5354     -0.0120      6.9426     79.8125     26.8323
   709.4000      7.9571      2.5835      0.1114      4.0304     86.6288     26.4871
   709.5000      7.9589      2.5963      0.1064      3.2541     88.5955     26.2372
   709.6000      7.9589      2.5729      0.0208      4.6739     86.2942     26.0534
   709.7000      7.9589      2.5484      0.0181      6.1604     84.7370     25.9220
   709.8000      7.9502      2.5449     -0.0035      6.3681     85.2327     26.0080
   709.9000      7.9502      2.5556      0.0532      5.7190     87.1179     26.0292
   710.0000      7.9638      2.5567      0.0676      5.6520     87.9959     25.7404
   710.1000      7.9638      2.5453      0.0133      6.3467     85.2984     25.4836
   710.2000      7.9638      2.5458      0.0283      6.3147     81.9723     25.3750
   710.3000      7.9776      2.5774      0.0480      4.4028     80.3370     25.2298
   710.4000      7.9776      2.6172      0.0737      1.9883     77.4235     25.0903
   710.5000      7.9820      2.6132      0.0724      2.2302     72.6544     24.9554
   710.6000      7.9820      2.5636     -0.0282      5.2375     72.4380     24.7188
   710.7000      7.9820      2.5249     -0.0345      7.5830     76.7540     24.4772
   710.8000      7.9385      2.5189      0.0138      7.9449     78.3019     24.1968
   710.9000      7.9385      2.5218      0.0113      7.7669     77.1050     23.9014
   711.0000      7.9519      2.5165      0.0211      8.0905     74.8405     23.9770
   711.1000      7.9519      2.4993      0.0247      9.1318     70.6791     24.2913
   711.2000      7.9519      2.4752     -0.0056     10.5931     67.3424     24.2962
   711.3000      7.9810      2.4561     -0.0209     11.7497     66.7504     24.0884
   711.4000      7.9810      2.4680     -0.0804     11.0317     68.4299     24.1634
   711.5000      7.9593      2.5221      0.0631      7.7489     71.7206     24.3223
   711.6000      7.9593      2.5880      0.0695      3.7572     72.3477     24.2374
   711.7000      7.9593      2.6371      0.1107      0.7846     68.1750     24.1617
   711.8000      7.9407      2.6582      0.1375     -0.4972     66.3121     24.3093
   711.9000      7.9407      2.6491      0.1256      0.0543     70.5791     24.3679
   712.0000      7.9233      2.6256      0.0769      1.4807     74.2190     23.9952
   712.1000      7.9233      2.6082      0.0560      2.5304     74.9587     23.4870
   712.2000      7.9233      2.6050      0.1153      2.7251     77.2290     23.4323
   712.3000      7.9078      2.6087      0.1045      2.5013     79.0480     23.7361
   712.4000      7.9078      2.6123      0.0273      2.2871     76.4691     24.0232
   712.5000      7.9547      2.6151      0.0318      2.1163     72.7248     24.2358
   712.6000      7.9547      2.6162      0.0620      2.0494     72.7800     24.1810
   712.7000      7.9547      2.6177      0.0314      1.9590     77.3524     23.8633
   712.8000      7.9385      2.6120      0.1308      2.3007     80.4494     23.7161
   712.9000      7.9385      2.5890      0.0131      3.6966     77.5841     24.0062
   713.0000      7.9611      2.5590     -0.0239      5.5147     74.2486     24.4794
   713.1000      7.9611      2.5274     -0.0003      7.4291     76.7598     24.7565
   713.2000      7.9611      2.5010     -0.0600      9.0287     81.8898     24.8256
   713.3000      8.0203      2.5007     -0.0080      9.0512     83.8348     24.8189
   713.4000      8.0203      2.5306     -0.0317      7.2369     82.5054     24.7869
   713.5000      8.0077      2.5679      0.0368      4.9764     81.7229     24.9106
   713.6000      8.0077      2.5912      0.0371      3.5642     84.4516     25.2323
   713.7000      8.0077      2.6042      0.0500      2.7769     88.1471     25.5068
   713.8000      8.0069      2.5992      0.0698      3.0788     89.7192     25.5495
   713.9000      8.0069      2.5712     -0.0707      4.7772     92.7760     25.2576
   714.0000      8.0062      2.5494     -0.0296      6.0978     99.6083     24.8271
   714.1000      8.0062      2.5386      0.0214      6.7487    108.5253     24.5288
   714.2000      8.0062      2.5179     -0.0262      8.0069    117.3801     24.2505
   714.3000      8.0449      2.4939     -0.0318      9.4588    123.6494     23.9136
   714.4000      8.0449      2.4855      0.0117      9.9695    124.2719     23.6771
   714.5000      8.0265      2.5016     -0.0728      8.9912    121.6883     23.7979
   714.6000      8.0265      2.5301      0.0902      7.2690    122.6689     24.1829
   714.7000      8.0265      2.5401      0.0210      6.6619    126.9182     24.1684
   714.8000      8.0018      2.5300      0.1027      7.2700    129.3342     23.7449
   714.9000      8.0018      2.5257      0.0592      7.5347    127.5250     23.7384
   715.0000      7.9821      2.5381      0.1453      6.7794    122.2184     24.2101
   715.1000      7.9821      2.5529      0.1338      5.8869    116.4906     24.5152
   715.2000      7.9821      2.5605      0.1154      5.4235    113.8050     24.5382
   715.3000      7.9804      2.5551      0.1601      5.7534    117.8584     24.6466
   715.4000      7.9804      2.5310      0.1009      7.2121    124.8929     25.0638
   715.5000      7.9796      2.5148     -0.0078      8.1928    128.0715     25.5990
   715.6000      7.9796      2.5309      0.0923      7.2166    130.3501     25.9050
   715.7000      7.9796      2.5671      0.0880      5.0257    134.9552     26.0350
   715.8000      7.9966      2.6017      0.1602      2.9280    136.0036     26.2551
   715.9000      7.9966      2.6098      0.1094      2.4356    130.0430     26.5407
   716.0000      8.0108      2.5812      0.1284      4.1705    123.3667     26.6943
   716.1000      8.0108      2.5390      0.0655      6.7261    123.4594     26.6903
   716.2000      8.0108      2.5203      0.0010      7.8597    129.5093     26.5904
   716.3000      7.9587      2.5388      0.0844      6.7390    132.2679     26.3914
   716.4000      7.9587      2.5671      0.1245      5.0269    129.6393     26.0337
   716.5000      7.9993      2.5688      0.1693      4.9195    131.6783     25.6831
   716.6000      7.9993      2.5435      0.0595      6.4546    140.8749     25.7213
   716.7000      7.9993      2.5215      0.0722      7.7863    143.2143     26.0468
   716.8000      8.0297      2.5202      0.0409      7.8648    131.3451     26.2062
   716.9000      8.0297      2.5375      0.0827      6.8181    118.6747     26.1556
   717.0000      7.9983      2.5658      0.1288      5.1016    114.8708     26.0205
   717.1000      7.9983      2.5921      0.1324      3.5089    113.3996     25.9273
   717.2000      7.9983      2.6041      0.1057      2.7834    114.7201     26.0179
   717.3000      8.0028      2.5947      0.1120      3.3485    122.3978     26.1558
   717.4000      8.0028      2.5705      0.0178      4.8209    128.2922     26.2483
   717.5000      8.0063      2.5514      0.0448      5.9747    126.8470     26.4237
