~Version Information
VERS.                      2.0: CWLS Log ASCII Standard - VERSION 2.0
WRAP.                       NO: One line per depth step
~Well Information Block
STRT.FT               802.1000: 
STOP.FT              1915.0000: 
STEP.FT                 0.1000: 
NULL.                -999.2500: 
COMP.          Petrogulf Corporation: COMPANY
WELL.             State 16-32R: WELL
FLD.           Purgatorie River: FIELD
LOC.           1849' FNL & 1677' FEL: LOCATION
CNTY.               Las Animas: COUNTY
SRVC.                         : SERVICE COMPANY
DATE.          Thu May 13 18:17:16 2004: LOG DATE
UWI.           05 071 08033 00: UNIQUE WELL ID
STAT.                 Colorado: STATE
~Curve Information Block
DEPT.FT            0 000 00 00: Depth
DCAL.in                       : CDL Caliper
RHOB.g/cc                     : CDL Bulk Density
RHOC.g/cc                     : CDL Density Correction
DPOR.pu                       : CDL Density Porosity
GR.GAPI                       : Gamma Ray
NPOR.pu                       : Neutron Porosity
~Parameter Information Block
~A  Depth       DCAL        RHOB        RHOC        DPOR         GR         NPOR    
# ...
  1896.5000      7.8732      2.5959     -0.0051      3.2758   -999.2500     19.3967
  1896.6000      7.8732      2.5330     -0.0358      7.0902   -999.2500     19.4705
  1896.7000      7.8732      2.5009     -0.0247      9.0370   -999.2500     19.1855
  1896.8000      7.8817      2.5164     -0.0100      8.0964   -999.2500     18.4448
  1896.9000      7.8817      2.5646      0.0999      5.1777   -999.2500     17.9567
  1897.0000      7.8724      2.5973      0.1835      3.1927   -999.2500     18.0435
  1897.1000      7.8724      2.5775      0.1225      4.3910   -999.2500     18.1644
  1897.2000      7.8724      2.5324      0.0002      7.1266   -999.2500     18.1700
  1897.3000      7.8129      2.5061      0.0228      8.7240   -999.2500     18.2455
  1897.4000      7.8129      2.5019      0.0536      8.9764   -999.2500     18.2241
  1897.5000      7.8473      2.5166      0.0249      8.0827   -999.2500     18.0687
  1897.6000      7.8473      2.5499      0.1337      6.0641   -999.2500     17.5659
  1897.7000      7.8473      2.5767      0.1332      4.4443   -999.2500     17.0106
  1897.8000      7.8462      2.5720      0.1159      4.7263   -999.2500     17.0038
  1897.9000      7.8462      2.5512      0.0552      5.9891   -999.2500     17.3233
  1898.0000      7.7998      2.5323      0.1072      7.1331   -999.2500     17.4763
  1898.1000      7.7998      2.5013      0.0813      9.0111   -999.2500     17.1698
  1898.2000      7.7998      2.4688     -0.0189     10.9843   -999.2500     16.5633
  1898.3000      7.7822      2.4747     -0.0219     10.6237   -999.2500     16.1596
  1898.4000      7.7822      2.5067      0.1100      8.6873   -999.2500     16.2634
  1898.5000      7.7957      2.5222      0.0339      7.7484   -999.2500     16.8051
  1898.6000      7.7957      2.5293      0.0313      7.3175   -999.2500     17.6658
  1898.7000      7.7957      2.5540      0.0159      5.8190   -999.2500     18.5285
  1898.8000      7.7868      2.5866      0.0156      3.8423   -999.2500     19.1108
  1898.9000      7.7868      2.5985      0.0676      3.1230   -999.2500     19.3891
  1899.0000      7.7892      2.5814      0.1285      4.1595   -999.2500     19.4415
  1899.1000      7.7892      2.5569     -0.0090      5.6412   -999.2500     19.4532
  1899.2000      7.7892      2.5462      0.0418      6.2931   -999.2500     19.4577
  1899.3000      7.8249      2.5341      0.0487      7.0217   -999.2500     19.3719
  1899.4000      7.8249      2.4999     -0.0172      9.0978   -999.2500     19.2963
  1899.5000      7.7808      2.4532     -0.0402     11.9286   -999.2500     19.3483
  1899.6000      7.7808      2.4265     -0.0991     13.5480   -999.2500     19.2174
  1899.7000      7.7808      2.4290     -0.0076     13.3930   -999.2500     18.6504
  1899.8000      7.8150      2.4445     -0.0774     12.4521   -999.2500     18.1861
  1899.9000      7.8150      2.4730      0.0013     10.7277   -999.2500     18.3460
  1900.0000      7.8448      2.5019      0.0386      8.9734   -999.2500     18.9255
  1900.1000      7.8448      2.5023     -0.0040      8.9544   -999.2500     19.5479
  1900.2000      7.8448      2.4785      0.0393     10.3910   -999.2500     20.1197
  1900.3000      7.8552      2.4635      0.0252     11.3014   -999.2500     20.4872
  1900.4000      7.8552      2.4798      0.0566     10.3141   -999.2500     20.9791
  1900.5000      7.8575      2.5093      0.0997      8.5297   -999.2500     22.5941
  1900.6000      7.8575      2.5098      0.0730      8.4952   -999.2500     25.1866
  1900.7000      7.8575      2.4832     -0.0374     10.1104   -999.2500     28.8147
  1900.8000      7.8544      2.4680      0.0077     11.0320   -999.2500     35.6660
  1900.9000      7.8544      2.4681     -0.0039     11.0249   -999.2500     45.0130
  1901.0000      7.8614      2.4684      0.0459     11.0038   -999.2500     51.5202
  1901.1000      7.8614      2.4688     -0.0189     10.9807   -999.2500     53.8621
  1901.2000      7.8614      2.4637      0.0165     11.2907   -999.2500     54.3235
  1901.3000      7.8897      2.4504     -0.0678     12.0996   -999.2500     54.3726
  1901.4000      7.8897      2.4493      0.0101     12.1621   -999.2500     54.3753
  1901.5000      7.8987      2.4617      0.0455     11.4117   -999.2500   -999.2500
  1901.6000      7.8987      2.4663      0.0208     11.1354   -999.2500   -999.2500
  1901.7000      7.8987      2.4743     -0.0754     10.6494   -999.2500   -999.2500
  1901.8000      7.8826      2.4976      0.1068      9.2342   -999.2500   -999.2500
  1901.9000      7.8826      2.5090      0.0389      8.5441   -999.2500   -999.2500
  1902.0000      7.8832      2.5049     -0.0356      8.7966   -999.2500   -999.2500
  1902.1000      7.8832      2.5106      0.0026      8.4480   -999.2500   -999.2500
  1902.2000      7.8832      2.5252      0.0615      7.5663   -999.2500   -999.2500
  1902.3000      7.8768      2.5396      0.0510      6.6934   -999.2500   -999.2500
  1902.4000      7.8768      2.5693      0.0496      4.8887   -999.2500   -999.2500
  1902.5000      7.8743      2.6075      0.1157      2.5759   -999.2500   -999.2500
  1902.6000      7.8743      2.6126      0.1304      2.2660   -999.2500   -999.2500
  1902.7000      7.8743      2.5884      0.0249      3.7307   -999.2500   -999.2500
  1902.8000      7.8642      2.5864      0.0703      3.8537   -999.2500   -999.2500
  1902.9000      7.8642      2.6160      0.0868      2.0635   -999.2500   -999.2500
  1903.0000      7.8711      2.6377      0.0980      0.7432   -999.2500   -999.2500
  1903.1000      7.8711      2.6259      0.1271      1.4578   -999.2500   -999.2500
  1903.2000      7.8711      2.5930      0.1143      3.4566   -999.2500   -999.2500
  1903.3000      7.8424      2.5770      0.0672      4.4220   -999.2500   -999.2500
  1903.4000      7.8424      2.5971      0.0448      3.2070   -999.2500   -999.2500
  1903.5000      7.8481      2.6155      0.0870      2.0887   -999.2500   -999.2500
  1903.6000      7.8481      2.5969      0.0341      3.2201   -999.2500   -999.2500
  1903.7000      7.8481      2.5700     -0.0213      4.8462   -999.2500   -999.2500
  1903.8000      7.8640      2.5674      0.0556      5.0045   -999.2500   -999.2500
  1903.9000      7.8640      2.5660      0.0870      5.0920   -999.2500   -999.2500
  1904.0000      7.8581      2.5407      0.0924      6.6221   -999.2500   -999.2500
  1904.1000      7.8581      2.5211     -0.0181      7.8148   -999.2500   -999.2500
  1904.2000      7.8581      2.5333      0.0384      7.0738   -999.2500   -999.2500
  1904.3000      7.8405      2.5461      0.1113      6.2983   -999.2500   -999.2500
  1904.4000      7.8405      2.5389     -0.0082      6.7358   -999.2500   -999.2500
  1904.5000      7.7822      2.5338      0.0120      7.0405   -999.2500   -999.2500
  1904.6000      7.7822      2.5417      0.0898      6.5629   -999.2500   -999.2500
  1904.7000      7.7822      2.5576      0.1126      5.6011   -999.2500   -999.2500
  1904.8000      7.7815      2.5777      0.1305      4.3827   -999.2500   -999.2500
  1904.9000      7.7815      2.5977      0.0826      3.1726   -999.2500   -999.2500
  1905.0000      7.8245      2.6079      0.1714      2.5491   -999.2500   -999.2500
  1905.1000      7.8245      2.6122      0.0631      2.2930   -999.2500   -999.2500
  1905.2000      7.8245      2.6302      0.0416      1.2002   -999.2500   -999.2500
  1905.3000      7.8185      2.6441      0.1783      0.3580   -999.2500   -999.2500
  1905.4000      7.8185      2.6230      0.0425      1.6345   -999.2500   -999.2500
  1905.5000      7.8124      2.5913      0.0627      3.5565   -999.2500   -999.2500
  1905.6000      7.8124      2.5891      0.1323      3.6900   -999.2500   -999.2500
  1905.7000      7.8124      2.6096      0.0994      2.4463   -999.2500   -999.2500
  1905.8000      7.8373      2.6115      0.1236      2.3356   -999.2500   -999.2500
  1905.9000      7.8373      2.5782      0.0407      4.3494   -999.2500   -999.2500
  1906.0000      7.8002      2.5462     -0.0145      6.2890   -999.2500   -999.2500
