~Version Information
VERS.                      2.0: CWLS Log ASCII Standard - VERSION 2.0
WRAP.                       NO: One line per depth step
~Well Information Block
STRT.FT               500.0000: 
STOP.FT              2732.5000: 
STEP.FT                 0.2500: 
NULL.                -999.2500: 
COMP.          Pioneer Natural Resources: COMPANY
WELL.          Dude Canyon 22-32: WELL
FLD.           Purgatoire River: FIELD
LOC.           1662' FNL & 2446' FWL----: LOCATION
PROV.                 Colorado: PROVINCE
CNTY.               Las Animas: COUNTRY
SRVC.                Patterson: SERVICE COMPANY
DATE.          Thu Mar 10 07:15:42 2005: LOG DATE
UWI.           05 071 08257 00: UNIQUE WELL ID
~Curve Information Block
DEPT.FT            0 000 00 00: Depth
DIR.Ohm-m                     : IEL Induction Resistivity
GR.GAPI                       : Gamma Ray
SN.Ohm-m                      : IEL Short Normal
SP.mV                         : IEL Spontaneous Potential
~Parameter Information Block
~A  Depth       DIR          GR          SN          SP     
# ...
  1538.5000      9.5317    117.5282     12.7698    139.5733
  1538.7500      9.9668    115.3071     13.2723    139.3226
  1539.0000     10.4852    112.7369     13.8902    138.9797
  1539.2500     11.0963    110.9326     14.6320    138.4396
  1539.5000     11.8089    106.5662     15.4945    137.6320
  1539.7500     12.6303    101.9370     16.4727    136.5135
  1540.0000     13.5653     92.8968     17.5734    135.0519
  1540.2500     14.6167     86.6481     18.8331    133.2128
  1540.5000     15.7867     79.2802     20.3263    130.9531
  1540.7500     17.0790     76.4308     22.1422    128.2239
  1541.0000     18.5005     74.7898     24.3264    124.9867
  1541.2500     20.0570     74.6457     26.8335    121.2424
  1541.5000     21.7410     74.8941     29.5417    117.0710
  1541.7500     23.5174     75.2581     32.3181    112.6601
  1542.0000     25.3223     76.0651     35.0651    108.3032
  1542.2500     27.0841     76.5618     37.7062    104.3488
  1542.5000     28.7589     76.5497     40.1537    101.1052
  1542.7500     30.3508     75.5555     42.3157     98.7421
  1543.0000     31.8991     72.0917     44.1241     97.2396
  1543.2500     33.4392     68.7647     45.5389     96.4230
  1543.5000     34.9562     63.9185     46.5269     96.0688
  1543.7500     36.3511     61.9213     47.0413     96.0226
  1544.0000     37.4362     61.8745     47.0176     96.2594
  1544.2500     37.9818     63.8287     46.3893     96.8560
  1544.5000     37.8126     69.1771     45.1252     97.9040
  1544.7500     36.9007     73.8681     43.2726     99.4269
  1545.0000     35.3812     81.6462     40.9733    101.3483
  1545.2500     33.4780     86.8465     38.4339    103.5214
  1545.5000     31.4108     94.3199     35.8619    105.7860
  1545.7500     29.3472     99.2211     33.4071    108.0187
  1546.0000     27.4005    106.9922     31.1425    110.1510
  1546.2500     25.6414    112.5375     29.0948    112.1552
  1546.5000     24.1112    120.4139     27.2902    114.0143
  1546.7500     22.8330    124.2895     25.7784    115.6920
  1547.0000     21.8232    126.7510     24.6226    117.1208
  1547.2500     21.0984    126.3147     23.8838    118.2130
  1547.5000     20.6769    123.8658     23.6183    118.8891
  1547.7500     20.5777    121.7273     23.8826    119.1080
  1548.0000     20.8194    118.1493     24.7220    118.8805
  1548.2500     21.4186    115.3398     26.1426    118.2626
  1548.5000     22.3849    109.7061     28.0943    117.3328
  1548.7500     23.7127    104.4215     30.4903    116.1723
  1549.0000     25.3742     93.7156     33.2594    114.8567
  1549.2500     27.3214     85.1671     36.3961    113.4606
  1549.5000     29.5009     71.9420     39.9702    112.0670
  1549.7500     31.8791     63.7204     44.0751    110.7697
  1550.0000     34.4672     44.0342     48.7229    109.6644
  1550.2500     37.3257     38.7073     53.7516    108.8297
  1550.5000     40.5326     32.3815     58.8260    108.3079
  1550.7500     44.1139     29.8529     63.5523    108.0928
  1551.0000     47.9644     28.6986     67.6223    108.1343
  1551.2500     51.8098     29.1556     70.8929    108.3542
  1551.5000     55.2616     30.6914     73.3696    108.6711
  1551.7500     57.9571     31.9200     75.1279    109.0200
  1552.0000     59.6918     33.4031     76.2352    109.3610
  1552.2500     60.4595     33.6797     76.7240    109.6748
  1552.5000     60.4146     32.8142     76.6245    109.9492
  1552.7500     59.8116     31.8652     76.0170    110.1654
  1553.0000     58.9396     31.1359     75.0585    110.2938
  1553.2500     58.0502     31.4985     73.9648    110.3005
  1553.5000     57.3038     32.8852     72.9631    110.1608
  1553.7500     56.7674     33.6450     72.2309    109.8694
  1554.0000     56.4585     33.3686     71.8399    109.4410
  1554.2500     56.3793     32.0909     71.7256    108.8998
  1554.5000     56.4991     29.3859     71.7152    108.2672
  1554.7500     56.7085     27.8426     71.6173    107.5532
  1555.0000     56.8206     26.8562     71.3253    106.7579
  1555.2500     56.6628     27.1271     70.8695    105.8784
  1555.5000     56.1953     28.2471     70.3936    104.9175
  1555.7500     55.5344     28.9787     70.0861    103.8877
  1556.0000     54.8547     29.8864     70.1074    102.8111
  1556.2500     54.2715     30.8293     70.5402    101.7138
  1556.5000     53.7982     33.6616     71.3744    100.6180
  1556.7500     53.3787     36.2695     72.5236     99.5335
  1557.0000     52.9421     39.1218     73.8602     98.4537
  1557.2500     52.4478     38.9487     75.2510     97.3584
  1557.5000     51.9099     35.3360     76.5860     96.2262
  1557.7500     51.3938     32.0084     77.7951     95.0546
  1558.0000     50.9816     28.4971     78.8357     93.8833
  1558.2500     50.7202     28.0014     79.6383     92.8125
  1558.5000     50.5877     29.3997     80.0335     92.0079
  1558.7500     50.4853     30.5982     79.7201     91.6853
  1559.0000     50.2464     31.0078     78.3221     92.0738
  1559.2500     49.6554     30.1106     75.5377     93.3667
  1559.5000     48.4981     27.8694     71.3296     95.6768
  1559.7500     46.6495     26.4419     66.0357     99.0108
  1560.0000     44.1509     25.1830     60.2779    103.2704
  1560.2500     41.2036     25.3009     54.6877    108.2732
  1560.5000     38.0748     27.7754     49.6439    113.7815
  1560.7500     34.9968     31.6164     45.2042    119.5304
  1561.0000     32.1215     41.4916     41.2288    125.2517
  1561.2500     29.5287     50.4664     37.5567    130.6962
  1561.5000     27.2498     64.7430     34.1141    135.6569
  1561.7500     25.2850     72.5111     30.9279    139.9911
  1562.0000     23.6141     78.9008     28.0799    143.6333
  1562.2500     22.2064     79.6556     25.6494    146.5958
  1562.5000     21.0322     77.2503     23.6702    148.9526
  1562.7500     20.0688     74.2805     22.1152    150.8137
  1563.0000     19.2976     69.0738     20.9076    152.2974
  1563.2500     18.6938     66.2190     19.9507    153.5091
  1563.5000     18.2169     65.3433     19.1592    154.5309
  1563.7500     17.8107     67.6137     18.4771    155.4210
  1564.0000     17.4188     73.1581     17.8784    156.2194
  1564.2500     17.0051     76.0192     17.3548    156.9543
  1564.5000     16.5661     76.8368     16.9019    157.6461
  1564.7500     16.1219     75.5979     16.5109    158.3093
  1565.0000     15.6963     73.5066     16.1660    158.9535
  1565.2500     15.3009     72.8574     15.8473    159.5843
  1565.5000     14.9343     72.8854     15.5372    160.2060
  1565.7500     14.5898     73.3928     15.2272    160.8230
  1566.0000     14.2646     75.7377     14.9174    161.4398
  1566.2500     13.9615     79.0421     14.6121    162.0599
  1566.5000     13.6853     86.2436     14.3187    162.6834
  1566.7500     13.4398     91.3056     14.0459    163.3058
  1567.0000     13.2260     96.9731     13.8013    163.9181
  1567.2500     13.0436     98.7306     13.5875    164.5078
  1567.5000     12.8914     98.4795     13.4007    165.0587
  1567.7500     12.7677     97.0832     13.2312    165.5507
  1568.0000     12.6690     94.6569     13.0678    165.9581
  1568.2500     12.5881     93.5227     12.9078    166.2494
  1568.5000     12.5150     92.9720     12.7632    166.3879
  1568.7500     12.4399     93.0491     12.6528    166.3336
  1569.0000     12.3572     92.9776     12.5849    166.0486
  1569.2500     12.2669     92.8334     12.5482    165.5037
  1569.5000     12.1728     93.4414     12.5189    164.6855
  1569.7500     12.0781     94.5095     12.4762    163.6029
  1570.0000     11.9835     95.6361     12.4132    162.2874
  1570.2500     11.8885     95.0525     12.3354    160.7885
  1570.5000     11.7942     91.9114     12.2535    159.1632
  1570.7500     11.7061     88.9625     12.1796    157.4639
  1571.0000     11.6318     84.4420     12.1270    155.7301
  1571.2500     11.5767     81.5976     12.1068    153.9855
  1571.5000     11.5384     77.2750     12.1223    152.2426
  1571.7500     11.5059     74.1216     12.1656    150.5111
