~Version Information
VERS.                      2.0: CWLS Log ASCII Standard - VERSION 2.0
WRAP.                       NO: One line per depth step
~Well Information Block
STRT.FT               275.0000: 
STOP.FT              1682.2000: 
STEP.FT                 0.1000: 
NULL.                -999.2500: 
COMP.          Pioneer Natural Resources: COMPANY
WELL.               Elmo 14-21: WELL
FLD.           Purgatoire River: FIELD
LOC.           623' FSL & 450' FWL----: LOCATION
PROV.                 Colorado: PROVINCE
CNTY.               Las Animas: COUNTRY
SRVC.                Patterson: SERVICE COMPANY
DATE.          Wed May 18 08:17:30 2005: LOG DATE
UWI.           05 071 08360 00: UNIQUE WELL ID
~Curve Information Block
DEPT.FT            0 000 00 00: Depth
DCAL.in                       : CDL Caliper
RHOB.g/cc                     : CDL Bulk Density
RHOC.g/cc                     : CDL Density Correction
DPOR.pu                       : CDL Density Porosity
NPOR.pu                       : Neutron Porosity
GR.GAPI                       : Gamma Ray
~Parameter Information Block
~A  Depth       DCAL        RHOB        RHOC        DPOR        NPOR         GR     
# ...
  1465.4000      8.0775      2.6017      0.0412      2.9291     16.0517     45.1651
  1465.5000      8.0762      2.6163      0.0928      2.0453     15.5696     48.5967
  1465.6000      8.0762      2.6177      0.0646      1.9549     14.9832     54.7277
  1465.7000      8.0762      2.6045      0.0431      2.7594     14.7879     60.0100
  1465.8000      8.0760      2.5834      0.0629      4.0342     15.2813     65.8849
  1465.9000      8.0760      2.5684      0.0053      4.9433     16.1232     69.0542
  1466.0000      8.0782      2.5692      0.0254      4.8982     16.6514     64.9309
  1466.1000      8.0782      2.5733      0.0516      4.6470     16.3319     57.0562
  1466.2000      8.0782      2.5696      0.0322      4.8700     15.5518     53.1577
  1466.3000      8.0808      2.5671      0.0348      5.0219     15.1720     56.0457
  1466.4000      8.0808      2.5745      0.0327      4.5785     15.3142     60.8188
  1466.5000      8.0819      2.5909      0.0541      3.5831     15.5205     63.2541
  1466.6000      8.0819      2.6033      0.1087      2.8281     15.5258     64.0291
  1466.7000      8.0819      2.5934      0.0784      3.4315     15.4992     63.6268
  1466.8000      8.0820      2.5694      0.0398      4.8871     15.7581     61.8359
  1466.9000      8.0820      2.5594      0.0100      5.4895     16.1830     59.0211
  1467.0000      8.0827      2.5715      0.0399      4.7552     16.5054     57.1653
  1467.1000      8.0827      2.5887      0.0933      3.7180     16.8249     58.0400
  1467.2000      8.0827      2.5983      0.0636      3.1341     17.0592     58.4115
  1467.3000      8.0832      2.6010      0.0799      2.9724     16.9807     53.0783
  1467.4000      8.0832      2.5939      0.0933      3.3997     16.5619     47.0111
  1467.5000      8.0814      2.5763      0.0670      4.4655     16.0351     49.5276
  1467.6000      8.0814      2.5601      0.0361      5.4506     15.8269     58.8169
  1467.7000      8.0814      2.5556      0.0383      5.7226     15.9086     67.2209
  1467.8000      8.0793      2.5547      0.0594      5.7744     15.9203     70.2433
  1467.9000      8.0793      2.5453      0.0300      6.3448     16.0443     68.1943
  1468.0000      8.0788      2.5340      0.0259      7.0310     16.7019     65.2759
  1468.1000      8.0788      2.5360      0.0063      6.9078     17.4433     64.2412
  1468.2000      8.0788      2.5523      0.0607      5.9214     17.3198     63.5128
  1468.3000      8.0803      2.5702      0.0560      4.8384     16.5327     61.8453
  1468.4000      8.0803      2.5807      0.0542      4.2010     16.2772     60.2520
  1468.5000      8.0804      2.5832      0.0400      4.0477     16.9809     60.3478
  1468.6000      8.0804      2.5815      0.0463      4.1518     18.0073     63.9537
  1468.7000      8.0804      2.5749      0.0828      4.5514     18.5319     70.5630
  1468.8000      8.0781      2.5638      0.0253      5.2243     18.3367     76.1893
  1468.9000      8.0781      2.5572      0.0458      5.6261     17.7059     74.9576
  1469.0000      8.0777      2.5573      0.0378      5.6209     17.1392     65.9739
  1469.1000      8.0777      2.5609      0.0650      5.3997     17.0006     57.8836
  1469.2000      8.0777      2.5679      0.0615      4.9753     16.9623     56.0368
  1469.3000      8.0793      2.5733      0.0887      4.6495     16.6382     56.9268
  1469.4000      8.0793      2.5731      0.0456      4.6630     16.3193     58.6799
  1469.5000      8.0793      2.5743      0.0545      4.5878     16.0790     60.3074
  1469.6000      8.0793      2.5750      0.0617      4.5430     15.8621     60.5030
  1469.7000      8.0793      2.5678      0.0420      4.9793     16.0424     60.3051
  1469.8000      8.0784      2.5621      0.0373      5.3247     16.7689     58.8742
  1469.9000      8.0784      2.5647      0.0526      5.1717     17.7046     55.6683
  1470.0000      8.0788      2.5588      0.0489      5.5277     18.6583     51.9421
  1470.1000      8.0788      2.5238      0.0631      7.6487     19.7200     49.2913
  1470.2000      8.0788      2.4555      0.0211     11.7878     20.9661     49.8627
  1470.3000      8.0801      2.3650      0.0041     17.2734     22.4577     52.3711
  1470.4000      8.0801      2.2669     -0.0620     23.2183     24.1597     52.7620
  1470.5000      8.0805      2.1761     -0.0688     28.7193     25.9440     52.2016
  1470.6000      8.0805      2.1037     -0.0957     33.1114     27.6644     54.4820
  1470.7000      8.0805      2.0549     -0.1138     36.0650     28.9325     58.2101
  1470.8000      8.0799      2.0311     -0.0781     37.5087     29.4066     59.8269
  1470.9000      8.0799      2.0295     -0.0710     37.6053     29.1957     60.0849
  1471.0000      8.0790      2.0459     -0.0055     36.6128     28.7199     63.2340
  1471.1000      8.0790      2.0802      0.0451     34.5363     28.2127     69.4179
  1471.2000      8.0790      2.1351      0.1268     31.2086     27.7357     76.5435
  1471.3000      8.0781      2.2041      0.1691     27.0242     27.4718     85.3896
  1471.4000      8.0781      2.2763      0.1670     22.6476     27.1349     93.2813
  1471.5000      8.0790      2.3434      0.1876     18.5845     26.2840     95.3011
  1471.6000      8.0790      2.3958      0.1730     15.4046     25.1456     94.4047
  1471.7000      8.0790      2.4283      0.1186     13.4349     24.0961     97.1627
  1471.8000      8.0824      2.4470      0.0969     12.3025     23.0740    102.0179
  1471.9000      8.0824      2.4615      0.1087     11.4245     22.2808    104.8633
  1472.0000      8.0853      2.4818      0.0765     10.1946     22.3271    107.9239
  1472.1000      8.0853      2.5147      0.0849      8.2022     23.0618    113.5176
  1472.2000      8.0853      2.5455      0.0949      6.3339     23.6051    119.1450
  1472.3000      8.0844      2.5578      0.0792      5.5856     23.3025    120.5579
  1472.4000      8.0844      2.5602      0.0489      5.4436     22.4598    118.0513
  1472.5000      8.0809      2.5626      0.0585      5.2976     21.8019    115.6107
  1472.6000      8.0809      2.5603      0.0656      5.4347     21.4618    115.0438
  1472.7000      8.0809      2.5500      0.0800      6.0594     21.3854    115.0904
  1472.8000      8.0801      2.5380      0.0414      6.7868     21.6134    116.5721
  1472.9000      8.0801      2.5321      0.0427      7.1475     21.9144    120.2167
  1473.0000      8.0822      2.5317      0.0007      7.1711     22.0225    124.2169
  1473.1000      8.0822      2.5329      0.0032      7.0959     21.9175    130.9556
  1473.2000      8.0822      2.5308      0.0665      7.2269     21.6551    139.0230
  1473.3000      8.0826      2.5279      0.0159      7.4026     21.6095    141.3270
  1473.4000      8.0826      2.5385      0.0454      6.7554     22.0857    134.1727
  1473.5000      8.0823      2.5619      0.0624      5.3379     22.6449    119.9609
  1473.6000      8.0823      2.5755      0.1123      4.5140     22.7757    105.9720
  1473.7000      8.0823      2.5672      0.0581      5.0194     22.4129     96.0748
  1473.8000      8.0837      2.5570      0.0422      5.6346     21.7130     90.5615
  1473.9000      8.0837      2.5645      0.0588      5.1847     21.0722     90.1855
  1474.0000      8.0844      2.5848      0.0304      3.9493     20.8117     94.0644
  1474.1000      8.0844      2.6099      0.0731      2.4292     20.5308     99.7956
  1474.2000      8.0844      2.6349      0.0560      0.9160     19.8765    104.7903
  1474.3000      8.0836      2.6524      0.0765     -0.1459     19.2651    105.1906
  1474.4000      8.0836      2.6524      0.0899     -0.1430     19.1228     99.8873
  1474.5000      8.0835      2.6371      0.0673      0.7838     19.3273     92.0901
  1474.6000      8.0835      2.6222      0.0533      1.6841     19.5433     86.4266
  1474.7000      8.0835      2.6108      0.0550      2.3785     19.7589     83.8157
  1474.8000      8.0845      2.5968      0.0226      3.2245     20.3056     82.9136
  1474.9000      8.0845      2.5838      0.0324      4.0114     21.1543     83.6059
