~Version Information
 VERS.                                  2.0 : CWLS LAS VERSION
 WRAP.                                   NO : WRAPING MODE
 SWARE .                 MController 2.5.0J : SOFTWARE VERSION
~Well Information
 WELL.                           Furu 6-23R : WELL
 COMP.                Petrogulf Corporation : COMPANY
 FLD.                       Purgatory River : FIELD
 LOC.                  NE/SW Sec6 T33S R67W : LOCATION
 DATE.                    6/19/06 - 6/21/06 : DATE(S) LOGGED
 SRVC.      Blanco Geological Services, LLC : SERVICE COMPANY
 STAT.                             Colorado : STATE
 CNTY.                           Las Animas : COUNTY
 CTRY.                                  USA : COUNTRY
 API.                       05-071-08266-00 : API NUMBER
 STRT.FT                             566.00 : START DEPTH
 STOP.FT                            2205.00 : STOP DEPTH
 STEP.FT                               1.00 : DEPTH INCREMENT
 NULL.                                -9999 : NULL VALUE
~Curve information
 DEPTH.FT                                   :
 ROP.MIN/FT                                 :
 GAS.UNITS                                  :
~ASCII Log data
       566.0       835.60         83.7 
       567.0         0.30          6.2 
       568.0         0.33          6.5 
       569.0         0.35          5.8 
       570.0         0.40          6.3 
       571.0         0.63          6.3 
       572.0         0.47          6.2 
       573.0         0.47          5.6 
       574.0         0.50          6.0 
       575.0         0.43          6.3 
       576.0         0.45          6.1 
       577.0         0.77          6.1 
       578.0         0.53          5.9 
       579.0         0.47          5.9 
       580.0         0.23          6.0 
       581.0         0.27          5.9 
       582.0         7.47          6.1 
       583.0         0.55          5.9 
       584.0         0.43          5.8 
       585.0         0.43          5.7 
       586.0         0.47          5.9 
       587.0         0.70          6.1 
       588.0         0.60          5.5 
       589.0         0.32          5.7 
       590.0         0.47          6.1 
       591.0         0.17          5.9 
       592.0         0.47          5.9 
       593.0         0.40          6.0 
       594.0         0.43          5.9 
       595.0         0.40          5.7 
       596.0        16.72          5.6 
       597.0         0.63          4.2 
       598.0         0.35          4.1 
       599.0         0.37          3.5 
       600.0         0.40          4.1 
       601.0         0.63          3.7 
       602.0         0.30          3.8 
       603.0         0.27          3.5 
       604.0         0.37          3.2 
       605.0         0.33          3.4 
       606.0         0.33          3.2 
       607.0         0.48          3.4 
       608.0         0.37          3.6 
       609.0         0.33          3.7 
       610.0         0.40          3.1 
       611.0         0.40          3.0 
       612.0         0.47          3.1 
       613.0         0.50          3.4 
       614.0         0.47          3.7 
       615.0         0.45          3.5 
       616.0         0.43          3.5 
       617.0         0.40          3.5 
       618.0         0.43          3.2 
       619.0         0.43          3.2 
       620.0         0.63          3.3 
       621.0         0.43          3.5 
       622.0         0.45          3.4 
       623.0         0.43          3.2 
       624.0         0.70          3.0 
       625.0         0.37          3.1 
       626.0        12.47          3.6 
       627.0         0.40          2.5 
       628.0         0.40          2.9 
       629.0         0.47          3.0 
       630.0         0.53          3.0 
       631.0         0.47          3.2 
       632.0         0.55          2.6 
       633.0         0.47          2.5 
       634.0         0.37          1.9 
       635.0         0.33          1.9 
       636.0         0.43          2.1 
       637.0         0.43          1.8 
       638.0         0.43          1.7 
       639.0         0.57          1.8 
       640.0         0.48          1.9 
       641.0         0.40          2.2 
       642.0         0.27          1.6 
       643.0         0.33          2.0 
       644.0         0.47          1.6 
       645.0         0.47          1.3 
       646.0         0.50          0.8 
       647.0         0.33          0.5 
       648.0         0.42          0.7 
       649.0         0.40          1.3 
       650.0         0.33          2.0 
       651.0         0.33          2.1 
       652.0         0.27          1.6 
       653.0         0.40          1.6 
       654.0         0.40          2.0 
       655.0         0.30          1.8 
       656.0         2.62          2.2 
       657.0         0.23          1.2 
       658.0         0.50          2.2 
       659.0         0.37          1.9 
       660.0         0.23          2.1 
       661.0         0.18          2.0 
       662.0         0.20          2.4 
       663.0         0.20          2.2 
       664.0         0.27          2.3 
       665.0         0.37          2.0 
       666.0         0.37          1.8 
       667.0         0.37          1.6 
       668.0         0.37          1.6 
       669.0         0.37          2.1 
       670.0         0.40          2.4 
       671.0         0.55          2.4 
       672.0         0.43          1.9 
       673.0         0.43          2.1 
       674.0         0.43          2.3 
       675.0         0.40          1.9 
       676.0         0.53          2.3 
       677.0         0.33          2.1 
       678.0         0.40          2.4 
       679.0         0.45          2.3 
       680.0         0.50          2.5 
       681.0         0.77          2.3 
       682.0         0.87          2.4 
       683.0         1.55          2.4 
       684.0         0.87          2.6 
       685.0         1.13          3.4 
       686.0         5.27          4.0 
       687.0         0.40          2.1 
       688.0         0.67          2.7 
       689.0         0.43          2.4 
       690.0         0.47          2.1 
       691.0         0.42          2.1 
       692.0         0.43          1.9 
       693.0         0.50          2.1 
       694.0         0.63          2.1 
       695.0         0.50          2.1 
       696.0         5.30          2.5 
       697.0         1.13          2.3 
       698.0         0.47          2.5 
       699.0         0.80          2.8 
       700.0         0.72          2.7 
       701.0         2.03          3.3 
       702.0         0.85          3.4 
       703.0         0.73          2.9 
       704.0         2.88          3.1 
       705.0         0.73          3.3 
       706.0         0.67          3.5 
       707.0         2.92          3.1 
       708.0         0.50          3.1 
       709.0         0.50          3.6 
       710.0         3.22          3.3 
       711.0         0.87          2.8 
       712.0        16.72          7.2 
       713.0         0.78          3.4 
       714.0         1.93          2.8 
       715.0         1.15          2.8 
       716.0        17.18         10.3 
       717.0         2.43          6.2 
       718.0         1.38          1.9 
       719.0         0.87          1.7 
       720.0         0.73          1.7 
       721.0         0.68          1.9 
       722.0         0.70          2.3 
       723.0         0.50          2.3 
       724.0         0.47          2.0 
       725.0         0.50          2.2 
       726.0         0.53          2.2 
       727.0         0.95          2.7 
       728.0         0.97          3.0 
       729.0         1.17          2.3 
       730.0         1.38          1.9 
       731.0         1.40          2.3 
       732.0         1.20          2.6 
       733.0         1.15          2.7 
       734.0         1.30          2.9 
       735.0         1.45          2.7 
       736.0         1.30          3.1 
       737.0         0.97          2.9 
       738.0         0.65          2.7 
       739.0         0.73          2.6 
       740.0         0.90          2.7 
       741.0         0.80          2.5 
       742.0         0.70          2.2 
       743.0         0.82          2.3 
       744.0         0.90          2.2 
       745.0         0.57          2.1 
       746.0         7.10         47.4 
       747.0         0.60         33.7 
       748.0         0.58          7.8 
       749.0         0.57          0.5 
       750.0         0.57          0.1 
       751.0         0.87          0.6 
       752.0         0.77          0.7 
       753.0         0.42          0.8 
       754.0         0.50          0.9 
       755.0         0.80          0.7 
       756.0         0.73          0.9 
       757.0         0.70          1.1 
       758.0         0.85          1.0 
       759.0         0.87          1.0 
       760.0         0.17          0.2 
       761.0         0.67          1.1 
       762.0         0.82          2.5 
       763.0         0.77          2.3 
       764.0         0.63          2.2 
       765.0         0.73          2.8 
