~Version Information
VERS.                      2.0: CWLS Log ASCII Standard - VERSION 2.0
WRAP.                       NO: One line per depth step
~Well Information Block
STRT.FT               964.0000: 
STOP.FT              2440.0000: 
STEP.FT                 0.2500: 
NULL.                -999.2500: 
COMP.          Petrogulf Corporation: COMPANY
WELL.              Hand 8-44 V: WELL
FLD.           Purgatorie River: FIELD
LOC.           1076' FEL & 820' FSL: LOCATION
CNTY.               Las Animas: COUNTY
SRVC.                         : SERVICE COMPANY
DATE.          Fri Nov 21 11:54:17 2003: LOG DATE
UWI.                          : UNIQUE WELL ID
STAT.                 Colorado: STATE
~Curve Information Block
DEPT.FT            0 000 00 00: Depth
SP.mV                         : IEL Spontaneous Potential
DIR.Ohm-m                     : IEL Induction Resistivity
GR.GAPI                       : Gamma Ray
~Parameter Information Block
~A  Depth        SP         DIR          GR     
# ...
  1172.7500     -4.0596     14.5625    107.6928
  1173.0000     -4.0557     15.3181     90.5990
  1173.2500     -4.0357     16.1569     80.6995
  1173.5000     -4.0053     17.0543     70.2843
  1173.7500     -3.9729     17.9603     66.5378
  1174.0000     -3.9452     18.8021     64.4155
  1174.2500     -3.9256     19.4893     64.3660
  1174.5000     -3.9149     19.9241     65.3986
  1174.7500     -3.9129     20.0243     66.6486
  1175.0000     -3.9193     19.7571     69.1520
  1175.2500     -3.9318     19.1602     71.0605
  1175.5000     -3.9451     18.3276     74.2370
  1175.7500     -3.9520     17.3717     76.8620
  1176.0000     -3.9473     16.3886     82.3662
  1176.2500     -3.9319     15.4445     87.2768
  1176.5000     -3.9129     14.5777     95.7895
  1176.7500     -3.8995     13.8059    101.4120
  1177.0000     -3.8983     13.1342    108.8604
  1177.2500     -3.9114     12.5593    113.3470
  1177.5000     -3.9376     12.0735    120.1868
  1177.7500     -3.9752     11.6688    124.7719
  1178.0000     -4.0231     11.3386    130.3721
  1178.2500     -4.0807     11.0771    132.6106
  1178.5000     -4.1472     10.8774    134.2045
  1178.7500     -4.2207     10.7306    134.8759
  1179.0000     -4.2985     10.6284    135.9109
  1179.2500     -4.3754     10.5651    136.5044
  1179.5000     -4.4431     10.5386    137.2906
  1179.7500     -4.4910     10.5482    138.0555
  1180.0000     -4.5096     10.5925    139.6373
  1180.2500     -4.4967     10.6702    140.3847
  1180.5000     -4.4602     10.7837    139.5305
  1180.7500     -4.4182     10.9414    137.1652
  1181.0000     -4.3911     11.1544    131.3217
  1181.2500     -4.3921     11.4267    126.5666
  1181.5000     -4.4196     11.7449    119.5592
  1181.7500     -4.4557     12.0770    115.9272
  1182.0000     -4.4740     12.3827    113.4932
  1182.2500     -4.4537     12.6293    114.0846
  1182.5000     -4.3915     12.8011    116.8858
  1182.7500     -4.3025     12.8989    118.4921
  1183.0000     -4.2109     12.9324    118.1871
  1183.2500     -4.1370     12.9144    115.8479
  1183.5000     -4.0910     12.8564    110.8133
  1183.7500     -4.0747     12.7689    108.0972
  1184.0000     -4.0865     12.6615    107.0630
  1184.2500     -4.1247     12.5440    108.5315
  1184.5000     -4.1882     12.4276    112.7559
  1184.7500     -4.2741     12.3255    116.0288
  1185.0000     -4.3746     12.2515    120.5675
  1185.2500     -4.4773     12.2160    123.0705
  1185.5000     -4.5691     12.2220    126.0810
  1185.7500     -4.6409     12.2627    127.8446
  1186.0000     -4.6908     12.3222    130.6598
  1186.2500     -4.7220     12.3812    132.8247
  1186.5000     -4.7388     12.4253    136.2612
  1186.7500     -4.7452     12.4538    138.1575
  1187.0000     -4.7449     12.4805    139.4176
  1187.2500     -4.7423     12.5256    139.1133
  1187.5000     -4.7425     12.6049    137.8804
  1187.7500     -4.7496     12.7241    137.1443
  1188.0000     -4.7664     12.8802    136.1190
  1188.2500     -4.7944     13.0639    134.8910
  1188.5000     -4.8343     13.2605    131.3904
  1188.7500     -4.8864     13.4506    128.1084
  1189.0000     -4.9494     13.6109    123.2391
  1189.2500     -5.0183     13.7194    121.0967
  1189.5000     -5.0827     13.7610    120.5489
  1189.7500     -5.1267     13.7320    121.8798
  1190.0000     -5.1338     13.6392    125.7347
  1190.2500     -5.0938     13.4966    128.9775
  1190.5000     -5.0068     13.3218    133.3479
  1190.7500     -4.8839     13.1335    135.0175
  1191.0000     -4.7419     12.9499    135.2968
  1191.2500     -4.5981     12.7863    134.6454
  1191.5000     -4.4652     12.6524    133.7586
  1191.7500     -4.3496     12.5488    133.4989
  1192.0000     -4.2513     12.4673    133.1633
  1192.2500     -4.1672     12.3954    132.5361
  1192.5000     -4.0940     12.3242    130.3609
  1192.7500     -4.0308     12.2545    127.8482
  1193.0000     -3.9787     12.1921    122.5394
  1193.2500     -3.9395     12.1387    118.5046
  1193.5000     -3.9133     12.0861    113.4070
  1193.7500     -3.8987     12.0216    111.6032
  1194.0000     -3.8933     11.9362    111.7504
  1194.2500     -3.8950     11.8297    113.1576
  1194.5000     -3.9016     11.7086    115.4659
  1194.7500     -3.9108     11.5821    116.2738
  1195.0000     -3.9200     11.4582    115.8236
  1195.2500     -3.9262     11.3393    114.5445
  1195.5000     -3.9271     11.2233    111.6295
  1195.7500     -3.9221     11.1078    109.3640
  1196.0000     -3.9131     10.9935    106.5888
  1196.2500     -3.9040     10.8827    106.2103
  1196.5000     -3.8999     10.7734    109.4751
  1196.7500     -3.9045     10.6574    114.2183
  1197.0000     -3.9198     10.5242    123.0310
  1197.2500     -3.9461     10.3682    128.3000
  1197.5000     -3.9829     10.1927    133.9484
  1197.7500     -4.0292     10.0082    136.8926
  1198.0000     -4.0837      9.8262    142.0524
  1198.2500     -4.1450      9.6546    146.3385
  1198.5000     -4.2114      9.4970    152.8851
  1198.7500     -4.2816      9.3541    156.3741
  1199.0000     -4.3537      9.2259    159.2410
  1199.2500     -4.4244      9.1118    159.4471
  1199.5000     -4.4870      9.0098    157.9610
  1199.7500     -4.5347      8.9155    156.6263
  1200.0000     -4.5642      8.8243    155.1108
  1200.2500     -4.5793      8.7355    154.2522
  1200.5000     -4.5890      8.6562    152.1995
  1200.7500     -4.6013      8.6005    150.0938
  1201.0000     -4.6183      8.5817    146.7059
  1201.2500     -4.6348      8.6033    145.2273
  1201.5000     -4.6420      8.6548    145.1888
  1201.7500     -4.6337      8.7175    146.2847
  1202.0000     -4.6100      8.7743    147.8285
  1202.2500     -4.5747      8.8177    147.9336
  1202.5000     -4.5317      8.8499    146.6312
  1202.7500     -4.4829      8.8781    145.2522
  1203.0000     -4.4309      8.9095    143.1721
  1203.2500     -4.3801      8.9482    142.1590
  1203.5000     -4.3349      8.9948    141.8882
  1203.7500     -4.2966      9.0460    142.7415
  1204.0000     -4.2628      9.0954    145.0571
  1204.2500     -4.2292      9.1347    146.5597
  1204.5000     -4.1929      9.1562    147.6082
  1204.7500     -4.1533      9.1556    147.4340
  1205.0000     -4.1126      9.1337    146.8923
  1205.2500     -4.0739      9.0963    147.0276
  1205.5000     -4.0395      9.0531    148.0728
  1205.7500     -4.0110      9.0147    148.7585
  1206.0000     -3.9899      8.9906    148.8268
  1206.2500     -3.9774      8.9867    148.1714
  1206.5000     -3.9740      9.0050    146.7128
  1206.7500     -3.9784      9.0438    145.7897
  1207.0000     -3.9882      9.0976    144.5643
  1207.2500     -4.0008      9.1585    143.5788
  1207.5000     -4.0129      9.2193    141.6456
  1207.7500     -4.0208      9.2758    140.4680
  1208.0000     -4.0208      9.3278    139.9116
  1208.2500     -4.0110      9.3777    140.5337
  1208.5000     -3.9929      9.4292    142.5459
  1208.7500     -3.9703      9.4876    144.3639
  1209.0000     -3.9481      9.5584    147.6316
  1209.2500     -3.9305      9.6447    150.0833
  1209.5000     -3.9198      9.7451    154.0418
  1209.7500     -3.9158      9.8547    156.7939
  1210.0000     -3.9166      9.9716    160.5655
  1210.2500     -3.9194     10.1020    162.1961
  1210.5000     -3.9225     10.2586    162.3080
  1210.7500     -3.9253     10.4540    160.8315
  1211.0000     -3.9274     10.6925    157.5577
  1211.2500     -3.9282     10.9709    155.7743
  1211.5000     -3.9267     11.2852    155.2794
  1211.7500     -3.9231     11.6404    156.7334
  1212.0000     -3.9187     12.0542    160.9783
  1212.2500     -3.9154     12.5526    164.5471
  1212.5000     -3.9147     13.1532    170.3439
  1212.7500     -3.9170     13.8442    174.2719
  1213.0000     -3.9213     14.5724    179.3659
  1213.2500     -3.9268     15.2648    181.5089
  1213.5000     -3.9332     15.8799    182.3221
  1213.7500     -3.9420     16.4491    181.6338
  1214.0000     -3.9551     17.0598    179.8273
  1214.2500     -3.9741     17.8016    178.4216
