~Version Information
VERS.                      2.0: CWLS Log ASCII Standard - VERSION 2.0
WRAP.                       NO: One line per depth step
~Well Information Block
STRT.FT               -12.2500: 
STOP.FT              2183.0000: 
STEP.FT                 0.2500: 
NULL.                -999.2500: 
COMP.          Petrogulf Corporation: COMPANY
WELL.            Montoya 6-14R: WELL
FLD.           Purgatorie River: FIELD
LOC.           867' FSL & 751' FWL: LOCATION
CNTY.               Las Animas: COUNTY
SRVC.                         : SERVICE COMPANY
DATE.          Mon Nov 22 13:07:31 2004: LOG DATE
UWI.           05-071-08242-00: UNIQUE WELL ID
STAT.                 Colorado: STATE
~Curve Information Block
DEPT.FT            0 000 00 00: Depth
TT3.usec                      : CBL 3' Travel Time
AMP3.mV                       : CBL 3' Amplitude
GR.GAPI                       : Gamma Ray
CCL.                          : Casing Collar Locator
~Parameter Information Block
~A  Depth       TT3         AMP3         GR         CCL     
# ...
  2131.7500    725.6143      2.2181    192.5498      0.0000
  2132.0000    734.0092      2.4367    192.3069      0.0000
  2132.2500    747.1556      2.7462    187.2765      0.0000
  2132.5000    759.6589      3.1370    179.3294      0.0000
  2132.7500    768.0773      3.5720    170.1115      0.0000
  2133.0000    771.9357      4.0085    161.4200      0.0000
  2133.2500    772.3265      4.4327    155.3459      0.0000
  2133.5000    770.2145      4.8777    152.9355      0.0000
  2133.7500    766.0403      5.4022    152.8440      0.0000
  2134.0000    760.5558      6.0499    151.8468      0.0000
  2134.2500    755.5458      6.8178    146.9071      0.0000
  2134.5000    752.9100      7.6516    137.0792      0.0000
  2134.7500    752.2053      8.4702    123.8615      0.0000
  2135.0000    749.3559      9.2033    109.8176      0.0000
  2135.2500    737.8154      9.8193     96.7066      0.0000
  2135.5000    710.1108     10.3268     84.9180      0.0000
  2135.7500    659.9370     10.7541     74.5743      0.0000
  2136.0000    587.8022     11.1233     66.5098      0.0000
  2136.2500    506.0979     11.4382     61.6534      0.0000
  2136.5000    434.0679     11.6926     59.7125      0.0000
  2136.7500    384.7437     11.8850     58.9822      0.0000
  2137.0000    358.0534     12.0199     57.5295      0.0000
  2137.2500    346.4877     12.0973     54.4991      0.0000
  2137.5000    344.8952     12.1022     50.5564      0.0000
  2137.7500    355.3413     12.0031     47.2641      0.0000
  2138.0000    385.6868     11.7687     45.8196      0.0000
  2138.2500    443.3137     11.3956     46.1224      0.0000
  2138.5000    526.3724     10.9265     47.0212      0.0000
  2138.7500    619.5668     10.4278     47.5247      0.0000
  2139.0000    701.2598      9.9363     47.7300      0.0000
  2139.2500    757.1974      9.4280     48.5015      0.0000
  2139.5000    787.9329      8.8440     50.3495      0.0000
  2139.7500    804.4132      8.1405     52.7322      0.0000
  2140.0000    818.2456      7.3247     54.3888      0.0000
  2140.2500    835.8701      6.4743     54.3266      0.0000
  2140.5000    859.4694      5.7304     52.6836      0.0000
  2140.7500    889.4027      5.2380     50.8148      0.0000
  2141.0000    922.6057      5.0683     50.5062      0.0000
  2141.2500    951.7181      5.1874     52.8488      0.0000
  2141.5000    972.4386      5.4861     57.5227      2.8625
  2141.7500    990.9505      5.8267     62.9831      2.0920
  2142.0000   1015.9596      6.0846     67.4819     -2.8427
  2142.2500   1042.6282      6.1848     70.1052      0.0000
  2142.5000   1052.2559      6.1289     70.9139      0.0000
  2142.7500   1030.9003      5.9921     70.3168      0.0000
  2143.0000    983.7066      5.8702     68.6815      0.0000
  2143.2500    929.0248      5.8015     66.5957      0.0000
  2143.5000    882.4892      5.7401     65.0698      0.0000
  2143.7500    849.4005      5.6213     65.1644      0.0000
  2144.0000    829.5174      5.4370     67.6136      0.0000
  2144.2500    824.1636      5.2293     73.1069      0.0000
  2144.5000    836.4435      5.0304     82.6346      0.0000
  2144.7500    865.1116      4.8342     96.7501      0.0000
  2145.0000    899.4371      4.6169    114.0915      0.0000
  2145.2500    922.0286      4.3642    131.1510      0.0000
  2145.5000    920.0213      4.0834    144.2384      0.0000
  2145.7500    895.4886      3.8024    151.8631      0.0000
  2146.0000    863.0741      3.5594    155.1572      0.0000
  2146.2500    835.8943      3.3836    156.2292      0.0000
  2146.5000    815.2770      3.2784    156.3358      0.0000
  2146.7500    794.8079      3.2248    155.3793      0.0000
  2147.0000    770.8768      3.2012    152.6350      0.0000
  2147.2500    746.4796      3.1990    147.7030      0.0000
  2147.5000    726.6966      3.2221    140.9419      0.0000
  2147.7500    713.6871      3.2749    133.1944      0.0000
  2148.0000    706.1302      3.3519    125.1155      0.0000
  2148.2500    700.8773      3.4375    116.8202      0.0000
  2148.5000    694.5461      3.5148    108.1277      0.0000
  2148.7500    685.8937      3.5774     98.9358      0.0000
  2149.0000    678.7064      3.6341     89.3610      0.0000
  2149.2500    680.2633      3.7053     79.7802      0.0000
  2149.5000    693.8239      3.8100     70.7682      0.0000
  2149.7500    713.7663      3.9554     62.8076      0.0000
  2150.0000    730.6713      4.1404     56.0373      0.0000
  2150.2500    739.6569      4.3688     50.4521      0.0000
  2150.5000    742.2839      4.6500     46.2864      0.0000
  2150.7500    742.9265      4.9836     43.8712      0.0000
  2151.0000    745.0357      5.3510     43.0331      0.0000
  2151.2500    748.8779      5.7231     42.9450      0.0000
  2151.5000    751.6580      6.0687     42.8566      0.0000
  2151.7500    750.4111      6.3597     42.9286      0.0000
  2152.0000    744.2534      6.5743     44.0823      0.0000
  2152.2500    733.7057      6.6910     46.9404      0.0000
  2152.5000    720.4155      6.6744     51.0426      0.0000
  2152.7500    708.3712      6.4806     55.0563      0.0000
  2153.0000    703.0996      6.0976     57.5960      0.0000
  2153.2500    708.0496      5.5799     58.0611      0.0000
  2153.5000    722.2501      5.0318     57.0612      0.0000
  2153.7500    741.4891      4.5484     55.9746      0.0000
  2154.0000    761.3523      4.1691     55.8601      0.0000
  2154.2500    779.5848      3.8765     56.7787      0.0000
  2154.5000    796.4268      3.6294     58.0659      0.0000
  2154.7500    813.1281      3.3988     58.9949      0.0000
  2155.0000    830.8152      3.1870     59.2159      0.0000
  2155.2500    851.1649      3.0186     58.9203      0.0000
  2155.5000    877.3022      2.9134     58.8628      0.0000
  2155.7500    911.9142      2.8702     60.2764      0.0000
  2156.0000    952.0103      2.8780     64.6286      0.0000
  2156.2500    985.3320      2.9382     73.1901      0.0000
  2156.5000    995.5346      3.0653     86.3804      0.0000
  2156.7500    975.9020      3.2633    103.0642      0.0000
  2157.0000    937.9323      3.5077    120.4285      0.0000
  2157.2500    901.7346      3.7610    135.0911      0.0000
  2157.5000    877.3196      4.0063    144.8336      0.0000
  2157.7500    859.2526      4.2616    149.3231      0.0000
  2158.0000    839.0181      4.5574    149.4907      0.0000
  2158.2500    816.5146      4.9022    146.8952      0.0000
  2158.5000    797.7752      5.2684    143.6055      0.0000
  2158.7500    786.4458      5.6096    141.6611      0.0000
  2159.0000    780.7270      5.8923    141.8873      0.0000
  2159.2500    776.3729      6.1161    143.3778      0.0000
  2159.5000    770.4592      6.3050    144.5508      0.0000
  2159.7500    763.2811      6.4774    144.6770      0.0000
  2160.0000    757.9539      6.6273    144.0500      0.0000
  2160.2500    757.7797      6.7342    142.9237      0.0000
  2160.5000    763.0467      6.7861    141.0567      0.0000
  2160.7500    770.6279      6.7893    138.3110      0.0000
  2161.0000    776.7971      6.7617    135.0262      0.0000
  2161.2500    779.9633      6.7212    131.8748      0.0000
  2161.5000    780.7950      6.6790    129.9183      0.0000
  2161.7500    780.7188      6.6396    130.4586      0.0000
  2162.0000    780.7565      6.6069    134.0143      0.0000
  2162.2500    781.2530      6.5895    139.5941      0.0000
  2162.5000    782.0712      6.5974    145.6400      0.0000
  2162.7500    782.8782      6.6318    151.4317      0.0000
  2163.0000    783.3833      6.6797    156.8634      0.0000
  2163.2500    783.4684      6.7205    161.2067      0.0000
  2163.5000    783.2065      6.7446    163.1719      0.0000
  2163.7500    782.7747      6.7739    162.3926      0.0000
  2164.0000    782.3309      6.8621    160.1280      0.0000
  2164.2500    781.9418      7.0594    158.0279      0.0000
  2164.5000    781.5921      7.3639    156.5034      0.0000
  2164.7500    781.2462      7.7139    154.6788      0.0000
  2165.0000    780.9152      8.0346    151.7501      0.0000
