~Version Information
 VERS.                                  2.0 : CWLS LAS VERSION
 WRAP.                                   NO : WRAPING MODE
 SWARE .                 MController 2.5.0J : SOFTWARE VERSION
~Well Information
 WELL.                       Montoya 12-41R : WELL
 COMP.                       Petrogulf Corp : COMPANY
 FLD.                      Purgatorie River : FIELD
 LOC.                NW/NW Sec 12 T33S R68W : LOCATION
 DATE.                             11/17/04 : DATE(S) LOGGED
 SRVC.       Blanco Geological Services LLC : SERVICE COMPANY
 STAT.                                   CO : STATE
 CNTY.                           Las Animas : COUNTY
 CTRY.                                  USA : COUNTRY
 API.                       05-071-08241-00 : API NUMBER
 STRT.FT                             536.00 : START DEPTH
 STOP.FT                            1530.00 : STOP DEPTH
 STEP.FT                               1.00 : DEPTH INCREMENT
 NULL.                                -9999 : NULL VALUE
~Curve information
 DEPTH.FT                                   :
 ROP.MIN/FT                                 :
 GAS.UNITS                                  :
~ASCII Log data
       536.0     -9999.00          4.5 
       537.0         1.35          5.4 
       538.0         1.20          6.5 
       539.0         0.13          5.4 
       540.0         0.30          5.3 
       541.0         0.93          6.1 
       542.0         0.28          6.4 
       543.0         1.10          5.7 
       544.0         0.33          6.5 
       545.0         0.97          6.1 
       546.0         0.33          7.1 
       547.0         0.95          6.0 
       548.0         0.33          7.2 
       549.0         0.63          6.1 
       550.0         1.27          6.6 
       551.0         0.37          6.6 
       552.0         0.35          6.2 
       553.0         0.90          7.4 
       554.0         0.13          6.5 
       555.0         0.37          6.4 
       556.0         1.23          6.5 
       557.0         0.27          6.3 
       558.0         0.10          6.7 
       559.0         0.98          5.4 
       560.0         0.30          5.9 
       561.0         0.63          6.9 
       562.0         0.30          6.4 
       563.0         0.10          6.1 
       564.0         0.27          6.1 
       565.0         0.10          6.6 
       566.0         0.83          7.2 
       567.0         0.12          6.1 
       568.0         0.33          6.0 
       569.0         0.07          6.3 
       570.0         0.60          6.7 
       571.0         0.23          7.9 
       572.0         0.43          6.7 
       573.0         0.90          6.3 
       574.0         2.38          6.0 
       575.0         0.13          6.1 
       576.0         0.13          7.0 
       577.0         0.13          7.3 
       578.0         2.88          6.9 
       579.0         2.78         22.0 
       580.0         2.65         27.6 
       581.0         0.80         11.4 
       582.0         0.33          7.5 
       583.0         0.07          7.3 
       584.0         0.17          7.0 
       585.0         0.10          7.5 
       586.0         0.17          7.4 
       587.0         0.10          8.0 
       588.0         0.07          7.8 
       589.0         0.10          7.2 
       590.0         0.13          7.8 
       591.0         0.10          7.2 
       592.0         0.33          5.8 
       593.0         0.27          5.1 
       594.0         0.27          6.8 
       595.0         0.07          6.4 
       596.0         0.10          6.8 
       597.0         0.10          6.1 
       598.0         0.10          6.4 
       599.0         0.07          6.3 
       600.0         0.10          6.3 
       601.0         0.07          6.3 
       602.0         0.10          6.5 
       603.0         0.10          6.7 
       604.0         0.20          6.7 
       605.0         0.20          5.8 
       606.0         0.23          5.9 
       607.0         0.20          6.5 
       608.0         0.17          7.4 
       609.0         0.20          7.4 
       610.0         0.13          7.4 
       611.0         0.10          7.0 
       612.0         0.10          7.2 
       613.0         0.12          6.6 
       614.0         0.07          6.4 
       615.0         0.13          6.5 
       616.0         0.17          5.6 
       617.0         0.10          6.1 
       618.0         0.10          5.3 
       619.0         0.20          5.2 
       620.0         0.33          5.8 
       621.0         0.23          6.2 
       622.0         0.20          6.5 
       623.0         0.20          5.4 
       624.0         0.10          5.2 
       625.0         0.10          5.2 
       626.0         0.27          6.7 
       627.0         0.17          7.0 
       628.0         0.33          6.7 
       629.0         0.20          6.4 
       630.0         0.20          5.1 
       631.0         0.27          5.1 
       632.0         0.27          6.1 
       633.0         0.37          6.9 
       634.0         0.27          7.4 
       635.0         0.27          6.4 
       636.0         0.32          6.1 
       637.0         0.27          6.0 
       638.0         0.27          6.1 
       639.0         0.27          5.7 
       640.0         0.23          5.8 
       641.0         0.23          6.0 
       642.0         0.27          6.2 
       643.0         0.30          7.1 
       644.0         0.23          6.1 
       645.0         0.30          5.7 
       646.0         0.30          5.8 
       647.0         0.23          6.3 
       648.0         0.17          6.1 
       649.0         0.20          6.1 
       650.0         0.22          6.4 
       651.0         0.23          6.1 
       652.0         0.23          6.8 
       653.0         0.23          6.8 
       654.0         0.27          5.7 
       655.0         0.23          5.8 
       656.0         0.17          5.7 
       657.0         0.17          5.4 
       658.0         0.32          6.0 
       659.0         0.27          6.5 
       660.0         0.23          6.3 
       661.0         0.20          6.2 
       662.0         0.20          5.7 
       663.0         0.20          6.2 
       664.0         0.20          5.9 
       665.0         0.17          5.7 
       666.0         0.13          6.0 
       667.0         0.17          5.9 
       668.0         0.10          6.2 
       669.0         0.10          6.0 
       670.0         0.10          6.2 
       671.0         0.13          6.4 
       672.0         0.13          5.7 
       673.0         0.17          6.4 
       674.0         0.27          6.6 
       675.0         0.35          5.9 
       676.0         0.23          5.9 
       677.0         0.17          5.2 
       678.0         0.20          5.2 
       679.0         0.20          5.6 
       680.0         0.20          6.1 
       681.0         0.20          6.5 
       682.0         0.20          6.6 
       683.0         0.20          5.8 
       684.0         0.20          6.1 
       685.0         0.20          6.4 
       686.0         0.20          6.6 
       687.0         0.17          6.8 
       688.0         0.23          6.8 
       689.0         0.23          7.2 
       690.0         0.33          5.8 
       691.0         0.27          6.0 
       692.0         0.23          6.6 
       693.0         0.23          6.9 
       694.0         0.33          7.0 
       695.0         0.27          6.6 
       696.0         0.23          6.1 
       697.0         0.30          6.7 
       698.0         0.17          7.4 
       699.0         0.17          7.4 
       700.0         0.15          7.5 
       701.0         0.13          7.2 
       702.0         0.10          7.3 
       703.0         0.17          6.3 
       704.0         0.20          6.5 
       705.0         0.20          6.8 
       706.0         0.17          7.4 
       707.0         0.20          7.3 
       708.0         0.17          6.9 
       709.0         0.20          6.9 
       710.0         0.23          7.2 
       711.0         0.20          7.1 
       712.0         0.27          6.7 
       713.0         0.20          7.2 
       714.0         0.20          7.3 
       715.0         0.23          7.3 
       716.0         0.27          7.9 
       717.0         0.27          8.4 
       718.0         0.37          8.4 
       719.0         0.37         11.3 
       720.0         0.23         15.7 
       721.0         0.23         15.9 
       722.0         0.20         14.5 
       723.0         0.15         12.9 
       724.0         0.20         11.2 
       725.0         0.20          9.8 
       726.0         0.23          9.1 
       727.0         0.13          8.6 
       728.0         0.20          8.4 
       729.0         0.17          9.1 
       730.0         0.20          8.5 
       731.0         0.23          7.5 
       732.0         0.20          7.4 
       733.0         0.20          7.6 
       734.0         0.23          8.1 
       735.0         0.20          7.6 
