~Version Information
VERS.                      2.0: CWLS Log ASCII Standard - VERSION 2.0
WRAP.                       NO: One line per depth step
~Well Information Block
STRT.FT               647.0000: 
STOP.FT              1166.0000: 
STEP.FT                 0.1000: 
NULL.                -999.2500: 
COMP.          Pioneer Natural Resources: COMPANY
WELL.             Linda T 32-3: WELL
FLD.           Purgatoire River: FIELD
LOC.           1350' FNL & 2290' FEL: LOCATION
PROV.                 Colorado: PROVINCE
CNTY.               Las Animas: COUNTRY
SRVC.                Patterson: SERVICE COMPANY
DATE.          Sat Feb 05 08:06:50 2005: LOG DATE
UWI.           05 071 08215 00: UNIQUE WELL ID
~Curve Information Block
DEPT.FT            0 000 00 00: Depth
DCAL.in                       : CDL Caliper
RHOB.g/cc                     : CDL Bulk Density
RHOC.g/cc                     : CDL Density Correction
DPOR.pu                       : CDL Density Porosity
GR.GAPI                       : Gamma Ray
NPOR.pu                       : Neutron Porosity
~Parameter Information Block
~A  Depth       DCAL        RHOB        RHOC        DPOR         GR         NPOR    
# ...
  1155.8000      7.9745      2.6175      0.0339      1.9698   -999.2500   -999.2500
  1155.9000      7.9745      2.6177      0.0669      1.9588   -999.2500   -999.2500
  1156.0000      7.9633      2.6197      0.0865      1.8363   -999.2500   -999.2500
  1156.1000      7.9633      2.6105      0.1026      2.3918   -999.2500   -999.2500
  1156.2000      7.9633      2.5957      0.0711      3.2905   -999.2500   -999.2500
  1156.3000      7.9644      2.5883      0.0448      3.7401   -999.2500   -999.2500
  1156.4000      7.9644      2.5891      0.0902      3.6914   -999.2500   -999.2500
  1156.5000      7.9700      2.5889      0.0991      3.7019   -999.2500   -999.2500
  1156.6000      7.9700      2.5849      0.0576      3.9441   -999.2500   -999.2500
  1156.7000      7.9700      2.5773      0.0470      4.4087   -999.2500   -999.2500
  1156.8000      7.9790      2.5649      0.0531      5.1594   -999.2500   -999.2500
  1156.9000      7.9790      2.5556      0.0400      5.7195   -999.2500   -999.2500
  1157.0000      7.9877      2.5604      0.0372      5.4274   -999.2500   -999.2500
  1157.1000      7.9877      2.5738      0.0581      4.6171   -999.2500   -999.2500
  1157.2000      7.9877      2.5820      0.0816      4.1187   -999.2500   -999.2500
  1157.3000      7.9834      2.5868      0.0181      3.8276   -999.2500   -999.2500
  1157.4000      7.9834      2.5974      0.0741      3.1900   -999.2500   -999.2500
  1157.5000      7.9680      2.6104      0.1242      2.4008   -999.2500   -999.2500
  1157.6000      7.9680      2.6151      0.1097      2.1153   -999.2500   -999.2500
  1157.7000      7.9680      2.6092      0.0896      2.4744   -999.2500   -999.2500
  1157.8000      7.9564      2.5979      0.0800      3.1564   -999.2500   -999.2500
  1157.9000      7.9564      2.5855      0.0887      3.9117   -999.2500   -999.2500
  1158.0000      7.9578      2.5750      0.1062      4.5430   -999.2500   -999.2500
  1158.1000      7.9578      2.5712      0.0970      4.7769   -999.2500   -999.2500
  1158.2000      7.9578      2.5797      0.0535      4.2614   -999.2500   -999.2500
  1158.3000      7.9561      2.5954      0.0786      3.3100   -999.2500   -999.2500
  1158.4000      7.9561      2.6024      0.0723      2.8835   -999.2500   -999.2500
  1158.5000      7.9830      2.5966      0.1061      3.2341   -999.2500   -999.2500
  1158.6000      7.9830      2.5868      0.0357      3.8286   -999.2500   -999.2500
  1158.7000      7.9830      2.5831      0.0634      4.0553   -999.2500   -999.2500
  1158.8000      7.9661      2.5854      0.0775      3.9155   -999.2500   -999.2500
  1158.9000      7.9661      2.5869      0.0801      3.8236   -999.2500   -999.2500
  1159.0000      7.9552      2.5883      0.0586      3.7393   -999.2500   -999.2500
  1159.1000      7.9552      2.5940      0.1079      3.3939   -999.2500   -999.2500
  1159.2000      7.9552      2.6033      0.0490      2.8317   -999.2500   -999.2500
  1159.3000      7.9549      2.6123      0.0982      2.2856   -999.2500   -999.2500
  1159.4000      7.9549      2.6171      0.0650      1.9954   -999.2500   -999.2500
  1159.5000      7.9468      2.6190      0.0981      1.8808   -999.2500   -999.2500
  1159.6000      7.9468      2.6206      0.0881      1.7805   -999.2500   -999.2500
  1159.7000      7.9468      2.6220      0.0943      1.6965   -999.2500   -999.2500
  1159.8000      7.9764      2.6224      0.1169      1.6716   -999.2500   -999.2500
  1159.9000      7.9764      2.6229      0.1207      1.6406   -999.2500   -999.2500
  1160.0000      7.9728      2.6251      0.1103      1.5068   -999.2500   -999.2500
  1160.1000      7.9728      2.6237      0.1050      1.5930   -999.2500   -999.2500
  1160.2000      7.9728      2.6149      0.0899      2.1263   -999.2500   -999.2500
  1160.3000      7.9660      2.6081      0.0819      2.5367   -999.2500   -999.2500
  1160.4000      7.9660      2.6108      0.1109      2.3761   -999.2500   -999.2500
  1160.5000      7.9404      2.6186      0.1026      1.9003   -999.2500   -999.2500
  1160.6000      7.9404      2.6240      0.1103      1.5743   -999.2500   -999.2500
  1160.7000      7.9404      2.6227      0.0833      1.6550   -999.2500   -999.2500
  1160.8000      7.9455      2.6152      0.1107      2.1062   -999.2500   -999.2500
  1160.9000      7.9455      2.6007      0.1083      2.9875   -999.2500   -999.2500
  1161.0000      7.9648      2.5863      0.0530      3.8629   -999.2500   -999.2500
  1161.1000      7.9648      2.5880      0.0430      3.7546   -999.2500   -999.2500
  1161.2000      7.9648      2.5963      0.1117      3.2562   -999.2500   -999.2500
  1161.3000      7.9797      2.5839      0.0857      4.0035   -999.2500   -999.2500
  1161.4000      7.9797      2.5586      0.0203      5.5375   -999.2500   -999.2500
  1161.5000      7.9845      2.5455      0.0266      6.3355   -999.2500   -999.2500
  1161.6000      7.9845      2.5462      0.0161      6.2938   -999.2500   -999.2500
  1161.7000      7.9845      2.5534      0.0249      5.8533   -999.2500   -999.2500
  1161.8000      7.9863      2.5703      0.0324      4.8323   -999.2500   -999.2500
  1161.9000      7.9863      2.5989      0.0722      3.0980   -999.2500   -999.2500
  1162.0000      7.9887      2.6220      0.0911      1.6974   -999.2500   -999.2500
  1162.1000      7.9887      2.6202      0.0679      1.8060   -999.2500   -999.2500
  1162.2000      7.9887      2.6046      0.0351      2.7529   -999.2500   -999.2500
  1162.3000      7.9984      2.5991      0.0677      3.0855   -999.2500   -999.2500
  1162.4000      7.9984      2.6064      0.0631      2.6428   -999.2500   -999.2500
  1162.5000      7.9835      2.6145      0.0992      2.1533   -999.2500   -999.2500
  1162.6000      7.9835      2.6149      0.0640      2.1273   -999.2500   -999.2500
  1162.7000      7.9835      2.6039      0.1096      2.7966   -999.2500   -999.2500
  1162.8000      7.9666      2.5816      0.0627      4.1456   -999.2500   -999.2500
  1162.9000      7.9666      2.5565      0.0418      5.6670   -999.2500   -999.2500
  1163.0000      7.9604      2.5356      0.0654      6.9309   -999.2500   -999.2500
  1163.1000      7.9604      2.5306      0.0027      7.2390   -999.2500   -999.2500
  1163.2000      7.9604      2.5681      0.0480      4.9612   -999.2500   -999.2500
  1163.3000      7.9673      2.6719      0.0689     -1.3261   -999.2500   -999.2500
  1163.4000      7.9673      2.7124      0.0542     -3.7846   -999.2500   -999.2500
  1163.5000      7.9290      2.2732      0.5687     22.8339   -999.2500   -999.2500
  1163.6000      7.9290      1.2927      0.0000     82.2609   -999.2500   -999.2500
  1163.7000      7.9290      0.4388      0.0000    134.0096   -999.2500   -999.2500
  1163.8000      7.2897      0.0834   -999.2500    155.5518   -999.2500   -999.2500
  1163.9000      7.2897      0.0086   -999.2500    160.0849   -999.2500   -999.2500
  1164.0000      2.7684      0.0005   -999.2500    160.5777   -999.2500   -999.2500
  1164.1000      2.7684      0.0000   -999.2500    160.6061   -999.2500   -999.2500
  1164.2000      2.7684      0.0000   -999.2500    160.6061   -999.2500   -999.2500
  1164.3000      2.1569   -999.2500   -999.2500   -999.2500   -999.2500   -999.2500
  1164.4000      2.1569   -999.2500   -999.2500   -999.2500   -999.2500   -999.2500
  1164.5000   -999.2500   -999.2500   -999.2500   -999.2500   -999.2500   -999.2500
  1164.6000   -999.2500   -999.2500   -999.2500   -999.2500   -999.2500   -999.2500
  1164.7000   -999.2500   -999.2500   -999.2500   -999.2500   -999.2500   -999.2500
  1164.8000   -999.2500   -999.2500   -999.2500   -999.2500   -999.2500   -999.2500
  1164.9000   -999.2500   -999.2500   -999.2500   -999.2500   -999.2500   -999.2500
  1165.0000   -999.2500   -999.2500   -999.2500   -999.2500   -999.2500   -999.2500
  1165.1000   -999.2500   -999.2500   -999.2500   -999.2500   -999.2500   -999.2500
  1165.2000   -999.2500   -999.2500   -999.2500   -999.2500   -999.2500   -999.2500
  1165.3000   -999.2500   -999.2500   -999.2500   -999.2500   -999.2500   -999.2500
