~Version Information
VERS.                      2.0: CWLS Log ASCII Standard - VERSION 2.0
WRAP.                       NO: One line per depth step
~Well Information Block
STRT.FT                -0.2500: 
STOP.FT              2376.7500: 
STEP.FT                 0.2500: 
NULL.                -999.2500: 
COMP.          Petrogulf Corporation: COMPANY
WELL.             State 16-23V: WELL
FLD.           Purgatorie River: FIELD
LOC.           2414' FSL & 2215' FWL: LOCATION
PROV.                 Colorado: PROVINCE
CNTY.               Las Animas: COUNTRY
SRVC.          Patterson Wireline: SERVICE COMPANY
DATE.          Wed Jun 25 14:56:54 2003: LOG DATE
UWI.           05 071 07865 00: UNIQUE WELL ID
~Curve Information Block
DEPT.FT            0 000 00 00: Depth
CCL.                          : Casing Collar Locator
TT3.usec                      : CBL 3' Travel Time
AMP3.mV                       : CBL 3' Amplitude
GR.GAPI                       : Gamma Ray
~Parameter Information Block
~A  Depth       CCL         TT3         AMP3         GR     
# ...
   167.2500      0.0000    256.6098     85.5314     64.5361
   167.5000      0.0000    256.7207     85.6262     65.1986
   167.7500      0.0000    256.8070     85.6907     63.7886
   168.0000      0.0000    256.8303     85.7171     60.1349
   168.2500      0.0000    256.7759     85.7124     55.1053
   168.5000      0.0000    256.6666     85.6795     50.3167
   168.7500      0.0000    256.5570     85.6327     47.4280
   169.0000      0.0000    256.5008     85.6114     47.0208
   169.2500      0.0000    256.5177     85.6457     48.1148
   169.5000      0.0000    256.5856     85.7259     49.2332
   169.7500      0.0000    256.6587     85.8238     50.0076
   170.0000      0.0000    256.6953     85.9230     51.5160
   170.2500      0.0000    256.6835     86.0015     55.1863
   170.5000      0.0000    256.6499     86.0045     61.5282
   170.7500      0.0000    256.6386     85.8664     69.6229
   171.0000      0.0000    256.6768     85.5664     77.6126
   171.2500      0.0000    256.7565     85.1584     83.9117
   171.5000      0.0000    256.8427     84.7432     88.1769
   171.7500      0.0000    256.8968     84.3986     91.3073
   172.0000      0.0000    256.8946     84.1412     94.7821
   172.2500      0.0000    256.8314     83.9635     99.8988
   172.5000      0.0000    256.7190     83.8732    107.1095
   172.7500      0.0000    256.5786     83.8608    115.7448
   173.0000      0.0000    256.4351     83.8528    124.2565
   173.2500      0.0000    256.3174     83.7417    130.7528
   173.5000      0.0000    256.2605     83.4786    133.5864
   173.7500      0.0000    256.2917     83.1300    131.8384
   174.0000      0.0000    256.4025     82.8307    125.6640
   174.2500      0.0000    256.5416     82.6703    116.5041
   174.5000      0.0000    256.6457     82.6280    106.9475
   174.7500      0.0000    256.6834     82.6169     99.9075
   175.0000      0.0000    256.6633     82.5601     97.3271
   175.2500      0.0000    256.6094     82.3972     99.1483
   175.5000      0.0000    256.5572     81.9948    103.3396
   175.7500      0.0000    256.5886     81.0432    107.2767
   176.0000      0.0000    256.8492     79.0621    109.4780
   176.2500      0.0000    257.4882     75.5993    110.0744
   176.5000      0.0000    258.5457     70.5710    109.7872
   176.7500      0.0000    259.8809     64.5353    108.7820
   177.0000      0.0000    261.2209     58.6148    106.5490
   177.2500      0.0000    262.3060     53.9456    102.6546
   177.5000      2.0000    263.0134     51.0333     97.3738
   177.7500      0.0000    263.3754     49.6140     91.5338
   178.0000      0.0000    263.5117     49.0814     85.9357
   178.2500     -2.0000    263.5446     48.9480     81.0702
   178.5000      0.0000    263.5359     49.0396     77.1721
   178.7500      0.0000    263.4479     49.5275     74.2515
   179.0000      0.0000    263.1343     50.8461     72.0901
   179.2500      0.0000    262.4090     53.4310     70.3466
   179.5000      0.0000    261.2116     57.4523     68.7020
   179.7500      0.0000    259.7403     62.7712     66.9354
   180.0000      0.0000    258.3698     68.9280     64.9540
   180.2500      0.0000    257.3937     75.0592     62.7718
   180.5000      0.0000    256.8552     80.1191     60.4613
   180.7500      0.0000    256.6154     83.4713     58.1372
   181.0000      0.0000    256.5251     85.2283     55.9824
   181.2500      0.0000    256.5028     85.9900     54.2551
   181.5000      0.0000    256.5072     86.3441     53.1834
   181.7500      0.0000    256.5146     86.5882     52.7896
   182.0000      0.0000    256.5322     86.7645     52.9628
   182.2500      0.0000    256.5886     86.8227     53.7730
   182.5000      0.0000    256.6916     86.7531     55.4672
   182.7500      0.0000    256.8094     86.6119     58.0102
   183.0000      0.0000    256.8984     86.4731     60.8907
   183.2500      0.0000    256.9345     86.3686     63.5400
   183.5000      0.0000    256.9132     86.2840     65.7440
   183.7500      0.0000    256.8402     86.2064     67.6630
   184.0000      0.0000    256.7295     86.1479     69.8055
   184.2500      0.0000    256.6060     86.1159     73.0004
   184.5000      0.0000    256.4999     86.0816     77.8828
   184.7500      0.0000    256.4383     86.0016     84.1346
   185.0000      0.0000    256.4360     85.8699     90.4639
   185.2500      0.0000    256.4885     85.7431     95.6084
   185.5000      0.0000    256.5676     85.7020     99.2481
   185.7500      0.0000    256.6272     85.7794    101.6689
   186.0000      0.0000    256.6209     85.9279    102.7854
   186.2500      0.0000    256.5331     86.0605    102.1311
   186.5000      0.0000    256.3999     86.1123     99.8950
   186.7500      0.0000    256.2890     86.0674     97.4416
   187.0000      0.0000    256.2516     85.9470     96.6617
   187.2500      0.0000    256.2903     85.7847     98.9193
   187.5000      0.0000    256.3698     85.6038    104.3521
   187.7500      0.0000    256.4554     85.4175    111.8887
   188.0000      0.0000    256.5342     85.2506    119.9616
   188.2500      0.0000    256.6054     85.1499    127.2307
   188.5000      0.0000    256.6559     85.1558    132.6458
   188.7500     -2.0000    256.6635     85.2589    135.3458
   189.0000     -2.0000    256.6289     85.3922    135.1941
   189.2500      0.0000    256.5947     85.4814    133.3923
   189.5000      0.0000    256.6126     85.5039    131.7388
   189.7500      0.0000    256.6897     85.4880    130.8577
   190.0000      0.0000    256.7781     85.4742    129.5057
   190.2500      0.0000    256.8164     85.5037    125.7457
   190.5000      0.0000    256.7784     85.6179    118.5007
   190.7500      0.0000    256.6915     85.8176    108.0846
   191.0000      0.0000    256.6192     86.0338     95.9854
   191.2500      0.0000    256.6130     86.1785     84.5596
   191.5000      0.0000    256.6671     86.2149     76.2177
   191.7500      0.0000    256.7225     86.1489     71.9178
   192.0000      0.0000    256.7221     85.9892     70.4493
   192.2500      0.0000    256.6650     85.7660     69.6841
   192.5000      0.0000    256.6047     85.5620     68.3890
   192.7500      0.0000    256.5943     85.4616     66.6100
   193.0000      0.0000    256.6350     85.4712     64.8180
   193.2500      0.0000    256.6818     85.5174     63.3351
   193.5000      0.0000    256.6942     85.5203     62.3740
   193.7500      0.0000    256.6643     85.4614     62.0009
   194.0000      0.0000    256.6003     85.3873     61.9463
   194.2500      0.0000    256.5146     85.3507     61.7688
   194.5000      0.0000    256.4382     85.3510     61.3568
   194.7500      0.0000    256.4214     85.3526     61.1473
   195.0000      0.0000    256.4948     85.3604     61.7354
   195.2500      0.0000    256.6360     85.4329     63.4556
   195.5000      0.0000    256.7863     85.6018     66.4874
   195.7500      0.0000    256.8968     85.8175     70.9343
   196.0000      0.0000    256.9511     85.9990     76.2765
   196.2500      0.0000    256.9528     86.1037     81.1716
   196.5000      0.0000    256.9051     86.1315     84.4515
   196.7500      0.0000    256.8115     86.0964     86.1077
   197.0000      0.0000    256.6942     86.0191     86.8980
   197.2500      0.0000    256.5975     85.9309     87.3582
   197.5000      0.0000    256.5598     85.8655     87.4805
   197.7500      0.0000    256.5820     85.8471     86.9899
   198.0000      0.0000    256.6382     85.8850     85.8556
   198.2500      0.0000    256.7083     85.9834     84.9408
   198.5000      0.0000    256.7856     86.1493     85.9057
   198.7500      0.0000    256.8571     86.3727     89.6341
   199.0000      0.0000    256.8969     86.6009     94.8211
   199.2500      0.0000    256.8807     86.7589     98.8478
   199.5000      0.0000    256.8054     86.7976    100.1043
   199.7500      0.0000    256.7004     86.7102     99.0493
   200.0000      0.0000    256.6218     86.5150     97.0966
   200.2500      0.0000    256.6157     86.2584     94.8617
   200.5000      0.0000    256.6759     86.0357     91.6383
