~Version Information
VERS.                      2.0: CWLS Log ASCII Standard - VERSION 2.0
WRAP.                       NO: One line per depth step
~Well Information Block
STRT.FT                -8.2500: 
STOP.FT              1119.7500: 
STEP.FT                 0.2500: 
NULL.                -999.2500: 
COMP.          Pioneer Natural Resources: COMPANY
WELL.             Linda T 32-3: WELL
FLD.           Purgatorie River: FIELD
LOC.           1350' FNL & 2290' FEL------: LOCATION
PROV.                       CO: PROVINCE
CNTY.               Las Animas: COUNTRY
SRVC.                         : SERVICE COMPANY
DATE.          Thu Feb 10 08:20:40 2005: LOG DATE
UWI.          005 071 08215   : UNIQUE WELL ID
~Curve Information Block
DEPT.FT            0 000 00 00: Depth
CCL.                          : Casing Collar Locator
TT3.usec                      : CBL 3' Travel Time
AMP3.mV                       : CBL 3' Amplitude
GR.GAPI                       : Gamma Ray
~Parameter Information Block
~A  Depth       CCL         TT3         AMP3         GR     
# ...
   494.2500      0.0000    744.3831      7.4736     75.6106
   494.5000      0.0000    743.5770      7.4134     70.2103
   494.7500      0.0000    742.0287      7.3940     69.9313
   495.0000      0.0000    739.9005      7.4144     74.8880
   495.2500      0.0000    738.0204      7.4524     83.3558
   495.5000      0.0000    737.5096      7.4817     93.1213
   495.7500      0.0000    738.7822      7.4854    102.7506
   496.0000      0.0000    741.0947      7.4564    111.3615
   496.2500      0.0000    743.2358      7.3948    117.6444
   496.5000      0.0000    744.4338      7.3106    119.8993
   496.7500      0.0000    744.4447      7.2229    117.2986
   497.0000      0.0000    743.0976      7.1479    110.9142
   497.2500      0.0000    740.1401      7.0853    103.4276
   497.5000      0.0000    735.5432      7.0223     97.8209
   497.7500      0.0000    729.7159      6.9509     96.1220
   498.0000      0.0000    723.3486      6.8779     98.7905
   498.2500      0.0000    717.2546      6.8185    104.6281
   498.5000      0.0000    712.3657      6.7862    111.0296
   498.7500      0.0000    709.6056      6.7860    114.8864
   499.0000      0.0000    709.5526      6.8133    114.3188
   499.2500      0.0000    712.0463      6.8578    110.0473
   499.5000      0.0000    715.8666      6.9109    104.7475
   499.7500      0.0000    719.0341      6.9697    100.9183
   500.0000      0.0000    720.0659      7.0356     99.4735
   500.2500      0.0000    719.0341      7.1070     99.8305
   500.5000      0.0000    717.0284      7.1705    100.5999
   500.7500      0.0000    714.8289      7.2035    100.3331
   501.0000      0.0000    712.7396      7.1914     98.4433
   501.2500      0.0000    711.3280      7.1423     95.7951
   501.5000      0.0000    711.3156      7.0788     94.0270
   501.7500      0.0000    712.6153      7.0127     94.0305
   502.0000      0.0000    714.2195      6.9381     95.3584
   502.2500      0.0000    715.3110      6.8492     97.0309
   502.5000      0.0000    715.9415      6.7609     98.1500
   502.7500      0.0000    716.3246      6.7037     97.9081
   503.0000      0.0000    716.1060      6.7013     96.2704
   503.2500      0.0000    714.9495      6.7546     94.9082
   503.5000      0.0000    713.5360      6.8418     96.2015
   503.7500      0.0000    713.4135      6.9295    100.6832
   504.0000      0.0000    715.7388      6.9906    106.1288
   504.2500      0.0000    720.0861      7.0182    109.5247
   504.5000      0.0000    724.3328      7.0216    109.5172
   504.7500      0.0000    726.0073      7.0105    107.0173
   505.0000      0.0000    724.3345      6.9885    104.1183
   505.2500      0.0000    721.1146      6.9646    102.5114
   505.5000      0.0000    719.2771      6.9658    102.5157
   505.7500      0.0000    720.3627      7.0241    103.4432
   506.0000      0.0000    723.5424      7.1457    104.6626
   506.2500      0.0000    726.9747      7.2946    106.0332
   506.5000      0.0000    729.4715      7.4153    107.6127
   506.7500      0.0000    730.5354      7.4763    109.3582
   507.0000      0.0000    729.7512      7.4926    111.0394
   507.2500      0.0000    727.2327      7.5029    112.2092
   507.5000      0.0000    724.3655      7.5248    112.0721
   507.7500      0.0000    723.0972      7.5376    109.4455
   508.0000      0.0000    724.3359      7.5085    103.3831
   508.2500      0.0000    727.3305      7.4281     94.2466
   508.5000      0.0000    730.4644      7.3206     84.1104
   508.7500      0.0000    732.5217      7.2264     76.0165
   509.0000      0.0000    733.5349      7.1741     72.7143
   509.2500      0.0000    734.5482      7.1599     75.6055
   509.5000      0.0000    736.4044      7.1497     84.1915
   509.7500      0.0000    738.9178      7.1052     96.1502
   510.0000      0.0000    741.3143      7.0132    108.0939
   510.2500      0.0000    743.0877      6.8962    116.8741
   510.5000      0.0000    744.1907      6.7926    120.8321
   510.7500      0.0000    744.7280      6.7258    120.1217
   511.0000      0.0000    744.8006      6.6900    116.0306
   511.2500      0.0000    744.5675      6.6617    110.3831
   511.5000      0.0000    744.2702      6.6183    105.5937
   511.7500      0.0000    744.1150      6.5485    104.1526
   512.0000      0.0000    744.1456      6.4578    106.8532
   512.2500      0.0000    744.2255      6.3651    111.8357
   512.5000      0.0000    744.1594      6.2877    116.2712
   512.7500      0.0000    743.8556      6.2253    118.7342
   513.0000      0.0000    743.3945      6.1639    119.4373
   513.2500      0.0000    742.9513      6.0971    118.9381
   513.5000      0.0000    742.6656      6.0393    117.5717
   513.7500      0.0000    742.5827      6.0093    115.5814
   514.0000      0.0000    742.6753      6.0042    112.8470
   514.2500      0.0000    742.8739      5.9974    108.9699
   514.5000      0.0000    743.0905      5.9648    104.3435
   514.7500      0.0000    743.2570      5.9081    100.5617
   515.0000      0.0000    743.3441      5.8506     99.0568
   515.2500      0.0000    743.3361      5.8137     99.7472
   515.5000      0.0000    743.2129      5.8004    101.5905
   515.7500      0.0000    742.9800      5.7981    104.1075
   516.0000      0.0000    742.6926      5.7911    107.6086
   516.2500      0.0000    742.4240      5.7690    111.8637
   516.5000      0.0000    742.2119      5.7294    115.3787
   516.7500      0.0000    742.0562      5.6763    116.6919
   517.0000      0.0000    741.9644      5.6166    116.1067
   517.2500      0.0000    741.9724      5.5560    115.6080
   517.5000      0.0000    742.1073      5.4976    117.0768
   517.7500      0.0000    742.3450      5.4447    120.6068
   518.0000      0.0000    742.6212      5.4066    124.3146
   518.2500      0.0000    742.8778      5.3968    125.9262
   518.5000      0.0000    743.0906      5.4214    124.9249
   518.7500      0.0000    743.2623      5.4746    122.9891
   519.0000      0.0000    743.3975      5.5490    121.9970
   519.2500      0.0000    743.4789      5.6417    122.0822
   519.5000      0.0000    743.4737      5.7410    122.1354
   519.7500      0.0000    743.3781      5.8178    121.5912
   520.0000      0.0000    743.2493      5.8444    120.9673
   520.2500      0.0000    743.1722      5.8217    120.8699
   520.5000      0.0000    743.1813      5.7798    121.0275
   520.7500      0.0000    743.1968      5.7529    120.4335
   521.0000      0.0000    743.0129      5.7544    118.3736
   521.2500      0.0000    742.3129      5.7729    115.2212
   521.5000      0.0000    740.7844      5.7872    112.0630
   521.7500      0.0000    738.4736      5.7913    109.4209
   522.0000      0.0000    736.1589      5.8050    106.5568
   522.2500      0.0000    735.0863      5.8551    102.3265
   522.5000      0.0000    735.9696      5.9423     96.5295
   522.7500      0.0000    738.3326      6.0363     89.8346
   523.0000      0.0000    741.0209      6.1063     82.6119
   523.2500      0.0000    743.1448      6.1500     74.9385
   523.5000      0.0000    744.3389      6.1890     67.8308
   523.7500      0.0000    744.3987      6.2361     63.1098
   524.0000      0.0000    743.1250      6.2746     61.4959
   524.2500      0.0000    740.8701      6.2733     61.7425
   524.5000      0.0000    739.2543      6.2214     62.0810
   524.7500      0.0000    740.5816      6.1398     61.7965
   525.0000      0.0000    745.4534      6.0553     61.1877
   525.2500      0.0000    751.1159      5.9762     60.8090
   525.5000      0.0000    753.6652      5.8977     61.3130
   525.7500      0.0000    752.3572      5.8192     63.5039
   526.0000      0.0000    750.5482      5.7424     67.8167
   526.2500      0.0000    751.8718      5.6656     73.5425
   526.5000      0.0000    756.3484      5.6013     78.8843
   526.7500      0.0000    760.5405      5.5819     82.1819
   527.0000      0.0000    760.8674      5.6285     83.3508
   527.2500      0.0000    756.5745      5.7240     84.2358
   527.5000      2.0000    749.4584      5.8351     87.4510
