~Version Information
VERS.                      2.0: CWLS Log ASCII Standard - VERSION 2.0
WRAP.                       NO: One line per depth step
~Well Information Block
STRT.FT                -7.7500: 
STOP.FT              2394.2500: 
STEP.FT                 0.2500: 
NULL.                -999.2500: 
COMP.      PIONEER NATURAL RESOURCES  : COMPANY
WELL.         NOMAD 32-10  : WELL
FLD.                          : FIELD
LOC.      SWNE 10 32S 66W 6PM : LOCATION
PROV.                         : PROVINCE
CNTY.                         : COUNTRY
SRVC.                         : SERVICE COMPANY
DATE.          Thu Aug 26 13:45:47 2004: LOG DATE
UWI.      005 071 08127  : UNIQUE WELL ID
~Curve Information Block
DEPT.FT            0 000 00 00: Depth
CCL.                          : Casing Collar Locator
TT3.usec                      : CBL 3' Travel Time
AMP3.mV                       : CBL 3' Amplitude
GR.GAPI                       : Gamma Ray
~Parameter Information Block
~A  Depth       CCL         TT3         AMP3         GR     
    -7.7500   -999.2500   -999.2500   -999.2500   -999.2500
    -7.5000   -999.2500   -999.2500   -999.2500     67.8868
    -7.2500   -999.2500   -999.2500   -999.2500     68.5602
    -7.0000   -999.2500   -999.2500   -999.2500     70.1225
    -6.7500   -999.2500   -999.2500   -999.2500     71.6143
    -6.5000   -999.2500   -999.2500   -999.2500     72.2458
    -6.2500   -999.2500   -999.2500   -999.2500     71.5214
    -6.0000   -999.2500   -999.2500   -999.2500     69.1289
    -5.7500   -999.2500   -999.2500   -999.2500     65.1433
    -5.5000   -999.2500   -999.2500   -999.2500     60.4757
    -5.2500   -999.2500   -999.2500   -999.2500     56.7562
    -5.0000   -999.2500   -999.2500   -999.2500     55.3397
    -4.7500   -999.2500   -999.2500   -999.2500     56.3748
    -4.5000   -999.2500   -999.2500   -999.2500     58.8687
    -4.2500   -999.2500   -999.2500   -999.2500     61.3748
    -4.0000   -999.2500   -999.2500   -999.2500     62.6331
    -3.7500   -999.2500   -999.2500   -999.2500     62.2513
    -3.5000   -999.2500   -999.2500   -999.2500     61.1613
    -3.2500   -999.2500   -999.2500   -999.2500     60.8605
    -3.0000   -999.2500   -999.2500   -999.2500     61.8747
    -2.7500   -999.2500   -999.2500   -999.2500     63.3356
    -2.5000   -999.2500   -999.2500   -999.2500     64.2002
    -2.2500   -999.2500    798.0000      1.8899     64.3907
    -2.0000   -999.2500    798.0000      1.8460     64.5482
    -1.7500   -999.2500    798.0000      1.8368     65.1648
    -1.5000   -999.2500    798.0000      1.8429     66.2346
    -1.2500   -999.2500    798.0000      1.8407     67.2805
    -1.0000   -999.2500    798.0000      1.8266     67.4082
    -0.7500   -999.2500    798.0000      1.8169     65.7604
    -0.5000   -999.2500    798.0000      1.8252     62.4124
    -0.2500   -999.2500    798.0000      1.8506     58.6662
     0.0000   -999.2500    798.0000      1.8892     55.9771
     0.2500   -999.2500    798.0000      1.9392     54.4971
     0.5000   -999.2500    798.0000      1.9903     52.9250
     0.7500   -999.2500    798.0000      2.0147     49.8414
     1.0000   -999.2500    798.0000      1.9733     44.9265
     1.2500   -999.2500    798.0000      1.9235     38.8617
     1.5000   -999.2500    798.0000      1.8990     32.5896
     1.7500   -999.2500    798.0000      1.9154     27.0227
     2.0000   -999.2500    798.0000      1.9595     23.1437
     2.2500   -999.2500    798.0000      2.0032     21.9177
     2.5000   -999.2500    798.0000      2.0215     24.0516
     2.7500   -999.2500    798.0000      2.0053     29.8792
     3.0000      0.0000    798.0000      1.9682     39.1592
     3.2500      0.0000    798.0000      1.9413     50.5801
     3.5000      0.0000    798.0000      1.9475     61.5912
     3.7500      2.0000    798.0000      1.9796     69.3931
     4.0000      1.8573    798.0000      2.0084     72.6486
     4.2500      2.0000    798.0000      2.0078     72.0949
     4.5000      0.0000    798.0000      1.9722     69.3674
     4.7500      0.0000    798.0000      1.9145     65.7522
     5.0000      0.0000    797.9869      1.8576     62.2246
     5.2500      0.0000    797.9019      1.8284     59.7537
     5.5000      0.0000    797.4702      1.8540     58.7789
     5.7500      0.0000    795.7640      1.9621     58.7132
     6.0000      0.0000    790.5226      2.1973     58.4525
     6.2500      0.0000    778.0027      2.6441     57.3664
     6.5000      0.0000    754.8394      3.3999     55.7228
     6.7500      0.0000    721.9705      4.4638     54.2011
     7.0000      0.0000    687.1240      5.6437     53.0404
     7.2500      2.0000    661.7651      6.6324     51.9825
     7.5000      0.0000    653.6171      7.2290     51.2107
     7.7500      0.0000    661.3059      7.4751     51.7005
     8.0000      0.0000    676.2140      7.5627     54.0223
     8.2500     -2.0000    689.7186      7.6421     57.2070
     8.5000     -1.5820    698.6161      7.7385     59.5356
     8.7500      0.0000    704.0833      7.8129     60.3702
     9.0000      0.0000    707.5895      7.8507     60.7543
     9.2500      0.0000    709.4163      7.8829     62.1920
     9.5000      0.0000    709.7556      7.9384     65.1250
     9.7500      0.0000    709.2987      7.9999     68.6727
    10.0000      0.0000    708.7184      8.0286     71.7208
    10.2500      0.0000    708.2829      8.0187     74.1812
    10.5000      0.0000    707.8704      8.0011     77.1147
    10.7500      0.0000    706.9139      8.0019     81.4560
    11.0000      0.0000    704.0860      8.0273     86.6128
    11.2500      0.0000    697.1385      8.0774     90.6413
    11.5000      0.0000    683.6684      8.1510     92.1187
    11.7500      0.0000    663.0488      8.2389     91.5676
    12.0000      0.0000    638.0589      8.3276     90.6401
    12.2500      0.0000    614.2560      8.4096     90.2514
    12.5000      0.0000    597.2595      8.4849     90.1843
    12.7500      0.0000    590.3680      8.5543     90.1769
    13.0000      0.0000    593.8755      8.6168     90.3440
    13.2500      0.0000    605.0223      8.6752     90.3817
    13.5000      0.0000    617.5424      8.7406     89.3486
    13.7500      0.0000    623.4658      8.8243     86.8944
    14.0000      0.0000    619.6721      8.9083     84.1879
    14.2500      0.0000    613.5315      8.9238     82.9832
    14.5000      0.0000    617.9456      8.8037     83.9816
    14.7500      0.0000    638.4338      8.5723     86.4016
    15.0000      0.0000    667.5904      8.3437     88.7637
    15.2500      0.0000    692.9719      8.2179     89.8342
    15.5000      0.0000    706.5030      8.2125     89.3438
    15.7500      2.0000    706.1667      8.2864     88.1396
    16.0000      2.0000    695.1235      8.3849     87.3132
    16.2500      0.0000    682.3099      8.4617     87.1541
    16.5000      0.0000    677.8622      8.4899     87.5337
    16.7500      0.0000    681.3671      8.4858     89.1454
    17.0000      0.0000    676.6305      8.5294     93.2453
    17.2500      0.0000    643.8732      8.7214     99.6580
    17.5000      0.0000    578.5930      9.0814    105.8182
    17.7500      0.0000    497.1803      9.5073    108.6118
    18.0000      0.0000    423.8568      9.8610    106.9820
    18.2500      0.0000    373.0932     10.0749    102.3859
    18.5000      0.0000    344.1740     10.1590     97.1126
    18.7500      0.0000    328.8777     10.1414     92.6324
    19.0000      0.0000    320.3477     10.0473     89.3516
    19.2500      0.0000    315.4426      9.9254     87.4361
    19.5000      0.0000    312.8703      9.8432     87.5716
    19.7500      0.0000    311.7542      9.8329     90.7501
    20.0000      0.0000    311.5195      9.8573     97.2258
    20.2500      0.0000    312.0458      9.8436    105.6417
    20.5000      0.0000    313.4853      9.7560    113.3244
    20.7500      0.0000    315.6980      9.6342    117.8240
    21.0000      0.0000    317.8008      9.5605    118.3193
    21.2500      0.0000    318.5066      9.5976    115.3964
    21.5000      0.0000    317.2154      9.7614    109.8615
    21.7500      0.0000    314.6361     10.0288    102.4119
    22.0000      0.0000    312.1150     10.3533     94.2829
    22.2500      0.0000    310.5532     10.6742     87.4098
    22.5000      0.0000    310.1361     10.9242     83.5990
    22.7500      0.0000    310.8146     11.0441     83.5838
    23.0000      0.0000    312.6195     11.0120     86.6427
    23.2500      0.0000    315.3381     10.8718     90.6284
    23.5000      0.0000    318.0405     10.7222     92.6010
    23.7500      0.0000    319.3803     10.6560     90.5283
    24.0000      0.0000    318.7285     10.7011     85.1885
    24.2500      0.0000    316.8780     10.8284     80.0080
    24.5000      0.0000    315.4532     11.0024     78.3531
    24.7500      0.0000    315.7722     11.1978     80.8299
    25.0000      0.0000    318.4881     11.3828     85.0373
    25.2500      0.0000    324.5891     11.5228     87.3635
    25.5000      0.0000    337.4577     11.5990     85.1501
