~Version Information
 VERS.                                  2.0 : CWLS LAS VERSION
 WRAP.                                   NO : WRAPING MODE
 SWARE .                 MController 2.5.0N : SOFTWARE VERSION
~Well Information
 WELL.                          Cluck 21-25 : WELL
 COMP.    PIONEER NATURAL RESOURCES USA INC : COMPANY
 FLD.                      PURGATOIRE RIVER : FIELD
 LOC.                  NE/NW Sec 25 32S 67W : LOCATION
 DATE.                           6/5-6/2005 : DATE(S) LOGGED
 SRVC.       BLANCO GEOLOGICAL SERVICES LLC : SERVICE COMPANY
 STAT.                                   CO : STATE
 CNTY.                           LAS ANIMAS : COUNTY
 CTRY.                                  USA : COUNTRY
 API.                       05-071-08397-00 : API NUMBER
 STRT.FT                             296.00 : START DEPTH
 STOP.FT                            2730.00 : STOP DEPTH
 STEP.FT                               1.00 : DEPTH INCREMENT
 NULL.                                -9999 : NULL VALUE
~Curve information
 DEPTH.FT                                   :
 ROP.MIN/FT                                 :
 GAS.UNITS                                  :
~ASCII Log data
# ...
      1696.0         1.03         21.9 
      1697.0         0.63         21.6 
      1698.0         0.23         20.0 
      1699.0         0.23         20.9 
      1700.0         0.27         19.9 
      1701.0         0.38         21.3 
      1702.0         0.60         21.3 
      1703.0         0.27         20.2 
      1704.0         0.30         20.5 
      1705.0         0.33         21.4 
      1706.0         0.33         20.5 
      1707.0         0.43         19.7 
      1708.0         0.78         20.4 
      1709.0         0.70         21.2 
      1710.0         0.47         20.5 
      1711.0        10.98         28.1 
      1712.0         0.57         24.2 
      1713.0         0.27         25.9 
      1714.0         0.62         29.2 
      1715.0         0.17         29.2 
      1716.0         0.87         34.6 
      1717.0         0.90         33.5 
      1718.0         0.87         33.4 
      1719.0         1.12         18.8 
      1720.0         0.30         17.2 
      1721.0         0.30         18.0 
      1722.0         0.27         18.0 
      1723.0         0.30         18.4 
      1724.0         0.33         18.1 
      1725.0         0.43         19.4 
      1726.0         0.40         19.5 
      1727.0         0.52         19.0 
      1728.0         0.37         19.5 
      1729.0         0.47         17.3 
      1730.0         0.53         18.9 
      1731.0         0.63         18.1 
      1732.0         1.00         18.5 
      1733.0         0.62         17.4 
      1734.0         0.77         17.8 
      1735.0         0.70         18.3 
      1736.0         0.63         17.4 
      1737.0         0.98         17.5 
      1738.0         0.73         18.2 
      1739.0         0.77         17.8 
      1740.0         0.73         18.5 
      1741.0        57.45         47.0 
      1742.0         0.32         13.2 
      1743.0         0.27         13.0 
      1744.0         0.53         13.8 
      1745.0         0.27         13.3 
      1746.0         0.27         12.6 
      1747.0         0.57         12.9 
      1748.0         0.27         12.1 
      1749.0         0.53         12.8 
      1750.0         0.27         12.0 
      1751.0         0.27         11.7 
      1752.0         0.28         10.9 
      1753.0         0.27         11.5 
      1754.0         0.53         13.4 
      1755.0         0.27         16.2 
      1756.0         0.53         21.1 
      1757.0         0.27         21.7 
      1758.0         0.37         23.3 
      1759.0         0.13         22.2 
      1760.0         0.47         20.4 
      1761.0         0.10         16.8 
      1762.0         0.10         15.6 
      1763.0         1.15         14.8 
      1764.0         1.17         13.2 
      1765.0         0.07         14.6 
      1766.0         0.93         15.6 
      1767.0         1.15         15.0 
      1768.0         0.67         11.8 
      1769.0         1.10         12.5 
      1770.0         0.98         13.5 
      1771.0         0.80         13.3 
      1772.0         0.70         13.5 
      1773.0         0.53         13.3 
      1774.0         0.80         10.6 
      1775.0         0.88         11.1 
      1776.0         0.83         11.2 
      1777.0         0.73         11.2 
      1778.0         0.77         10.5 
      1779.0         0.78         10.9 
      1780.0         0.63         10.8 
      1781.0         0.67         11.4 
      1782.0         0.40         11.6 
      1783.0         0.93         11.2 
      1784.0         1.08         11.4 
      1785.0         0.97         11.1 
      1786.0         0.97         10.9 
      1787.0         0.40         11.0 
      1788.0         0.38         10.5 
      1789.0         0.47         11.3 
      1790.0         0.47         10.4 
      1791.0         0.37         11.6 
      1792.0         0.37         10.4 
      1793.0         0.27         10.5 
      1794.0         0.27         11.0 
      1795.0         0.30         11.2 
      1796.0         0.17         11.2 
      1797.0         0.17         11.1 
      1798.0         0.72         11.2 
      1799.0         0.90         16.2 
      1800.0         0.13         16.2 
      1801.0         0.33         19.5 
      1802.0         5.80         40.4 
      1803.0         0.57         16.0 
      1804.0         0.67         17.9 
      1805.0         0.57         16.5 
      1806.0         0.53         16.0 
      1807.0         0.42         22.2 
      1808.0         0.43         55.1 
      1809.0         0.43         48.3 
      1810.0         1.47         22.7 
      1811.0         1.45         10.1 
      1812.0         1.50          9.3 
      1813.0         1.35         10.3 
      1814.0         0.43          9.0 
      1815.0         0.40         10.3 
      1816.0         0.30          9.8 
      1817.0         0.37          9.9 
      1818.0         0.33         11.5 
      1819.0         0.27         10.5 
      1820.0         0.80         10.8 
      1821.0         0.48         11.7 
      1822.0         0.30         10.8 
      1823.0         0.27         10.0 
      1824.0         0.37         11.3 
      1825.0         0.30         12.4 
      1826.0         0.37         10.1 
      1827.0         0.37         10.6 
      1828.0         0.60         11.1 
      1829.0         0.78         13.6 
      1830.0         0.90         91.4 
      1831.0        10.88        192.2 
      1832.0         2.32         64.9 
      1833.0         0.70         77.7 
      1834.0         0.10         84.2 
      1835.0         0.23         85.5 
      1836.0         1.58        113.8 
      1837.0         0.83        126.9 
      1838.0         0.60        123.2 
      1839.0         0.30        105.4 
      1840.0         0.53         86.8 
      1841.0         0.53         84.9 
      1842.0         0.48         70.2 
      1843.0         0.50         34.0 
      1844.0         0.30         15.8 
      1845.0         0.47         13.1 
      1846.0         0.40          8.6 
      1847.0         0.30          9.8 
      1848.0         0.73          8.5 
      1849.0         1.02          8.2 
      1850.0         0.63          9.4 
      1851.0         0.73         13.6 
      1852.0         0.80         22.4 
      1853.0         0.65         25.5 
      1854.0         0.27         25.7 
      1855.0         0.23         27.8 
      1856.0         0.17         28.5 
      1857.0         0.30         28.2 
      1858.0         0.23         27.5 
      1859.0         0.17         26.2 
      1860.0        10.35         96.4 
      1861.0         0.97        101.8 
      1862.0         0.95        108.4 
      1863.0         0.53         90.7 
      1864.0         0.63         91.0 
      1865.0         0.93         58.4 
      1866.0         0.57         17.4 
      1867.0         0.58          9.2 
      1868.0         0.63          7.1 
      1869.0         0.57          7.4 
      1870.0         0.47          7.1 
      1871.0         0.50          8.6 
      1872.0         0.50         13.8 
      1873.0         0.58         21.5 
      1874.0         0.57         32.1 
      1875.0         0.50         33.2 
      1876.0         0.43         33.3 
      1877.0         0.47         33.4 
      1878.0         0.47         32.5 
      1879.0         0.43         31.8 
      1880.0         0.45         30.6 
      1881.0         0.47         30.3 
      1882.0         0.50         29.9 
      1883.0         0.50         30.5 
      1884.0         0.47         29.9 
      1885.0         0.50         31.6 
      1886.0         0.50         30.0 
      1887.0         0.52         29.7 
      1888.0         0.47         29.6 
      1889.0         0.90         29.9 
      1890.0         1.03         30.0 
      1891.0         7.62         37.3 
      1892.0         2.37         52.0 
      1893.0         0.10         52.0 
      1894.0         0.13         58.1 
      1895.0         0.92         87.4 
