~Version Information
VERS.                      2.0: CWLS Log ASCII Standard - VERSION 2.0
WRAP.                       NO: One line per depth step
~Well Information Block
STRT.FT                39.7500: 
STOP.FT              1484.0000: 
STEP.FT                 0.2500: 
NULL.                -999.2500: 
COMP.          Evergreen Operating Corporation: COMPANY
WELL.              Chase 21-10: WELL
FLD.           Purgatoire River: FIELD
LOC.           1122' FNL & 1544' FWL: LOCATION
PROV.                       CO: PROVINCE
CNTY.               Las Animas: COUNTRY
SRVC.                         : SERVICE COMPANY
DATE.          Fri May 28 15:54:16 2004: LOG DATE
UWI.           05 071 08006 00: UNIQUE WELL ID
~Curve Information Block
DEPT.FT            0 000 00 00: Depth
TT3.usec                      : CBL 3' Travel Time
AMP3.mV                       : CBL 3' Amplitude
GR.GAPI                       : Gamma Ray
CCL.                          : Casing Collar Locator
~Parameter Information Block
~A  Depth       TT3         AMP3         GR         CCL     
# ...
  1346.2500    761.6580      8.7283     62.0834      0.0000
  1346.5000    760.4879      8.6950     59.3633      0.0000
  1346.7500    758.6540      8.7993     56.6898      0.0000
  1347.0000    756.6409      9.0426     54.6806      0.0000
  1347.2500    755.1404      9.4258     53.7135      0.0000
  1347.5000    754.0337      9.9550     54.2159      0.0000
  1347.7500    752.6277     10.6376     56.3248      0.0000
  1348.0000    750.5465     11.4784     59.4417      0.0000
  1348.2500    746.9565     12.4828     62.6587      0.0000
  1348.5000    737.6360     13.6659     65.5906      0.0000
  1348.7500    713.3298     15.0601     68.1959      0.0000
  1349.0000    663.9384     16.6969     69.8773      0.0000
  1349.2500    587.9792     18.5609     69.5313      0.0000
  1349.5000    498.5149     20.5512     66.7474      0.0000
  1349.7500    416.9181     22.4923     62.5365      0.0000
  1350.0000    358.8827     24.1938     58.6586      0.0000
  1350.2500    326.5846     25.5142     56.4577      0.0000
  1350.5000    312.6636     26.3825     56.3450      0.0000
  1350.7500    308.8932     26.7596     57.9329      0.0000
  1351.0000    311.4350     26.5743     60.4081      0.0000
  1351.2500    321.4835     25.7115     62.9551      0.0000
  1351.5000    342.7556     24.1362     64.8681      0.0000
  1351.7500    376.8230     22.0874     65.2667      0.0000
  1352.0000    419.9561     20.0724     63.3112      0.0000
  1352.2500    466.6158     18.5204     59.1468      0.0000
  1352.5000    516.0349     17.4506     54.2964      0.0000
  1352.7500    570.8512     16.5949     50.8445      0.0000
  1353.0000    627.8339     15.7783     50.3751      0.0000
  1353.2500    675.4856     15.0415     53.4813      3.0000
  1353.5000    704.1328     14.4672     59.6488      3.0000
  1353.7500    715.1513     14.0542     67.2149     -3.0000
  1354.0000    717.3200     13.7621     73.7108      0.0000
  1354.2500    715.0045     13.6070     76.9719      0.0000
  1354.5000    702.4498     13.7029     76.5178      0.0000
  1354.7500    672.1726     14.1872     73.9334      0.0000
  1355.0000    629.2269     15.0451     71.6700      0.0000
  1355.2500    593.7086     16.0072     71.2835      0.0000
  1355.5000    584.1588     16.7038     72.6671      0.0000
  1355.7500    599.2378     16.9302     74.6230      0.0000
  1356.0000    621.1901     16.7251     75.8274      0.0000
  1356.2500    637.1624     16.2294     75.3184      0.0000
  1356.5000    650.3900     15.5490     72.6534      0.0000
  1356.7500    669.4650     14.7431     68.1780      0.0000
  1357.0000    694.5283     13.8766     63.1587      0.0000
  1357.2500    718.3375     13.0381     59.2705      0.0000
  1357.5000    735.6335     12.3062     57.7404      0.0000
  1357.7500    746.5489     11.7120     58.9712      0.0000
  1358.0000    753.1115     11.2382     62.6922      0.0000
  1358.2500    756.1656     10.8518     67.8990      0.0000
  1358.5000    755.6529     10.5317     72.6292      0.0000
  1358.7500    751.7900     10.2725     74.5839      0.0000
  1359.0000    745.0261     10.0694     72.6673      0.0000
  1359.2500    735.6420      9.9048     67.9160      0.0000
  1359.5000    724.1979      9.7514     62.7009      0.0000
  1359.7500    712.3820      9.5915     59.0105      0.0000
  1360.0000    702.7254      9.4299     57.4776      0.0000
  1360.2500    697.3415      9.2891     57.6897      0.0000
  1360.5000    697.1643      9.1938     58.8592      0.0000
  1360.7500    702.0479      9.1604     60.0785      0.0000
  1361.0000    710.8164      9.1958     60.4304      0.0000
  1361.2500    721.1910      9.2978     59.3859      0.0000
  1361.5000    730.5041      9.4560     57.2404      0.0000
  1361.7500    737.0618      9.6582     55.0182      0.0000
  1362.0000    740.8054      9.8976     53.7666      0.0000
  1362.2500    742.7177     10.1762     53.8789      0.0000
  1362.5000    743.8361     10.5009     55.0672      0.0000
  1362.7500    744.7474     10.8768     56.8353      0.0000
  1363.0000    745.6285     11.3002     58.9306      0.0000
  1363.2500    746.4844     11.7579     61.4011      0.0000
  1363.5000    747.3446     12.2324     64.2852      0.0000
  1363.7500    748.3724     12.7076     67.2240      0.0000
  1364.0000    749.8464     13.1709     69.3884      0.0000
  1364.2500    751.9833     13.6118     69.8710      0.0000
  1364.5000    754.7262     14.0212     68.2609      0.0000
  1364.7500    757.7525     14.3904     64.9795      0.0000
  1365.0000    760.6990     14.7057     61.1857      0.0000
  1365.2500    763.2791     14.9479     58.3095      0.0000
  1365.5000    765.2189     15.1028     57.4342      0.0000
  1365.7500    766.0451     15.1756     58.7956      0.0000
  1366.0000    764.7118     15.1947     61.6943      0.0000
  1366.2500    759.1086     15.1975     65.0175      0.0000
  1366.5000    746.4473     15.2112     68.0608      0.0000
  1366.7500    725.4992     15.2409     70.7845      0.0000
  1367.0000    698.4509     15.2704     73.2591      0.0000
  1367.2500    668.5188     15.2730     75.1498      0.0000
  1367.5000    635.8677     15.2289     75.9402      0.0000
  1367.7500    600.6385     15.1418     75.3571      0.0000
  1368.0000    571.3533     15.0421     73.3975      0.0000
  1368.2500    563.1666     14.9730     70.2507      0.0000
  1368.5000    581.8250     14.9653     66.4344      0.0000
  1368.7500    612.4551     15.0181     62.8191      0.0000
  1369.0000    629.9604     15.0963     60.3205      0.0000
  1369.2500    620.8287     15.1501     59.4291      0.0000
  1369.5000    591.9432     15.1396     59.8398      0.0000
  1369.7500    558.5623     15.0541     60.5774      0.0000
  1370.0000    528.9038     14.9188     60.8146      0.0000
  1370.2500    502.8893     14.7883     60.6635      0.0000
  1370.5000    480.3615     14.7229     60.9391      0.0000
  1370.7500    464.6114     14.7568     62.0539      0.0000
  1371.0000    460.2933     14.8815     63.4337      0.0000
  1371.2500    472.1223     15.0603     64.1710      0.0000
  1371.5000    503.0064     15.2609     63.9846      0.0000
  1371.7500    548.1225     15.4753     63.2814      0.0000
  1372.0000    591.1610     15.7113     62.4460      0.0000
  1372.2500    612.3901     15.9716     61.4060      0.0000
  1372.5000    604.9715     16.2463     60.0049      0.0000
  1372.7500    582.7162     16.5235     58.5692      0.0000
  1373.0000    568.8558     16.7984     57.8444      0.0000
  1373.2500    576.2726     17.0649     58.4347      0.0000
  1373.5000    600.0400     17.3047     60.3659      0.0000
  1373.7500    628.4096     17.4878     62.9317      0.0000
  1374.0000    656.1829     17.5899     64.9029      0.0000
  1374.2500    684.6300     17.6046     65.3752      0.0000
  1374.5000    713.2653     17.5417     64.6031      0.0000
  1374.7500    737.6194     17.4191     63.6498      0.0000
  1375.0000    754.0164     17.2632     63.1891      0.0000
  1375.2500    762.6664     17.1133     63.0694      0.0000
  1375.5000    766.1550     17.0131     63.0967      0.0000
  1375.7500    766.5790     16.9876     63.7514      0.0000
  1376.0000    763.7455     17.0236     65.7558      0.0000
  1376.2500    754.1340     17.0773     69.0760      0.0000
  1376.5000    731.3216     17.1041     72.5816      0.0000
  1376.7500    690.3535     17.0810     74.6800      0.0000
  1377.0000    635.9131     17.0060     74.3821      0.0000
  1377.2500    586.6640     16.8844     72.1156      0.0000
  1377.5000    566.4857     16.7233     69.5600      0.0000
  1377.7500    586.5112     16.5376     68.2832      0.0000
  1378.0000    635.5692     16.3595     68.4021      0.0000
  1378.2500    689.3734     16.2373     68.8484      0.0000
  1378.5000    727.9373     16.2186     68.9246      0.0000
  1378.7500    743.8516     16.3291     69.1094      0.0000
  1379.0000    738.8869     16.5596     70.0992      0.0000
  1379.2500    719.5932     16.8704     71.5161      0.0000
  1379.5000    697.1961     17.2082     72.1305      0.0000
