~Version Information
 VERS.                                  2.0 : CWLS LAS VERSION
 WRAP.                                   NO : WRAPING MODE
 SWARE .                 MController 2.5.0N : SOFTWARE VERSION
~Well Information
 WELL.                   Blackjack 32-11 Tr : WELL
 COMP.  Pioneer Natural Resources USA, Inc. : COMPANY
 FLD.                      Purgatoire River : FIELD
 LOC.               SW/NE Sec 11 T32S  R66W : LOCATION
 DATE.                             08/14/05 : DATE(S) LOGGED
 SRVC.       BLANCO Geological Services LLC : SERVICE COMPANY
 STAT.                                   CO : STATE
 CNTY.                           Las Animas : COUNTY
 CTRY.                                  USA : COUNTRY
 API.                       05-071-08310-00 : API NUMBER
 STRT.FT                             521.00 : START DEPTH
 STOP.FT                            1862.00 : STOP DEPTH
 STEP.FT                               1.00 : DEPTH INCREMENT
 NULL.                                -9999 : NULL VALUE
~Curve information
 DEPTH.FT                                   :
 ROP.MIN/FT                                 :
 GAS.UNITS                                  :
~ASCII Log data
# ...
      1121.0         0.17         72.6 
      1122.0         0.10         70.4 
      1123.0         0.17         71.0 
      1124.0         0.17         72.1 
      1125.0         0.20         71.1 
      1126.0         0.23         68.7 
      1127.0         0.20         66.5 
      1128.0         0.17         65.3 
      1129.0         0.10         64.2 
      1130.0         0.27         63.0 
      1131.0         0.20         56.1 
      1132.0         0.13         50.2 
      1133.0         0.17         48.1 
      1134.0         0.23         47.4 
      1135.0         0.42         45.1 
      1136.0         1.77        180.5 
      1137.0         0.57        282.6 
      1138.0         0.33        288.7 
      1139.0         0.27        262.3 
      1140.0         0.28        207.5 
      1141.0         0.20        149.6 
      1142.0         0.20        130.5 
      1143.0         0.17        111.6 
      1144.0         0.20         98.7 
      1145.0         0.20         75.7 
      1146.0         0.20         69.2 
      1147.0         0.20         60.4 
      1148.0         0.20         54.7 
      1149.0         0.23         52.1 
      1150.0         0.20         48.5 
      1151.0         0.23         47.5 
      1152.0         0.23         49.0 
      1153.0         0.23         50.6 
      1154.0         0.27         50.7 
      1155.0         0.20         51.6 
      1156.0         0.22         52.4 
      1157.0         0.17         49.1 
      1158.0         0.23         48.5 
      1159.0         0.33         47.3 
      1160.0         0.27         52.0 
      1161.0         0.23         52.6 
      1162.0         0.27         48.2 
      1163.0         0.23         43.5 
      1164.0         0.13         40.0 
      1165.0         0.17         39.2 
      1166.0         2.58        164.7 
      1167.0         0.33        146.9 
      1168.0         0.30        123.9 
      1169.0         0.23        106.2 
      1170.0         0.27         93.5 
      1171.0         0.23         80.7 
      1172.0         0.20         73.2 
      1173.0         0.20         70.1 
      1174.0         0.25         65.0 
      1175.0         0.23         54.9 
      1176.0         0.13         50.9 
      1177.0         0.13         48.5 
      1178.0         0.13         48.1 
      1179.0         0.10         45.5 
      1180.0         0.13         45.6 
      1181.0         0.17         43.1 
      1182.0         0.23         40.4 
      1183.0         0.27         41.3 
      1184.0         0.20         41.3 
      1185.0         0.23         41.6 
      1186.0         0.23         42.3 
      1187.0         0.23         41.6 
      1188.0         0.20         41.1 
      1189.0         0.20         41.3 
      1190.0         0.17         41.5 
      1191.0         0.27         40.9 
      1192.0         0.22         42.1 
      1193.0         0.20         41.4 
      1194.0         0.20         38.1 
      1195.0         0.23         35.3 
      1196.0         1.10         33.7 
      1197.0         0.13         27.5 
      1198.0         0.20         30.2 
      1199.0         0.20         35.9 
      1200.0         0.37         53.0 
      1201.0         0.40         63.5 
      1202.0         0.28         65.7 
      1203.0         0.20         65.7 
      1204.0         0.17         66.7 
      1205.0         0.13         69.5 
      1206.0         0.20         65.8 
      1207.0         0.27         62.8 
      1208.0         0.13         53.5 
      1209.0         0.13         50.7 
      1210.0         0.43         47.9 
      1211.0         0.23         44.7 
      1212.0         0.23         45.3 
      1213.0         0.23         46.7 
      1214.0         0.20         46.1 
      1215.0         0.23         48.0 
      1216.0         0.20         45.7 
      1217.0         0.25         44.6 
      1218.0         0.23         44.4 
      1219.0         0.23         43.8 
      1220.0         0.20         43.7 
      1221.0         0.23         42.3 
      1222.0         0.20         37.1 
      1223.0         0.17         34.2 
      1224.0         0.10         33.5 
      1225.0         0.13         34.1 
      1226.0         1.17         32.3 
      1227.0         0.37         40.7 
      1228.0         0.17         47.8 
      1229.0         0.35         60.2 
      1230.0         0.27         65.8 
      1231.0         0.27         68.6 
      1232.0         0.13         68.1 
      1233.0         0.20         68.3 
      1234.0         0.17         67.0 
      1235.0         0.17         63.8 
      1236.0         0.17         60.9 
      1237.0         0.23         58.5 
      1238.0         0.27         53.7 
      1239.0         0.23         49.9 
      1240.0         0.23         46.6 
      1241.0         0.27         44.3 
      1242.0         0.23         42.6 
      1243.0         0.25         39.4 
      1244.0         0.27         38.3 
      1245.0         0.27         37.4 
      1246.0         0.23         38.5 
      1247.0         0.20         38.2 
      1248.0         0.20         38.1 
      1249.0         0.23         38.2 
      1250.0         0.17         38.2 
      1251.0         0.23         42.9 
      1252.0         0.20         48.7 
      1253.0         0.20         49.9 
      1254.0         0.17         49.3 
      1255.0         0.20         47.1 
      1256.0         0.72         47.5 
      1257.0         0.53         42.0 
      1258.0         0.27         47.5 
      1259.0         0.27         56.2 
      1260.0         0.33         71.2 
      1261.0         0.27         85.3 
      1262.0         0.27         91.9 
      1263.0         0.23         94.4 
      1264.0         0.20         94.9 
      1265.0         0.23         95.5 
      1266.0         0.23         93.6 
      1267.0         0.20         86.5 
      1268.0         0.20         79.8 
      1269.0         0.22         75.7 
      1270.0         0.20         74.1 
      1271.0         0.20         70.5 
      1272.0         0.23         67.0 
      1273.0         0.17         65.1 
      1274.0         0.47         63.4 
      1275.0         0.23         59.0 
      1276.0         0.23         54.4 
      1277.0         0.30         53.6 
      1278.0         0.20         49.9 
      1279.0         0.23         50.0 
      1280.0         0.23         47.3 
      1281.0         0.20         49.3 
      1282.0         0.23         51.0 
      1283.0         0.28         46.3 
      1284.0         0.17         44.7 
      1285.0         0.27         42.8 
      1286.0         0.67         42.0 
      1287.0         0.30         37.9 
      1288.0         0.33         40.5 
      1289.0         0.23         46.0 
      1290.0         0.13         53.5 
      1291.0         0.40         65.6 
      1292.0         0.30         74.5 
      1293.0         0.32         80.0 
      1294.0         0.27         84.2 
      1295.0         0.30         83.9 
      1296.0         0.33         77.6 
      1297.0         0.30         71.8 
      1298.0         0.27         64.8 
      1299.0         0.27         61.1 
      1300.0         0.30         58.7 
      1301.0         0.30         56.8 
      1302.0         0.27         54.0 
      1303.0         0.27         52.6 
      1304.0         0.23         51.1 
      1305.0         0.25         49.9 
      1306.0         0.23         47.7 
      1307.0         0.20         45.0 
      1308.0         0.20         44.8 
      1309.0         0.23         42.4 
      1310.0         0.23         40.0 
      1311.0         0.23         39.7 
      1312.0         0.20         43.9 
      1313.0         0.23         46.1 
      1314.0         0.17         43.6 
      1315.0         0.27         41.7 
      1316.0         0.80         38.6 
      1317.0         0.20         35.3 
      1318.0         0.28         38.5 
      1319.0         0.30         54.3 
      1320.0         0.37         77.3 
