~Version Information
VERS.                      2.0: CWLS Log ASCII Standard - VERSION 2.0
WRAP.                       NO: One line per depth step
~Well Information Block
STRT.FT                -7.0000: 
STOP.FT              2730.2500: 
STEP.FT                 0.2500: 
NULL.                -999.2500: 
COMP.          Pioneer Natural Resources: COMPANY
WELL.             Squeal 11-26: WELL
FLD.           Purgatorie River: FIELD
LOC.           1186' FNL & 152' FWL--: LOCATION
PROV.                       CO: PROVINCE
CNTY.               Las Animas: COUNTRY
SRVC.          Patterson Wireline: SERVICE COMPANY
DATE.          Tue Jul 26 11:59:46 2005: LOG DATE
UWI.           05 071 08404 00: UNIQUE WELL ID
~Curve Information Block
DEPT.FT            0 000 00 00: Depth
CCL.                          : Casing Collar Locator
TT3.usec                      : CBL 3' Travel Time
AMP3.mV                       : CBL 3' Amplitude
GR.GAPI                       : Gamma Ray
~Parameter Information Block
~A  Depth       CCL         TT3         AMP3         GR     
# ...
   730.0000      0.0000    535.8045      5.7538    109.1574
   730.2500      0.0000    558.0331      5.7057    105.6079
   730.5000      0.0000    592.7305      5.6571    102.3455
   730.7500      0.0000    630.3108      5.6203    100.0187
   731.0000      0.0000    655.6102      5.5993     98.2863
   731.2500      0.0000    655.4851      5.5877     97.0475
   731.5000      0.0000    627.6533      5.5724     97.5075
   731.7500      0.0000    582.9277      5.5421    101.3241
   732.0000      0.0000    538.1279      5.4976    108.9352
   732.2500      0.0000    506.0766      5.4542    119.1364
   732.5000      0.0000    491.5110      5.4338    129.8424
   732.7500      0.0000    494.5392      5.4507    138.6573
   733.0000      0.0000    515.5422      5.4999    143.1779
   733.2500      0.0000    555.6278      5.5592    141.8620
   733.5000      0.0000    612.4605      5.6083    135.1170
   733.7500      0.0000    676.5337      5.6461    125.3359
   734.0000      0.0000    733.0953      5.6852    115.6592
   734.2500      0.0000    769.4127      5.7328    108.3626
   734.5000      0.0000    781.6722      5.7812    103.9263
   734.7500      0.0000    776.2769      5.8189    101.4441
   735.0000      0.0000    764.4905      5.8419    100.0325
   735.2500      0.0000    753.3797      5.8534     99.9173
   735.5000      0.0000    739.7610      5.8538    102.1442
   735.7500      0.0000    713.6030      5.8352    107.3086
   736.0000      0.0000    669.1230      5.7862    114.7415
   736.2500      0.0000    612.7776      5.7053    122.8533
   736.5000      0.0000    559.6713      5.6077    129.8460
   736.7500      0.0000    522.6341      5.5189    134.0376
   737.0000      0.0000    505.1774      5.4580    134.3931
   737.2500      0.0000    503.2305      5.4247    131.4584
   737.5000      0.0000    511.4559      5.4039    127.2752
   737.7500      0.0000    528.8052      5.3845    123.6891
   738.0000      0.0000    560.0651      5.3732    120.9101
   738.2500      0.0000    610.8765      5.3885    118.0468
   738.5000      0.0000    678.0007      5.4404    114.7380
   738.7500      0.0000    744.8527      5.5208    111.7111
   739.0000      0.0000    791.2368      5.6157    109.7971
   739.2500      0.0000    809.7630      5.7231    109.0845
   739.5000      0.0000    811.1068      5.8571    109.4277
   739.7500      0.0000    812.7344      6.0297    111.4194
   740.0000      0.0000    823.9470      6.2269    116.2464
   740.2500      0.0000    841.1006      6.4065    124.3104
   740.5000      0.0000    854.6429      6.5280    134.0552
   740.7500      0.0000    859.5444      6.5848    142.4117
   741.0000      0.0000    859.4249      6.6039    146.6512
   741.2500      0.0000    861.6708      6.6149    146.1260
   741.5000      0.0000    870.1907      6.6243    142.5786
   741.7500      0.0000    883.6324      6.6193    138.8804
   742.0000      0.0000    897.7400      6.5886    136.9969
   742.2500      0.0000    905.6182      6.5335    136.6711
   742.5000      0.0000    897.7802      6.4599    136.2883
   742.7500      0.0000    868.9069      6.3667    135.2165
   743.0000      0.0000    826.2228      6.2496    134.7156
   743.2500      0.0000    786.2559      6.1156    136.1462
   743.5000      0.0000    761.4962      5.9877    138.9503
   743.7500      0.0000    752.3168      5.8891    140.9675
   744.0000      0.0000    751.0212      5.8241    140.2647
   744.2500      0.0000    750.5854      5.7756    136.2393
   744.5000      0.0000    749.5063      5.7198    129.4414
   744.7500      0.0000    750.7208      5.6416    120.9403
   745.0000      0.0000    757.2478      5.5388    111.7839
   745.2500      0.0000    768.8324      5.4188    102.5861
   745.5000      0.0000    782.1282      5.2939     93.3758
   745.7500      0.0000    793.3354      5.1808     84.0829
   746.0000      0.0000    800.6929      5.0968     75.3135
   746.2500      0.0000    805.1226      5.0504     68.4067
   746.5000      0.0000    809.1441      5.0304     64.6303
   746.7500      0.0000    815.7845      5.0085     64.4020
   747.0000      0.0000    828.1169      4.9602     67.0154
   747.2500      0.0000    847.2804      4.8844     70.6710
   747.5000      0.0000    869.0820      4.8033     72.9959
   747.7500      0.0000    884.4977      4.7473     72.3414
   748.0000      0.0000    887.4287      4.7401     69.0620
   748.2500      0.0000    881.8530      4.7903     65.3697
   748.5000      0.0000    877.7325      4.8898     63.5871
   748.7500      0.0000    879.2805      5.0158     64.2576
   749.0000      0.0000    881.3700      5.1381     65.8128
   749.2500      0.0000    878.1057      5.2315     66.1888
   749.5000      0.0000    868.7847      5.2880     64.8385
   749.7500      0.0000    852.7166      5.3191     62.8941
   750.0000      0.0000    825.3519      5.3457     61.4440
   750.2500      0.0000    785.4501      5.3842     60.4658
   750.5000      0.0000    741.5648      5.4388     59.6187
   750.7500      0.0000    706.0566      5.5006     59.0624
   751.0000      0.0000    684.9422      5.5539     58.9802
   751.2500      0.0000    676.3201      5.5820     58.9147
   751.5000      0.0000    676.1477      5.5726     58.0724
   751.7500      0.0000    682.9670      5.5216     56.1913
   752.0000      0.0000    698.0547      5.4358     53.9990
   752.2500      0.0000    722.9408      5.3305     52.9715
   752.5000      0.0000    757.6385      5.2221     54.7429
   752.7500      0.0000    800.3499      5.1250     60.3784
   753.0000      0.0000    846.6395      5.0504     69.6540
   753.2500      0.0000    887.8010      5.0033     80.9977
   753.5000      0.0000    913.2132      4.9794     92.5666
   753.7500      0.0000    917.5084      4.9695    103.4562
   754.0000      0.0000    904.9575      4.9659    113.5871
   754.2500      0.0000    885.4232      4.9676    122.5951
   754.5000      0.0000    866.5294      4.9783    129.4217
   754.7500      0.0000    849.8857      5.0006    133.2002
   755.0000      0.0000    833.1161      5.0329    134.2212
   755.2500      0.0000    814.0692      5.0707    133.8350
   755.5000      0.0000    793.4598      5.1101    133.4790
   755.7500      0.0000    774.4341      5.1490    133.9138
   756.0000      0.0000    760.0208      5.1869    135.3171
   756.2500      0.0000    751.3287      5.2257    137.7000
   756.5000      0.0000    747.9971      5.2724    140.7205
   756.7500      0.0000    749.9113      5.3384    143.3538
   757.0000      0.0000    757.8963      5.4381    144.5671
   757.2500      0.0000    771.8395      5.5875    144.3447
   757.5000      0.0000    787.7395      5.7999    143.3274
   757.7500      0.0000    797.9050      6.0785    141.5103
   758.0000      0.0000    796.4283      6.4087    138.2312
   758.2500      0.0000    784.7369      6.7591    133.4503
   758.5000      0.0000    770.5910      7.0882    128.2858
   758.7500      0.0000    761.8620      7.3555    124.3633
   759.0000      0.0000    761.7881      7.5384    123.1211
   759.2500      0.0000    768.3892      7.6436    125.3476
   759.5000      0.0000    775.8688      7.7002    130.5530
   759.7500      0.0000    777.2432      7.7346    136.8269
   760.0000      0.0000    769.2404      7.7485    141.8258
   760.2500      0.0000    756.8391      7.7202    144.1242
   760.5000      0.0000    751.1057      7.6244    143.6679
   760.7500      0.0000    759.6481      7.4513    141.3059
   761.0000      0.0000    779.0675      7.2100    138.1593
   761.2500      0.0000    797.5848      6.9220    135.1061
   761.5000      0.0000    804.4453      6.6160    132.4885
   761.7500      0.0000    797.1432      6.3251    130.4160
   762.0000      0.0000    781.5743      6.0795    129.3022
   762.2500      0.0000    766.4351      5.8945    129.6233
   762.5000      0.0000    757.2625      5.7660    131.2344
   762.7500      0.0000    754.4929      5.6779    133.3793
   763.0000      0.0000    755.1783      5.6119    135.2491
   763.2500      0.0000    755.5065      5.5496    136.3224
