~Version Information
VERS.                      2.0: CWLS Log ASCII Standard - VERSION 2.0
WRAP.                       NO: One line per depth step
~Well Information Block
STRT.FT               392.5000: 
STOP.FT              2252.6000: 
STEP.FT                 0.1000: 
NULL.                -999.2500: 
COMP.          Petrogulf Corporation: COMPANY
WELL.          Alexander 9-43V: WELL
FLD.           Purgatorie River: FIELD
LOC.           1651' FSL & 1081' FEL: LOCATION
CNTY.               Las Animas: COUNTY
SRVC.                         : SERVICE COMPANY
DATE.          Mon Mar 17 08:48:25 2003: LOG DATE
UWI.           05 071 07727 00: UNIQUE WELL ID
STAT.                 Colorado: STATE
~Curve Information Block
DEPT.FT            0 000 00 00: Depth
DCAL.in                       : CDL Caliper
RHOB.g/cc                     : CDL Bulk Density
RHOC.g/cc                     : CDL Density Correction
DPOR.pu                       : CDL Density Porosity
GR.GAPI                       : Gamma Ray
NPOR.pu                       : Neutron Porosity
~Parameter Information Block
~A  Depth       DCAL        RHOB        RHOC        DPOR         GR         NPOR    
# ...
  1275.7000      7.9704      2.4867      0.0758      9.8970    119.7226     26.3344
  1275.8000      7.9449      2.4900      0.0752      9.6980    110.2191     25.9862
  1275.9000      7.9449      2.4938      0.0754      9.4690    110.2191     25.5918
  1276.0000      7.9205      2.4979      0.0766      9.2175     99.7520     25.1673
  1276.1000      7.9205      2.5023      0.0788      8.9507     99.7520     24.7308
  1276.2000      7.9205      2.5069      0.0820      8.6751     99.7520     24.3015
  1276.3000      7.9048      2.5115      0.0860      8.3960     89.9251     23.8987
  1276.4000      7.9048      2.5161      0.0907      8.1169     89.9251     23.5406
  1276.5000      7.8924      2.5207      0.0955      7.8390     82.8826     23.2436
  1276.6000      7.8924      2.5252      0.1004      7.5613     82.8826     23.0213
  1276.7000      7.8924      2.5299      0.1050      7.2806     82.8826     22.8839
  1276.8000      7.8842      2.5346      0.1092      6.9923     80.4030     22.8378
  1276.9000      7.8842      2.5396      0.1131      6.6903     80.4030     22.8850
  1277.0000      7.8943      2.5449      0.1167      6.3687     82.8707     23.0235
  1277.1000      7.8943      2.5506      0.1201      6.0221     82.8707     23.2470
  1277.2000      7.8943      2.5568      0.1235      5.6466     82.8707     23.5451
  1277.3000      7.9175      2.5635      0.1269      5.2411     88.8314     23.9044
  1277.4000      7.9175      2.5707      0.1303      4.8070     88.8314     24.3085
  1277.5000      7.9318      2.5782      0.1335      4.3494     95.6673     24.7399
  1277.6000      7.9318      2.5860      0.1362      3.8764     95.6673     25.1812
  1277.7000      7.9318      2.5939      0.1380      3.3991     95.6673     25.6159
  1277.8000      7.9429      2.6016      0.1386      2.9306    101.0556     26.0304
  1277.9000      7.9429      2.6090      0.1375      2.4849    101.0556     26.4138
  1278.0000      7.9571      2.6157      0.1345      2.0762    104.0437     26.7586
  1278.1000      7.9571      2.6217      0.1293      1.7169    104.0437     27.0606
  1278.2000      7.9571      2.6266      0.1219      1.4169    104.0437     27.3178
  1278.3000      7.9718      2.6305      0.1125      1.1822    105.0483     27.5309
  1278.4000      7.9718      2.6333      0.1016      1.0146    105.0483     27.7023
  1278.5000      7.9787      2.6350      0.0896      0.9110    105.2887     27.8364
  1278.6000      7.9787      2.6357      0.0774      0.8638    105.2887     27.9394
  1278.7000      7.9787      2.6358      0.0656      0.8614    105.2887     28.0195
  1278.8000      7.9837      2.6353      0.0549      0.8891    106.2341     28.0867
  1278.9000      7.9837      2.6346      0.0460      0.9309    106.2341     28.1515
  1279.0000      8.0112      2.6340      0.0393      0.9704    108.9305     28.2242
  1279.1000      8.0112      2.6336      0.0351      0.9928    108.9305     28.3131
  1279.2000      8.0112      2.6337      0.0333      0.9864    108.9305     28.4226
  1279.3000      8.0401      2.6344      0.0337      0.9434    113.3029     28.5530
  1279.4000      8.0401      2.6358      0.0359      0.8613    113.3029     28.6994
  1279.5000      8.0228      2.6377      0.0395      0.7429    118.1859     28.8527
  1279.6000      8.0228      2.6402      0.0437      0.5960    118.1859     29.0009
  1279.7000      8.0228      2.6428      0.0479      0.4335    118.1859     29.1311
  1279.8000      7.9824      2.6455      0.0516      0.2714    122.2294     29.2317
  1279.9000      7.9824      2.6479      0.0541      0.1277    122.2294     29.2944
  1280.0000      7.9621      2.6497      0.0549      0.0209    124.8126     29.3150
  1280.1000      7.9621      2.6505      0.0538     -0.0317    124.8126     29.2947
  1280.2000      7.9621      2.6503      0.0507     -0.0160    124.8126     29.2397
  1280.3000      7.9688      2.6487      0.0460      0.0781    126.3283     29.1601
  1280.4000      7.9688      2.6458      0.0400      0.2559    126.3283     29.0689
  1280.5000      7.9978      2.6415      0.0335      0.5173    127.9846     28.9805
  1280.6000      7.9978      2.6359      0.0274      0.8573    127.9846     28.9090
  1280.7000      7.9978      2.6291      0.0225      1.2665    127.9846     28.8671
  1280.8000      8.0307      2.6214      0.0194      1.7323    131.2062     28.8644
  1280.9000      8.0307      2.6130      0.0186      2.2402    131.2062     28.9065
  1281.0000      8.0498      2.6042      0.0202      2.7752    136.6150     28.9950
  1281.1000      8.0498      2.5952      0.0240      3.3227    136.6150     29.1262
  1281.2000      8.0498      2.5861      0.0296      3.8701    136.6150     29.2925
  1281.3000      8.0586      2.5773      0.0362      4.4068    143.2959     29.4822
  1281.4000      8.0586      2.5687      0.0433      4.9251    143.2959     29.6811
  1281.5000      8.0619      2.5606      0.0503      5.4195    149.3085     29.8737
  1281.6000      8.0619      2.5529      0.0566      5.8871    149.3085     30.0447
  1281.7000      8.0619      2.5456      0.0621      6.3263    149.3085     30.1803
  1281.8000      8.0582      2.5388      0.0665      6.7368    153.1993     30.2696
  1281.9000      8.0582      2.5326      0.0699      7.1181    153.1993     30.3054
  1282.0000      8.0545      2.5267      0.0726      7.4700    155.0803     30.2846
  1282.1000      8.0545      2.5214      0.0748      7.7914    155.0803     30.2082
  1282.2000      8.0545      2.5167      0.0770      8.0805    155.0803     30.0813
  1282.3000      8.0589      2.5125      0.0795      8.3349    156.3182     29.9123
  1282.4000      8.0589      2.5089      0.0827      8.5515    156.3182     29.7118
  1282.5000      8.0716      2.5060      0.0868      8.7271    158.2891     29.4922
  1282.6000      8.0716      2.5038      0.0921      8.8590    158.2891     29.2661
  1282.7000      8.0716      2.5024      0.0986      8.9454    158.2891     29.0454
  1282.8000      8.0837      2.5017      0.1062      8.9862    161.3666     28.8403
  1282.9000      8.0837      2.5018      0.1146      8.9829    161.3666     28.6585
  1283.0000      8.0962      2.5025      0.1235      8.9396    164.8298     28.5046
  1283.1000      8.0962      2.5038      0.1323      8.8629    164.8298     28.3797
  1283.2000      8.0962      2.5054      0.1404      8.7614    164.8298     28.2811
  1283.3000      8.1209      2.5073      0.1472      8.6463    167.4823     28.2033
  1283.4000      8.1209      2.5093      0.1522      8.5297    167.4823     28.1375
  1283.5000      8.1525      2.5110      0.1548      8.4247    168.4486     28.0729
  1283.6000      8.1525      2.5123      0.1547      8.3441    168.4486     27.9976
  1283.7000      8.1525      2.5131      0.1517      8.2993    168.4486     27.9001
  1283.8000      8.1672      2.5131      0.1458      8.2998    167.7076     27.7701
  1283.9000      8.1672      2.5122      0.1372      8.3515    167.7076     27.6008
  1284.0000      8.1679      2.5105      0.1263      8.4569    165.8897     27.3894
  1284.1000      8.1679      2.5079      0.1138      8.6139    165.8897     27.1382
  1284.2000      8.1679      2.5045      0.1003      8.8167    165.8897     26.8546
  1284.3000      8.1638      2.5006      0.0868      9.0553    163.3796     26.5505
  1284.4000      8.1638      2.4963      0.0742      9.3168    163.3796     26.2412
  1284.5000      8.1740      2.4918      0.0635      9.5864    159.8022     25.9431
  1284.6000      8.1740      2.4875      0.0555      9.8484    159.8022     25.6722
  1284.7000      8.1740      2.4835      0.0507     10.0879    159.8022     25.4428
  1284.8000      8.2114      2.4802      0.0494     10.2920    154.6783     25.2653
  1284.9000      8.2114      2.4776      0.0516     10.4505    154.6783     25.1467
  1285.0000      8.2608      2.4758      0.0566     10.5571    148.4024     25.0897
  1285.1000      8.2608      2.4749      0.0639     10.6095    148.4024     25.0940
  1285.2000      8.2608      2.4749      0.0723     10.6091    148.4024     25.1563
