~Version Information
VERS.                      2.0: CWLS Log ASCII Standard - VERSION 2.0
WRAP.                       NO: One line per depth step
~Well Information Block
STRT.FT               671.6000: 
STOP.FT              1890.7000: 
STEP.FT                 0.1000: 
NULL.                -999.2500: 
COMP.          Petrogulf Corporation: COMPANY
WELL.             State 16-14R: WELL
FLD.           Purgatorie River: FIELD
LOC.           598' FSL & 682' FWL: LOCATION
CNTY.               Las Animas: COUNTY
SRVC.                         : SERVICE COMPANY
DATE.          Fri Nov 05 07:21:30 2004: LOG DATE
UWI.           05 071 08034 00: UNIQUE WELL ID
STAT.                 Colorado: STATE
~Curve Information Block
DEPT.FT            0 000 00 00: Depth
DCAL.in                       : CDL Caliper
RHOB.g/cc                     : CDL Bulk Density
RHOC.g/cc                     : CDL Density Correction
DPOR.pu                       : CDL Density Porosity
GR.GAPI                       : Gamma Ray
NPOR.pu                       : Neutron Porosity
~Parameter Information Block
~A  Depth       DCAL        RHOB        RHOC        DPOR         GR         NPOR    
# ...
  1554.8000      7.9528      2.4751      0.1868     10.6014    173.2401     26.1148
  1554.9000      7.9528      2.4407      0.1508     12.6854    177.5540     25.4644
  1555.0000      7.9583      2.4193      0.0850     13.9794    185.4478     24.9760
  1555.1000      7.9583      2.4424      0.1293     12.5792    187.5162     25.0951
  1555.2000      7.9583      2.4911      0.1655      9.6312    181.3951     25.2965
  1555.3000      7.9597      2.5257      0.1744      7.5336    176.3413     25.0168
  1555.4000      7.9597      2.5358      0.2369      6.9217    177.5072     24.7987
  1555.5000      7.9732      2.5277      0.2986      7.4101    180.3622     25.0038
  1555.6000      7.9732      2.5090      0.2218      8.5451    179.0647     25.0934
  1555.7000      7.9732      2.5025      0.1846      8.9412    173.7757     24.8797
  1555.8000      8.0506      2.5198      0.2405      7.8919    167.5585     24.7148
  1555.9000      8.0506      2.5306      0.2190      7.2390    163.3390     24.5395
  1556.0000      8.0694      2.5117      0.1087      8.3788    163.5098     24.3241
  1556.1000      8.0694      2.4896      0.1042      9.7189    165.5295     24.3395
  1556.2000      8.0694      2.4924      0.1513      9.5532    164.9659     24.3501
  1556.3000      8.0520      2.4966      0.2423      9.2943    160.9467     24.1904
  1556.4000      8.0520      2.4635      0.1983     11.3047    154.7256     24.0646
  1556.5000      8.0554      2.4067      0.1026     14.7448    149.4428     23.8726
  1556.6000      8.0554      2.3671      0.1662     17.1458    147.7993     23.8000
  1556.7000      8.0554      2.3580      0.1380     17.6996    150.4231     24.4169
  1556.8000      7.9550      2.3730      0.1760     16.7902    155.1585     25.2750
  1556.9000      7.9550      2.4030      0.1847     14.9713    155.6049     25.3852
  1557.0000      7.9429      2.4470      0.1515     12.3006    149.5511     24.9879
  1557.1000      7.9429      2.5053      0.2641      8.7727    143.1548     25.0723
  1557.2000      7.9429      2.5616      0.3650      5.3558    142.7676     25.8093
  1557.3000      7.9794      2.6053      0.3744      2.7079    147.1049     26.5399
  1557.4000      7.9794      2.6365      0.4196      0.8168    150.6800     26.7658
  1557.5000      7.9761      2.6395      0.4108      0.6344    151.8524     26.7143
  1557.6000      7.9761      2.6063      0.2693      2.6501    152.5535     26.7838
  1557.7000      7.9761      2.5674      0.1435      5.0058    154.8284     27.0111
  1557.8000      7.9951      2.5510      0.1800      5.9992    156.2956     27.3134
  1557.9000      7.9951      2.5522      0.1587      5.9291    152.4753     27.5407
  1558.0000      8.0283      2.5625      0.1641      5.3037    145.8585     27.6635
  1558.1000      8.0283      2.5756      0.1681      4.5075    141.0326     27.8399
  1558.2000      8.0283      2.5772      0.2206      4.4131    139.8336     28.1294
  1558.3000      7.9855      2.5674      0.1105      5.0036    143.4702     28.4189
  1558.4000      7.9855      2.5689      0.0760      4.9178    146.4995     28.5036
  1558.5000      7.9687      2.5829      0.1300      4.0683    144.2905     28.6414
  1558.6000      7.9687      2.5843      0.1205      3.9790    140.2330     29.2039
  1558.7000      7.9687      2.5650      0.0468      5.1534    139.4155     29.8223
  1558.8000      7.9589      2.5405      0.0655      6.6336    143.7948     29.8453
  1558.9000      7.9589      2.5236      0.0437      7.6581    150.5223     29.1851
  1559.0000      7.9480      2.5111      0.0463      8.4203    155.5525     28.4244
  1559.1000      7.9480      2.4959      0.0113      9.3375    155.8595     28.1363
  1559.2000      7.9480      2.4845      0.0202     10.0288    153.6100     28.0505
  1559.3000      7.9628      2.4916      0.0100      9.5998    154.2435     27.8883
  1559.4000      7.9628      2.5224      0.0522      7.7362    154.3129     27.8448
  1559.5000      7.9003      2.5590      0.0590      5.5150    147.2466     27.6796
  1559.6000      7.9003      2.5728      0.1125      4.6767    136.6963     27.2757
  1559.7000      7.9003      2.5588      0.0532      5.5299    129.0441     26.9090
  1559.8000      7.9122      2.5343      0.0788      7.0097    126.8541     26.7337
  1559.9000      7.9122      2.5075      0.0756      8.6360    128.4642     26.7432
  1560.0000      7.9279      2.4909      0.0357      9.6435    130.0334     26.7163
  1560.1000      7.9279      2.5028      0.0515      8.9185    130.3096     26.5441
  1560.2000      7.9279      2.5251      0.0862      7.5693    130.3664     26.2980
  1560.3000      7.8891      2.5256      0.0282      7.5380    131.7938     25.9572
  1560.4000      7.8891      2.5139      0.0098      8.2463    136.1329     25.6211
  1560.5000      7.8915      2.5162      0.0848      8.1101    140.6399     25.4711
  1560.6000      7.8915      2.5301      0.1500      7.2693    141.7927     25.3449
  1560.7000      7.8915      2.5416      0.1455      6.5672    141.5242     25.0611
  1560.8000      7.9510      2.5504      0.0952      6.0356    145.4682     24.8318
  1560.9000      7.9510      2.5595      0.1249      5.4855    151.6224     24.9799
  1561.0000      7.9270      2.5623      0.1447      5.3181    152.1669     25.6968
  1561.1000      7.9270      2.5543      0.1014      5.7998    149.0032     26.4207
  1561.2000      7.9270      2.5417      0.0454      6.5622    149.2164     26.2947
  1561.3000      7.8665      2.5286      0.0534      7.3558    151.4107     25.6656
  1561.4000      7.8665      2.5126      0.0809      8.3301    150.2724     25.5691
  1561.5000      7.8721      2.4988      0.0216      9.1641    147.5497     26.1251
  1561.6000      7.8721      2.5008      0.0211      9.0445    144.9183     26.3767
  1561.7000      7.8721      2.5182      0.0308      7.9890    139.8334     25.9222
  1561.8000      7.8775      2.5349      0.0427      6.9738    135.1666     25.4618
  1561.9000      7.8775      2.5387      0.0701      6.7470    136.1901     25.4353
  1562.0000      7.8668      2.5318      0.0456      7.1652    138.3215     25.5669
  1562.1000      7.8668      2.5259      0.0836      7.5196    134.6060     25.7299
  1562.2000      7.8668      2.5307      0.0332      7.2332    127.1551     26.0394
  1562.3000      7.8722      2.5438      0.0965      6.4392    122.4234     26.4482
  1562.4000      7.8722      2.5540      0.0519      5.8175    124.0603     26.8018
  1562.5000      7.8948      2.5651      0.0539      5.1435    130.7164     27.0354
  1562.6000      7.8948      2.5821      0.0697      4.1155    136.6451     27.1020
  1562.7000      7.8948      2.5945      0.0723      3.3660    136.2909     26.9711
  1562.8000      7.8875      2.5983      0.0567      3.1330    132.5961     26.9553
  1562.9000      7.8875      2.6010      0.0467      2.9686    132.9253     27.1488
  1563.0000      7.8795      2.5982      0.1341      3.1419    137.4355     27.1881
  1563.1000      7.8795      2.5870      0.0342      3.8199    140.1096     26.9867
  1563.2000      7.8795      2.5821      0.0527      4.1170    136.9029     26.7433
  1563.3000      7.8533      2.5841      0.0482      3.9914    132.7698     26.8070
  1563.4000      7.8533      2.5855      0.0103      3.9069    133.4752     27.2035
  1563.5000      7.8388      2.5893      0.0319      3.6801    135.0592     27.2253
  1563.6000      7.8388      2.5832      0.0568      4.0471    133.4012     26.7150
  1563.7000      7.8388      2.5572     -0.0160      5.6220    131.3515     26.4907
  1563.8000      7.8528      2.5381     -0.0195      6.7811    132.5555     26.9276
  1563.9000      7.8528      2.5464      0.0267      6.2782    135.6974     27.3327
  1564.0000      7.8813      2.5708      0.0225      4.7991    138.2887     27.0035
  1564.1000      7.8813      2.5940      0.0347      3.3964    139.3501     26.2696
  1564.2000      7.8813      2.6050      0.0638      2.7300    138.0627     25.8824
  1564.3000      7.8957      2.5987      0.0945      3.1074    137.5349     25.7254
