~Version Information
 VERS.                                  2.0 : CWLS LAS VERSION
 WRAP.                                   NO : WRAPING MODE
 SWARE .                 MController 2.5.0J : SOFTWARE VERSION
~Well Information
 WELL.                        Desoto 13-7TR : WELL
 COMP.        Pioneer Natural Resources Inc : COMPANY
 FLD.                      Purgatoire River : FIELD
 LOC.                 NW/SW Sec 7 T32S R66W : LOCATION
 DATE.                           1/13-14/05 : DATE(S) LOGGED
 SRVC.       Blanco Geological Services LLC : SERVICE COMPANY
 STAT.                                   CO : STATE
 CNTY.                           Las Animas : COUNTY
 CTRY.                                  USA : COUNTRY
 API.                          05-071-08216 : API NUMBER
 STRT.FT                             945.00 : START DEPTH
 STOP.FT                            2785.00 : STOP DEPTH
 STEP.FT                               1.00 : DEPTH INCREMENT
 NULL.                                -9999 : NULL VALUE
~Curve information
 DEPTH.FT                                   :
 ROP.MIN/FT                                 :
 GAS.UNITS                                  :
~ASCII Log data
# ...
      2345.0         0.23         12.9 
      2346.0         0.30          5.0 
      2347.0         0.33          5.6 
      2348.0         0.30         10.0 
      2349.0         0.30          9.9 
      2350.0         0.27          7.2 
      2351.0         0.35          5.0 
      2352.0         0.30          2.5 
      2353.0         0.33          3.2 
      2354.0         0.33        160.3 
      2355.0         0.33        164.8 
      2356.0         0.33        167.7 
      2357.0         0.37        171.5 
      2358.0         0.33        174.1 
      2359.0         0.23        175.1 
      2360.0         0.23        171.4 
      2361.0         0.27        170.7 
      2362.0         0.28        133.4 
      2363.0         0.30         30.7 
      2364.0         0.13         12.3 
      2365.0         0.27         11.0 
      2366.0         0.30          3.9 
      2367.0         0.30          2.6 
      2368.0         0.37          2.4 
      2369.0         0.23          1.4 
      2370.0         0.22          1.4 
      2371.0         0.23          1.8 
      2372.0         0.30          2.0 
      2373.0         0.27          1.3 
      2374.0         0.50          1.4 
      2375.0         0.23          1.4 
      2376.0         0.47          1.9 
      2377.0         0.27          1.0 
      2378.0         0.30          1.2 
      2379.0         0.27          0.7 
      2380.0         0.33          1.5 
      2381.0         0.32          0.9 
      2382.0         0.33          1.2 
      2383.0         0.33          0.9 
      2384.0         0.23          1.0 
      2385.0         0.33        367.3 
      2386.0         0.33        367.3 
      2387.0         0.33        426.9 
      2388.0         0.33        432.4 
      2389.0         0.33        889.3 
      2390.0         0.33        888.3 
      2391.0         0.27        706.3 
      2392.0         0.22        696.7 
      2393.0         0.20        624.5 
      2394.0         0.20        624.5 
      2395.0         0.27        606.2 
      2396.0         0.18        537.1 
      2397.0         0.27        502.6 
      2398.0         0.30        490.1 
      2399.0         0.20        449.8 
      2400.0         0.17        440.0 
      2401.0         0.20        184.8 
      2402.0         0.20         82.8 
      2403.0         0.27         31.3 
      2404.0         0.27        126.2 
      2405.0         0.23        192.9 
      2406.0         0.33        205.5 
      2407.0         0.33        247.9 
      2408.0         0.40        249.5 
      2409.0         0.32        246.2 
      2410.0         0.27        236.0 
      2411.0         0.30        223.0 
      2412.0         0.23        209.5 
      2413.0         0.13        199.3 
      2414.0         0.17        361.6 
      2415.0         0.30        372.8 
      2416.0         0.37        375.2 
      2417.0         0.40        349.5 
      2418.0         0.43        341.7 
      2419.0         0.27        306.7 
      2420.0         0.20        276.0 
      2421.0         0.18        258.4 
      2422.0         0.23        255.6 
      2423.0         0.23        231.7 
      2424.0         0.23        207.6 
      2425.0         0.40        196.5 
      2426.0         0.27        186.3 
      2427.0         0.23        184.5 
      2428.0         0.27        179.4 
      2429.0         0.27        176.1 
      2430.0         0.33        175.7 
      2431.0         0.20        170.8 
      2432.0         0.33        169.5 
      2433.0         0.23        167.7 
      2434.0         0.20        167.1 
      2435.0         0.23        163.4 
      2436.0         0.25        162.5 
      2437.0         0.23        161.9 
      2438.0         0.23        159.7 
      2439.0         0.27        158.5 
      2440.0         0.23        157.8 
      2441.0         0.23        157.3 
      2442.0         0.30        397.1 
      2443.0         0.27        298.9 
      2444.0         0.20        283.5 
      2445.0         0.20        275.6 
      2446.0         0.23        253.9 
      2447.0         0.20        239.0 
      2448.0         0.20        228.0 
      2449.0         0.20        207.2 
      2450.0         0.20        204.3 
      2451.0         0.22        183.4 
      2452.0         0.27        171.3 
      2453.0         0.27        169.5 
      2454.0         0.27        171.9 
      2455.0         0.10        171.9 
      2456.0         0.40        172.7 
      2457.0         0.50        172.1 
      2458.0         0.37        162.6 
      2459.0         0.37        153.5 
      2460.0         0.30        151.6 
      2461.0         0.27        151.8 
      2462.0         0.37        152.2 
      2463.0         0.40        154.5 
      2464.0         0.28        158.6 
      2465.0         0.47        162.8 
      2466.0         0.27        161.2 
      2467.0         0.27        161.1 
      2468.0         0.40        157.1 
      2469.0         0.40        152.4 
      2470.0         0.27        149.2 
      2471.0         0.30        150.2 
      2472.0         0.30        152.1 
      2473.0         0.27        152.9 
      2474.0         0.28        155.0 
      2475.0         0.27        156.0 
      2476.0         0.27        156.5 
      2477.0         0.30        127.7 
      2478.0         0.37        150.9 
      2479.0         0.33        182.2 
      2480.0         0.37        232.0 
      2481.0         0.33        257.2 
      2482.0         0.27        267.4 
      2483.0         0.37        275.3 
      2484.0         0.27        268.5 
      2485.0         0.28        259.2 
      2486.0         0.30        247.1 
      2487.0         0.30        230.7 
      2488.0         0.27        217.5 
      2489.0         0.20        208.5 
      2490.0         0.18        207.0 
      2491.0         0.23        191.0 
      2492.0         0.27        186.2 
      2493.0         0.43        184.1 
      2494.0         0.47        171.3 
      2495.0         0.27        171.3 
      2496.0         0.20        171.5 
      2497.0         0.23        171.5 
      2498.0         0.23        170.6 
      2499.0         0.20        168.5 
      2500.0         0.23        167.6 
      2501.0         0.23        162.5 
      2502.0         0.25        162.5 
      2503.0         0.23        162.4 
      2504.0         0.20        163.6 
      2505.0         0.23        118.9 
      2506.0         0.20        111.0 
      2507.0         0.20        114.2 
      2508.0         0.23        124.1 
      2509.0         0.23        132.8 
      2510.0         0.23        154.1 
      2511.0         0.23        162.4 
      2512.0         0.27        126.5 
      2513.0         0.23         23.4 
      2514.0         0.33        245.9 
      2515.0         0.27        275.4 
      2516.0         0.28        277.3 
      2517.0         0.33        271.8 
      2518.0         0.37        256.0 
      2519.0         0.50        235.6 
      2520.0         0.40        175.3 
      2521.0         0.37        176.8 
      2522.0         0.42        176.7 
      2523.0         0.37        178.3 
      2524.0         0.33        181.3 
      2525.0         0.30        181.5 
      2526.0         0.30        176.2 
      2527.0         0.33        170.2 
      2528.0         0.40        163.9 
      2529.0         0.27        157.5 
      2530.0         0.30        150.8 
      2531.0         0.30        150.4 
      2532.0         0.28        144.0 
      2533.0         0.27        144.1 
      2534.0         0.27        116.4 
      2535.0         0.30        386.8 
      2536.0         0.27        375.8 
      2537.0         0.27        348.2 
      2538.0         0.27        344.2 
      2539.0         0.27        305.2 
      2540.0         0.23        273.2 
      2541.0         0.27        241.8 
      2542.0         0.30        219.7 
      2543.0         0.27        217.2 
      2544.0         0.30        212.3 
