~Version Information
VERS.                      2.0: CWLS Log ASCII Standard - VERSION 2.0
WRAP.                       NO: One line per depth step
~Well Information Block
STRT.FT               780.0000: 
STOP.FT              3152.2000: 
STEP.FT                 0.1000: 
NULL.                -999.2500: 
COMP.          Pioneer Natural Resources: COMPANY
WELL.            Paradise 13-8: WELL
FLD.           Purgatoire River: FIELD
LOC.           1896' FSL & 1120' FWL: LOCATION
PROV.                 Colorado: PROVINCE
CNTY.               Las Animas: COUNTRY
SRVC.                Patterson: SERVICE COMPANY
DATE.          Sat Jan 22 20:51:32 2005: LOG DATE
UWI.           05 071 07946 00: UNIQUE WELL ID
~Curve Information Block
DEPT.FT            0 000 00 00: Depth
DCAL.in                       : CDL Caliper
RHOB.g/cc                     : CDL Bulk Density
RHOC.g/cc                     : CDL Density Correction
DPOR.pu                       : CDL Density Porosity
NPOR.pu                       : Neutron Porosity
GR.GAPI                       : Gamma Ray
~Parameter Information Block
~A  Depth       DCAL        RHOB        RHOC        DPOR        NPOR         GR     
# ...
  3122.4000      7.6707      2.4540      0.0426     11.8773     12.0381   -999.2500
  3122.5000      7.6753      2.4510      0.0498     12.0636     12.3776   -999.2500
  3122.6000      7.6753      2.4461      0.0263     12.3576     12.4701   -999.2500
  3122.7000      7.6753      2.4388      0.0556     12.8009     12.6588   -999.2500
  3122.8000      7.6644      2.4277      0.0188     13.4700     13.2235   -999.2500
  3122.9000      7.6644      2.4173      0.0327     14.1016     13.8787   -999.2500
  3123.0000      7.6466      2.4091      0.0479     14.5974     14.2113   -999.2500
  3123.1000      7.6466      2.4026      0.0568     14.9968     14.2689   -999.2500
  3123.2000      7.6466      2.4032      0.0607     14.9547     14.0429   -999.2500
  3123.3000      7.6314      2.4138      0.0657     14.3122     13.6009   -999.2500
  3123.4000      7.6314      2.4243      0.0754     13.6816     13.2199   -999.2500
  3123.5000      7.6167      2.4233      0.0217     13.7397     12.7483   -999.2500
  3123.6000      7.6167      2.4117      0.0532     14.4437     12.1516   -999.2500
  3123.7000      7.6167      2.3979      0.0400     15.2776     11.8608   -999.2500
  3123.8000      7.6015      2.3866      0.0915     15.9640     11.9411   -999.2500
  3123.9000      7.6015      2.3754      0.0614     16.6440     11.9740   -999.2500
  3124.0000      7.5882      2.3660      0.0440     17.2108     11.9498   -999.2500
  3124.1000      7.5882      2.3652      0.0520     17.2633     12.1457   -999.2500
  3124.2000      7.5882      2.3768      0.0708     16.5589     12.3101   -999.2500
  3124.3000      7.5806      2.3985      0.0458     15.2426     12.1331   -999.2500
  3124.4000      7.5806      2.4218      0.0857     13.8280     12.0481   -999.2500
  3124.5000      7.5781      2.4444      0.0347     12.4596     12.5112   -999.2500
  3124.6000      7.5781      2.4726      0.1026     10.7529     13.3789   -999.2500
  3124.7000      7.5781      2.4951      0.1802      9.3867     14.1373   -999.2500
  3124.8000      7.5786      2.5023      0.0926      8.9520     14.5040   -999.2500
  3124.9000      7.5786      2.5127      0.0812      8.3235     14.8181   -999.2500
  3125.0000      7.5786      2.5349      0.1427      6.9757     15.3708   -999.2500
  3125.1000      7.5786      2.5505      0.1394      6.0314     15.6457   -999.2500
  3125.2000      7.5786      2.5522      0.0786      5.9285     15.2155   -999.2500
  3125.3000      7.5779      2.5481      0.0867      6.1742     14.9888   -999.2500
  3125.4000      7.5779      2.5392      0.0889      6.7166     17.1832   -999.2500
  3125.5000      7.5784      2.5276      0.0408      7.4160     25.3946   -999.2500
  3125.6000      7.5784      2.5188      0.1008      7.9487     39.1932   -999.2500
  3125.7000      7.5784      2.5173      0.0237      8.0452     49.4294   -999.2500
  3125.8000      7.5780      2.5248      0.0693      7.5900     53.0901   -999.2500
  3125.9000      7.5780      2.5332      0.0755      7.0778     53.8035   -999.2500
  3126.0000      7.5754      2.5417      0.0951      6.5642     53.8793   -999.2500
  3126.1000      7.5754      2.5571      0.0665      5.6293     53.8836   -999.2500
  3126.2000      7.5754      2.5736      0.0961      4.6317   -999.2500   -999.2500
  3126.3000      7.5730      2.5739      0.1157      4.6094   -999.2500   -999.2500
  3126.4000      7.5730      2.5574      0.0883      5.6129   -999.2500   -999.2500
  3126.5000      7.5733      2.5437      0.0775      6.4415   -999.2500   -999.2500
  3126.6000      7.5733      2.5409      0.0793      6.6104   -999.2500   -999.2500
  3126.7000      7.5733      2.5363      0.0933      6.8891   -999.2500   -999.2500
  3126.8000      7.5751      2.5253      0.0447      7.5592   -999.2500   -999.2500
  3126.9000      7.5751      2.5220      0.0488      7.7589   -999.2500   -999.2500
  3127.0000      7.5750      2.5274      0.0717      7.4325   -999.2500   -999.2500
  3127.1000      7.5750      2.5253      0.0539      7.5590   -999.2500   -999.2500
  3127.2000      7.5750      2.5187      0.0416      7.9551   -999.2500   -999.2500
  3127.3000      7.5707      2.5257      0.0268      7.5320   -999.2500   -999.2500
  3127.4000      7.5707      2.5410      0.1016      6.6083   -999.2500   -999.2500
  3127.5000      7.5638      2.5451      0.1000      6.3592   -999.2500   -999.2500
  3127.6000      7.5638      2.5423      0.0570      6.5256   -999.2500   -999.2500
  3127.7000      7.5638      2.5419      0.0819      6.5508   -999.2500   -999.2500
  3127.8000      7.5571      2.5337      0.1021      7.0482   -999.2500   -999.2500
  3127.9000      7.5571      2.5146      0.0506      8.2052   -999.2500   -999.2500
  3128.0000      7.5537      2.5045      0.0200      8.8158   -999.2500   -999.2500
  3128.1000      7.5537      2.5208      0.0383      7.8284   -999.2500   -999.2500
  3128.2000      7.5537      2.5505      0.1158      6.0298   -999.2500   -999.2500
  3128.3000      7.5526      2.5681      0.1050      4.9636   -999.2500   -999.2500
  3128.4000      7.5526      2.5722      0.0849      4.7181   -999.2500   -999.2500
  3128.5000      7.5538      2.5736      0.0800      4.6276   -999.2500   -999.2500
  3128.6000      7.5538      2.5731      0.0691      4.6636   -999.2500   -999.2500
  3128.7000      7.5538      2.5665      0.1168      5.0599   -999.2500   -999.2500
  3128.8000      7.5565      2.5603      0.0911      5.4352   -999.2500   -999.2500
  3128.9000      7.5565      2.5607      0.1022      5.4134   -999.2500   -999.2500
  3129.0000      7.5521      2.5556      0.1420      5.7189   -999.2500   -999.2500
  3129.1000      7.5521      2.5370      0.0706      6.8478   -999.2500   -999.2500
  3129.2000      7.5521      2.5148      0.0475      8.1967   -999.2500   -999.2500
  3129.3000      7.5396      2.4935      0.0666      9.4821   -999.2500   -999.2500
  3129.4000      7.5396      2.4723      0.0314     10.7678   -999.2500   -999.2500
  3129.5000      7.5318      2.4555      0.0674     11.7884   -999.2500   -999.2500
  3129.6000      7.5318      2.4486      0.0220     12.2034   -999.2500   -999.2500
  3129.7000      7.5318      2.4602      0.0347     11.5037   -999.2500   -999.2500
  3129.8000      7.5308      2.4916      0.0736      9.6028   -999.2500   -999.2500
  3129.9000      7.5308      2.5275      0.1197      7.4223   -999.2500   -999.2500
  3130.0000      7.5276      2.5531      0.1034      5.8725   -999.2500   -999.2500
  3130.1000      7.5276      2.5668      0.1331      5.0434   -999.2500   -999.2500
  3130.2000      7.5276      2.5700      0.1444      4.8485   -999.2500   -999.2500
  3130.3000      7.5238      2.5639      0.1235      5.2208   -999.2500   -999.2500
  3130.4000      7.5238      2.5447      0.1427      6.3818   -999.2500   -999.2500
  3130.5000      7.5216      2.5084      0.1022      8.5803   -999.2500   -999.2500
  3130.6000      7.5216      2.4738      0.0158     10.6813   -999.2500   -999.2500
  3130.7000      7.5216      2.4550      0.0956     11.8164   -999.2500   -999.2500
  3130.8000      7.5161      2.4373      0.0401     12.8923   -999.2500   -999.2500
  3130.9000      7.5161      2.4193      0.0171     13.9816   -999.2500   -999.2500
  3131.0000      7.5086      2.4205      0.0604     13.9076   -999.2500   -999.2500
  3131.1000      7.5086      2.4439      0.0568     12.4894   -999.2500   -999.2500
  3131.2000      7.5086      2.4770      0.0995     10.4868   -999.2500   -999.2500
  3131.3000      7.5144      2.5033      0.1213      8.8934   -999.2500   -999.2500
  3131.4000      7.5144      2.5110      0.1337      8.4263   -999.2500   -999.2500
  3131.5000      7.5348      2.5005      0.1321      9.0594   -999.2500   -999.2500
  3131.6000      7.5348      2.4823      0.0869     10.1616   -999.2500   -999.2500
  3131.7000      7.5348      2.4690      0.0799     10.9690   -999.2500   -999.2500
  3131.8000      7.5479      2.4583      0.0942     11.6200   -999.2500   -999.2500
  3131.9000      7.5479      2.4431      0.0554     12.5414   -999.2500   -999.2500
