~Version Information
VERS.                      2.0: CWLS Log ASCII Standard - VERSION 2.0
WRAP.                       NO: One line per depth step
~Well Information Block
STRT.FT                -8.2500: 
STOP.FT              2239.2500: 
STEP.FT                 0.2500: 
NULL.                -999.2500: 
COMP.          Pioneer Natural Resources: COMPANY
WELL.            Moo Moo 31-36: WELL
FLD.           Purgatorie River: FIELD
LOC.           612' FNL & 2326' FEL--: LOCATION
PROV.                       CO: PROVINCE
CNTY.               Las Animas: COUNTRY
SRVC.          Patterson Wireline: SERVICE COMPANY
DATE.          Thu Jun 23 10:04:07 2005: LOG DATE
UWI.           05 071 08395 00: UNIQUE WELL ID
~Curve Information Block
DEPT.FT            0 000 00 00: Depth
CCL.                          : Casing Collar Locator
TT3.usec                      : CBL 3' Travel Time
AMP3.mV                       : CBL 3' Amplitude
GR.GAPI                       : Gamma Ray
~Parameter Information Block
~A  Depth       CCL         TT3         AMP3         GR     
# ...
   427.2500      0.0000    827.4743      5.6002    160.7991
   427.5000      0.0000    827.2317      5.7177    156.2275
   427.7500      0.0000    826.9326      5.6932    149.9112
   428.0000      0.0000    826.6614      5.5463    143.8154
   428.2500      0.0000    826.4899      5.3200    139.1844
   428.5000      0.0000    826.4485      5.0763    135.9368
   428.7500      0.0000    826.5390      4.8885    133.3620
   429.0000      0.0000    826.7500      4.8120    131.0989
   429.2500      0.0000    827.0729      4.8538    129.1756
   429.5000      0.0000    827.5782      4.9772    127.4249
   429.7500      0.0000    828.5687      5.1417    125.2249
   430.0000      0.0000    830.6085      5.3287    121.9472
   430.2500      0.0000    834.0234      5.5248    117.6125
   430.5000      0.0000    837.9708      5.6996    112.8644
   430.7500      0.0000    840.1821      5.8190    108.1373
   431.0000      0.0000    838.4424      5.8750    103.1566
   431.2500      0.0000    832.8486      5.8892     97.6819
   431.5000      0.0000    826.2753      5.8947     92.3155
   431.7500      0.0000    822.0100      5.9164     87.9540
   432.0000      0.0000    820.8689      5.9613     84.7665
   432.2500      0.0000    821.0371      6.0123     82.2481
   432.5000      0.0000    820.7288      6.0339     80.1024
   432.7500      0.0000    820.2299      5.9948     78.8226
   433.0000      0.0000    821.0551      5.8902     79.6128
   433.2500      0.0000    823.9496      5.7425     83.7374
   433.5000      0.0000    828.1870      5.5843     91.6339
   433.7500      0.0000    832.1978      5.4450    102.5291
   434.0000      0.0000    834.6257      5.3483    114.9269
   434.2500      0.0000    835.4243      5.3095    127.1884
   434.5000      0.0000    836.2350      5.3231    137.6443
   434.7500      0.0000    839.2445      5.3544    144.8259
   435.0000      0.0000    845.3027      5.3521    148.0565
   435.2500      0.0000    853.1339      5.2781    147.6166
   435.5000      0.0000    860.3987      5.1277    144.1797
   435.7500      0.0000    865.4458      4.9274    138.5291
   436.0000      0.0000    868.0977      4.7200    131.9381
   436.2500      0.0000    869.1254      4.5456    126.2066
   436.5000      0.0000    869.3754      4.4237    122.7114
   436.7500      0.0000    869.3495      4.3520    121.4425
   437.0000      0.0000    869.2172      4.3218    121.2944
   437.2500      0.0000    868.8845      4.3295    121.4191
   437.5000      0.0000    867.9621      4.3720    122.0227
   437.7500      0.0000    865.8131      4.4401    123.6548
   438.0000      0.0000    861.9041      4.5254    126.1912
   438.2500      0.0000    856.2114      4.6308    128.9606
   438.5000      0.0000    848.7054      4.7618    131.4970
   438.7500      0.0000    837.8860      4.9030    133.5594
   439.0000      0.0000    820.7241      5.0163    134.5035
   439.2500      0.0000    795.9114      5.0740    133.3235
   439.5000      0.0000    767.3414      5.0826    129.7710
   439.7500      0.0000    742.7478      5.0618    125.2548
   440.0000      0.0000    728.5042      5.0071    122.2305
   440.2500      0.0000    727.1047      4.8887    122.4096
   440.5000      0.0000    739.2101      4.6916    125.3166
   440.7500      0.0000    765.4533      4.4505    128.5527
   441.0000      0.0000    804.5322      4.2335    129.6631
   441.2500      0.0000    850.2980      4.0968    127.8756
   441.5000      0.0000    892.2281      4.0680    124.0148
   441.7500      0.0000    921.1030      4.1538    119.2043
   442.0000      0.0000    936.0277      4.3304    114.3781
   442.2500      0.0000    944.4600      4.5350    110.7895
   442.5000      2.0000    953.1968      4.6956    109.9478
   442.7500      2.0000    961.1932      4.7744    112.5661
   443.0000      0.0000    963.1895      4.7906    117.8550
   443.2500      0.0000    957.2905      4.8232    124.1330
   443.5000      0.0000    945.7346      4.9782    129.9880
   443.7500      0.0000    929.8794      5.3047    134.8325
   444.0000      0.0000    907.6814      5.7307    138.7232
   444.2500      0.0000    876.9365      6.1115    141.9150
   444.5000      0.0000    839.9183      6.3441    144.4801
   444.7500      0.0000    803.8886      6.4200    146.2021
   445.0000      0.0000    776.9630      6.3936    146.8103
   445.2500      0.0000    763.5054      6.3298    146.3179
   445.5000      0.0000    762.3616      6.2747    145.0688
   445.7500      0.0000    768.1825      6.2496    143.4276
   446.0000      0.0000    774.6396      6.2571    141.5067
   446.2500      0.0000    778.0612      6.2906    139.3059
   446.5000      0.0000    778.8770      6.3376    137.0024
   446.7500      0.0000    779.7787      6.3820    134.7368
   447.0000      0.0000    782.9183      6.4147    132.1146
   447.2500      0.0000    788.5799      6.4411    128.2889
   447.5000      0.0000    795.3512      6.4675    122.5565
   447.7500      0.0000    800.9644      6.4836    114.6915
   448.0000      0.0000    803.3102      6.4697    104.9049
   448.2500      0.0000    801.2912      6.4223     93.8094
   448.5000      0.0000    795.5608      6.3641     82.4107
   448.7500      0.0000    788.7797      6.3212     71.8910
   449.0000      0.0000    784.0665      6.2992     63.2855
   449.2500      0.0000    781.7834      6.2832     57.3827
   449.5000      0.0000    778.2312      6.2507     54.7026
   449.7500      0.0000    768.7805      6.1790     55.0725
   450.0000      0.0000    752.4720      6.0486     57.0434
   450.2500      0.0000    733.0807      5.8572     58.2241
   450.5000      0.0000    715.9218      5.6290     56.8380
   450.7500      0.0000    704.1244      5.3963     52.9141
   451.0000      0.0000    697.6392      5.1683     47.7875
   451.2500      0.0000    694.7063      4.9276     42.8211
   451.5000      0.0000    693.5712      4.6646     38.8379
   451.7500      0.0000    693.1982      4.4026     36.2357
   452.0000      0.0000    693.1970      4.1818     35.0573
   452.2500      0.0000    693.5837      4.0277     34.9772
   452.5000      0.0000    694.6049      3.9414     35.5454
   452.7500      0.0000    696.5236      3.9055     36.5837
   453.0000      0.0000    699.2245      3.8911     38.2434
   453.2500      0.0000    701.8704      3.8725     40.4828
   453.5000      0.0000    703.2325      3.8538     42.5624
   453.7500      0.0000    702.7043      3.8738     43.4389
   454.0000      0.0000    700.8962      3.9741     42.8166
   454.2500      0.0000    699.0262      4.1681     41.5274
   454.5000      0.0000    697.8737      4.4381     40.7884
   454.7500      0.0000    697.4378      4.7392     41.2792
   455.0000      0.0000    697.3395      4.9992     42.8170
   455.2500      0.0000    697.2966      5.1429     44.5287
   455.5000      0.0000    697.3652      5.1493     45.4571
   455.7500      0.0000    698.0454      5.0803     45.4203
   456.0000      0.0000    700.3521      5.0353     45.1930
   456.2500      0.0000    705.5884      5.0723     45.5358
   456.5000      0.0000    714.4295      5.1769     46.3962
   456.7500      0.0000    725.9153      5.2916     47.6494
   457.0000      0.0000    738.0303      5.3641     50.2257
   457.2500      0.0000    749.8892      5.3793     55.5688
   457.5000      0.0000    762.5130      5.3681     64.0846
   457.7500      0.0000    776.6979      5.3826     74.7937
   458.0000      0.0000    791.0925      5.4499     86.3208
   458.2500      0.0000    803.1484      5.5521     97.5902
   458.5000      0.0000    811.1167      5.6559    107.9812
   458.7500      0.0000    814.9772      5.7516    117.5834
   459.0000      0.0000    816.7128      5.8545    127.0493
   459.2500      0.0000    819.8578      5.9757    136.4091
   459.5000      0.0000    827.3042      6.1035    144.3073
   459.7500      0.0000    838.7324      6.2102    149.1872
   460.0000      0.0000    850.7712      6.2674    150.9454
   460.2500      0.0000    859.9551      6.2570    150.6908
   460.5000      0.0000    865.1357      6.1885    149.1392
