~Version Information
VERS.                      2.0: CWLS Log ASCII Standard - VERSION 2.0
WRAP.                       NO: One line per depth step
~Well Information Block
STRT.FT               453.5000: 
STOP.FT              1386.0000: 
STEP.FT                 0.1000: 
NULL.                -999.2500: 
COMP.          Petrogulf Corporation: COMPANY
WELL.          Great Plains 22-22R: WELL
FLD.           Purgatoire River: FIELD
LOC.           2042' FNL & 1657' FWL--: LOCATION
PROV.                 Colorado: PROVINCE
CNTY.               Las Animas: COUNTRY
SRVC.                Patterson: SERVICE COMPANY
DATE.          Fri Sep 09 14:42:42 2005: LOG DATE
UWI.           05 071 08028 00: UNIQUE WELL ID
~Curve Information Block
DEPT.FT            0 000 00 00: Depth
DCAL.in                       : CDL Caliper
RHOB.g/cc                     : CDL Bulk Density
RHOC.g/cc                     : CDL Density Correction
DPOR.pu                       : CDL Density Porosity
NPOR.pu                       : Neutron Porosity
GR.GAPI                       : Gamma Ray
~Parameter Information Block
~A  Depth       DCAL        RHOB        RHOC        DPOR        NPOR         GR     
# ...
   520.7000      7.9716      2.5894      0.0458      3.6749     29.1666    100.2170
   520.8000      7.9877      2.5987     -0.0160      3.1068     29.5093    104.9398
   520.9000      7.9877      2.6252      0.0009      1.5055     29.2051    105.7824
   521.0000      8.0197      2.6560      0.0160     -0.3626     28.8046    105.8675
   521.1000      8.0197      2.6764     -0.0073     -1.5993     29.0221    106.9976
   521.2000      8.0197      2.6744      0.0815     -1.4770     29.4375    107.1456
   521.3000      8.0491      2.6461     -0.0000      0.2391     29.2117    104.7227
   521.4000      8.0491      2.6151      0.0265      2.1154     28.4552    100.1852
   521.5000      8.0640      2.5986      0.0023      3.1122     27.6944     96.2891
   521.6000      8.0640      2.5942     -0.0286      3.3788     27.1978     95.7353
   521.7000      8.0640      2.5970      0.0062      3.2110     27.1861     98.3332
   521.8000      8.0699      2.5982      0.0040      3.1399     27.3994    102.0979
   521.9000      8.0699      2.5901      0.0076      3.6321     27.5628    105.4113
   522.0000      8.0732      2.5735     -0.0180      4.6363     27.7414    106.4160
   522.1000      8.0732      2.5563     -0.0132      5.6781     27.4604    105.7255
   522.2000      8.0732      2.5515     -0.0576      5.9694     26.4049    104.5381
   522.3000      8.0731      2.5640     -0.0025      5.2093     25.4438    102.1073
   522.4000      8.0731      2.5702      0.0371      4.8371     25.1467     99.8074
   522.5000      8.0707      2.5489     -0.0135      6.1255     25.2335     98.2523
   522.6000      8.0707      2.5171     -0.0292      8.0555     25.5051     96.8146
   522.7000      8.0707      2.4987     -0.0462      9.1703     25.8922     96.3100
   522.8000      8.0663      2.4937     -0.0159      9.4707     26.1915     95.9890
   522.9000      8.0663      2.4885     -0.0189      9.7854     26.1226     94.3493
   523.0000      8.0569      2.4887     -0.0192      9.7733     25.8268     92.7496
   523.1000      8.0569      2.5183     -0.0111      7.9836     25.7903     94.5924
   523.2000      8.0569      2.5783      0.0557      4.3429     26.0699     99.8749
   523.3000      8.0443      2.6409      0.0625      0.5492     26.4182    105.2667
   523.4000      8.0443      2.6822      0.0878     -1.9489     26.5485    108.6797
   523.5000      8.0298      2.6956      0.1190     -2.7617     26.2138    108.5467
   523.6000      8.0298      2.6862      0.1001     -2.1944     25.5822    103.7633
   523.7000      8.0298      2.6655      0.0692     -0.9401     25.0715     99.4204
   523.8000      8.0155      2.6521     -0.0186     -0.1298     24.8911     99.6937
   523.9000      8.0155      2.6620     -0.0066     -0.7287     25.2222    101.6999
   524.0000      8.0000      2.6849      0.0629     -2.1148     26.2063    102.8147
   524.1000      8.0000      2.7064      0.0025     -3.4176     27.4547    103.3314
   524.2000      8.0000      2.7356      0.0076     -5.1894     28.2910    100.8767
   524.3000      7.9809      2.7766      0.0446     -7.6723     28.5272     93.1625
   524.4000      7.9809      2.8107      0.1351     -9.7366     28.6343     84.6594
   524.5000      7.9596      2.8211      0.1375    -10.3679     28.9993     80.4600
   524.6000      7.9596      2.8135      0.0630     -9.9061     29.5236     78.3375
   524.7000      7.9596      2.7973      0.0722     -8.9290     30.2069     74.0842
   524.8000      7.9487      2.7747      0.0103     -7.5593     31.1587     67.8447
   524.9000      7.9487      2.7525     -0.0213     -6.2122     32.2368     64.2010
   525.0000      7.9624      2.7289     -0.0366     -4.7794     33.1056     66.7115
   525.1000      7.9624      2.6987     -0.1004     -2.9509     33.4408     73.3761
   525.2000      7.9624      2.6724     -0.1190     -1.3585     33.2708     80.4851
   525.3000      7.9963      2.6535     -0.1041     -0.2134     32.7387     85.7910
   525.4000      7.9963      2.6317     -0.0934      1.1084     31.5630     89.6644
   525.5000      8.0213      2.6042     -0.0605      2.7773     29.7646     92.9025
   525.6000      8.0213      2.5845     -0.0992      3.9685     27.9803     94.2066
   525.7000      8.0213      2.5819      0.0013      4.1299     26.5324     94.7181
   525.8000      8.0236      2.5811      0.0019      4.1764     25.3780     94.9706
   525.9000      8.0236      2.5747      0.0160      4.5665     24.6203     95.1578
   526.0000      8.0142      2.5724      0.0083      4.7024     24.3422     97.3966
   526.1000      8.0142      2.5730      0.0285      4.6666     24.2115     99.6717
   526.2000      8.0142      2.5701     -0.0367      4.8422     24.1067     97.9392
   526.3000      8.0040      2.5622      0.0099      5.3184     24.2981     92.9169
   526.4000      8.0040      2.5465     -0.0680      6.2741     24.6980     89.3986
   526.5000      7.9975      2.5348     -0.0584      6.9845     24.6830     89.7907
   526.6000      7.9975      2.5466     -0.0797      6.2690     23.9305     89.6259
   526.7000      7.9975      2.5767      0.0129      4.4414     22.9358     86.1687
   526.8000      7.9939      2.6002      0.0382      3.0177     22.2304     82.4914
   526.9000      7.9939      2.6073      0.0498      2.5907     21.9930     80.8829
   527.0000      7.9921      2.6115      0.0194      2.3336     22.1481     80.4444
   527.1000      7.9921      2.6225      0.0288      1.6659     22.3311     79.8358
   527.2000      7.9921      2.6274      0.0425      1.3681     22.4242     79.0808
   527.3000      7.9922      2.6163      0.0328      2.0438     22.5571     78.4458
   527.4000      7.9922      2.6004      0.0217      3.0034     22.7970     76.3386
   527.5000      7.9918      2.5910      0.0045      3.5771     23.1571     72.4283
   527.6000      7.9918      2.5823      0.0522      4.1049     23.5899     69.2676
   527.7000      7.9918      2.5703     -0.0074      4.8310     23.9692     68.3468
   527.8000      7.9907      2.5676      0.0060      4.9936     24.0497     70.0284
   527.9000      7.9907      2.5793      0.0330      4.2846     23.7369     72.4097
   528.0000      7.9913      2.5976      0.0375      3.1734     23.2133     73.8508
   528.1000      7.9913      2.6178      0.0501      1.9523     22.6661     76.5289
   528.2000      7.9913      2.6305      0.0786      1.1824     22.2273     82.0444
   528.3000      7.9930      2.6203      0.0795      1.7998     21.9145     87.0400
   528.4000      7.9930      2.5917      0.0047      3.5316     21.4299     85.4601
   528.5000      7.9940      2.5699      0.0179      4.8521     20.9630     79.4949
   528.6000      7.9940      2.5691     -0.0116      4.9000     21.0649     77.1731
   528.7000      7.9940      2.5826      0.0443      4.0862     21.4996     79.1673
   528.8000      7.9947      2.5894      0.0666      3.6699     21.9612     80.3253
   528.9000      7.9947      2.5805      0.0054      4.2093     22.4201     78.5099
   529.0000      7.9961      2.5716     -0.0248      4.7542     22.5952     74.0123
   529.1000      7.9961      2.5733     -0.0150      4.6487     22.1385     68.0875
   529.2000      7.9961      2.5759      0.0164      4.4939     21.0925     63.8156
   529.3000      7.9964      2.5724     -0.0063      4.7002     20.1408     62.8159
   529.4000      7.9964      2.5747      0.0040      4.5638     19.8842     65.5119
   529.5000      7.9954      2.5889      0.0266      3.7030     20.0435     70.1303
   529.6000      7.9954      2.6032      0.0074      2.8374     20.0212     73.0298
   529.7000      7.9954      2.6090      0.0456      2.4855     19.8978     74.5919
   529.8000      7.9961      2.6090      0.0519      2.4868     20.1167     76.5077
   529.9000      7.9961      2.6094      0.0131      2.4633     20.9236     76.3263
   530.0000      7.9975      2.6108      0.0544      2.3730     21.9268     72.1686
   530.1000      7.9975      2.6061      0.0337      2.6604     22.3824     66.5879
   530.2000      7.9975      2.5962      0.0041      3.2614     22.2821     63.2198
