~Version Information
VERS.                      2.0: CWLS Log ASCII Standard - VERSION 2.0
WRAP.                       NO: One line per depth step
~Well Information Block
STRT.FT               720.0000: 
STOP.FT              2265.7000: 
STEP.FT                 0.1000: 
NULL.                -999.2500: 
COMP.          Pioneer Natural Resources: COMPANY
WELL.          Casablanca 11-28 Tr: WELL
FLD.           Purgatoire River: FIELD
LOC.           422' FNL & 215' FWL----: LOCATION
PROV.                 Colorado: PROVINCE
CNTY.               Las Animas: COUNTRY
SRVC.                Patterson: SERVICE COMPANY
DATE.          Mon Mar 07 07:16:34 2005: LOG DATE
UWI.           05 071 08314 00: UNIQUE WELL ID
~Curve Information Block
DEPT.FT            0 000 00 00: Depth
DCAL.in                       : CDL Caliper
RHOB.g/cc                     : CDL Bulk Density
RHOC.g/cc                     : CDL Density Correction
DPOR.pu                       : CDL Density Porosity
NPOR.pu                       : Neutron Porosity
GR.GAPI                       : Gamma Ray
~Parameter Information Block
~A  Depth       DCAL        RHOB        RHOC        DPOR        NPOR         GR     
# ...
  1123.2000      8.1492      2.5496      0.0548      6.0878     27.5742    112.7089
  1123.3000      8.1501      2.5497      0.0274      6.0780     27.2554    113.8545
  1123.4000      8.1501      2.5398      0.0525      6.6771     27.0604    114.4310
  1123.5000      8.1506      2.5260      0.0188      7.5124     26.5943    111.1964
  1123.6000      8.1506      2.5184      0.0553      7.9731     25.7796    106.4114
  1123.7000      8.1506      2.5217      0.0052      7.7770     25.0344    102.7656
  1123.8000      8.1503      2.5323      0.0315      7.1335     24.4946    100.7823
  1123.9000      8.1503      2.5361      0.0472      6.9047     23.9860    100.1845
  1124.0000      8.1493      2.5187      0.0521      7.9591     23.4916    100.5300
  1124.1000      8.1493      2.4925     -0.0127      9.5439     23.1717    101.4863
  1124.2000      8.1493      2.4805      0.0008     10.2729     23.1718    102.3900
  1124.3000      8.1473      2.4794      0.0363     10.3385     23.3983    102.1901
  1124.4000      8.1473      2.4705      0.0377     10.8815     23.5946    102.5214
  1124.5000      8.1426      2.4527      0.0076     11.9557     23.7092    106.4055
  1124.6000      8.1426      2.4436      0.0024     12.5076     23.8038    110.0686
  1124.7000      8.1426      2.4590     -0.0206     11.5785     24.0215    108.3072
  1124.8000      8.1264      2.4976      0.0364      9.2366     24.4875    106.7812
  1124.9000      8.1264      2.5388      0.0731      6.7379     25.0348    111.1099
  1125.0000      8.0911      2.5659      0.0852      5.0965     25.3830    115.3285
  1125.1000      8.0911      2.5705      0.1268      4.8171     25.5691    114.0612
  1125.2000      8.0911      2.5522      0.0600      5.9246     25.7941    108.5494
  1125.3000      8.0557      2.5343      0.0551      7.0140     25.9478    102.1568
  1125.4000      8.0557      2.5358      0.0526      6.9199     25.7895    100.0165
  1125.5000      8.0398      2.5498      0.0562      6.0753     25.3658    101.9668
  1125.6000      8.0398      2.5633      0.0625      5.2518     25.1454    103.1479
  1125.7000      8.0398      2.5733      0.0623      4.6487     25.4378    104.1019
  1125.8000      8.0377      2.5828      0.0593      4.0714     25.8406    107.4687
  1125.9000      8.0377      2.5900      0.0747      3.6383     25.9071    110.5375
  1126.0000      8.0386      2.5861      0.0661      3.8706     25.6680    113.1065
  1126.1000      8.0386      2.5688      0.0313      4.9203     25.5212    119.1932
  1126.2000      8.0386      2.5458      0.0230      6.3175     25.6369    124.4065
  1126.3000      8.0415      2.5263      0.0190      7.4957     25.8827    122.5718
  1126.4000      8.0415      2.5155     -0.0042      8.1544     26.0643    116.3793
  1126.5000      8.0475      2.5141      0.0140      8.2372     25.6522    111.4395
  1126.6000      8.0475      2.5217      0.0051      7.7760     24.5206    110.6005
  1126.7000      8.0475      2.5385      0.0504      6.7568     23.3004    112.1137
  1126.8000      8.0531      2.5557      0.0836      5.7175     22.5002    113.1201
  1126.9000      8.0531      2.5599      0.0646      5.4613     22.1172    113.1382
  1127.0000      8.0592      2.5565      0.0737      5.6647     22.1367    112.5606
  1127.1000      8.0592      2.5655      0.0372      5.1190     22.4674    109.4395
  1127.2000      8.0592      2.5959      0.0654      3.2806     22.9453    103.0346
  1127.3000      8.0600      2.6254      0.1134      1.4897     23.7830     97.2263
  1127.4000      8.0600      2.6310      0.0838      1.1515     24.9623     97.2414
  1127.5000      8.0525      2.6318      0.0408      1.1016     25.8934    102.3617
  1127.6000      8.0525      2.6521      0.0850     -0.1256     26.3118    105.8734
  1127.7000      8.0525      2.6710      0.1263     -1.2745     26.4387    105.6155
  1127.8000      8.0439      2.6563      0.0771     -0.3834     26.6334    105.3099
  1127.9000      8.0439      2.6150      0.0199      2.1199     26.9775    104.3590
  1128.0000      8.0397      2.5824     -0.0084      4.0999     27.1130    100.3854
  1128.1000      8.0397      2.5742     -0.0023      4.5949     26.9219     98.0332
  1128.2000      8.0397      2.5726      0.0186      4.6909     26.8285    102.4730
  1128.3000      8.0366      2.5594      0.0062      5.4904     26.8450    112.4189
  1128.4000      8.0366      2.5444     -0.0167      6.3978     26.5338    122.5025
  1128.5000      8.0342      2.5451      0.0344      6.3600     26.2174    124.4185
  1128.6000      8.0342      2.5540      0.0803      5.8181     26.3336    118.7118
  1128.7000      8.0342      2.5587      0.0553      5.5345     26.5225    115.1421
  1128.8000      8.0352      2.5652      0.0674      5.1401     26.4173    116.5121
  1128.9000      8.0352      2.5776      0.0879      4.3900     26.1139    118.9773
  1129.0000      8.0415      2.5900      0.0853      3.6343     25.9550    121.5939
  1129.1000      8.0415      2.6040      0.0930      2.7884     26.2660    125.3661
  1129.2000      8.0415      2.6172      0.0876      1.9908     26.9604    126.7868
  1129.3000      8.0519      2.6131      0.0890      2.2358     27.9458    124.3140
  1129.4000      8.0519      2.5832      0.0550      4.0501     28.9223    122.6773
  1129.5000      8.0612      2.5432      0.0219      6.4726     29.3807    125.7220
  1129.6000      8.0612      2.5153      0.0462      8.1611     29.3968    131.0342
  1129.7000      8.0612      2.5057      0.0057      8.7459     29.1562    130.7560
  1129.8000      8.0651      2.5075      0.0324      8.6349     28.4346    124.6362
  1129.9000      8.0651      2.5144      0.0166      8.2205     27.1761    120.7153
  1130.0000      8.0652      2.5178      0.0734      8.0092     25.8977    121.2800
  1130.1000      8.0652      2.5048      0.0594      8.8010     24.9608    123.7411
  1130.2000      8.0652      2.4815     -0.0015     10.2136     24.3088    127.0723
  1130.3000      8.0693      2.4695      0.0072     10.9411     24.0880    128.6806
  1130.4000      8.0693      2.4813     -0.0063     10.2229     24.3860    129.0051
  1130.5000      8.0799      2.5143      0.0651      8.2227     24.8634    130.8128
  1130.6000      8.0799      2.5501      0.0972      6.0524     25.0144    130.0512
  1130.7000      8.0799      2.5733      0.0860      4.6465     24.6080    124.4496
  1130.8000      8.0938      2.5803      0.1171      4.2271     24.0478    119.4940
  1130.9000      8.0938      2.5678      0.1124      4.9821     24.0578    119.5579
  1131.0000      8.1042      2.5386      0.1257      6.7495     24.7019    121.7281
  1131.1000      8.1042      2.5027      0.0938      8.9279     25.6185    120.1984
  1131.2000      8.1042      2.4715      0.0643     10.8159     26.4869    115.0001
  1131.3000      8.1024      2.4591     -0.0029     11.5680     27.1678    110.9895
  1131.4000      8.1024      2.4791      0.0007     10.3590     27.8906    109.9891
  1131.5000      8.0864      2.5322      0.0237      7.1407     28.6286    109.6467
  1131.6000      8.0864      2.6030      0.0835      2.8483     28.9745    107.9872
  1131.7000      8.0864      2.6570      0.1794     -0.4246     28.9050    106.7468
  1131.8000      8.0669      2.6523      0.1786     -0.1413     28.8890    108.1817
  1131.9000      8.0669      2.5855      0.1725      3.9081     29.1811    111.9719
  1132.0000      8.0552      2.5076     -0.0095      8.6320     29.6697    115.5786
  1132.1000      8.0552      2.4742      0.0132     10.6555     30.2205    115.4983
  1132.2000      8.0552      2.4823      0.0271     10.1640     30.6253    113.7219
  1132.3000      8.0529      2.4974     -0.0204      9.2468     30.6556    115.0400
  1132.4000      8.0529      2.5021     -0.0540      8.9639     30.2417    119.9663
  1132.5000      8.0578      2.4973     -0.0919      9.2554     29.5729    125.3547
  1132.6000      8.0578      2.4936     -0.0534      9.4794     29.0727    128.5297
  1132.7000      8.0578      2.4949      0.0053      9.4003     29.0155    130.6786
