~Version Information
VERS.                      2.0: CWLS Log ASCII Standard - VERSION 2.0
WRAP.                       NO: One line per depth step
~Well Information Block
STRT.FT                -4.7500: 
STOP.FT              2809.5000: 
STEP.FT                 0.2500: 
NULL.                -999.2500: 
COMP.          Pioneer Natural Resources: COMPANY
WELL.              Lynch 43-30: WELL
FLD.           Purgatorie River: FIELD
LOC.           1438' FSL & 429' FEL--: LOCATION
PROV.                       CO: PROVINCE
CNTY.               Las Animas: COUNTRY
SRVC.                         : SERVICE COMPANY
DATE.          Sat Oct 30 09:52:34 2004: LOG DATE
UWI.          005 071 08170   : UNIQUE WELL ID
~Curve Information Block
DEPT.FT            0 000 00 00: Depth
GR.GAPI                       : Gamma Ray
CCL.                          : Casing Collar Locator
TT3.usec                      : CBL 3' Travel Time
AMP3.mV                       : CBL 3' Amplitude
~Parameter Information Block
~A  Depth        GR         CCL         TT3         AMP3    
# ...
   196.2500    101.4582      0.0000    870.5143      4.8827
   196.5000    103.6075      0.0000    859.2595      4.7564
   196.7500    103.9815      0.0000    847.3422      4.6343
   197.0000    102.0822      0.0000    835.8370      4.4954
   197.2500    100.2162      0.0000    824.8737      4.3225
   197.5000    101.1818      0.0000    814.1514      4.1206
   197.7500    105.4980      0.0000    803.9902      3.9177
   198.0000    110.9695      0.0000    795.4854      3.7476
   198.2500    114.4851      0.0000    789.5443      3.6338
   198.5000    113.9041      0.0000    786.1061      3.5851
   198.7500    108.7515      0.0000    784.4117      3.6015
   199.0000    100.0619      0.0000    783.7781      3.6789
   199.2500     89.9112      0.0000    784.0631      3.8091
   199.5000     80.6801      0.0000    785.4971      3.9802
   199.7500     74.0964      0.0000    787.9952      4.1802
   200.0000     70.4931      0.0000    790.5474      4.4004
   200.2500     68.9587      0.0000    791.5638      4.6402
   200.5000     68.2855      0.0000    790.1962      4.9072
   200.7500     67.6665      0.0000    787.3089      5.2053
   201.0000     66.6453      0.0000    785.1396      5.5215
   201.2500     64.9915      0.0000    786.4987      5.8331
   201.5000     62.9839      0.0000    794.3723      6.1254
   201.7500     61.5492      0.0000    811.0266      6.3934
   202.0000     61.6663      0.0000    835.8699      6.6277
   202.2500     63.4375      0.0000    864.1132      6.8101
   202.5000     65.9246      0.0000    888.7936      6.9269
   202.7500     68.1124      0.0000    904.7234      6.9842
   203.0000     69.9623      0.0000    910.0875      7.0064
   203.2500     72.1693      0.0000    904.7792      7.0182
   203.5000     74.7940      0.0000    889.1514      7.0272
   203.7500     76.6391      0.0000    865.7192      7.0227
   204.0000     76.3435      0.0000    841.3349      6.9867
   204.2500     73.7031      0.0000    825.6490      6.9042
   204.5000     69.5157      0.0000    825.7854      6.7678
   204.7500     64.5314      0.0000    841.6760      6.5810
   205.0000     59.1348      0.0000    866.1533      6.3589
   205.2500     53.8954      0.0000    889.8060      6.1263
   205.5000     49.9089      0.0000    906.5550      5.9124
   205.7500     48.3194      0.0000    915.6063      5.7422
   206.0000     49.4037      0.0000    919.3893      5.6221
   206.2500     52.2084      0.0000    920.6190      5.5339
   206.5000     55.3612      0.0000    920.9296      5.4508
   206.7500     58.2994      0.0000    920.9907      5.3630
   207.0000     61.3878      0.0000    921.0000      5.2879
   207.2500     64.8893      0.0000    921.0000      5.2561
   207.5000     68.3707      0.0000    921.0000      5.2905
   207.7500     71.3205      0.0000    921.0000      5.3987
   208.0000     73.8693      0.0000    921.0000      5.5768
   208.2500     76.4713      0.0000    921.0000      5.8117
   208.5000     78.9971      0.0000    921.0000      6.0795
   208.7500     80.4589      0.0000    920.9993      6.3498
   209.0000     79.8492      0.0000    920.9951      6.5938
   209.2500     77.2497      0.0000    920.9748      6.7934
   209.5000     74.0505      0.0000    920.9002      6.9508
   209.7500     72.0772      0.0000    920.6926      7.0923
   210.0000     72.4593      0.0000    920.2625      7.2551
   210.2500     75.0140      0.0000    919.6223      7.4613
   210.5000     78.3306      0.0000    918.9954      7.6986
   210.7500     80.5557      0.0000    918.7285      7.9299
   211.0000     80.4945      0.0000    918.9954      8.1220
   211.2500     78.3074      0.0000    919.6223      8.2688
   211.5000     75.2928      0.0000    920.2625      8.3858
   211.7500     72.9245      0.0000    920.6926      8.4890
   212.0000     71.8376      0.0000    920.8995      8.5777
   212.2500     71.6191      0.0000    920.9604      8.6357
   212.5000     71.5410      0.0000    920.8882      8.6477
   212.7500     71.3888      0.0000    920.4457      8.6116
   213.0000     71.4724      0.0000    918.7219      8.5336
   213.2500     71.9201      0.0000    913.4727      8.4109
   213.5000     72.2735      0.0000    901.0168      8.2229
   213.7500     72.0340      0.0000    878.3570      7.9428
   214.0000     71.5337      0.0000    847.8392      7.5619
   214.2500     71.8869      0.0000    820.0922      7.1018
   214.5000     73.9020      0.0000    809.1561      6.6082
   214.7500     77.2700      0.0000    821.4559      6.1479
   215.0000     80.8801      0.0000    849.9312      5.7998
   215.2500     83.6721      0.0000    880.3275      5.6091
   215.5000     85.0685      0.0000    902.2043      5.5392
   215.7500     84.8843      0.0000    913.2614      5.4941
   216.0000     83.1225      0.0000    915.7096      5.4077
   216.2500     79.9439      0.0000    911.4045      5.3213
   216.5000     75.8265      0.0000    900.7314      5.3835
   216.7500     71.6752      0.0000    884.9855      5.7515
   217.0000     68.6410      0.0000    868.7759      6.4325
   217.2500     67.7182      0.0000    858.9683      7.2084
   217.5000     69.1840      0.0000    860.2792      7.7831
   217.7500     72.0702      0.0000    871.7777      8.0349
   218.0000     74.4777      0.0000    887.7902      8.0877
   218.2500     74.9749      0.0000    902.0476      8.1449
   218.5000     73.5754      0.0000    911.2221      8.3133
   218.7500     71.0872      0.0000    915.4014      8.5689
   219.0000     67.9100      0.0000    916.0131      8.8222
   219.2500     63.9774      0.0000    913.3918      8.9951
   219.5000     59.6670      0.0000    906.1158      9.0635
   219.7500     56.2270      0.0000    893.0930      9.0533
   220.0000     55.0691      0.0000    876.9233      9.0100
   220.2500     56.9612      0.0000    864.3231      8.9741
   220.5000     61.9752      0.0000    861.2785      8.9761
   220.7500     69.4115      0.0000    867.5105      9.0337
   221.0000     77.2398      0.0000    877.2626      9.1438
   221.2500     82.4455      0.0000    885.4468      9.2729
   221.5000     82.9481      0.0000    891.4467      9.3645
   221.7500     79.1088      0.0000    897.2712      9.3654
   222.0000     73.1513      0.0000    904.0041      9.2542
   222.2500     67.5248      0.0000    910.7278      9.0502
   222.5000     63.8545      0.0000    915.9261      8.8020
   222.7500     62.6558      0.0000    918.9888      8.5699
   223.0000     63.3568      0.0000    920.3667      8.4124
   223.2500     64.5494      0.0000    920.8429      8.3713
   223.5000     64.7243      0.0000    920.9700      8.4507
   223.7500     63.3226      0.0000    920.9954      8.6047
   224.0000     61.1236      0.0000    921.0000      8.7539
   224.2500     59.4616      0.0000    921.0000      8.8232
   224.5000     59.2581      0.0000    921.0000      8.7748
   224.7500     60.9510      0.0000    921.0000      8.6142
   225.0000     64.9484      0.0000    921.0000      8.3778
   225.2500     71.6309      0.0000    921.0000      8.1173
   225.5000     80.7246      0.0000    921.0000      7.8820
   225.7500     90.8521      0.0000    921.0000      7.6982
   226.0000    100.0472      0.0000    921.0000      7.5572
   226.2500    106.8401      0.0000    921.0000      7.4227
   226.5000    110.6564      0.0000    921.0000      7.2551
   226.7500    111.3481      0.0000    921.0000      7.0427
   227.0000    109.1445      0.0000    921.0000      6.8211
   227.2500    105.4959      0.0000    921.0000      6.6614
   227.5000    103.4349      0.0000    921.0000      6.6329
   227.7500    106.0125      0.0000    921.0000      6.7714
   228.0000    113.5225      0.0000    921.0000      7.0668
   228.2500    122.3154      0.0000    921.0000      7.4632
   228.5000    127.1530      0.0000    921.0000      7.8732
   228.7500    125.3367      0.0000    921.0000      8.2102
   229.0000    118.5251      0.0000    921.0000      8.4262
   229.2500    110.7084      0.0000    921.0000      8.5304
   229.5000    105.0042      0.0000    921.0000      8.5792
