~Version Information
 VERS.                2.0:  CWLS LOG ASCII STANDARD -VERSION 2.0
 WRAP.                 NO:  ONE LINE PER DEPTH STEP
~WELL INFORMATION BLOCK
#MNEM.UNIT       DATA		            DESCRIPTION OF MNEMONIC
#---------    -------------            ------------------------
 STRT.FT  0.500                          :START DEPTH
 STOP.FT  1812.700                       :STOP DEPTH
 STEP.FT  0.100                          :STEP    UP_HOLE  
 NULL.    -999.25                        :NULL VALUE
 COMP.              EL PASO PRODUCTIONS  :COMPANY
 WELL.                     COREHOLE #38  :WELL
 FLD .                 PURGATOIRE RIVER  :FIELD
 LOC .      15   35S   65W               :LOCATION
 CNTY.                           COLFAX  :COUNTY
 STAT.                     NM            :STATE
 CTRY.                                   :
 SRVC.     O'DRISCOLL                    :SERVICE COMPANY
 DATE.   04/28/05                        :LOG DATE
 API .                                   :API NUMBER
 LIC .                                   :LICENSE NUMBER
~Curve Information Block
#MNEM.UNIT      API CODE     Curve Description
#---------    -------------  ------------------------
 DEPT     .FT        00 001 00 00          :  1  DEPTH   
 GAMMA    .API-GR    00 310 00 00          :  2                GAMMA
 TEMP     .DEG F     00 660 00 00          :  3                 TEMP
 RES(16N) .OHM-M     00 040 00 00          :  4             RES(16N)
 RES(64N) .OHM-M     00 060 00 00          :  5             RES(64N)
 RES      .OHM       00 000 00 00          :  6                  RES
 LATERAL  .OHM-M     00 070 00 00          :  7              LATERAL
 NEUTRON  .API-N     00 000 00 00          :  8              NEUTRON
 POR(NEU) .PERCENT   00 330 00 00          :  9             POR(NEU)
 SANGB    .DEG       00 631 00 00          : 10                SANGB
 DEL_TEMP .DEG F     00 000 00 00          : 11             DEL_TEMP
 SANG     .DEG       00 620 00 00          : 12                 SANG
 SP       .MV        00 010 00 00          : 13                   SP
 TIME     .MINUTES   00 000 00 00          : 14                 TIME
~Parameter Information Block
#MNEM.UNIT   Information     Description
#---------- ---------------  ------------------------
 FILE.      ORIGINAL           :File Type
 FIID.      9057A              :File Type Identifier
 VERS.      3.58G              :System Version
 SER .      1                  :System Serial Number
 TRUK.      .498775            :Truck Calibration Number
 TOOL.        1061             :Tool Serial Number
 TIME.      1335               :Time    HrHrMinMin
 LAT .       36 59'            :Latitude
 LON .       104 39'           :Longitude
 LMF .            GL           :Log Measured From
 DMF .            GL           :Driller Measured From
 PD  .            GL           :Permanent Data
 PDEV.                         :Elevation Permanent Data
 EKB .M                        :Elevation Kelly Bushing
 ELEV.DF                       :Elevation DF
 EGL .M        7777            :Elevation Ground Level
 DRDP.          1825           :Driller's Depth
 CASD.       10.               :Casing Diameter
 CASB.           300           :Casing Bottom
 CASX.         STEEL           :Casing Type
 CAST.                         :Casing Thickness
 TNOC.                         :Time Circulation Stopped
 LOGU.        108              :Logging Unit
 RECB.           R.SIPES       :Recorded By
 OSR1.          9139           :Other Services
 OSR2.                         :Other Services
 OSR3.                         :Other Services
 BS  .MM         3.5           :Bit Size
 MST .                         :Mean Surface Temperature
 TGRD.                         :Temperature Gradiant
 MAGN.            12           :Magnetic Declination
 MDEN.       2.7               :Density Matrix
 MATR.      SANDSTONE          :Neutron Matrix
 DTMT.            54           :Delta T Matrix
 DTFL.                         :Delta T Fluid
 MUDS.                         :Mud Sample Source
 MRS .                         :Mud Resistivity
 MTP .                         :Mud Temperature
 MFRS.                         :Resistivity Mud Filtrate
 MFTP.                         :Temperature Mud Filtrate
 MCRS.                         :Resistivity Mud Cake
 MCTP.                         :Temperature Mud Cake
 FTYP.                         :Fluid Type
 FD  .K/M3                     :Fluid Density
 DFV .S                        :Fluid Viscosity
 FPH .                         :Fuild PH
 ELCO.       50000             :Electron Cutoff
~Other Information
#MNEM.UNIT  Information      Description
#---------- ---------------  ------------------------
# -------------------------- 
~A DEPTH  GAMMA    TEMP  RES(16N) RES(64N) RES      LATERAL  NEUTRON  POR(NEU) SANGB  DEL_TEMP SANG   SP    TIME    
# ...
 482.300    111.2  61.1      2.7      6.6      8.7      0.0    867.9  39.3   5.10  -0.01  3.36  -1319.3 0.20000 
 482.400    105.9  61.1      3.6      7.2      8.7      4.1    863.2  40.2   4.80  -0.01  3.36  -1319.3 0.20000 
 482.500    106.4  61.1      0.2      8.0      9.3     -1.3    838.2  40.9   4.80  0.02  3.36  -1319.3 0.20000 
 482.600     97.4  61.1      0.8      7.7      9.5     -3.6    802.2  41.8   9.13  -0.01  3.36  -1319.4 0.20000 
 482.700     91.6  61.1      2.2      7.6      9.3     -1.0    767.8  43.5  46.08  -0.01  3.37  -1319.4 0.20000 
 482.800     88.4  61.1      4.1      7.2      9.2      5.2    727.1  44.5  44.65  -0.01  3.38  -1319.4 0.20000 
 482.900     87.9  61.1      1.3      6.9      8.8      2.1    705.3  45.5  44.65  -0.02  3.38  -1319.4 0.10000 
 483.000     91.1  61.1     -2.2      6.6      8.7     -5.6    666.2  46.4  45.91  -0.05  3.38  -1319.1 0.20000 
 483.100     92.1  61.1      2.3      5.8      9.3     -1.2    650.5  47.0  51.51  0.07  3.37  -1319.1 0.20000 
 483.200     97.9  61.1      2.6      5.7      9.0     -1.6    623.9  46.9  50.50  0.10  3.36  -1319.1 0.20000 
 483.300    102.2  61.1      2.1      6.3      8.8      0.3    598.9  46.8  50.50  -0.11  3.36  -1319.1 0.20000 
 483.400    101.1  61.1     -0.4      6.1      9.0     -2.8    577.0  46.3  57.66  0.06  3.36  -1319.1 0.20000 
 483.500    110.1  61.1      0.6      6.0      9.5      0.4    578.6  45.6  18.85  0.01  3.36  -1319.1 0.20000 
 483.600    112.2  61.1      0.5      6.2      8.3      0.6    578.6  44.7  17.60  -0.01  3.35  -1319.1 0.20000 
 483.700    118.6  61.1      0.6      6.9      9.1     -0.4    594.2  43.4  17.60  -0.03  3.35  -1319.1 0.20000 
 483.800    123.3  61.1     -0.6      6.3      7.8     -0.4    672.4  42.4  16.37  0.02  3.35  -1319.3 0.20000 
 483.900    121.8  61.1     -0.1      5.6      9.1     -0.5    722.5  41.4  337.30 -0.05  3.35  -1319.4 0.20000 
 484.000    122.8  61.1      1.7      5.1      8.8     -2.2    802.2  40.5  337.92 -0.04  3.34  -1319.4 0.20000 
 484.100    118.6  61.1      1.3      4.9      8.7     -1.9    866.3  39.6  337.92 0.04  3.34  -1319.4 0.20000 
 484.200    117.0  61.1     -1.7      4.4      8.6     -6.0    960.1  38.2  338.03 -0.07  3.34  -1319.3 0.20000 
 484.300    119.6  61.1      0.6      4.5      8.4     -0.4    994.6  37.0  327.47 0.10  3.34  -1319.2 0.20000 
 484.400    111.7  61.1      0.1      4.9      8.6     -2.6   1043.0  36.0  330.28 -0.04  3.39  -1319.2 0.20000 
 484.500    110.1  61.1      0.8      5.9      8.7      1.3   1019.6  35.3  329.57 0.02  3.39  -1319.2 0.20000 
 484.600    102.7  61.1      0.0      7.2      8.6     -0.8   1007.1  34.9  329.57 -0.02  3.39  -1319.2 0.10000 
 484.700     97.4  61.1     -0.4      8.3      8.3     -3.5    953.9  34.9  321.92 -0.07  3.39  -1319.1 0.20000 
 484.800     96.3  61.1     -0.6      7.9      8.7     -2.4    900.7  35.1  321.08 0.10  3.41  -1319.1 0.20000 
 484.900     91.6  61.1      0.7      7.2      9.1      1.6    872.6  35.6  321.02 -0.09  3.41  -1319.1 0.20000 
 485.000     87.3  61.1      0.4      7.0      8.3     -0.8    875.7  35.9  321.02 0.05  3.41  -1319.1 0.20000 
 485.100     86.8  61.1      1.6      7.4      8.2      0.1    863.2  36.3  327.06 -0.01  3.41  -1319.4 0.20000 
 485.200     80.5  61.2      5.1      7.7      9.0      0.8    847.6  36.3  328.62 0.00  3.40  -1319.4 0.20000 
 485.300     83.1  61.2      4.4      8.8      8.7     -0.5    867.9  36.5  329.27 -0.07  3.40  -1319.4 0.20000 
 485.400     82.6  61.2      1.1      9.0      8.4     -4.1    830.4  36.8  329.27 0.07  3.40  -1319.4 0.20000 
 485.500     82.6  61.2     -0.6      9.2      8.3     -3.2    810.0  36.7  321.47 -0.01  3.40  -1319.3 0.20000 
 485.600     89.5  61.2      1.2      9.4      8.4      1.2    811.6  36.9  319.76 0.03  3.38  -1319.3 0.20000 
 485.700     94.2  61.2      2.4      9.9      8.7      0.6    841.3  36.2  321.58 -0.04  3.39  -1319.3 0.20000 
 485.800     95.3  61.2     -1.4     10.7      9.3     -4.9    874.1  36.1  321.58 -0.03  3.39  -1319.3 0.20000 
 485.900    101.1  61.2     -1.6     11.1      8.8     -6.6    913.2  35.7  311.74 0.02  3.39  -1319.4 0.20000 
 486.000    101.1  61.2      4.0     11.2      8.6      0.0    910.1  35.3  299.75 0.01  3.39  -1319.4 0.10000 
 486.100    102.7  61.2      4.4     10.6      8.0      4.0    927.3  34.8  302.39 0.00  3.40  -1319.4 0.20000 
 486.200    101.1  61.2      1.9     10.1      8.6     -1.1    903.9  34.4  302.39 -0.01  3.40  -1319.4 0.20000 
 486.300    101.6  61.2     -1.3     10.3      8.4     -4.7    905.4  33.5  301.95 -0.03  3.40  -1319.3 0.20000 
 486.400    106.9  61.2      1.4     10.9      8.1      0.1    916.4  32.9  303.74 0.10  3.39  -1319.3 0.20000 
 486.500     99.0  61.2      0.6     10.5      8.2     -4.1    975.8  32.4  305.96 -0.10  3.40  -1319.3 0.20000 
 486.600     93.7  61.2      0.9     10.1      8.7     -3.0    991.4  32.1  305.96 -0.02  3.40  -1319.3 0.20000 
 486.700     92.1  61.2      0.1      9.2      9.2     -6.1   1032.1  32.0  311.76 0.03  3.40  -1319.3 0.20000 
 486.800     92.6  61.2      0.8      8.7      8.9     -2.5   1032.1  31.3  317.16 0.03  3.37  -1319.3 0.20000 
 486.900     91.6  61.2      1.0      8.9      8.1     -1.8   1057.1  30.6  317.65 -0.05  3.35  -1319.3 0.20000 
 487.000     95.8  61.2      1.7      9.1      8.4     -1.1   1047.7  30.3  317.65 0.00  3.35  -1319.3 0.20000 
 487.100     95.3  61.2     -1.0      9.4      8.0     -4.8   1058.7  29.8  314.58 0.01  3.35  -1319.3 0.20000 
 487.200     92.1  61.2      4.1      9.5      8.3      4.8   1079.0  29.8  313.22 0.02  3.35  -1319.2 0.20000 
 487.300     86.8  61.2      5.7      9.1      8.9      6.7   1093.1  30.0  314.33 -0.02  3.36  -1319.2 0.20000 
 487.400     92.6  61.2      4.3      8.5      7.9      5.5   1130.6  30.3  314.33 0.04  3.36  -1319.2 0.20000 
 487.500     92.6  61.2     -0.7      8.1      7.9     -3.4   1152.5  30.7  314.33 -0.02  3.36  -1319.3 0.20000 
 487.600     91.1  61.2      0.4      8.8      8.7     -2.4   1155.6  30.8  309.92 -0.05  3.36  -1319.3 0.20000 
 487.700     88.9  61.2      2.9      9.7      8.6     -1.0   1133.7  31.0  308.50 0.07  3.37  -1319.3 0.20000 
 487.800     87.3  61.2      2.3      9.7      9.2     -1.4   1127.5  31.8  308.19 -0.07  3.37  -1319.3 0.10000 
 487.900     81.5  61.2      1.2      9.6      8.9     -0.3   1046.2  32.6  308.14 0.00  3.37  -1319.3 0.20000 
 488.000     76.8  61.2      2.1      9.8      9.0     -0.3   1005.5  33.1  305.42 0.07  3.37  -1319.2 0.20000 
 488.100     73.1  61.2      2.6     10.1      8.6      2.4    950.8  34.5  305.63 0.02  3.39  -1319.2 0.20000 
 488.200     72.5  61.2      3.3     10.7      8.0      0.0    950.8  35.2  305.26 -0.07  3.38  -1319.2 0.20000 
 488.300     66.7  61.2      1.3     10.4      8.6     -5.2    914.8  36.5  305.14 0.07  3.38  -1319.2 0.20000 
 488.400     65.6  61.2      0.1     10.0      8.0     -7.7    892.9  37.3  298.10 -0.09  3.38  -1319.2 0.20000 
 488.500     67.8  61.2      6.2      9.5      9.6      4.9    850.7  38.2  300.05 0.03  3.34  -1319.2 0.20000 
 488.600     69.3  61.2      4.7      8.9      9.2      3.3    856.9  39.4  299.99 0.02  3.34  -1319.2 0.20000 
 488.700     73.1  61.2      3.6      9.0      8.0      3.1    774.1  40.1  299.93 -0.01  3.34  -1319.2 0.20000 
 488.800     79.9  61.2      1.6      8.8      8.7     -0.0    749.0  40.4  292.10 0.01  3.34  -1319.4 0.20000 
 488.900     84.7  61.2      4.9      9.7      8.8      3.3    731.8  41.0  292.13 -0.06  3.33  -1319.4 0.20000 
 489.000     89.5  61.2      4.2      9.9      7.9      4.7    741.2  41.5  291.74 -0.01  3.33  -1319.4 0.20000 
 489.100     92.1  61.2      1.5      9.3      9.0      0.7    720.9  42.6  291.74 0.02  3.33  -1319.4 0.20000 
 489.200     93.2  61.2     -0.8      8.3      9.0     -3.3    717.8  43.2  292.37 0.07  3.33  -1319.0 0.20000 
 489.300     96.9  61.2      2.5      8.5      8.9      1.9    714.6  43.6  292.72 -0.01  3.33  -1319.0 0.10000 
 489.400     97.9  61.2      1.2      8.8      8.4     -0.9    731.8  44.1  293.24 -0.01  3.34  -1319.0 0.20000 
