~Version Information
VERS.                      2.0: CWLS Log ASCII Standard - VERSION 2.0
WRAP.                       NO: One line per depth step
~Well Information Block
STRT.FT                 0.0000: 
STOP.FT              1439.5000: 
STEP.FT                 0.2500: 
NULL.                -999.2500: 
COMP.          Petrogulf Corporation: COMPANY
WELL.          Robinson 15-12R: WELL
FLD.           Purgatorie River: FIELD
LOC.           1752' FNL & 561' FWL: LOCATION
PROV.                 Colorado: PROVINCE
CNTY.               Las Animas: COUNTRY
SRVC.                Patterson: SERVICE COMPANY
DATE.          Tue Oct 04 09:17:52 2005: LOG DATE
UWI.                          : UNIQUE WELL ID
~Curve Information Block
DEPT.FT            0 000 00 00: Depth
GR.GAPI                       : Gamma Ray
CCL.                          : Casing Collar Locator
TT3.usec                      : CBL 3' Travel Time
AMP3.mV                       : CBL 3' Amplitude
~Parameter Information Block
~A  Depth        GR         CCL         TT3         AMP3    
# ...
   268.0000    106.3983      0.0000    808.5549     10.1478
   268.2500    108.7026      0.0000    808.6328     10.1174
   268.5000    110.6396      0.0000    807.9943     10.0071
   268.7500    111.1776      0.0000    804.7805      9.7593
   269.0000    109.2951      0.0000    796.0043      9.3557
   269.2500    104.7619      0.0000    783.1565      8.8655
   269.5000     98.5213      0.0000    776.3702      8.3837
   269.7500     91.9819      0.0000    783.9419      7.9129
   270.0000     85.6491      0.0000    801.6821      7.3940
   270.2500     78.6425      0.0000    821.5203      6.8300
   270.5000     69.8005      0.0000    841.7322      6.2657
   270.7500     59.1621      0.0000    864.7794      5.6744
   271.0000     48.2720      0.0000    884.3051      5.0043
   271.2500     39.2071      0.0000    876.4438      4.4261
   271.5000     33.3612      0.0000    829.0629      4.2688
   271.7500     30.8933      0.0000    769.8137      4.5252
   272.0000     31.0776      0.0000    733.1022      4.9255
   272.2500     33.1567      0.0000    722.0037      5.4826
   272.5000     37.0341      0.0000    716.0996      6.3459
   272.7500     43.3986      0.0000    697.4080      7.3962
   273.0000     53.2569     -2.0000    667.2781      8.3440
   273.2500     67.0040     -2.0000    643.9880      9.0194
   273.5000     83.4038      0.0000    638.6627      9.4807
   273.7500     99.3331      0.0000    630.2988      9.9511
   274.0000    111.0396      0.0000    588.6095     10.7582
   274.2500    116.2706      0.0000    530.6389     12.0301
   274.5000    115.3166      0.0000    515.3030     13.1852
   274.7500    110.0576      0.0000    569.0496     13.4932
   275.0000    102.4200      0.0000    653.2327     13.1306
   275.2500     93.9520      0.0000    718.3528     12.7440
   275.5000     86.3776      0.0000    755.2496     12.6280
   275.7500     81.8053      0.0000    777.9963     12.7831
   276.0000     81.8945      0.0000    792.7918     13.1711
   276.2500     86.7349      0.0000    798.4024     13.7828
   276.5000     94.6664      0.0000    794.3945     14.5528
   276.7500    103.1826      0.0000    780.6893     15.3875
   277.0000    109.9895      0.0000    752.7906     16.3819
   277.2500    113.7034      0.0000    697.5201     17.7853
   277.5000    114.2124      0.0000    606.1661     19.7456
   277.7500    112.5001      0.0000    497.2934     22.2145
   278.0000    109.8831      0.0000    405.4190     24.9632
   278.2500    107.2362      0.0000    347.8042     27.5617
   278.5000    104.7222      0.0000    319.4514     29.5081
   278.7500    102.1279      0.0000    308.5160     30.5749
   279.0000     99.5734      0.0000    305.3955     30.9245
   279.2500     97.8187      0.0000    304.7762     30.8160
   279.5000     97.5893      0.0000    304.7941     30.3506
   279.7500     98.6798      0.0000    305.4728     29.5474
   280.0000    100.0502      0.0000    308.4306     28.5087
   280.2500    100.8008      0.0000    317.0424     27.4020
   280.5000    100.8925      0.0000    333.5970     26.3262
   280.7500    101.0472      0.0000    354.6165     25.2365
   281.0000    102.1319      0.0000    374.4292     23.9992
   281.2500    104.3982      0.0000    398.0311     22.5282
   281.5000    107.0838      0.0000    444.5708     20.9089
   281.7500    108.9672      0.0000    523.6339     19.4067
   282.0000    109.4462      0.0000    607.6921     18.2507
   282.2500    108.9225      0.0000    665.1080     17.3547
   282.5000    108.2452      0.0000    717.8804     16.4079
   282.7500    108.1275      0.0000    796.1162     15.2851
   283.0000    108.8900      0.0000    862.3582     14.1682
   283.2500    110.3290      0.0000    868.9791     13.2433
   283.5000    111.8601      0.0000    841.4476     12.4840
   283.7500    112.9488      0.0000    845.3040     11.7853
   284.0000    113.3312      0.0000    911.9113     11.1672
   284.2500    112.8644      0.0000   1009.6639     10.7234
   284.5000    111.4031      0.0000   1083.6798     10.4456
   284.7500    109.0405      0.0000   1119.9512     10.2148
   285.0000    106.5765      0.0000   1133.8617      9.9266
   285.2500    105.5999      0.0000   1117.6538      9.5936
   285.5000    107.6697      0.0000   1056.9633      9.3393
   285.7500    112.9075      0.0000    982.6431      9.2376
   286.0000    119.2929      0.0000    956.0698      9.2019
   286.2500    123.6840      0.0000    997.4852      9.1151
   286.5000    124.0607      0.0000   1059.6361      8.9889
   286.7500    121.0553      0.0000   1083.0013      8.9135
   287.0000    117.3791      0.0000   1057.6759      8.9143
   287.2500    115.8675      0.0000   1011.2856      8.9108
   287.5000    117.8702      0.0000    954.1027      8.8062
   287.7500    122.7713      0.0000    883.3781      8.6114
   288.0000    128.3931      0.0000    822.2844      8.4404
   288.2500    131.9808      0.0000    796.0463      8.3806
   288.5000    131.6636      0.0000    796.4358      8.4423
   288.7500    127.8607      0.0000    802.2614      8.5959
   289.0000    123.2554      0.0000    804.9351      8.7964
   289.2500    120.6494      0.0000    805.4225      9.0113
   289.5000    120.4972      0.0000    805.5666      9.2338
   289.7500    120.7537      0.0000    806.3315      9.4602
   290.0000    119.0696      0.0000    809.2744      9.6797
   290.2500    114.7151      0.0000    817.1023      9.9027
   290.5000    108.4949      0.0000    830.2411     10.1780
   290.7500    101.8004      0.0000    842.9024     10.5370
   291.0000     96.4093      0.0000    847.6805     10.9073
   291.2500     94.4038      0.0000    842.0889     11.1559
   291.5000     96.9778      0.0000    825.2749     11.2552
   291.7500    103.1219      0.0000    798.3893     11.3329
   292.0000    110.0673      0.0000    773.8832     11.5291
   292.2500    115.1991      0.0000    768.0574     11.8720
   292.5000    117.5068      0.0000    780.2631     12.3125
   292.7500    117.5789      0.0000    795.4406     12.7950
   293.0000    116.6733      0.0000    803.9028     13.2633
   293.2500    115.6410      0.0000    806.3851     13.6492
   293.5000    114.4140      0.0000    806.1419     13.9071
   293.7500    112.6301      0.0000    802.7543     14.0984
   294.0000    110.7561      0.0000    787.4868     14.4110
   294.2500    110.0047      0.0000    741.2773     15.0366
   294.5000    110.8786      0.0000    651.1503     16.0271
   294.7500    112.3824      0.0000    538.2454     17.2573
   295.0000    113.0714      0.0000    446.7287     18.5193
   295.2500    112.6409      0.0000    397.1565     19.6525
   295.5000    112.1844      0.0000    377.4428     20.5542
   295.7500    112.8787      0.0000    371.7643     21.1283
   296.0000    114.5469      0.0000    372.4449     21.3188
   296.2500    115.7199      0.0000    373.8483     21.1691
   296.5000    115.0079      0.0000    372.8792     20.8102
   296.7500    112.1999      0.0000    372.0999     20.4143
   297.0000    108.3759      0.0000    374.5942     20.1559
   297.2500    105.3921      0.0000    378.7339     20.1324
   297.5000    104.8649      0.0000    381.2745     20.2853
   297.7500    106.9205      0.0000    380.8823     20.4836
   298.0000    109.9355      0.0000    376.8335     20.6763
   298.2500    111.9144      0.0000    368.6354     20.8692
   298.5000    112.2547      0.0000    358.4071     21.0263
   298.7500    112.1175      0.0000    350.4279     21.1168
   299.0000    113.0612      0.0000    347.4848     21.1711
   299.2500    115.3685      0.0000    350.0054     21.2331
   299.5000    117.8082      0.0000    356.8049     21.3170
   299.7500    118.8959      0.0000    364.1224     21.3984
   300.0000    118.1067      0.0000    368.1525     21.4016
   300.2500    116.0997      0.0000    370.1537     21.2176
   300.5000    114.2708      0.0000    373.6157     20.8082
   300.7500    113.9041      0.0000    378.0945     20.2569
   301.0000    115.1153      0.0000    381.1320     19.6287
   301.2500    116.6268      0.0000    382.3634     18.8718
