~Version Information
VERS.                      2.0: CWLS Log ASCII Standard - VERSION 2.0
WRAP.                       NO: One line per depth step
~Well Information Block
STRT.FT               -16.0000: 
STOP.FT              2454.2500: 
STEP.FT                 0.2500: 
NULL.                -999.2500: 
COMP.                         : COMPANY
WELL.                         : WELL
FLD.                          : FIELD
LOC.                          : LOCATION
CNTY.                         : COUNTY
SRVC.                         : SERVICE COMPANY
DATE.          Tue Aug 31 08:09:44 2004: LOG DATE
UWI.                          : UNIQUE WELL ID
STAT.                         : STATE
~Curve Information Block
DEPT.FT            0 000 00 00: Depth
GR.GAPI                       : Gamma Ray
CCL.                          : Casing Collar Locator
TT3.usec                      : CBL 3' Travel Time
AMP3.mV                       : CBL 3' Amplitude
~Parameter Information Block
~A  Depth        GR         CCL         TT3         AMP3    
# ...
  1290.5000     72.1450      0.0000    423.2635     15.2247
  1290.7500     73.5636      0.0000    397.4356     14.2204
  1291.0000     77.3978      0.0000    382.8199     13.5016
  1291.2500     82.7287     -5.0000    384.9620     12.8548
  1291.5000     87.8139      0.0000    395.7538     12.2408
  1291.7500     91.3033      0.0000    407.7104     11.7231
  1292.0000     92.7563      0.0000    422.2448     11.4199
  1292.2500     92.0824      0.0000    446.8794     11.4700
  1292.5000     89.1400      0.0000    476.3733     11.9457
  1292.7500     84.2029      0.0000    483.2096     12.6733
  1293.0000     78.2200      0.0000    451.4828     13.3209
  1293.2500     72.1819      0.0000    404.7209     13.8145
  1293.5000     66.5284      0.0000    372.7556     14.3460
  1293.7500     61.3937      0.0000    359.7568     14.9881
  1294.0000     57.2532      0.0000    356.2322     15.6663
  1294.2500     55.0276      0.0000    355.5802     16.3605
  1294.5000     55.3530      0.0000    355.5675     17.1281
  1294.7500     57.8959      0.0000    355.5977     18.0551
  1295.0000     61.6406      0.0000    355.5374     19.2280
  1295.2500     65.6637      0.0000    355.4190     20.7019
  1295.5000     69.2474      0.0000    355.2927     22.5187
  1295.7500     71.4499      0.0000    355.2260     24.6697
  1296.0000     71.2246      0.0000    355.2226     26.9306
  1296.2500     68.3349      0.0000    355.0121     28.8928
  1296.5000     64.0091      0.0000    353.7152     30.2856
  1296.7500     60.3999      0.0000    349.5833     31.2159
  1297.0000     59.2260      0.0000    341.2683     32.1014
  1297.2500     60.7830      0.0000    330.4911     33.3763
  1297.5000     63.9264      0.0000    321.4330     35.1911
  1297.7500     66.8924      0.0000    316.4101     37.3676
  1298.0000     68.4914      0.0000    314.4794     39.5731
  1298.2500     68.8675      0.0000    313.8851     41.4937
  1298.5000     69.1292      0.0000    313.7049     42.9421
  1298.7500     70.2314      0.0000    313.6419     43.8918
  1299.0000     72.3045      0.0000    313.5597     44.4293
  1299.2500     74.9289      0.0000    313.4404     44.7136
  1299.5000     77.7472      0.0000    313.3594     44.9454
  1299.7500     80.7214      0.0000    313.3096     45.2312
  1300.0000     83.9478      0.0000    313.2206     45.5503
  1300.2500     87.3336      0.0000    313.1039     45.9421
  1300.5000     90.4783      0.0000    313.0077     46.5197
  1300.7500     92.8662      0.0000    312.9343     47.2189
  1301.0000     94.1479      0.0000    312.8974     47.7642
  1301.2500     94.2057      0.0000    312.9470     47.9909
  1301.5000     93.0416      0.0000    313.0519     48.1030
  1301.7500     90.7701      0.0000    313.0950     48.5085
  1302.0000     87.6788      0.0000    313.0298     49.3766
  1302.2500     84.0596      0.0000    312.8831     50.4926
  1302.5000     79.9515      0.0000    312.6843     51.5403
  1302.7500     75.3312      0.0000    312.5221     52.3057
  1303.0000     70.6900      0.0000    312.5223     52.7230
  1303.2500     67.1783      0.0000    312.6863     52.8593
  1303.5000     65.9905      0.0000    312.8983     52.6776
  1303.7500     67.6485      0.0000    313.1029     51.9372
  1304.0000     71.7347      0.0000    313.3224     50.5480
  1304.2500     76.9571      0.0000    313.5227     48.8130
  1304.5000     81.5709      0.0000    313.6352     47.1367
  1304.7500     84.2235      0.0000    313.7114     45.6146
  1305.0000     84.5893      0.0000    313.9200     44.0028
  1305.2500     83.2056      0.0000    314.5824     41.9860
  1305.5000     80.9757      0.0000    316.5980     39.3606
  1305.7500     78.9820      0.0000    321.6521     36.1012
  1306.0000     78.3284      0.0000    330.7381     32.4248
  1306.2500     79.4956      0.0000    341.8192     28.6828
  1306.5000     81.8132      0.0000    350.9742     25.1241
  1306.7500     84.1388      0.0000    356.6967     21.8360
  1307.0000     86.1884      0.0000    361.4531     18.8678
  1307.2500     88.6361      0.0000    371.0490     16.2690
  1307.5000     91.7653      0.0000    396.2559     14.0250
  1307.7500     94.6768      0.0000    453.4177     12.0694
  1308.0000     96.2674      0.0000    551.2944     10.3679
  1308.2500     96.5350      0.0000    668.1966      8.9338
  1308.5000     96.4114      0.0000    760.7767      7.7830
  1308.7500     96.5638      0.0000    807.5100      6.9202
  1309.0000     96.8336      0.0000    822.6337      6.3267
  1309.2500     96.7782      0.0000    827.7119      5.9335
  1309.5000     96.2810      0.0000    831.1555      5.6462
  1309.7500     95.3990      0.0000    833.0848      5.4173
  1310.0000     93.8649      0.0000    833.7581      5.2809
  1310.2500     91.1242      0.0000    834.1899      5.2966
  1310.5000     86.9752      0.0000    834.6149      5.4597
  1310.7500     81.9911      0.0000    834.2470      5.6804
  1311.0000     77.2130      0.0000    831.8071      5.8656
  1311.2500     73.5663      0.0000    827.7834      6.0066
  1311.5000     71.4731      0.0000    826.2229      6.1556
  1311.7500     70.6292      0.0000    830.5712      6.3325
  1312.0000     70.1588      0.0000    837.9612      6.4946
  1312.2500     69.3586      0.0000    841.3280      6.5953
  1312.5000     68.4206      0.0000    836.8033      6.6509
  1312.7500     68.1476      0.0000    827.2140      6.7272
  1313.0000     68.8513      0.0000    817.7806      6.8708
  1313.2500     69.8500      0.0000    810.1094      7.0816
  1313.5000     70.2809      0.0000    802.7867      7.3249
  1313.7500     70.1393      0.0000    795.4255      7.5610
  1314.0000     70.3066      0.0000    788.1647      7.7989
  1314.2500     71.8693      0.0000    779.6253      8.0986
  1314.5000     75.5357      0.0000    764.0031      8.4959
  1314.7500     81.1624      0.0000    725.1323      8.9659
  1315.0000     87.5382      0.0000    647.8203      9.4565
  1315.2500     93.0755      0.0000    547.7287      9.9379
  1315.5000     97.1294      0.0000    464.7255     10.4427
  1315.7500    100.5140      0.0000    417.6224     11.0490
  1316.0000    104.4913      0.0000    393.9591     11.7956
  1316.2500    109.2816      0.0000    378.7940     12.6263
  1316.5000    113.6438      0.0000    368.5531     13.4096
  1316.7500    115.9101      0.0000    363.3979     13.9925
  1317.0000    115.4066      0.0000    361.9196     14.2455
  1317.2500    112.8046      0.0000    363.2236     14.1096
  1317.5000    109.0821      0.0000    368.5079     13.6437
  1317.7500    104.5795      0.0000    378.7839     12.9920
  1318.0000     99.3764      0.0000    391.7888     12.2905
  1318.2500     94.1195      0.0000    404.1156     11.6111
  1318.5000     89.9451      0.0000    417.9972     10.9516
  1318.7500     87.6541      0.0000    444.6220     10.2672
  1319.0000     87.1800      0.0000    500.3769      9.5407
  1319.2500     87.7840      0.0000    592.2830      8.8144
  1319.5000     88.5978      0.0000    698.8693      8.1514
  1319.7500     88.9018      0.0000    781.3952      7.5921
  1320.0000     88.0189      0.0000    822.2376      7.1571
  1320.2500     85.3726      0.0000    832.9662      6.8602
  1320.5000     81.0197      0.0000    831.6372      6.6969
  1320.7500     75.9405      0.0000    830.1454      6.6344
  1321.0000     71.4673      0.0000    832.9655      6.6288
  1321.2500     68.5754      0.0000    837.9015      6.6676
  1321.5000     67.7730      0.0000    841.0105      6.7885
  1321.7500     69.1901      0.0000    840.4918      7.0305
  1322.0000     72.4150      0.0000    835.8821      7.3703
  1322.2500     76.5427      0.0000    827.8277      7.7246
  1322.5000     80.6599      0.0000    818.6599      8.0242
  1322.7500     84.1447      0.0000    805.1393      8.2762
  1323.0000     86.6003      0.0000    768.3553      8.5482
  1323.2500     87.8884      0.0000    688.3881      8.9075
  1323.5000     88.2075      0.0000    578.9333      9.3683
  1323.7500     87.8987      0.0000    482.9348      9.9016
