~Version Information
VERS.                      2.0: CWLS Log ASCII Standard - VERSION 2.0
WRAP.                       NO: One line per depth step
~Well Information Block
STRT.FT                -8.0000: 
STOP.FT               973.2500: 
STEP.FT                 0.2500: 
NULL.                -999.2500: 
COMP.          Pioneer Natural Resources: COMPANY
WELL.              Oscar 41-31: WELL
FLD.           Purgatorie River: FIELD
LOC.           412' FNL & 1216' FEL--: LOCATION
PROV.                       CO: PROVINCE
CNTY.               Las Animas: COUNTRY
SRVC.          Patterson Wireline: SERVICE COMPANY
DATE.          Wed Mar 02 12:29:08 2005: LOG DATE
UWI.           05 071 08290 00: UNIQUE WELL ID
~Curve Information Block
DEPT.FT            0 000 00 00: Depth
CCL.                          : Casing Collar Locator
TT5.usec                      : CBL 5' Travel Time
AMP3.mV                       : CBL 3' Amplitude
GR.GAPI                       : Gamma Ray
~Parameter Information Block
~A  Depth       CCL         TT5         AMP3         GR     
# ...
   930.0000      0.0000   1200.0000      2.9487     55.9596
   930.2500      0.0000   1200.0000      2.9343     53.6536
   930.5000      0.0000   1200.0000      2.8640     50.9679
   930.7500      0.0000   1200.0000      2.7238     49.3349
   931.0000      0.0000   1200.0000      2.5640     50.2263
   931.2500      0.0000   1200.0000      2.4808     54.1756
   931.5000      0.0000   1200.0000      2.5368     60.4494
   931.7500      0.0000   1200.0000      2.7077     67.4042
   932.0000      0.0000   1200.0000      2.9007     73.0400
   932.2500      0.0000   1200.0000      3.0232     75.8186
   932.5000      0.0000   1200.0000      3.0465     75.6694
   932.7500      0.0000   1200.0000      3.0119     74.1012
   933.0000      0.0000   1200.0000      2.9732     72.8520
   933.2500      0.0000   1200.0000      2.9393     72.4671
   933.5000      0.0000   1200.0000      2.8832     72.3961
   933.7500      0.0000   1200.0000      2.7986     72.0858
   934.0000      0.0000   1200.0000      2.7290     71.4772
   934.2500      0.0000   1200.0000      2.7297     70.6814
   934.5000      0.0000   1200.0000      2.8040     69.6954
   934.7500      0.0000   1200.0000      2.8873     68.4392
   935.0000      0.0000   1136.3636      2.8964     66.9551
   935.2500      0.0000   1200.0000      2.8008     65.6711
   935.5000      0.0000   1200.0000      2.6540     65.2545
   935.7500      0.0000   1133.6880      2.5532     65.9512
   936.0000      0.0000   1097.3175      2.5566     67.3130
   936.2500      0.0000   1200.0000      2.6298     68.6744
   936.5000      0.0000   1200.0000      2.6753     69.5426
   936.7500      0.0000   1200.0000      2.6180     69.5676
   937.0000      0.0000   1180.2106      2.4687     68.5934
   937.2500      0.0000   1200.0000      2.3209     66.7127
   937.5000      0.0000   1200.0000      2.2915     64.0337
   937.7500      0.0000   1200.0000      2.4402     60.6005
   938.0000      0.0000   1200.0000      2.7181     56.8323
   938.2500      2.0000   1191.5400      2.9846     53.8076
   938.5000      2.0000   1187.4286      3.0936     52.6988
   938.7500      0.0000   1200.0000      2.9878     53.8838
   939.0000      0.0000   1200.0000      2.7333     56.6820
   939.2500      0.0000   1200.0000      2.4743     59.8901
   939.5000      0.0000   1186.9286      2.3423     62.6329
   939.7500      0.0000   1200.0000      2.3841     64.8583
   940.0000      0.0000   1200.0000      2.5567     66.9332
   940.2500      0.0000   1200.0000      2.7762     68.8336
   940.5000      0.0000   1200.0000      2.9732     70.1101
   940.7500      0.0000   1200.0000      3.1120     70.6626
   941.0000      0.0000   1200.0000      3.1778     71.0826
   941.2500      0.0000   1200.0000      3.1590     71.8989
   941.5000      0.0000   1200.0000      3.0541     72.6553
   941.7500      0.0000   1200.0000      2.8988     72.1296
   942.0000      0.0000   1200.0000      2.7760     69.7195
   942.2500      0.0000   1200.0000      2.7717     66.3967
   942.5000      0.0000   1200.0000      2.9023     63.9447
   942.7500      0.0000   1200.0000      3.0847     63.3634
   943.0000      0.0000   1200.0000      3.1938     64.3044
   943.2500      0.0000   1200.0000      3.1593     65.7724
   943.5000      0.0000   1200.0000      3.0099     66.7936
   943.7500      0.0000   1200.0000      2.8314     66.5428
   944.0000      0.0000   1200.0000      2.6954     64.5045
   944.2500      0.0000   1200.0000      2.6318     60.7789
   944.5000      0.0000   1200.0000      2.6492     56.0954
   944.7500      0.0000   1200.0000      2.7548     51.5767
   945.0000      0.0000   1200.0000      2.9405     48.4500
   945.2500      0.0000   1200.0000      3.1633     47.4498
   945.5000      0.0000   1200.0000      3.3647     48.1844
   945.7500      0.0000   1200.0000      3.5149     49.4643
   946.0000      0.0000   1200.0000      3.6236     50.4865
   946.2500      0.0000   1200.0000      3.7072     51.3729
   946.5000      0.0000   1200.0000      3.7625     52.4702
   946.7500      0.0000   1200.0000      3.7776     53.5576
   947.0000      0.0000   1200.0000      3.7584     54.0785
   947.2500      0.0000   1200.0000      3.7292     54.0131
   947.5000      0.0000   1200.0000      3.7066     54.1305
   947.7500      0.0000   1200.0000      3.6761     55.2241
   948.0000      0.0000   1200.0000      3.5980     57.3400
   948.2500      0.0000   1200.0000      3.4409     59.8596
   948.5000      0.0000   1200.0000      3.2112     62.0378
   948.7500      0.0000   1200.0000      2.9560     63.3558
   949.0000      0.0000   1200.0000      2.7412     63.7282
   949.2500      0.0000   1200.0000      2.6185     63.5525
   949.5000      0.0000   1200.0000      2.5974     63.3679
   949.7500      0.0000   1200.0000      2.6479     63.3067
   950.0000      0.0000   1200.0000      2.7344     62.8703
   950.2500      0.0000   1200.0000      2.8457     61.4210
   950.5000      0.0000   1200.0000      2.9841     59.0849
   950.7500      0.0000   1200.0000      3.1380     56.9527
   951.0000      0.0000   1200.0000      3.2827     56.1005
   951.2500      0.0000   1200.0000      3.4013     56.5956
   951.5000      0.0000   1200.0000      3.4910     57.6029
   951.7500      0.0000   1200.0000      3.5516     58.2746
   952.0000      0.0000   1200.0000      3.5829     58.4880
   952.2500      0.0000   1200.0000      3.5928     58.7893
   952.5000      0.0000   1200.0000      3.5971     59.5938
   952.7500      0.0000   1200.0000      3.6095     60.5425
   953.0000      0.0000   1200.0000      3.6357     60.8978
   953.2500      0.0000   1200.0000      3.6761     60.4892
   953.5000      0.0000   1200.0000      3.7235     60.0056
   953.7500      0.0000   1200.0000      3.7597     60.4249
   954.0000      0.0000   1200.0000      3.7631     62.4549
   954.2500      0.0000   1200.0000      3.7251     66.4376
   954.5000      0.0000   1200.0000      3.6564     72.1971
   954.7500      0.0000   1200.0000      3.5789     78.5809
   955.0000      0.0000   1200.0000      3.5116     83.5446
   955.2500      0.0000   1200.0000      3.4606     85.2659
   955.5000      0.0000   1200.0000      3.4214     83.3628
   955.7500      0.0000   1200.0000      3.3857     79.2405
   956.0000      0.0000   1200.0000      3.3438     75.3810
   956.2500      0.0000   1200.0000      3.2891     73.9290
   956.5000      0.0000   1200.0000      3.2260     75.3715
   956.7500      0.0000   1200.0000      3.1702     78.2683
   957.0000      0.0000   1200.0000      3.1331     80.2380
   957.2500      0.0000   1200.0000      3.1093     79.4883
   957.5000      0.0000   1200.0000      3.0761     75.9827
   957.7500      0.0000   1200.0000      3.0043     71.3698
   958.0000      0.0000   1200.0000      2.8834     67.5567
   958.2500      0.0000   1200.0000      2.7377     65.3085
   958.5000      0.0000   1200.0000      2.6091     64.2407
   958.7500      0.0000   1157.4546      2.5229     63.6348
   959.0000      0.0000   1200.0000      2.4801     62.5935
   959.2500      0.0000   1163.1583      2.4747     59.5144
   959.5000      0.0000   1117.3125      2.5044     52.4634
   959.7500      0.0000   1200.0000      2.5657     40.9966
   960.0000      0.0000   1200.0000      2.6501     27.3670
   960.2500      0.0000   1200.0000      2.7526     15.2017
   960.5000      0.0000   1200.0000      2.8772      6.9035
   960.7500      0.0000   1200.0000      3.0222      2.5322
   961.0000      0.0000   1200.0000      3.1628      0.7436
   961.2500      0.0000   1200.0000      3.2625      0.1736
   961.5000      0.0000   1200.0000      3.3072      0.0316
   961.7500      0.0000   1200.0000      3.3172      0.0040
   962.0000      0.0000   1200.0000      3.3235   -999.2500
   962.2500      0.0000   1200.0000      3.3422   -999.2500
   962.5000      0.0000   1200.0000      3.3714   -999.2500
   962.7500      0.0000   1200.0000      3.4021   -999.2500
   963.0000      0.0000   1200.0000      3.4284   -999.2500
   963.2500      0.0000   1200.0000      3.4504   -999.2500
