~Version Information
VERS.                      2.0: CWLS Log ASCII Standard - VERSION 2.0
WRAP.                       NO: One line per depth step
~Well Information Block
STRT.FT               475.0000: 
STOP.FT              2336.7000: 
STEP.FT                 0.1000: 
NULL.                -999.2500: 
COMP.          Pioneer Natural Resources: COMPANY
WELL.              Bobsy 34-11: WELL
FLD.           Purgatoire River: FIELD
LOC.           1937' FEL & 451' FSL----: LOCATION
PROV.                 Colorado: PROVINCE
CNTY.               Las Animas: COUNTRY
SRVC.                Patterson: SERVICE COMPANY
DATE.          Fri Apr 08 11:07:54 2005: LOG DATE
UWI.           05 071 08330 00: UNIQUE WELL ID
~Curve Information Block
DEPT.FT            0 000 00 00: Depth
DCAL.in                       : CDL Caliper
RHOB.g/cc                     : CDL Bulk Density
RHOC.g/cc                     : CDL Density Correction
DPOR.pu                       : CDL Density Porosity
NPOR.pu                       : Neutron Porosity
GR.GAPI                       : Gamma Ray
~Parameter Information Block
~A  Depth       DCAL        RHOB        RHOC        DPOR        NPOR         GR     
# ...
  1454.2000      8.1066      2.6530      0.0395     -0.1848     21.6985     79.8436
  1454.3000      8.1076      2.6255      0.0359      1.4859     22.1835     77.4733
  1454.4000      8.1076      2.5924      0.0314      3.4915     22.7915     74.6043
  1454.5000      8.1115      2.5701     -0.0038      4.8436     23.2506     66.5112
  1454.6000      8.1115      2.5654      0.0140      5.1247     23.3862     55.9760
  1454.7000      8.1115      2.5749      0.0272      4.5520     23.7161     51.9182
  1454.8000      8.1143      2.5853      0.0319      3.9191     24.5053     60.3525
  1454.9000      8.1143      2.5870      0.0366      3.8155     25.1111     78.7358
  1455.0000      8.1147      2.5823      0.0313      4.1000     25.2992     94.3771
  1455.1000      8.1147      2.5735      0.0634      4.6380     25.6510     97.9237
  1455.2000      8.1147      2.5610      0.0608      5.3954     26.4436     93.9247
  1455.3000      8.1159      2.5554      0.0202      5.7317     27.1391     90.5285
  1455.4000      8.1159      2.5662      0.0413      5.0776     27.1385     91.0809
  1455.5000      8.1165      2.5819      0.0527      4.1276     26.7475     92.6725
  1455.6000      8.1165      2.5798      0.0501      4.2570     26.7789     92.6237
  1455.7000      8.1165      2.5541      0.0421      5.8121     27.0001     92.9150
  1455.8000      8.1153      2.5315      0.0237      7.1795     26.6142     92.8881
  1455.9000      8.1153      2.5444      0.0054      6.3997     25.8141     88.0259
  1456.0000      8.1219      2.5823      0.0812      4.1031     25.1802     82.7433
  1456.1000      8.1219      2.6071      0.0453      2.5998     25.0997     83.4387
  1456.2000      8.1219      2.6124      0.0647      2.2766     25.4801     85.6500
  1456.3000      8.1328      2.6154      0.0583      2.0979     25.6758     84.1931
  1456.4000      8.1328      2.6110      0.1013      2.3607     26.0169     81.2505
  1456.5000      8.1350      2.5799      0.0358      4.2465     27.1420     81.1861
  1456.6000      8.1350      2.5229      0.0197      7.7056     28.5269     85.7232
  1456.7000      8.1350      2.4488      0.0283     12.1950     29.4585     92.4132
  1456.8000      8.1330      2.3676     -0.0359     17.1144     29.6207     96.2080
  1456.9000      8.1330      2.2952     -0.0244     21.5050     29.4232     97.1889
  1457.0000      8.1354      2.2363     -0.0703     25.0737     29.5898     99.0793
  1457.1000      8.1354      2.1868     -0.0568     28.0743     30.0481    100.7722
  1457.2000      8.1354      2.1488     -0.0600     30.3746     30.4734    100.5815
  1457.3000      8.1447      2.1337     -0.0734     31.2882     30.7715    102.9484
  1457.4000      8.1447      2.1437     -0.0122     30.6831     30.9496    106.2586
  1457.5000      8.1584      2.1671      0.0295     29.2683     30.9574    101.8862
  1457.6000      8.1584      2.2014      0.0421     27.1858     30.4964     93.4293
  1457.7000      8.1584      2.2577      0.1068     23.7728     29.7250     90.7251
  1457.8000      8.1662      2.3376      0.2156     18.9310     29.3614     93.9560
  1457.9000      8.1662      2.4228      0.2316     13.7676     29.5318     98.6347
  1458.0000      8.1633      2.4833      0.2390     10.1060     29.6257    103.4499
  1458.1000      8.1633      2.5037      0.1582      8.8657     29.1266    105.4267
  1458.2000      8.1633      2.4986      0.1032      9.1783     28.4666    102.9458
  1458.3000      8.1593      2.4877      0.0702      9.8358     28.4234    102.9673
  1458.4000      8.1593      2.4840      0.0403     10.0589     28.9409    111.0940
  1458.5000      8.1589      2.4929      0.0482      9.5189     29.5460    122.2261
  1458.6000      8.1589      2.5068      0.0547      8.6770     30.0574    128.4768
  1458.7000      8.1589      2.5161      0.0466      8.1180     30.4369    129.2523
  1458.8000      8.1603      2.5178      0.0822      8.0103     30.8271    127.9334
  1458.9000      8.1603      2.5197      0.0324      7.8999     31.4100    128.2775
  1459.0000      8.1625      2.5352      0.0688      6.9546     31.7376    133.3745
  1459.1000      8.1625      2.5569      0.1225      5.6422     31.1793    137.0087
  1459.2000      8.1625      2.5689      0.1247      4.9135     30.1090    134.3663
  1459.3000      8.1651      2.5792      0.1147      4.2885     29.3064    134.0393
  1459.4000      8.1651      2.5940      0.1461      3.3911     29.1000    138.0905
  1459.5000      8.1639      2.5932      0.1577      3.4418     29.3371    139.7367
  1459.6000      8.1639      2.5653      0.1113      5.1326     29.2680    138.4170
  1459.7000      8.1639      2.5387      0.0232      6.7484     28.6218    136.9350
  1459.8000      8.1601      2.5446      0.0397      6.3873     28.2224    136.3526
  1459.9000      8.1601      2.5677      0.0999      4.9878     28.2405    135.6427
  1460.0000      8.1604      2.5678      0.0971      4.9845     27.8251    133.5658
  1460.1000      8.1604      2.5410      0.0019      6.6081     26.7675    133.7835
  1460.2000      8.1604      2.5241      0.0105      7.6293     25.7886    136.6447
  1460.3000      8.1631      2.5427      0.0297      6.5027     25.5414    136.6055
  1460.4000      8.1631      2.5784      0.0507      4.3384     25.9277    132.0828
  1460.5000      8.1640      2.5943      0.0773      3.3764     26.4484    125.7242
  1460.6000      8.1640      2.5831      0.0049      4.0529     26.7808    121.0743
  1460.7000      8.1640      2.5612      0.0467      5.3800     27.1638    122.1403
  1460.8000      8.1659      2.5392     -0.0102      6.7139     28.0293    129.1328
  1460.9000      8.1659      2.5306     -0.0359      7.2364     29.2963    133.3373
  1461.0000      8.1675      2.5375      0.0109      6.8196     30.1997    129.7970
  1461.1000      8.1675      2.5448     -0.0043      6.3763     30.0560    126.8205
  1461.2000      8.1675      2.5510      0.0139      6.0025     29.2323    128.5249
  1461.3000      8.1661      2.5644      0.0291      5.1855     28.7995    130.6441
  1461.4000      8.1661      2.5810      0.0632      4.1826     29.0182    133.0038
  1461.5000      8.1658      2.5845      0.0818      3.9699     29.2162    134.1726
  1461.6000      8.1658      2.5691      0.0826      4.9019     29.1215    130.5273
  1461.7000      8.1658      2.5477      0.0382      6.2028     29.2638    124.6431
  1461.8000      8.1662      2.5387      0.0108      6.7471     29.9643    121.3956
  1461.9000      8.1662      2.5612      0.0402      5.3790     30.5911    120.3291
  1462.0000      8.1659      2.6207      0.0916      1.7749     30.6502    118.5166
  1462.1000      8.1659      2.6832      0.1600     -2.0096     30.2494    116.3805
  1462.2000      8.1659      2.7114      0.1270     -3.7219     29.6747    116.1387
  1462.3000      8.1642      2.7127      0.1041     -3.7973     29.0587    120.7247
  1462.4000      8.1642      2.7029      0.1316     -3.2065     28.3198    125.6482
  1462.5000      8.1616      2.6860      0.0558     -2.1829     27.6923    124.2149
  1462.6000      8.1616      2.6756      0.0509     -1.5511     27.4653    118.7018
  1462.7000      8.1616      2.6750      0.0736     -1.5155     27.2805    114.6933
  1462.8000      8.1608      2.6714      0.0529     -1.2956     26.6881    112.1019
  1462.9000      8.1608      2.6653     -0.0073     -0.9243     26.0841    106.9285
  1463.0000      8.1638      2.6593      0.0493     -0.5624     26.2084    101.3941
  1463.1000      8.1638      2.6513      0.0138     -0.0803     26.6997    101.5972
  1463.2000      8.1638      2.6612     -0.0235     -0.6768     26.6395    105.6272
  1463.3000      8.1667      2.7031      0.0548     -3.2201     26.1297    106.1942
  1463.4000      8.1667      2.7580      0.0622     -6.5438     25.7955    103.4359
  1463.5000      8.1631      2.8017      0.1458     -9.1969     25.8680    101.4130
  1463.6000      8.1631      2.8176      0.1256    -10.1580     26.1620    100.5767
  1463.7000      8.1631      2.8064      0.0926     -9.4805     26.4150    101.9460
