~Version Information
VERS.                      2.0: CWLS Log ASCII Standard - VERSION 2.0
WRAP.                       NO: One line per depth step
~Well Information Block
STRT.FT                 0.0000: 
STOP.FT              1390.5000: 
STEP.FT                 0.2500: 
NULL.                -999.2500: 
COMP.          Petrogulf Corporation: COMPANY
WELL.             Leier 17-42R: WELL
FLD.           Purgatorie River: FIELD
LOC.           2398' FNL & 1109' FEL: LOCATION
PROV.                 Colorado: PROVINCE
CNTY.               Las Animas: COUNTRY
SRVC.                Patterson: SERVICE COMPANY
DATE.          Thu Nov 10 14:34:29 2005: LOG DATE
UWI.                          : UNIQUE WELL ID
~Curve Information Block
DEPT.FT            0 000 00 00: Depth
CCL.                          : Casing Collar Locator
TT3.usec                      : CBL 3' Travel Time
AMP3.mV                       : CBL 3' Amplitude
GR.GAPI                       : Gamma Ray
~Parameter Information Block
~A  Depth       CCL         TT3         AMP3         GR     
     0.0000      0.0000   1197.0000      0.8216     45.8938
     0.2500      0.0000   1197.0000      0.9300     56.9162
     0.5000      0.0000   1197.0000      0.9585     60.2357
     0.7500      0.0000   1197.0000      0.9405     62.7614
     1.0000      0.0000   1197.0000      0.9011     64.5574
     1.2500      0.0000   1197.0000      0.8726     65.0660
     1.5000      0.0000   1197.0000      0.8718     63.9859
     1.7500      0.0000   1197.0000      0.8944     62.0189
     2.0000      0.0000   1197.0000      0.9181     60.6225
     2.2500      0.0000   1197.0000      0.9269     60.9798
     2.5000      0.0000   1197.0000      0.9260     63.1360
     2.7500      0.0000   1197.0000      0.9297     65.9962
     3.0000      0.0000   1197.0000      0.9453     68.0950
     3.2500      0.0000   1197.0000      0.9575     68.6126
     3.5000      0.0000   1197.0000      0.9418     67.9599
     3.7500      0.0000   1197.0000      0.9059     67.3406
     4.0000      0.0000   1197.0000      0.8878     67.5373
     4.2500      0.0000   1197.0000      0.8968     68.1558
     4.5000      0.0000   1197.0000      0.9042     68.3259
     4.7500      0.0000   1197.0000      0.8897     68.1056
     5.0000      2.0000   1196.9648      0.8665     68.7848
     5.2500      0.0000   1196.5184      0.8722     71.4844
     5.5000      0.0000   1193.0391      0.9518     75.5425
     5.7500      0.0000   1175.2279      1.2722     78.6138
     6.0000      0.0000   1114.7157      2.5855     78.6394
     6.2500      0.0000    976.8235      6.8769     75.7008
     6.5000      2.0000    763.8767     16.7501     71.8148
     6.7500      0.0000    539.1209     32.2576     69.0590
     7.0000      0.0000    376.0925     48.7139     68.0882
     7.2500      0.0000    294.6007     60.4405     68.1070
     7.5000      0.0000    266.5049     66.0736     67.6874
     7.7500      0.0000    259.8145     67.9915     65.6680
     8.0000      0.0000    258.6918     68.5690     61.8028
     8.2500      0.0000    258.5338     68.8212     56.8411
     8.5000      0.0000    258.4938     69.0071     51.9450
     8.7500      0.0000    258.4721     69.1639     47.9751
     9.0000      0.0000    258.4687     69.2821     45.2457
     9.2500      0.0000    258.4822     69.3695     43.6942
     9.5000      0.0000    258.4952     69.4575     43.1447
     9.7500      0.0000    258.4884     69.5869     43.4961
    10.0000      0.0000    258.4615     69.7786     44.6801
    10.2500      0.0000    258.4351     69.9928     46.4151
    10.5000      0.0000    258.4232     70.1619     48.1974
    10.7500      0.0000    258.4198     70.2666     49.5779
    11.0000      0.0000    258.4166     70.3475     50.2734
    11.2500      0.0000    258.4140     70.4583     50.1661
    11.5000      0.0000    258.4177     70.6133     49.5109
    11.7500      0.0000    258.4304     70.7803     48.9281
    12.0000      0.0000    258.4482     70.9387     48.8732
    12.2500      0.0000    258.4673     71.1278     49.2113
    12.5000      0.0000    258.4858     71.3932     49.3956
    12.7500      0.0000    258.4970     71.6978     48.9939
    13.0000      0.0000    258.4945     71.9562     48.0549
    13.2500      0.0000    258.4790     72.1237     47.0255
    13.5000      0.0000    258.4625     72.1946     46.3257
    13.7500      0.0000    258.4597     72.1984     46.0569
    14.0000      0.0000    258.4722     72.2116     46.1351
    14.2500      0.0000    258.4882     72.2781     46.6388
    14.5000      0.0000    258.4984     72.3713     48.0425
    14.7500      0.0000    258.4982     72.4683     51.1215
    15.0000      0.0000    258.4888     72.5610     56.5234
    15.2500      0.0000    258.4821     72.6337     64.2232
    15.5000      0.0000    258.4922     72.7055     73.1426
    15.7500      0.0000    258.5196     72.8033     81.3301
    16.0000      0.0000    258.5459     72.9020     87.0731
    16.2500      0.0000    258.5557     72.9599     90.2711
    16.5000      0.0000    258.5501     72.9808     92.4629
    16.7500      0.0000    258.5334     73.0050     95.1607
    17.0000      0.0000    258.5073     73.0427     98.3218
    17.2500      0.0000    258.4813     73.0750    100.6457
    17.5000      0.0000    258.4671     73.1091    101.0718
    17.7500      0.0000    258.4692     73.1537     99.6611
    18.0000      0.0000    258.4858     73.1898     97.3395
    18.2500      0.0000    258.5084     73.2112     95.2802
    18.5000      0.0000    258.5191     73.2420     94.4313
    18.7500      0.0000    258.5037     73.3020     95.2153
    19.0000      0.0000    258.4771     73.3783     97.4896
    19.2500      0.0000    258.4717     73.4532    100.6833
    19.5000      0.0000    258.4911     73.5427    103.8667
    19.7500      0.0000    258.5070     73.6313    105.8716
    20.0000      0.0000    258.5045     73.6164    105.8426
    20.2500      0.0000    258.5092     73.4041    103.8959
    20.5000      0.0000    258.5605     73.0190    101.0828
    20.7500      0.0000    258.6695     72.5681     98.5457
    21.0000      0.0000    258.8219     72.0954     96.6762
    21.2500      0.0000    258.9993     71.5455     95.0374
    21.5000      0.0000    259.1794     70.8768     93.0479
    21.7500      0.0000    259.3386     70.1097     90.7280
    22.0000      0.0000    259.4736     69.2782     88.7950
    22.2500      0.0000    259.6022     68.4373     88.0240
    22.5000      0.0000    259.7352     67.6545     88.5240
    22.7500      0.0000    259.8690     66.9061     89.6287
    23.0000      0.0000    259.9981     66.1039     90.4214
    23.2500      0.0000    260.1151     65.2792     90.3585
    23.5000      0.0000    260.2133     64.5379     89.5137
    23.7500      0.0000    260.3089     63.7763     88.2843
    24.0000      0.0000    260.4979     62.6120     86.7829
    24.2500      0.0000    261.1717     60.4664     84.4970
    24.5000      0.0000    263.4666     56.6654     80.6820
    24.7500      0.0000    269.2689     51.0186     75.2374
    25.0000      0.0000    279.3821     44.3749     69.1169
    25.2500      0.0000    291.1205     38.2323     63.7291
    25.5000      0.0000    299.9885     33.8334     60.0115
    25.7500      0.0000    304.2560     31.3853     58.1281
    26.0000      0.0000    305.5186     30.0492     57.8146
    26.2500     -2.0000    305.7437     28.9180     58.7660
    26.5000      2.0000    305.8138     27.7442     60.7586
    26.7500      0.0000    305.9359     26.7422     63.5149
    27.0000      0.0000    306.2124     26.2463     66.3990
    27.2500      0.0000    306.9277     26.6037     68.3941
    27.5000      0.0000    308.4425     27.6752     68.8303
    27.7500      0.0000    310.1620     28.5121     68.2144
    28.0000      0.0000    309.9936     28.7335     67.8787
    28.2500      0.0000    306.8705     29.3324     68.6055
    28.5000      0.0000    302.7999     30.7381     70.0146
    28.7500      0.0000    300.1885     31.9928     71.4620
    29.0000      0.0000    299.2675     32.4024     72.9049
    29.2500      0.0000    299.1340     32.1586     74.5213
    29.5000      0.0000    299.1936     31.5940     75.9167
    29.7500      0.0000    299.2632     30.9086     76.1844
    30.0000      0.0000    299.2970     30.3037     74.7145
    30.2500      0.0000    299.2990     29.9145     71.7118
    30.5000      0.0000    299.3155     29.7165     67.8991
    30.7500      0.0000    299.3789     29.5874     63.9210
    31.0000      0.0000    299.4601     29.4446     60.2036
    31.2500      0.0000    299.5046     29.2882     57.1909
    31.5000      0.0000    299.5052     29.0828     55.2400
    31.7500      0.0000    299.5191     28.7257     54.0588
    32.0000      0.0000    299.5981     28.2090     52.5503
    32.2500      0.0000    299.7188     27.6668     49.7012
    32.5000      0.0000    299.8178     27.1999     45.7990
    32.7500      0.0000    299.8799     26.7787     42.5083
    33.0000      0.0000    299.9466     26.3285     41.5148
    33.2500      0.0000    300.0465     25.8151     43.2254
