~Version Information
VERS.                      2.0: CWLS Log ASCII Standard - VERSION 2.0
WRAP.                       NO: One line per depth step
~Well Information Block
STRT.FT               950.0000: 
STOP.FT              2417.7000: 
STEP.FT                 0.1000: 
NULL.                -999.2500: 
COMP.          Pioneer Natural Resources: COMPANY
WELL.            Chevron 13-13: WELL
FLD.           Purgatoire River: FIELD
LOC.           1560' FSL & 711' FWL--: LOCATION
CNTY.               Las Animas: COUNTY
SRVC.          Superior Well Services: SERVICE COMPANY
DATE.          Mon Feb 12 14:55:24 2007: LOG DATE
UWI.           05 071 08319 00: UNIQUE WELL ID
STAT.                 Colorado: STATE
~Curve Information Block
DEPT.FT            0 000 00 00: Depth
DCAL.in                       : CDL Caliper
RHOB.g/cc                     : CDL Bulk Density
RHOC.g/cc                     : CDL Density Correction
DPOR.pu                       : CDL Density Porosity
GR.GAPI                       : Gamma Ray
~Parameter Information Block
~A  Depth       DCAL        RHOB        RHOC        DPOR         GR     
# ...
  1330.8000      7.8642      2.6042      0.0973      2.7780     45.4045
  1330.9000      7.8642      2.5930      0.1044      3.4575     46.6018
  1331.0000      7.8723      2.5688      0.0261      4.9239     44.9518
  1331.1000      7.8723      2.5600      0.0028      5.4541     42.6209
  1331.2000      7.8723      2.5733      0.0899      4.6508     41.8306
  1331.3000      7.8761      2.5882      0.0596      3.7457     44.1410
  1331.4000      7.8761      2.5907      0.0702      3.5961     47.5932
  1331.5000      7.8725      2.5846      0.0408      3.9621     47.9519
  1331.6000      7.8725      2.5891      0.1059      3.6937     46.5670
  1331.7000      7.8725      2.6111      0.0964      2.3560     46.9319
  1331.8000      7.8673      2.6431      0.0928      0.4204     47.1214
  1331.9000      7.8673      2.6761      0.0930     -1.5788     44.6736
  1332.0000      7.8702      2.6954      0.1347     -2.7495     42.8138
  1332.1000      7.8702      2.6895      0.1019     -2.3951     45.8152
  1332.2000      7.8702      2.6687      0.1068     -1.1362     49.6325
  1332.3000      7.8782      2.6531      0.0703     -0.1879     48.0221
  1332.4000      7.8782      2.6490      0.0763      0.0614     42.3386
  1332.5000      7.8830      2.6445      0.0969      0.3328     39.0716
  1332.6000      7.8830      2.6247      0.0644      1.5339     40.4234
  1332.7000      7.8830      2.5906      0.0294      3.5996     43.2799
  1332.8000      7.8840      2.5558      0.0602      5.7067     45.8676
  1332.9000      7.8840      2.5364      0.0447      6.8828     48.0274
  1333.0000      7.8841      2.5437      0.0192      6.4431     48.7768
  1333.1000      7.8841      2.5638      0.0829      5.2252     47.8481
  1333.2000      7.8841      2.5728      0.0715      4.6798     45.2428
  1333.3000      7.8831      2.5733      0.0260      4.6473     42.9136
  1333.4000      7.8831      2.5812      0.0393      4.1697     43.8172
  1333.5000      7.8789      2.5958      0.0156      3.2820     46.1420
  1333.6000      7.8789      2.5982      0.1299      3.1403     45.8661
  1333.7000      7.8789      2.5734      0.0494      4.6444     43.4783
  1333.8000      7.8692      2.5391      0.0121      6.7185     42.6798
  1333.9000      7.8692      2.5249      0.0400      7.5798     44.4955
  1334.0000      7.8550      2.5389      0.0731      6.7330     47.2779
  1334.1000      7.8550      2.5649      0.0712      5.1559     48.1896
  1334.2000      7.8550      2.5824      0.0962      4.0987     46.7052
  1334.3000      7.8441      2.5775      0.1068      4.3913     46.6917
  1334.4000      7.8441      2.5499      0.0701      6.0642     49.4200
  1334.5000      7.8405      2.5227      0.0642      7.7179     52.7440
  1334.6000      7.8405      2.5202      0.0521      7.8686     56.5193
  1334.7000      7.8405      2.5406      0.0624      6.6330     57.1626
  1334.8000      7.8414      2.5597      0.0975      5.4730     51.5384
  1334.9000      7.8414      2.5603      0.0725      5.4363     48.2021
  1335.0000      7.8485      2.5554      0.0554      5.7319     53.0649
  1335.1000      7.8485      2.5600      0.0759      5.4516     58.8685
  1335.2000      7.8485      2.5627      0.1390      5.2934     60.8937
  1335.3000      7.8631      2.5619      0.0581      5.3367     62.5812
  1335.4000      7.8631      2.5754      0.1456      4.5213     65.6560
  1335.5000      7.8761      2.5961      0.1268      3.2654     68.3225
  1335.6000      7.8761      2.6115      0.0813      2.3320     67.6541
  1335.7000      7.8761      2.6281      0.0896      1.3302     63.4424
  1335.8000      7.8840      2.6454      0.1129      0.2791     63.3630
  1335.9000      7.8840      2.6466      0.1266      0.2071     71.5387
  1336.0000      7.8893      2.6197      0.1118      1.8341     80.9512
  1336.1000      7.8893      2.5768      0.0554      4.4341     84.0621
  1336.2000      7.8893      2.5415      0.0566      6.5737     83.2770
  1336.3000      7.8901      2.5259      0.0824      7.5223     88.7889
  1336.4000      7.8901      2.5293      0.0570      7.3168    104.3805
  1336.5000      7.8917      2.5441      0.0732      6.4184    121.1573
  1336.6000      7.8917      2.5583      0.0493      5.5551    130.0854
  1336.7000      7.8917      2.5661      0.0233      5.0820    132.6333
  1336.8000      7.9065      2.5688      0.0718      4.9193    132.3712
  1336.9000      7.9065      2.5705      0.1078      4.8158    129.1902
  1337.0000      7.9298      2.5756      0.1141      4.5070    126.1577
  1337.1000      7.9298      2.5787      0.1122      4.3212    127.2946
  1337.2000      7.9298      2.5722      0.0726      4.7161    128.2435
  1337.3000      7.9429      2.5634      0.0970      5.2494    125.5166
  1337.4000      7.9429      2.5591      0.0694      5.5073    122.5990
  1337.5000      7.9442      2.5538      0.0861      5.8292    122.6304
  1337.6000      7.9442      2.5432      0.0546      6.4730    122.8108
  1337.7000      7.9442      2.5314      0.1046      7.1903    120.3816
  1337.8000      7.9388      2.5269      0.0984      7.4594    117.6634
  1337.9000      7.9388      2.5342      0.1185      7.0203    118.2891
  1338.0000      7.9288      2.5436      0.1403      6.4495    124.1960
  1338.1000      7.9288      2.5462      0.0754      6.2904    133.0340
  1338.2000      7.9288      2.5481      0.0710      6.1755    138.6620
  1338.3000      7.9215      2.5571      0.1043      5.6292    135.4047
  1338.4000      7.9215      2.5695      0.0979      4.8795    125.5248
  1338.5000      7.9184      2.5693      0.1373      4.8902    117.9377
  1338.6000      7.9184      2.5429      0.0878      6.4916    119.3949
  1338.7000      7.9184      2.5017      0.0403      8.9851    126.0554
  1338.8000      7.9173      2.4724     -0.0043     10.7658    127.9292
  1338.9000      7.9173      2.4670     -0.0169     11.0925    126.9397
  1339.0000      7.9181      2.4813      0.0156     10.2266    129.7951
  1339.1000      7.9181      2.5103     -0.0169      8.4668    132.8945
  1339.2000      7.9181      2.5484      0.0289      6.1558    132.1045
  1339.3000      7.9207      2.5845      0.0695      3.9726    129.7642
  1339.4000      7.9207      2.6107      0.1161      2.3827    126.8550
  1339.5000      7.9249      2.6278      0.0901      1.3436    126.0239
  1339.6000      7.9249      2.6421      0.0696      0.4816    130.9304
  1339.7000      7.9249      2.6551      0.1151     -0.3077    132.2170
  1339.8000      7.9288      2.6677      0.1211     -1.0741    122.4505
  1339.9000      7.9288      2.6808      0.1294     -1.8659    112.1452
  1340.0000      7.9301      2.6896      0.0754     -2.4015    109.5078
  1340.1000      7.9301      2.6910      0.0865     -2.4852    110.9385
  1340.2000      7.9301      2.6872      0.0303     -2.2526    111.7056
  1340.3000      7.9305      2.6820      0.0309     -1.9422    110.7248
  1340.4000      7.9305      2.6674      0.0565     -1.0540    109.8692
  1340.5000      7.9315      2.6381      0.0320      0.7235    111.4684
  1340.6000      7.9315      2.6133      0.0242      2.2223    115.6463
  1340.7000      7.9315      2.6061      0.0598      2.6617    123.7809
  1340.8000      7.9331      2.6020      0.1088      2.9097    133.1411
  1340.9000      7.9331      2.5972      0.0356      3.1973    134.1626
  1341.0000      7.9337      2.6079      0.0326      2.5533    127.1158
  1341.1000      7.9337      2.6241      0.1133      1.5678    121.4511
  1341.2000      7.9337      2.6230      0.0458      1.6389    121.0078
  1341.3000      7.9336      2.6107      0.0410      2.3810    126.4619
  1341.4000      7.9336      2.6076      0.0341      2.5726    136.4656
  1341.5000      7.9316      2.6279      0.0386      1.3404    145.1686
  1341.6000      7.9316      2.6619      0.1216     -0.7191    146.0897
  1341.7000      7.9316      2.6776      0.1250     -1.6727    137.8477
  1341.8000      7.9258      2.6668      0.1038     -1.0167    127.2028
  1341.9000      7.9258      2.6471      0.0808      0.1764    124.1972
