~Version Information
VERS.                      2.0: CWLS Log ASCII Standard - VERSION 2.0
WRAP.                       NO: One line per depth step
~Well Information Block
STRT.FT               392.5000: 
STOP.FT              2252.6000: 
STEP.FT                 0.1000: 
NULL.                -999.2500: 
COMP.          Petrogulf Corporation: COMPANY
WELL.          Alexander 9-43V: WELL
FLD.           Purgatorie River: FIELD
LOC.           1651' FSL & 1081' FEL: LOCATION
CNTY.               Las Animas: COUNTY
SRVC.                         : SERVICE COMPANY
DATE.          Mon Mar 17 08:48:25 2003: LOG DATE
UWI.           05 071 07727 00: UNIQUE WELL ID
STAT.                 Colorado: STATE
~Curve Information Block
DEPT.FT            0 000 00 00: Depth
DCAL.in                       : CDL Caliper
RHOB.g/cc                     : CDL Bulk Density
RHOC.g/cc                     : CDL Density Correction
DPOR.pu                       : CDL Density Porosity
GR.GAPI                       : Gamma Ray
NPOR.pu                       : Neutron Porosity
~Parameter Information Block
~A  Depth       DCAL        RHOB        RHOC        DPOR         GR         NPOR    
# ...
  1515.7000      8.0793      2.5070      0.0851      8.6645    149.2450     26.6451
  1515.8000      8.0672      2.5092      0.0719      8.5346    153.6156     26.9572
  1515.9000      8.0672      2.5096      0.0597      8.5098    153.6156     27.2593
  1516.0000      8.0669      2.5086      0.0490      8.5708    156.9702     27.5512
  1516.1000      8.0669      2.5065      0.0400      8.6946    156.9702     27.8297
  1516.2000      8.0669      2.5039      0.0330      8.8554    156.9702     28.0895
  1516.3000      8.0820      2.5011      0.0286      9.0259    159.7450     28.3241
  1516.4000      8.0820      2.4985      0.0273      9.1797    159.7450     28.5275
  1516.5000      8.0937      2.4967      0.0294      9.2920    161.6379     28.6950
  1516.6000      8.0937      2.4959      0.0355      9.3416    161.6379     28.8247
  1516.7000      8.0937      2.4963      0.0457      9.3127    161.6379     28.9175
  1516.8000      8.0993      2.4983      0.0598      9.1951    162.4122     28.9777
  1516.9000      8.0993      2.5017      0.0774      8.9854    162.4122     29.0124
  1517.0000      8.1063      2.5067      0.0976      8.6870    162.2047     29.0305
  1517.1000      8.1063      2.5129      0.1191      8.3098    162.2047     29.0421
  1517.2000      8.1063      2.5202      0.1407      7.8687    162.2047     29.0573
  1517.3000      8.1164      2.5282      0.1607      7.3829    161.2418     29.0850
  1517.4000      8.1164      2.5366      0.1778      6.8741    161.2418     29.1312
  1517.5000      8.1229      2.5450      0.1909      6.3643    159.6429     29.1991
  1517.6000      8.1229      2.5531      0.1992      5.8748    159.6429     29.2879
  1517.7000      8.1229      2.5605      0.2022      5.4242    159.6429     29.3932
  1517.8000      8.1223      2.5671      0.1998      5.0271    157.3517     29.5075
  1517.9000      8.1223      2.5725      0.1925      4.6943    157.3517     29.6213
  1518.0000      8.1144      2.5769      0.1809      4.4317    154.1041     29.7245
  1518.1000      8.1144      2.5800      0.1662      4.2407    154.1041     29.8076
  1518.2000      8.1144      2.5820      0.1494      4.1192    154.1041     29.8628
  1518.3000      8.1024      2.5830      0.1319      4.0621    149.7667     29.8852
  1518.4000      8.1024      2.5830      0.1146      4.0623    149.7667     29.8722
  1518.5000      8.0934      2.5822      0.0987      4.1119    144.9544     29.8248
  1518.6000      8.0934      2.5807      0.0845      4.2027    144.9544     29.7460
  1518.7000      8.0934      2.5786      0.0726      4.3276    144.9544     29.6418
  1518.8000      8.0864      2.5761      0.0627      4.4800    141.1077     29.5194
  1518.9000      8.0864      2.5732      0.0548      4.6550    141.1077     29.3873
  1519.0000      8.0807      2.5700      0.0486      4.8489    139.5895     29.2544
  1519.1000      8.0807      2.5665      0.0436      5.0591    139.5895     29.1289
  1519.2000      8.0807      2.5628      0.0397      5.2839    139.5895     29.0175
  1519.3000      8.0813      2.5589      0.0364      5.5223    140.6146     28.9241
  1519.4000      8.0813      2.5547      0.0339      5.7734    140.6146     28.8497
  1519.5000      8.0886      2.5504      0.0318      6.0363    143.2197     28.7920
  1519.6000      8.0886      2.5459      0.0303      6.3101    143.2197     28.7461
  1519.7000      8.0886      2.5412      0.0294      6.5931    143.2197     28.7046
  1519.8000      8.0988      2.5364      0.0290      6.8834    146.2791     28.6598
  1519.9000      8.0988      2.5316      0.0292      7.1781    146.2791     28.6042
  1520.0000      8.1111      2.5267      0.0299      7.4737    149.3306     28.5327
  1520.1000      8.1111      2.5219      0.0311      7.7659    149.3306     28.4424
  1520.2000      8.1111      2.5172      0.0328      8.0497    149.3306     28.3339
  1520.3000      8.1228      2.5127      0.0349      8.3195    152.5027     28.2108
  1520.4000      8.1228      2.5086      0.0376      8.5693    152.5027     28.0789
  1520.5000      8.1313      2.5049      0.0408      8.7932    155.9985     27.9456
  1520.6000      8.1313      2.5017      0.0448      8.9856    155.9985     27.8182
  1520.7000      8.1313      2.4992      0.0496      9.1414    155.9985     27.7038
  1520.8000      8.1431      2.4973      0.0554      9.2566    159.7053     27.6073
  1520.9000      8.1431      2.4961      0.0623      9.3284    159.7053     27.5318
  1521.0000      8.1659      2.4956      0.0699      9.3553    163.1474     27.4780
  1521.1000      8.1659      2.4959      0.0782      9.3369    163.1474     27.4451
  1521.2000      8.1659      2.4970      0.0866      9.2742    163.1474     27.4307
  1521.3000      8.2035      2.4987      0.0946      9.1687    165.8069     27.4325
  1521.4000      8.2035      2.5011      0.1019      9.0228    165.8069     27.4485
  1521.5000      8.2352      2.5042      0.1079      8.8389    167.4541     27.4783
  1521.6000      8.2352      2.5078      0.1127      8.6197    167.4541     27.5225
  1521.7000      8.2352      2.5119      0.1160      8.3682    167.4541     27.5831
  1521.8000      8.2280      2.5166      0.1181      8.0874    168.0233     27.6624
  1521.9000      8.2280      2.5216      0.1192      7.7809    168.0233     27.7624
  1522.0000      8.2009      2.5270      0.1196      7.4528    167.2356     27.8837
  1522.1000      8.2009      2.5327      0.1196      7.1082    167.2356     28.0253
  1522.2000      8.2009      2.5386      0.1192      6.7531    167.2356     28.1840
  1522.3000      8.1779      2.5445      0.1186      6.3945    164.7494     28.3548
  1522.4000      8.1779      2.5503      0.1175      6.0404    164.7494     28.5319
  1522.5000      8.1629      2.5560      0.1157      5.6988    160.8259     28.7091
  1522.6000      8.1629      2.5613      0.1130      5.3780    160.8259     28.8804
  1522.7000      8.1629      2.5661      0.1091      5.0855    160.8259     29.0407
  1522.8000      8.1486      2.5703      0.1038      4.8281    156.4686     29.1858
  1522.9000      8.1486      2.5739      0.0973      4.6106    156.4686     29.3125
  1523.0000      8.1311      2.5768      0.0895      4.4361    152.6022     29.4179
  1523.1000      8.1311      2.5790      0.0808      4.3059    152.6022     29.5002
  1523.2000      8.1311      2.5804      0.0716      4.2191    152.6022     29.5583
  1523.3000      8.1043      2.5811      0.0622      4.1729    149.2757     29.5921
  1523.4000      8.1043      2.5813      0.0530      4.1630    149.2757     29.6037
  1523.5000      8.0701      2.5810      0.0443      4.1840    145.8338     29.5974
  1523.6000      8.0701      2.5802      0.0363      4.2293    145.8338     29.5809
  1523.7000      8.0701      2.5792      0.0293      4.2923    145.8338     29.5643
  1523.8000      8.0485      2.5780      0.0231      4.3657    141.7477     29.5602
  1523.9000      8.0485      2.5767      0.0179      4.4430    141.7477     29.5817
  1524.0000      8.0401      2.5755      0.0136      4.5177    137.1139     29.6411
  1524.1000      8.0401      2.5744      0.0102      4.5839    137.1139     29.7472
  1524.2000      8.0401      2.5735      0.0076      4.6367    137.1139     29.9042
  1524.3000      8.0381      2.5729      0.0058      4.6720    132.4494     30.1098
  1524.4000      8.0381      2.5727      0.0047      4.6865    132.4494     30.3554
  1524.5000      8.0382      2.5728      0.0043      4.6781    128.1889     30.6264
  1524.6000      8.0382      2.5733      0.0044      4.6455    128.1889     30.9043
  1524.7000      8.0382      2.5743      0.0050      4.5885    128.1889     31.1691
  1524.8000      8.0325      2.5756      0.0061      4.5081    124.3891     31.4016
  1524.9000      8.0325      2.5773      0.0074      4.4060    124.3891     31.5861
  1525.0000      8.0173      2.5793      0.0091      4.2848    120.8028     31.7121
  1525.1000      8.0173      2.5816      0.0110      4.1484    120.8028     31.7751
  1525.2000      8.0173      2.5840      0.0133      4.0011    120.8028     31.7764
