~Version Information
VERS.                      2.0: CWLS Log ASCII Standard - VERSION 2.0
WRAP.                       NO: One line per depth step
~Well Information Block
STRT.FT                -7.5000: 
STOP.FT              2339.2500: 
STEP.FT                 0.2500: 
NULL.                -999.2500: 
COMP.          Pioneer Natural Resources: COMPANY
WELL.            Harrier 44-33: WELL
FLD.           Purgatorie River: FIELD
LOC.           456' FSL & 930' FEL--: LOCATION
PROV.                       CO: PROVINCE
CNTY.               Las Animas: COUNTRY
SRVC.          Patterson Wireline: SERVICE COMPANY
DATE.          Wed Jun 29 11:08:51 2005: LOG DATE
UWI.           05 071 08398 00: UNIQUE WELL ID
~Curve Information Block
DEPT.FT            0 000 00 00: Depth
CCL.                          : Casing Collar Locator
TT3.usec                      : CBL 3' Travel Time
AMP3.mV                       : CBL 3' Amplitude
GR.GAPI                       : Gamma Ray
~Parameter Information Block
~A  Depth       CCL         TT3         AMP3         GR     
# ...
   160.0000      0.0000    768.6652      5.4051     50.9905
   160.2500      0.0000    774.5875      5.3816     53.6077
   160.5000      0.0000    780.7394      5.4060     55.8014
   160.7500      0.0000    786.6082      5.4754     57.2330
   161.0000      0.0000    790.8838      5.5753     58.2745
   161.2500      0.0000    792.3289      5.6865     59.3040
   161.5000      0.0000    790.8047      5.7931     60.1759
   161.7500      0.0000    787.7932      5.8822     60.4799
   162.0000      0.0000    785.6552      5.9404     60.1120
   162.2500      0.0000    785.9101      5.9575     59.4148
   162.5000      0.0000    788.1846      5.9344     58.8613
   162.7500      0.0000    790.7848      5.8860     58.7328
   163.0000      0.0000    792.1280      5.8346     58.9928
   163.2500      0.0000    791.9274      5.7977     59.4057
   163.5000      0.0000    791.3587      5.7769     59.8474
   163.7500      0.0000    791.7484      5.7586     60.4968
   164.0000      0.0000    792.7750      5.7297     61.5627
   164.2500      0.0000    792.4128      5.6908     62.7999
   164.5000      0.0000    788.9892      5.6549     63.5003
   164.7500      0.0000    782.9479      5.6371     63.1404
   165.0000      0.0000    776.3893      5.6469     61.9241
   165.2500      0.0000    771.2537      5.6843     60.4797
   165.5000      0.0000    768.1989      5.7387     59.2304
   165.7500      0.0000    766.8170      5.7953     58.3987
   166.0000      0.0000    766.3896      5.8410     58.3658
   166.2500      0.0000    766.3765      5.8629     59.4133
   166.5000      0.0000    766.5007      5.8503     61.0316
   166.7500      0.0000    766.6494      5.8047     61.9707
   167.0000      0.0000    766.7884      5.7433     61.3450
   167.2500      0.0000    766.9672      5.6880     59.7097
   167.5000      0.0000    767.3783      5.6508     58.8401
   167.7500      0.0000    768.3885      5.6311     60.2029
   168.0000      0.0000    770.4230      5.6234     63.4377
   168.2500      0.0000    773.6175      5.6240     66.4405
   168.5000      0.0000    777.5551      5.6310     67.2529
   168.7500      0.0000    781.6536      5.6397     65.7935
   169.0000      0.0000    785.9315      5.6421     63.4426
   169.2500      0.0000    790.9379      5.6343     61.4147
   169.5000      0.0000    796.6954      5.6203     60.3376
   169.7500      0.0000    802.2148      5.6050     60.9985
   170.0000      0.0000    806.3294      5.5880     64.2261
   170.2500      0.0000    808.6036      5.5676     69.7462
   170.5000      0.0000    809.2232      5.5481     75.7772
   170.7500      0.0000    808.4555      5.5371     80.0000
   171.0000      0.0000    806.6537      5.5394     80.9512
   171.2500      0.0000    804.6695      5.5584     78.8371
   171.5000      0.0000    803.7137      5.5963     75.1992
   171.7500      0.0000    804.4451      5.6483     71.7248
   172.0000      0.0000    806.3637      5.7027     69.1376
   172.2500      0.0000    808.3500      5.7500     66.9661
   172.5000      0.0000    809.5730      5.7856     64.2926
   172.7500      0.0000    809.5724      5.8003     60.9431
   173.0000      0.0000    807.4890      5.7736     58.0728
   173.2500      0.0000    801.6886      5.6841     57.4675
   173.5000      0.0000    791.0739      5.5316     60.0663
   173.7500      0.0000    777.8538      5.3531     65.1478
   174.0000      0.0000    768.6048      5.2099     71.0140
   174.2500      0.0000    770.5388      5.1335     76.3449
   174.5000      0.0000    785.2378      5.0871     80.6463
   174.7500      0.0000    806.3099      5.0058     83.6232
   175.0000      0.0000    823.3093      4.8720     84.8711
   175.2500      0.0000    827.7490      4.7235     84.5403
   175.5000      0.0000    817.3008      4.5985     83.8636
   175.7500      0.0000    796.9671      4.5054     84.3780
   176.0000      2.0000    775.4166      4.4390     86.4098
   176.2500      0.0000    757.7309      4.4032     88.6338
   176.5000      0.0000    742.4852      4.4081     89.4191
   176.7500      0.0000    727.1627      4.4492     88.5393
   177.0000      0.0000    713.0458      4.4907     87.2595
   177.2500      0.0000    701.7870      4.4792     86.7646
   177.5000      0.0000    690.7767      4.3911     86.9572
   177.7500      0.0000    676.5364      4.2584     86.9633
   178.0000      0.0000    661.4129      4.1384     86.3218
   178.2500      0.0000    653.5345      4.0671     85.3641
   178.5000      0.0000    659.3282      4.0469     84.7251
   178.7500      0.0000    677.0675      4.0616     84.6645
   179.0000      0.0000    698.3743      4.0933     84.6519
   179.2500      0.0000    715.3036      4.1305     83.6694
   179.5000      0.0000    725.1580      4.1672     81.1409
   179.7500      0.0000    729.6050      4.1972     77.4630
   180.0000      0.0000    731.3499      4.2105     73.6538
   180.2500      0.0000    732.1523      4.2011     70.8698
   180.5000      0.0000    732.6480      4.1736     70.2903
   180.7500      0.0000    732.8784      4.1385     72.7673
   181.0000      0.0000    732.7903      4.1015     78.0824
   181.2500      0.0000    732.4634      4.0600     84.7398
   181.5000      0.0000    732.1042      4.0094     90.6731
   181.7500      0.0000    732.0372      3.9497     94.1501
   182.0000      0.0000    732.8249      3.8870     94.3145
   182.2500      0.0000    735.3264      3.8304     91.3536
   182.5000      0.0000    740.3207      3.7881     86.4363
   182.7500      0.0000    747.7198      3.7640     81.3554
   183.0000      0.0000    756.1318      3.7579     77.7087
   183.2500      0.0000    763.5603      3.7684     76.1518
   183.5000      0.0000    768.8050      3.7934     76.6144
   183.7500      0.0000    772.2054      3.8276     78.9705
   184.0000      0.0000    775.0527      3.8625     82.8542
   184.2500      0.0000    778.2933      3.8938     86.9631
   184.5000      0.0000    781.6805      3.9260     89.2986
   184.7500      0.0000    784.0325      3.9668     88.3705
   185.0000      0.0000    784.0762      4.0184     84.1299
   185.2500      0.0000    780.7921      4.0770     77.9012
   185.5000      0.0000    773.4415      4.1384     71.5511
   185.7500      0.0000    762.3202      4.1980     66.5584
   186.0000      0.0000    749.5583      4.2497     63.4981
   186.2500      0.0000    738.2374      4.2880     62.0091
   186.5000      0.0000    730.3834      4.3122     61.2008
   186.7500      0.0000    726.0854      4.3255     60.4942
   187.0000      0.0000    724.2813      4.3302     60.3591
   187.2500      0.0000    723.8391      4.3265     61.9907
   187.5000      0.0000    723.9677      4.3161     65.8904
   187.7500      0.0000    724.1804      4.3068     70.8136
   188.0000      0.0000    724.2739      4.3131     74.4911
   188.2500      0.0000    724.4220      4.3509     75.4210
   188.5000      0.0000    725.2735      4.4299     73.7760
   188.7500      0.0000    727.8362      4.5511     70.9456
   189.0000      0.0000    732.8770      4.7103     68.6757
   189.2500      0.0000    739.8998      4.9007     68.1673
   189.5000      0.0000    746.6296      5.1102     69.2573
   189.7500      0.0000    750.1313      5.3189     70.5932
   190.0000      0.0000    749.1047      5.5044     70.9057
   190.2500      0.0000    745.2184      5.6532     69.8653
   190.5000      0.0000    742.0546      5.7662     67.6692
   190.7500      0.0000    742.6226      5.8547     64.4428
   191.0000      0.0000    747.5520      5.9305     60.4340
   191.2500      0.0000    755.2045      5.9978     56.2875
   191.5000      0.0000    763.4103      6.0548     52.6850
   191.7500      0.0000    771.2247      6.1012     49.9582
   192.0000      0.0000    778.9432      6.1426     48.1779
   192.2500      0.0000    786.4963      6.1835     47.3816
   192.5000      0.0000    792.6122      6.2187     47.7603
   192.7500      0.0000    796.3075      6.2353     49.6559
   193.0000      0.0000    798.7423      6.2264     53.0222
   193.2500      0.0000    802.4313      6.1995     56.8925
