~Version Information
VERS.                      2.0: CWLS Log ASCII Standard - VERSION 2.0
WRAP.                       NO: One line per depth step
~Well Information Block
STRT.FT               742.0000: 
STOP.FT              2582.0000: 
STEP.FT                 0.2500: 
NULL.                -999.2500: 
COMP.          Petrogulf Corporation: COMPANY
WELL.            Montoya 7-12V: WELL
FLD.           Purgatorie River: FIELD
LOC.           728' FWL & 1764' FNL: LOCATION
CNTY.               Las Animas: COUNTY
SRVC.                         : SERVICE COMPANY
DATE.          Thu Feb 19 20:58:32 2004: LOG DATE
UWI.           05-071-07887-00: UNIQUE WELL ID
STAT.                 Colorado: STATE
~Curve Information Block
DEPT.FT            0 000 00 00: Depth
SP.mV                         : DIL Spontaneous Potential
RILD.Ohm-m                    : DIL Deep Resistivity
RILM.Ohm-m                    : DIL Medium Resistivity
RLL3.Ohm-m                    : DIL Shallow Resistivity
GR.GAPI                       : Gamma Ray
~Parameter Information Block
~A  Depth        SP         RILD        RILM        RLL3         GR     
# ...
   882.0000   -232.7650     36.3813     44.0858     97.8540    108.3650
   882.2500   -232.8557     37.2327     47.7574    103.2274    105.0539
   882.5000   -232.7695     37.3201     50.4554    112.5349    100.6157
   882.7500   -232.5076     36.6008     51.3970    124.5321     98.0357
   883.0000   -232.0809     35.1341     50.0797    135.1680     94.6767
   883.2500   -231.5131     33.1028     46.6293    139.2500     92.9800
   883.5000   -230.8392     30.7702     41.7649    133.0047     92.4117
   883.7500   -230.0992     28.3884     36.4109    116.2428     94.4089
   884.0000   -229.3316     26.1309     31.3180     92.6954    102.4275
   884.2500   -228.5683     24.0826     26.9124     68.1042    111.1462
   884.5000   -227.8320     22.2637     23.3367     47.3626    127.6159
   884.7500   -227.1358     20.6586     20.5548     32.7213    139.3600
   885.0000   -226.4846     19.2363     18.4450     23.9199    155.7153
   885.2500   -225.8777     17.9652     16.8579     19.4432    164.5713
   885.5000   -225.3114     16.8225     15.6471     17.6414    172.8407
   885.7500   -224.7825     15.7976     14.6865     17.2171    174.3342
   886.0000   -224.2879     14.8897     13.8838     17.2911    171.5198
   886.2500   -223.8227     14.1010     13.1861     17.3360    168.1035
   886.5000   -223.3782     13.4305     12.5748     17.0958    164.0824
   886.7500   -222.9403     12.8698     12.0506     16.5294    163.2227
   887.0000   -222.4888     12.4034     11.6174     15.7853    164.4974
   887.2500   -221.9981     12.0119     11.2718     15.1591    166.2432
   887.5000   -221.4422     11.6774     10.9998     14.9704    168.9829
   887.7500   -220.8046     11.3872     10.7778     15.3584    170.7610
   888.0000   -220.0885     11.1361     10.5778     16.1089    173.6308
   888.2500   -219.3214     10.9246     10.3760     16.7027    175.3540
   888.5000   -218.5520     10.7556     10.1619     16.6471    175.9791
   888.7500   -217.8370     10.6313      9.9415     15.8492    174.3492
   889.0000   -217.2245     10.5516      9.7329     14.6634    169.6798
   889.2500   -216.7401     10.5138      9.5572     13.5707    166.6183
   889.5000   -216.3862     10.5123      9.4305     12.8345    164.3609
   889.7500   -216.1504     10.5396      9.3602     12.4360    164.6566
   890.0000   -216.0179     10.5881      9.3470     12.2396    166.6967
   890.2500   -215.9762     10.6514      9.3876     12.1638    168.2414
   890.5000   -216.0140     10.7261      9.4776     12.2324    169.7520
   890.7500   -216.1179     10.8116      9.6139     12.5209    170.0482
   891.0000   -216.2735     10.9089      9.7944     13.0641    169.8101
   891.2500   -216.4696     11.0205     10.0177     13.7964    169.4395
   891.5000   -216.7017     11.1501     10.2810     14.5757    168.5566
   891.7500   -216.9730     11.3023     10.5791     15.2819    167.7003
   892.0000   -217.2922     11.4812     10.9034     15.9055    166.1409
   892.2500   -217.6682     11.6878     11.2428     16.5399    164.8901
   892.5000   -218.1040     11.9194     11.5845     17.2644    162.1758
   892.7500   -218.5947     12.1694     11.9154     18.0159    159.5679
   893.0000   -219.1322     12.4301     12.2235     18.5831    155.2317
   893.2500   -219.7142     12.6947     12.4993     18.7636    153.3586
   893.5000   -220.3471     12.9575     12.7383     18.5438    154.4304
   893.7500   -221.0410     13.2123     12.9427     18.1146    158.0806
   894.0000   -221.8012     13.4501     13.1198     17.7138    166.2039
   894.2500   -222.6232     13.6608     13.2787     17.4696    171.8127
   894.5000   -223.4951     13.8369     13.4262     17.3772    178.5965
   894.7500   -224.4042     13.9769     13.5655     17.3798    181.5497
   895.0000   -225.3452     14.0861     13.6973     17.4483    183.5610
   895.2500   -226.3228     14.1745     13.8213     17.6016    183.5999
   895.5000   -227.3469     14.2542     13.9351     17.8725    182.3219
   895.7500   -228.4233     14.3374     14.0347     18.2579    180.6422
   896.0000   -229.5452     14.4345     14.1174     18.6946    176.8033
   896.2500   -230.6916     14.5540     14.1865     19.0819    173.6780
   896.5000   -231.8303     14.7022     14.2536     19.3402    169.1652
   896.7500   -232.9209     14.8845     14.3353     19.4515    166.6213
   897.0000   -233.9186     15.1069     14.4472     19.4438    163.3766
   897.2500   -234.7803     15.3759     14.6027     19.3562    161.5295
   897.5000   -235.4732     15.6975     14.8149     19.2480    159.7355
   897.7500   -235.9819     16.0744     15.1001     19.2439    159.6285
   898.0000   -236.3103     16.5054     15.4775     19.5452    161.3574
   898.2500   -236.4784     16.9856     15.9634     20.3607    163.4321
   898.5000   -236.5166     17.5075     16.5653     21.7776    166.5199
   898.7500   -236.4587     18.0611     17.2776     23.6646    167.4589
   899.0000   -236.3347     18.6319     18.0809     25.7268    165.7795
   899.2500   -236.1651     19.2027     18.9429     27.7338    162.6775
   899.5000   -235.9611     19.7607     19.8199     29.7143    156.7890
   899.7500   -235.7272     20.3045     20.6612     31.8491    153.2245
   900.0000   -235.4658     20.8446     21.4158     34.0893    149.2667
   900.2500   -235.1803     21.3915     22.0434     35.9256    147.3438
   900.5000   -234.8761     21.9425     22.5239     36.6644    145.1754
   900.7500   -234.5618     22.4750     22.8609     36.0016    144.4666
   901.0000   -234.2507     22.9528     23.0762     34.3107    145.3336
   901.2500   -233.9625     23.3405     23.1987     32.3696    147.2755
   901.5000   -233.7177     23.6175     23.2531     30.8389    151.0751
   901.7500   -233.5270     23.7844     23.2526     29.9678    153.0911
   902.0000   -233.3834     23.8623     23.1975     29.6762    153.9702
   902.2500   -233.2646     23.8874     23.0806     29.8091    152.9924
   902.5000   -233.1436     23.9036     22.9001     30.2763    149.7512
   902.7500   -232.9987     23.9537     22.6747     30.9548    146.8938
   903.0000   -232.8166     24.0703     22.4501     31.5058    142.6077
   903.2500   -232.5923     24.2648     22.2943     31.4375    140.5436
   903.5000   -232.3285     24.5173     22.2809     30.5259    139.9198
   903.7500   -232.0350     24.7750     22.4724     29.2344    141.4239
   904.0000   -231.7261     24.9669     22.9053     28.6814    145.7163
   904.2500   -231.4136     25.0323     23.5746     30.1965    148.7928
   904.5000   -231.0988     24.9438     24.4142     34.8678    151.3671
   904.7500   -230.7705     24.7129     25.2772     43.2427    150.6380
   905.0000   -230.4104     24.3775     25.9373     54.9345    145.5744
   905.2500   -230.0015     23.9902     26.1436     67.9928    140.6291
   905.5000   -229.5348     23.6108     25.7343     78.6572    134.1776
   905.7500   -229.0158     23.3002     24.7401     82.5698    132.2328
   906.0000   -228.4711     23.1114     23.3758     77.3956    133.5681
   906.2500   -227.9478     23.0790     21.9243     64.7518    136.4578
   906.5000   -227.5001     23.2108     20.6198     49.3246    141.8138
   906.7500   -227.1686     23.4841     19.6036     35.8517    145.3250
   907.0000   -226.9689     23.8483     18.9410     26.7773    150.0828
   907.2500   -226.8957     24.2391     18.6543     22.1889    152.8415
   907.5000   -226.9331     24.6009     18.7460     21.1848    155.9930
   907.7500   -227.0614     24.9089     19.2058     23.0765    157.1045
   908.0000   -227.2553     25.1776     20.0063     27.6735    156.9672
   908.2500   -227.4800     25.4526     21.0980     34.7776    155.7385
   908.5000   -227.6939     25.7965     22.4122     43.5122    152.1571
   908.7500   -227.8588     26.2804     23.8785     52.2548    148.2231
   909.0000   -227.9500     26.9836     25.4483     59.4181    139.5354
   909.2500   -227.9601     27.9956     27.1087     64.3492    132.5318
   909.5000   -227.8946     29.4109     28.8807     67.4263    122.8113
   909.7500   -227.7641     31.3099     30.8075     69.3981    118.2872
