~Version Information
VERS.                      2.0: CWLS Log ASCII Standard - VERSION 2.0
WRAP.                       NO: One line per depth step
~Well Information Block
STRT.FT                -4.2500: 
STOP.FT              2018.7500: 
STEP.FT                 0.2500: 
NULL.                -999.2500: 
COMP.          Petrogulf Corporation: COMPANY
WELL.             State 16-21R: WELL
FLD.           Purgatoire River: FIELD
LOC.           203' FNL & 1560' FWL----: LOCATION
PROV.                 Colorado: PROVINCE
CNTY.               Las Animas: COUNTRY
SRVC.                         : SERVICE COMPANY
DATE.          Thu Sep 29 11:32:19 2005: LOG DATE
API.           05-071-08313 : API Number
~Curve Information Block
DEPT.FT            0 000 00 00: Depth
GR.GAPI                       : Gamma Ray
CCL.                          : Casing Collar Locator
AMP3.mV                       : CBL 3' Amplitude
AMP5.mV                       : CBL 5' Amplitude
~Parameter Information Block
~A  Depth        GR         CCL         AMP3        AMP5    
# ...
   397.7500     92.0885      0.0000      4.8042      0.3012
   398.0000     89.9800      0.0000      4.7192      0.3161
   398.2500     89.1740      0.0000      4.6381      0.3179
   398.5000     89.6537      0.0000      4.5906      0.3052
   398.7500     91.3997      0.0000      4.5657      0.2844
   399.0000     93.7566      0.0000      4.5379      0.2674
   399.2500     95.7005      0.0000      4.5046      0.2666
   399.5000     96.8447      0.0000      4.4932      0.2847
   399.7500     97.4816      0.0000      4.5346      0.3103
   400.0000     97.5123      0.0000      4.6252      0.3254
   400.2500     96.1107      0.0000      4.7169      0.3202
   400.5000     92.7697      0.0000      4.7490      0.3002
   400.7500     88.0817      0.0000      4.6921      0.2802
   401.0000     83.1790      0.0000      4.5655      0.2734
   401.2500     78.8528      0.0000      4.4188      0.2848
   401.5000     75.5631      0.0000      4.2996      0.3079
   401.7500     74.0024      0.0000      4.2314      0.3255
   402.0000     75.0352      0.0000      4.2058      0.3189
   402.2500     78.8279      0.0000      4.1870      0.2829
   402.5000     84.3966      0.0000      4.1300      0.2307
   402.7500     90.2849      0.0000      4.0047      0.1830
   403.0000     95.3868      0.0000      3.8071      0.1538
   403.2500     98.9418      0.0000      3.5549      0.1457
   403.5000    100.1614      0.0000      3.2792      0.1527
   403.7500     98.4483      0.0000      3.0171      0.1644
   404.0000     94.0881      0.0000      2.7965      0.1708
   404.2500     88.4694      0.0000      2.6235      0.1662
   404.5000     83.4148      0.0000      2.4850      0.1507
   404.7500     80.3768      0.0000      2.3628      0.1289
   405.0000     80.1739      0.0000      2.2453      0.1070
   405.2500     82.8620      0.0000      2.1331      0.0893
   405.5000     87.3664      0.0000      2.0404      0.0773
   405.7500     91.6753      0.0000      1.9831      0.0727
   406.0000     94.1467      0.0000      1.9641      0.0777
   406.2500     94.6796      0.0000      1.9748      0.0920
   406.5000     94.2443      0.0000      2.0101      0.1092
   406.7500     93.3670      0.0000      2.0719      0.1201
   407.0000     91.5469      0.0000      2.1570      0.1186
   407.2500     88.1809      0.0000      2.2501      0.1060
   407.5000     83.5622      0.0000      2.3337      0.0894
   407.7500     78.6443      0.0000      2.3972      0.0765
   408.0000     74.1313      0.0000      2.4379      0.0709
   408.2500     70.3416      0.0000      2.4617      0.0703
   408.5000     67.7851      0.0000      2.4812      0.0687
   408.7500     67.2939      0.0000      2.5066      0.0603
   409.0000     69.4725      0.0000      2.5337      0.0431
   409.2500     74.1980      0.0000      2.5426      0.0216
   409.5000     80.4101      0.0000      2.5113      0.0031
   409.7500     86.2624      0.0000      2.4298     -0.0082
   410.0000     89.8965      0.0000      2.3072     -0.0128
   410.2500     90.6273      0.0000      2.1684     -0.0134
   410.5000     89.5868      0.0000      2.0424     -0.0140
   410.7500     89.0975      0.0000      1.9468     -0.0193
   411.0000     90.9792      0.0000      1.8779     -0.0303
   411.2500     95.0255      0.0000      1.8125     -0.0417
   411.5000     99.1730      0.0000      1.7261     -0.0481
   411.7500    101.4080      0.0000      1.6139     -0.0486
   412.0000    101.4813      0.0000      1.4971     -0.0464
   412.2500    100.7319      0.0000      1.4062     -0.0452
   412.5000    100.5120      0.0000      1.3611     -0.0469
   412.7500    101.1420      0.0000      1.3641     -0.0491
   413.0000    102.1850      0.0000      1.4103     -0.0458
   413.2500    102.9894      0.0000      1.4999     -0.0306
   413.5000    102.6765      0.0000      1.6387     -0.0018
   413.7500    100.3709      0.0000      1.8280      0.0347
   414.0000     96.0251      0.0000      2.0580      0.0683
   414.2500     90.6003      0.0000      2.3130      0.0906
   414.5000     85.0438      0.0000      2.5737      0.1021
   414.7500     79.4509      0.0000      2.8157      0.1106
   415.0000     73.4674      0.0000      3.0169      0.1260
   415.2500     67.1676      0.0000      3.1701      0.1537
   415.5000     61.3000      0.0000      3.2876      0.1918
   415.7500     56.7691      0.0000      3.3915      0.2320
   416.0000     53.9092      0.0000      3.4995      0.2653
   416.2500     52.2852      0.0000      3.6144      0.2874
   416.5000     51.2232      0.0000      3.7240      0.2994
   416.7500     50.3896      0.0000      3.8088      0.3048
   417.0000     49.7417      0.0000      3.8547      0.3097
   417.2500     49.1853      0.0000      3.8657      0.3197
   417.5000     48.5544      0.0000      3.8635      0.3355
   417.7500     47.8552      0.0000      3.8725      0.3511
   418.0000     47.3222      0.0000      3.9037      0.3600
   418.2500     47.2586      0.0000      3.9523      0.3604
   418.5000     47.9322      0.0000      4.0071      0.3541
   418.7500     49.4572      0.0000      4.0560      0.3454
   419.0000     51.4891      0.0000      4.0869      0.3401
   419.2500     53.1568      0.0000      4.0912      0.3421
   419.5000     53.6755      0.0000      4.0704      0.3487
   419.7500     53.0641      0.0000      4.0362      0.3507
   420.0000     52.0456      0.0000      4.0032      0.3402
   420.2500     51.3064      0.0000      3.9831      0.3189
   420.5000     51.0583      0.0000      3.9820      0.2969
   420.7500     51.1516      0.0000      3.9968      0.2840
   421.0000     51.3536      0.0000      4.0142      0.2805
   421.2500     51.5710      0.0000      4.0146      0.2783
   421.5000     51.9223      0.0000      3.9815      0.2689
   421.7500     52.6160      0.0000      3.9067      0.2499
   422.0000     53.9279      0.0000      3.7924      0.2263
   422.2500     56.2624      0.0000      3.6531      0.2070
   422.5000     59.8262      0.0000      3.5197      0.1973
   422.7500     64.2014      0.0000      3.4318      0.1949
   423.0000     68.6003      0.0000      3.4144      0.1930
   423.2500     72.4989      0.0000      3.4574      0.1876
   423.5000     75.8271      0.0000      3.5199      0.1809
   423.7500     78.7589      0.0000      3.5587      0.1764
   424.0000     81.3913      0.0000      3.5532      0.1762
   424.2500     83.4138      0.0000      3.5132      0.1805
   424.5000     84.2695      0.0000      3.4659      0.1862
   424.7500     83.8624      0.0000      3.4360      0.1859
   425.0000     82.7842      0.0000      3.4307      0.1750
   425.2500     81.5885      0.0000      3.4449      0.1580
   425.5000     80.2340      0.0000      3.4756      0.1458
   425.7500     78.7178      0.0000      3.5246      0.1434
   426.0000     78.0022      0.0000      3.5835      0.1455
   426.2500     79.3793      0.0000      3.6242      0.1431
   426.5000     82.5679      0.0000      3.6096      0.1331
   426.7500     85.2174      0.0000      3.5128      0.1205
   427.0000     84.9489      0.0000      3.3294      0.1130
   427.2500     81.6157      0.0000      3.0810      0.1162
   427.5000     77.2860      0.0000      2.8114      0.1303
   427.7500     74.4136      0.0000      2.5748      0.1501
   428.0000     74.2305      0.0000      2.4176      0.1655
   428.2500     76.4525      0.0000      2.3568      0.1667
   428.5000     79.9578      0.0000      2.3672      0.1502
   428.7500     83.5534      0.0000      2.3932      0.1222
   429.0000     86.4335      0.0000      2.3887      0.0956
   429.2500     88.5400      0.0000      2.3520      0.0811
   429.5000     90.6130      0.0000      2.3147      0.0783
   429.7500     93.3682      0.0000      2.2890      0.0776
   430.0000     96.3265      0.0000      2.2386      0.0704
   430.2500     97.8826      0.0000      2.1175      0.0560
   430.5000     96.8406      0.0000      1.9302      0.0404
   430.7500     93.6097      0.0000      1.7310      0.0317
   431.0000     89.7410      0.0000      1.5699      0.0349
