~Version Information
VERS.                      2.0: CWLS Log ASCII Standard - VERSION 2.0
WRAP.                       NO: One line per depth step
~Well Information Block
STRT.FT               380.0000: 
STOP.FT               899.2000: 
STEP.FT                 0.1000: 
NULL.                -999.2500: 
COMP.          Pioneer Natural Resources: COMPANY
WELL.          Prospector 12-19: WELL
FLD.           Purgatoire River: FIELD
LOC.           2262' FNL & 634' FWL: LOCATION
PROV.                 Colorado: PROVINCE
CNTY.               Las Animas: COUNTRY
SRVC.                Patterson: SERVICE COMPANY
DATE.          Mon Apr 25 09:33:09 2005: LOG DATE
UWI.           05 071 08191 00: UNIQUE WELL ID
~Curve Information Block
DEPT.FT            0 000 00 00: Depth
DCAL.in                       : CDL Caliper
RHOB.g/cc                     : CDL Bulk Density
RHOC.g/cc                     : CDL Density Correction
DPOR.pu                       : CDL Density Porosity
GR.GAPI                       : Gamma Ray
NPOR.pu                       : Neutron Porosity
~Parameter Information Block
~A  Depth       DCAL        RHOB        RHOC        DPOR         GR         NPOR    
# ...
   716.0000      8.1075      2.4629      0.1362     11.3403     89.7990     27.5638
   716.1000      8.1075      2.4730      0.1534     10.7251     89.3481     26.3022
   716.2000      8.1075      2.4662      0.1277     11.1407     90.1552     25.6814
   716.3000      8.0415      2.4650      0.1480     11.2103     91.2995     25.9748
   716.4000      8.0415      2.4725      0.1446     10.7597     91.2483     26.3961
   716.5000      7.9604      2.4809      0.1198     10.2500     89.9675     26.5668
   716.6000      7.9604      2.4836      0.1267     10.0848     92.3149     26.6784
   716.7000      7.9604      2.4795      0.0834     10.3348     99.3809     26.7668
   716.8000      7.8605      2.4823      0.0756     10.1651    107.3725     26.7864
   716.9000      7.8605      2.5028      0.1294      8.9200    113.3934     26.5148
   717.0000      7.8230      2.5262      0.1972      7.5022    115.1741     25.9409
   717.1000      7.8230      2.5371      0.1527      6.8427    111.2568     24.9244
   717.2000      7.8230      2.5488      0.0698      6.1329    101.8684     23.0601
   717.3000      7.8223      2.5698      0.1457      4.8609     94.1259     21.1394
   717.4000      7.8223      2.5833      0.1282      4.0397     94.8746     20.8664
   717.5000      7.9063      2.5813      0.1552      4.1661     97.0231     22.4988
   717.6000      7.9063      2.5693      0.0853      4.8913     93.3514     24.4671
   717.7000      7.9063      2.5526      0.0768      5.9009     88.8010     25.5190
   717.8000      7.9187      2.5363      0.0334      6.8928     88.0379     25.6623
   717.9000      7.9187      2.5230      0.1072      7.6959     89.2427     25.1625
   718.0000      7.9307      2.5107      0.0462      8.4433     94.6767     24.2298
   718.1000      7.9307      2.5050      0.0133      8.7863    103.6545     23.3874
   718.2000      7.9307      2.5062      0.0436      8.7124    105.1588     22.9322
   718.3000      7.9031      2.5106     -0.0013      8.4484     97.7813     22.9542
   718.4000      7.9031      2.5265      0.0138      7.4820     93.3927     23.8419
   718.5000      7.9383      2.5433      0.1052      6.4694     95.8668     24.9803
   718.6000      7.9383      2.5379      0.0950      6.7968     98.1287     24.9641
   718.7000      7.9383      2.5226      0.0496      7.7227     97.2928     24.2827
   718.8000      7.9478      2.5226      0.0473      7.7234     96.7690     24.3340
   718.9000      7.9478      2.5355      0.0825      6.9375     98.1442     25.0088
   719.0000      7.9469      2.5474      0.0936      6.2185     99.7873     25.1670
   719.1000      7.9469      2.5465      0.1497      6.2713    100.5299     24.5543
   719.2000      7.9469      2.5251      0.0905      7.5706    102.4097     24.0317
   719.3000      7.9391      2.4963      0.0042      9.3126    106.6694     23.9383
   719.4000      7.9391      2.4831      0.0165     10.1159    111.9743     24.0031
   719.5000      7.9402      2.4872      0.0332      9.8655    114.1201     24.0154
   719.6000      7.9402      2.4935      0.0560      9.4853    110.2344     24.2930
   719.7000      7.9402      2.4911      0.0603      9.6315    103.4599     25.3857
   719.8000      7.9646      2.4861      0.0679      9.9341    100.9346     26.4899
   719.9000      7.9646      2.4901      0.0493      9.6888    107.2781     26.4157
   720.0000      7.9608      2.4949      0.1139      9.4009    115.6711     25.9510
   720.1000      7.9608      2.4855      0.0742      9.9700    115.5949     26.5426
   720.2000      7.9608      2.4736      0.0521     10.6929    108.2147     28.1953
   720.3000      7.9712      2.4795      0.0699     10.3347    101.6119     29.5510
   720.4000      7.9712      2.5021      0.1174      8.9607     99.6589     29.7689
   720.5000      7.9644      2.5253      0.1222      7.5552    100.7165     29.1891
   720.6000      7.9644      2.5341      0.0878      7.0264     97.9557     28.3784
   720.7000      7.9644      2.5250      0.0786      7.5772     88.6578     27.8115
   720.8000      7.9411      2.5128      0.0282      8.3157     80.7350     27.5056
   720.9000      7.9411      2.5157      0.0480      8.1383     78.7150     26.8167
   721.0000      7.9754      2.5309      0.0943      7.2203     77.7394     25.4366
   721.1000      7.9754      2.5427      0.0498      6.5008     72.6686     23.9813
   721.2000      7.9754      2.5511      0.0348      5.9961     64.9529     23.2220
   721.3000      7.9857      2.5646      0.0935      5.1773     60.2029     23.0375
   721.4000      7.9857      2.5820      0.0540      4.1222     60.7489     22.5872
   721.5000      7.9433      2.5957      0.0510      3.2883     63.2052     21.6712
   721.6000      7.9433      2.5963      0.0875      3.2564     66.9434     20.9972
   721.7000      7.9433      2.5840      0.0467      3.9976     73.6241     21.2546
   721.8000      7.9348      2.5686      0.0479      4.9359     79.2134     21.8397
   721.9000      7.9348      2.5509      0.0660      6.0070     78.9101     21.8118
   722.0000      7.9348      2.5348      0.0317      6.9826     73.7230     21.7392
   722.1000      7.9348      2.5358      0.0703      6.9195     68.6225     22.2318
   722.2000      7.9348      2.5502      0.0985      6.0485     66.9098     23.4283
   722.3000      7.9529      2.5491      0.1118      6.1162     68.8319     25.0520
   722.4000      7.9529      2.5227      0.0448      7.7148     72.1716     25.6431
   722.5000      7.9720      2.4907      0.0099      9.6530     74.6984     24.7861
   722.6000      7.9720      2.4761      0.0452     10.5405     75.9037     23.9505
   722.7000      7.9720      2.4828      0.0470     10.1349     77.8096     24.0394
   722.8000      7.9642      2.4985      0.0692      9.1826     81.9987     24.6111
   722.9000      7.9642      2.5181      0.0419      7.9938     83.7882     24.6671
   723.0000      7.9655      2.5416      0.1382      6.5710     80.4489     23.8149
   723.1000      7.9655      2.5593      0.1315      5.4993     75.9975     22.9195
   723.2000      7.9655      2.5605      0.1021      5.4238     73.3355     22.7368
   723.3000      7.9787      2.5493      0.0975      6.1005     72.4971     23.2246
   723.4000      7.9787      2.5394      0.0596      6.7049     74.6661     23.7725
   723.5000      7.9638      2.5384      0.0399      6.7662     78.2084     23.5903
   723.6000      7.9638      2.5409      0.0245      6.6112     77.8062     22.9130
   723.7000      7.9638      2.5398      0.0021      6.6779     72.2368     22.6331
   723.8000      7.9875      2.5372      0.0324      6.8339     66.5757     22.6853
   723.9000      7.9875      2.5450      0.0225      6.3655     66.6410     22.4706
   724.0000      7.9914      2.5657      0.0434      5.1114     73.5095     21.9117
   724.1000      7.9914      2.5774      0.0697      4.4003     79.1335     21.3602
   724.2000      7.9914      2.5619      0.0648      5.3367     75.5568     21.2163
   724.3000      8.0078      2.5356      0.0027      6.9320     68.4069     21.2891
   724.4000      8.0078      2.5306      0.0007      7.2348     67.6824     21.0833
   724.5000      8.0133      2.5491      0.0683      6.1157     72.4229     20.6908
   724.6000      8.0133      2.5682      0.0878      4.9579     75.0561     20.2588
   724.7000      8.0133      2.5798      0.0700      4.2549     72.2172     19.8934
   724.8000      8.0059      2.5852      0.1094      3.9288     66.7646     19.7405
   724.9000      8.0059      2.5847      0.0151      3.9587     63.1153     19.7302
   725.0000      8.0130      2.5917      0.0544      3.5326     61.6471     19.9355
   725.1000      8.0130      2.6062      0.0920      2.6560     60.8302     20.4141
   725.2000      8.0130      2.6063      0.0496      2.6490     59.4717     21.1237
   725.3000      8.0027      2.5829      0.0702      4.0684     56.9155     21.8060
   725.4000      8.0027      2.5518      0.0013      5.9499     56.9240     21.8864
   725.5000      7.9686      2.5444     -0.0145      6.3989     61.9920     21.3754
