~Version Information
VERS.                      2.0: CWLS Log ASCII Standard - VERSION 2.0
WRAP.                       NO: One line per depth step
~Well Information Block
STRT.FT               866.0000: 
STOP.FT              2027.5000: 
STEP.FT                 0.1000: 
NULL.                -999.2500: 
COMP.          Petrogulf Corporation: COMPANY
WELL.             State 16-21R: WELL
FLD.           Purgatorie River: FIELD
LOC.           203' FNL & 1560' FWL: LOCATION
PROV.                 Colorado: PROVINCE
CNTY.               Las Animas: COUNTRY
SRVC.                Patterson: SERVICE COMPANY
DATE.          Tue Aug 16 13:32:09 2005: LOG DATE
UWI.                071 08313 : UNIQUE WELL ID
~Curve Information Block
DEPT.FT            0 000 00 00: Depth
DCAL.in                       : CDL Caliper
RHOB.g/cc                     : CDL Bulk Density
RHOC.g/cc                     : CDL Density Correction
DPOR.pu                       : CDL Density Porosity
GR.GAPI                       : Gamma Ray
NPOR.pu                       : Neutron Porosity
~Parameter Information Block
~A  Depth       DCAL        RHOB        RHOC        DPOR         GR         NPOR    
# ...
  1470.8000      8.1981      2.6191      0.2567      1.8755    135.6505     26.9411
  1470.9000      8.1981      2.6524      0.3424     -0.1455    136.9862     26.7843
  1471.0000      8.3239      2.6549      0.2814     -0.2993    138.4545     26.8581
  1471.1000      8.3239      2.6420      0.2288      0.4850    137.8752     27.0610
  1471.2000      8.3239      2.6314      0.2252      1.1294    132.5246     27.4382
  1471.3000      8.3595      2.6266      0.2141      1.4184    125.0208     27.9922
  1471.4000      8.3595      2.6378      0.1238      0.7408    119.0460     28.3576
  1471.5000      8.2880      2.6977      0.1061     -2.8916    114.5924     28.2207
  1471.6000      8.2880      2.8165      0.1719    -10.0903    108.4564     27.9646
  1471.7000      8.2880      2.9513      0.2417    -18.2615     99.3670     28.1464
  1471.8000      8.1685      3.0602      0.2450    -24.8632     91.4529     28.7468
  1471.9000      8.1685      3.1374      0.2536    -29.5383     87.5518     29.2583
  1472.0000      8.1740      3.1755      0.2564    -31.8513     85.2793     29.1953
  1472.1000      8.1740      3.1541      0.1805    -30.5504     82.8459     28.5975
  1472.2000      8.1740      3.0702      0.0704    -25.4647     81.6867     27.8453
  1472.3000      8.1630      2.9344     -0.0669    -17.2338     82.6143     26.9376
  1472.4000      8.1630      2.7526     -0.1726     -6.2166     86.0099     26.0658
  1472.5000      7.9799      2.5472     -0.2629      6.2326     92.8485     25.6050
  1472.6000      7.9799      2.3744     -0.3421     16.7011    101.3111     25.3073
  1472.7000      7.9799      2.2714     -0.2239     22.9438    108.0181     25.1586
  1472.8000      7.9127      2.2053     -0.1110     26.9530    112.0348     25.5460
  1472.9000      7.9127      2.1429     -0.1501     30.7304    113.3056     26.2300
  1473.0000      7.9334      2.1063     -0.0200     32.9534    113.8271     26.7263
  1473.1000      7.9334      2.1085     -0.0067     32.8209    118.3139     27.0013
  1473.2000      7.9334      2.1274      0.0784     31.6729    124.2181     27.3241
  1473.3000      7.9711      2.1503      0.0646     30.2859    123.6054     27.8266
  1473.4000      7.9711      2.1911      0.1159     27.8122    118.0851     28.2365
  1473.5000      7.9066      2.2626      0.1882     23.4807    115.1998     28.4092
  1473.6000      7.9066      2.3614      0.2053     17.4903    115.7234     28.4811
  1473.7000      7.9066      2.4615      0.2750     11.4215    115.1711     28.2196
  1473.8000      7.9179      2.5297      0.1841      7.2918    113.1137     27.5781
  1473.9000      7.9179      2.5691      0.1467      4.9052    112.2469     27.0489
  1474.0000      7.9962      2.5987      0.2051      3.1084    112.5106     26.4841
  1474.1000      7.9962      2.6160      0.2011      2.0593    114.7894     25.5159
  1474.2000      7.9962      2.6161      0.1727      2.0518    120.9273     24.3466
  1474.3000      8.0554      2.6053      0.1419      2.7109    127.6830     23.2661
  1474.4000      8.0554      2.5921      0.0830      3.5116    129.9604     22.2856
  1474.5000      7.9659      2.5846      0.0661      3.9652    128.5293     21.0795
  1474.6000      7.9659      2.5850      0.0989      3.9419    128.1586     19.8806
  1474.7000      7.9659      2.5877      0.1093      3.7728    128.4753     19.1570
  1474.8000      7.9291      2.5919      0.0917      3.5227    127.5640     18.9204
  1474.9000      7.9291      2.6015      0.0831      2.9390    127.7978     18.9020
  1475.0000      7.8757      2.6103      0.1107      2.4080    130.1458     18.7924
  1475.1000      7.8757      2.6060      0.1034      2.6658    131.8390     18.4569
  1475.2000      7.8757      2.5950      0.0494      3.3310    130.5252     17.9166
  1475.3000      7.8669      2.5924      0.0468      3.4904    127.6375     17.4636
  1475.4000      7.8669      2.5924      0.0621      3.4905    124.8673     17.4586
  1475.5000      7.9213      2.5832      0.0462      4.0461    121.8714     17.7337
  1475.6000      7.9213      2.5702      0.0400      4.8342    119.3427     17.9615
  1475.7000      7.9213      2.5645      0.0179      5.1792    117.4349     18.0374
  1475.8000      7.9476      2.5665      0.0407      5.0601    117.1481     17.9007
  1475.9000      7.9476      2.5629      0.0969      5.2771    118.0501     17.6998
  1476.0000      7.9219      2.5483      0.0588      6.1658    115.8772     17.7479
  1476.1000      7.9219      2.5392      0.0554      6.7172    111.6666     18.2672
  1476.2000      7.9219      2.5508      0.0747      6.0098    110.9668     19.0145
  1476.3000      7.9371      2.5772      0.1235      4.4098    113.8565     19.4833
  1476.4000      7.9371      2.6000      0.1370      3.0284    114.9607     19.5413
  1476.5000      7.8739      2.6116      0.1005      2.3244    112.5277     19.4348
  1476.6000      7.8739      2.6225      0.0965      1.6682    110.9758     19.4314
  1476.7000      7.8739      2.6301      0.1266      1.2083    112.0083     19.5234
  1476.8000      7.8823      2.6170      0.0928      2.0011    113.3612     19.6432
  1476.9000      7.8823      2.5896      0.0515      3.6587    113.8764     19.6522
  1477.0000      7.9528      2.5727      0.0649      4.6878    112.7569     19.3458
  1477.1000      7.9528      2.5704      0.0791      4.8257    109.7345     18.8257
  1477.2000      7.9528      2.5642      0.0509      5.2027    106.9690     18.3831
  1477.3000      7.9409      2.5415      0.0381      6.5781    107.0805     18.0838
  1477.4000      7.9409      2.5119     -0.0086      8.3671    108.9659     17.8765
  1477.5000      7.9214      2.5016     -0.0118      8.9927    109.6614     17.7121
  1477.6000      7.9214      2.5254      0.0121      7.5509    108.7405     17.5144
  1477.7000      7.9214      2.5604      0.1167      5.4294    107.2261     17.4762
  1477.8000      7.9089      2.5714      0.0928      4.7643    107.1012     17.9741
  1477.9000      7.9089      2.5606      0.0412      5.4205    110.1305     18.8971
  1478.0000      7.9690      2.5585      0.0247      5.5451    115.3328     19.6464
  1478.1000      7.9690      2.5800      0.0536      4.2403    119.0593     19.8504
  1478.2000      7.9690      2.6098      0.1342      2.4361    119.2652     19.7523
  1478.3000      8.0002      2.6234      0.1271      1.6138    118.6736     19.7370
  1478.4000      8.0002      2.6111      0.1446      2.3547    119.0014     19.8469
  1478.5000      7.9078      2.5833      0.0922      4.0437    117.4988     19.9578
  1478.6000      7.9078      2.5667      0.0547      5.0490    112.7012     20.0657
  1478.7000      7.9078      2.5707      0.1045      4.8047    109.2671     20.1817
  1478.8000      7.8998      2.5769      0.1165      4.4319    110.7904     20.3694
  1478.9000      7.8998      2.5801      0.0581      4.2368    113.6010     20.6730
  1479.0000      7.8954      2.5879      0.0674      3.7644    112.7763     20.9030
  1479.1000      7.8954      2.5950      0.0653      3.3309    108.8051     20.8055
  1479.2000      7.8954      2.6039      0.0471      2.7948    106.0488     20.5254
  1479.3000      7.9198      2.6271      0.0850      1.3869    104.8325     20.3590
  1479.4000      7.9198      2.6521      0.1722     -0.1263    102.3193     20.2234
  1479.5000      7.8995      2.6494      0.1798      0.0349    100.4826     19.8776
  1479.6000      7.8995      2.6191      0.0991      1.8757    102.9535     19.3485
  1479.7000      7.8995      2.5862      0.1118      3.8647    108.4907     18.9528
  1479.8000      7.8916      2.5669      0.0894      5.0368    113.8230     18.9701
  1479.9000      7.8916      2.5624      0.0694      5.3107    114.8451     19.3191
  1480.0000      7.8926      2.5671      0.0862      5.0214    109.5363     19.6158
  1480.1000      7.8926      2.5763      0.0742      4.4679    102.5333     19.5905
  1480.2000      7.8926      2.5925      0.0905      3.4824     99.5159     19.4169
  1480.3000      7.9561      2.6178      0.1215      1.9532    102.2830     19.4541
