~Version Information
 VERS.                                  2.0 : CWLS LAS VERSION
 WRAP.                                   NO : WRAPING MODE
 SWARE .                 MController 2.5.0J : SOFTWARE VERSION
~Well Information
 WELL.                    Oink-Oink 14-36Tr : WELL
 COMP.    Pioneer Natural Resources USA Inc : COMPANY
 FLD.                      Purgatoire River : FIELD
 LOC.                SW/SW Sec 36 T32S R67W : LOCATION
 DATE.                         6/09-10/2005 : DATE(S) LOGGED
 SRVC.       Blanco Geological Services LLC : SERVICE COMPANY
 STAT.                                   CO : STATE
 CNTY.                           Las Animas : COUNTY
 CTRY.                                  USA : COUNTRY
 API.                       05-071-08393-00 : API NUMBER
 STRT.FT                             231.00 : START DEPTH
 STOP.FT                            1924.00 : STOP DEPTH
 STEP.FT                               1.00 : DEPTH INCREMENT
 NULL.                                -9999 : NULL VALUE
~Curve information
 DEPTH.FT                                   :
 ROP.MIN/FT                                 :
 GAS.UNITS                                  :
~ASCII Log data
       231.0     -9999.00         33.7 
       232.0         1.38          2.1 
       233.0         0.07          1.6 
       234.0         0.10          1.6 
       235.0         0.10          1.9 
       236.0         0.10          1.5 
       237.0         0.10          2.1 
       238.0         0.10          2.0 
       239.0         0.07          1.1 
       240.0         0.10          1.8 
       241.0         0.10          1.7 
       242.0         0.10          1.3 
       243.0         0.10          1.4 
       244.0         0.07          1.8 
       245.0         0.10          2.4 
       246.0         0.10          2.2 
       247.0         0.10          2.1 
       248.0         0.10          1.8 
       249.0         0.13          2.1 
       250.0         0.17          2.4 
       251.0         2.18          0.4 
       252.0         0.43          0.7 
       253.0         0.13          1.2 
       254.0         0.30          1.9 
       255.0         0.20          2.4 
       256.0         0.23          2.1 
       257.0         0.38          0.8 
       258.0         0.23          1.0 
       259.0         0.53          1.2 
       260.0         0.50          1.8 
       261.0         0.27          1.7 
       262.0         0.47          0.8 
       263.0         0.90          1.0 
       264.0         0.58          1.5 
       265.0         1.17          0.1 
       266.0         0.87          1.1 
       267.0         0.37          1.4 
       268.0         0.27          0.9 
       269.0         0.23          0.7 
       270.0         0.25          0.5 
       271.0         0.27          1.6 
       272.0         0.20          1.5 
       273.0         0.20          0.8 
       274.0         0.20          1.0 
       275.0         0.23          1.3 
       276.0         0.23          1.7 
       277.0         0.20          1.4 
       278.0         0.20          0.6 
       279.0         0.23          0.8 
       280.0         0.20          0.5 
       281.0         0.23          0.5 
       282.0         0.20          0.6 
       283.0         0.20          1.0 
       284.0         0.20          1.8 
       285.0         0.20          1.1 
       286.0         0.25          1.2 
       287.0         0.20          0.3 
       288.0         0.20          1.1 
       289.0         0.20          0.6 
       290.0         0.20          0.4 
       291.0         0.20          1.1 
       292.0         0.20          1.9 
       293.0         0.20          1.7 
       294.0         0.23          1.4 
       295.0         0.20          1.4 
       296.0         1.65          1.6 
       297.0         0.37          1.2 
       298.0         0.33          0.3 
       299.0         0.27          0.5 
       300.0         0.20          0.9 
       301.0         0.20          1.5 
       302.0         0.17          1.5 
       303.0         0.20          1.3 
       304.0         0.20          1.3 
       305.0         0.20          0.9 
       306.0         0.20          1.0 
       307.0         0.20          0.9 
       308.0         0.20          1.4 
       309.0         0.20          0.9 
       310.0         0.25          1.2 
       311.0         0.20          1.7 
       312.0         0.20          1.7 
       313.0         0.20          1.5 
       314.0         0.17          1.0 
       315.0         0.20          0.8 
       316.0         0.20          1.3 
       317.0         0.20          0.1 
       318.0         0.20          0.7 
       319.0         0.17          1.4 
       320.0         0.20          1.6 
       321.0         0.20          1.3 
       322.0         0.20          0.9 
       323.0         0.20          1.1 
       324.0         0.20          0.0 
       325.0         0.20          0.7 
       326.0         1.52          1.4 
       327.0         0.13          0.9 
       328.0         0.30          0.6 
       329.0         0.27          1.0 
       330.0         0.23          1.1 
       331.0         0.20          0.7 
       332.0         0.23          0.5 
       333.0         0.20          0.7 
       334.0         0.20          0.0 
       335.0         0.20          1.3 
       336.0         0.22          1.4 
       337.0         0.23          1.7 
       338.0         0.23          1.0 
       339.0         0.20          0.7 
       340.0         0.20          0.6 
       341.0         0.17          0.7 
       342.0         0.23          1.8 
       343.0         0.23          0.8 
       344.0         0.20          0.9 
       345.0         0.23          1.0 
       346.0         0.20          0.5 
       347.0         0.20          1.7 
       348.0         0.20          1.3 
       349.0         0.20          0.6 
       350.0         0.20          0.5 
       351.0         0.20          0.7 
       352.0         0.22          0.2 
       353.0         0.20          0.5 
       354.0         0.17          0.9 
       355.0         0.17          0.3 
       356.0         0.20          0.9 
       357.0         1.97          1.2 
       358.0         0.23          0.8 
       359.0         0.23          1.3 
       360.0         0.25          1.3 
       361.0         0.27          1.5 
       362.0         0.17          1.8 
       363.0         0.23          1.6 
       364.0         0.20          1.0 
       365.0         0.20          1.0 
       366.0         0.13          0.5 
       367.0         0.13          0.3 
       368.0         0.17          0.8 
       369.0         0.17          0.7 
       370.0         0.23          1.6 
       371.0         0.23          1.7 
       372.0         0.20          1.9 
       373.0         0.20          1.4 
       374.0         0.20          2.1 
       375.0         0.17          1.4 
       376.0         0.17          1.6 
       377.0         0.22          1.8 
       378.0         0.23          1.7 
       379.0         0.17          1.7 
       380.0         0.20          0.8 
       381.0         0.20          1.0 
       382.0         0.23          0.6 
       383.0         0.23          1.4 
       384.0         0.20          1.5 
       385.0         0.20          1.0 
       386.0         1.20          0.7 
       387.0         0.27          0.6 
       388.0         0.32          1.1 
       389.0         0.30          0.8 
       390.0         0.23          0.9 
       391.0         0.27          1.3 
       392.0         0.27          1.0 
       393.0         0.27          1.3 
       394.0         0.27          1.5 
       395.0         0.23          1.1 
       396.0         0.23          1.5 
       397.0         0.20          0.6 
       398.0         0.23          0.3 
       399.0         0.20          0.3 
       400.0         0.20          1.0 
       401.0         0.20          1.5 
       402.0         0.22          0.5 
       403.0         0.23          1.2 
       404.0         0.20          0.9 
       405.0         0.23          0.6 
       406.0         0.27          0.4 
       407.0         0.27          0.2 
       408.0         0.23          0.7 
       409.0         0.27          0.4 
       410.0         0.27          1.2 
       411.0         0.20          1.2 
       412.0         0.23          2.1 
       413.0         0.20          1.4 
       414.0         0.20          0.5 
       415.0         0.17          0.4 
       416.0         1.88          0.9 
       417.0         0.20          1.4 
       418.0         0.27          1.2 
       419.0         0.23          2.7 
       420.0         0.20          2.1 
       421.0         0.23          1.6 
       422.0         0.20          1.3 
       423.0         0.28          0.6 
       424.0         0.23          1.1 
       425.0         0.23          1.1 
       426.0         0.27          1.2 
       427.0         0.27          1.0 
       428.0         0.23          0.6 
       429.0         0.27          0.5 
       430.0         0.20          0.8 
