~Version Information
VERS.                      2.0: CWLS Log ASCII Standard - VERSION 2.0
WRAP.                       NO: One line per depth step
~Well Information Block
STRT.FT               675.0000: 
STOP.FT              2373.5000: 
STEP.FT                 0.2500: 
NULL.                -999.2500: 
COMP.          Pioneer Natural Resources: COMPANY
WELL.            Harrier 44-33: WELL
FLD.           Purgatoire River: FIELD
LOC.           456' FSL & 930' FEL: LOCATION
PROV.                 Colorado: PROVINCE
CNTY.               Las Animas: COUNTRY
SRVC.                Patterson: SERVICE COMPANY
DATE.          Mon Jun 20 07:40:56 2005: LOG DATE
UWI.           05 071 08398 00: UNIQUE WELL ID
~Curve Information Block
DEPT.FT            0 000 00 00: Depth
SN.Ohm-m                      : IEL Short Normal
SP.mV                         : IEL Spontaneous Potential
DIR.Ohm-m                     : IEL Induction Resistivity
GR.GAPI                       : Gamma Ray
~Parameter Information Block
~A  Depth        SN          SP         DIR          GR     
# ...
  1579.5000     20.3790    204.7208     22.5637     68.0313
  1579.7500     20.6378    204.6583     22.5861     67.9674
  1580.0000     20.9069    204.6372     22.5959     67.0252
  1580.2500     21.2152    204.6859     22.6675     65.6383
  1580.5000     21.4924    204.8171     22.8229     62.5480
  1580.7500     21.6916    205.0242     23.0231     60.3833
  1581.0000     21.9092    205.2841     23.2070     58.2262
  1581.2500     22.2170    205.5629     23.3470     57.7800
  1581.5000     22.4905    205.8284     23.4705     57.8738
  1581.7500     22.5901    206.0663     23.6292     57.7618
  1582.0000     22.6123    206.2882     23.8515     56.7863
  1582.2500     22.7771    206.5197     24.1198     55.8291
  1582.5000     23.1222    206.7765     24.3858     54.7834
  1582.7500     23.4844    207.0505     24.6029     54.6692
  1583.0000     23.7557    207.3170     24.7529     55.1664
  1583.2500     23.9493    207.5530     24.8490     55.5290
  1583.5000     24.0786    207.7508     24.9204     55.6331
  1583.7500     24.1507    207.9155     24.9909     55.4863
  1584.0000     24.2070    208.0525     25.0670     55.4386
  1584.2500     24.2688    208.1599     25.1386     55.7092
  1584.5000     24.2919    208.2336     25.1861     56.4498
  1584.7500     24.2070    208.2760     25.1914     56.9544
  1585.0000     23.9953    208.2969     25.1485     57.4814
  1585.2500     23.7510    208.3033     25.0669     57.7065
  1585.5000     23.6177    208.2910     24.9643     58.1532
  1585.7500     23.6246    208.2463     24.8543     58.7127
  1586.0000     23.6740    208.1596     24.7416     59.8653
  1586.2500     23.7094    208.0386     24.6273     60.4637
  1586.5000     23.7703    207.9098     24.5180     60.3960
  1586.7500     23.8660    207.8075     24.4257     59.7019
  1587.0000     23.9675    207.7560     24.3616     58.4799
  1587.2500     24.0909    207.7581     24.3281     58.0670
  1587.5000     24.1852    207.7957     24.3137     58.5139
  1587.7500     24.0843    207.8422     24.2904     59.6365
  1588.0000     23.7827    207.8794     24.2211     62.6540
  1588.2500     23.5349    207.9083     24.0761     65.3792
  1588.5000     23.4956    207.9471     23.8534     69.6742
  1588.7500     23.5036    208.0185     23.5832     72.1674
  1589.0000     23.3618    208.1333     23.3120     75.2524
  1589.2500     23.0717    208.2822     23.0804     77.2349
  1589.5000     22.7277    208.4382     22.9083     80.4257
  1589.7500     22.3769    208.5716     22.7924     82.2631
  1590.0000     22.0273    208.6653     22.7096     83.2486
  1590.2500     21.6994    208.7231     22.6252     82.3413
  1590.5000     21.4220    208.7627     22.5052     79.3204
  1590.7500     21.2256    208.8022     22.3315     76.9991
  1591.0000     21.1446    208.8475     22.1121     73.9866
  1591.2500     21.1828    208.8902     21.8786     72.3904
  1591.5000     21.2817    208.9146     21.6738     70.4819
  1591.7500     21.3549    208.9127     21.5362     69.5210
  1592.0000     21.3775    208.8912     21.4889     68.5946
  1592.2500     21.3874    208.8658     21.5341     68.2813
  1592.5000     21.3867    208.8478     21.6536     68.1241
  1592.7500     21.3375    208.8366     21.8166     68.2016
  1593.0000     21.2771    208.8252     21.9918     68.6260
  1593.2500     21.3412    208.8129     22.1588     69.0480
  1593.5000     21.6130    208.8133     22.3085     69.4979
  1593.7500     21.9668    208.8453     22.4365     69.4328
  1594.0000     22.1573    208.9153     22.5407     68.7601
  1594.2500     22.1467    209.0121     22.6291     68.1558
  1594.5000     22.1614    209.1244     22.7259     67.4771
  1594.7500     22.3284    209.2535     22.8627     67.3876
  1595.0000     22.5178    209.4067     23.0588     68.2014
  1595.2500     22.5890    209.5900     23.3105     69.5736
  1595.5000     22.5804    209.8098     23.5957     72.6188
  1595.7500     22.6161    210.0716     23.8859     74.6721
  1596.0000     22.7352    210.3693     24.1570     76.4268
  1596.2500     22.9031    210.6775     24.3946     76.2143
  1596.5000     23.1450    210.9576     24.5993     73.8707
  1596.7500     23.5160    211.1772     24.7877     71.4413
  1597.0000     23.9566    211.3311     24.9846     67.6603
  1597.2500     24.3298    211.4455     25.2080     65.6203
  1597.5000     24.5832    211.5588     25.4571     63.6448
  1597.7500     24.7721    211.6949     25.7095     62.8580
  1598.0000     24.9769    211.8515     25.9303     61.8373
  1598.2500     25.2742    212.0088     26.0867     61.0438
  1598.5000     25.7122    212.1470     26.1616     59.8661
  1598.7500     26.1957    212.2554     26.1583     59.4064
  1599.0000     26.4957    212.3250     26.0970     59.7382
  1599.2500     26.5334    212.3383     26.0064     60.8377
  1599.5000     26.4746    212.2765     25.9108     63.7687
  1599.7500     26.4501    212.1432     25.8201     66.2463
  1600.0000     26.4467    211.9772     25.7285     69.6773
  1600.2500     26.4210    211.8341     25.6253     71.0286
  1600.5000     26.3464    211.7524     25.5100     70.7492
  1600.7500     26.2416    211.7330     25.3964     69.0740
  1601.0000     26.1752    211.7487     25.3005     65.5668
  1601.2500     26.1993    211.7674     25.2207     63.5657
  1601.5000     26.3008    211.7713     25.1283     62.1252
  1601.7500     26.4217    211.7606     24.9745     62.1585
  1602.0000     26.4987    211.7479     24.7147     62.9032
  1602.2500     26.4986    211.7467     24.3365     63.4384
  1602.5000     26.4403    211.7620     23.8757     64.1272
  1602.7500     26.3334    211.7861     23.4050     64.6556
  1603.0000     26.1251    211.8013     22.9999     65.9249
  1603.2500     25.7534    211.7887     22.7043     67.4371
  1603.5000     25.2083    211.7383     22.5177     71.6786
  1603.7500     24.5362    211.6554     22.4076     76.3016
  1604.0000     23.8243    211.5570     22.3361     85.6782
  1604.2500     23.1765    211.4578     22.2776     92.6412
  1604.5000     22.6765    211.3587     22.2175    101.7541
  1604.7500     22.3287    211.2506     22.1381    105.5103
  1605.0000     22.0422    211.1293     22.0132    106.3643
  1605.2500     21.7226    211.0010     21.8187    104.2555
  1605.5000     21.3823    210.8701     21.5504     99.7740
  1605.7500     21.1453    210.7277     21.2290     97.5390
  1606.0000     21.1166    210.5637     20.8894     96.7030
  1606.2500     21.2454    210.3917     20.5613     97.8683
  1606.5000     21.3534    210.2525     20.2551    101.8175
  1606.7500     21.2855    210.1856     19.9601    105.5584
  1607.0000     21.0296    210.2003     19.6518    111.7681
  1607.2500     20.6883    210.2817     19.3048    115.5499
  1607.5000     20.3400    210.4124     18.9040    119.9470
  1607.7500     19.9695    210.5768     18.4499    122.1988
  1608.0000     19.5048    210.7480     17.9581    125.5710
  1608.2500     18.9195    210.8912     17.4527    128.4032
  1608.5000     18.2846    210.9884     16.9571    133.8210
  1608.7500     17.6568    211.0528     16.4875    137.8059
  1609.0000     17.0062    211.1120     16.0525    143.0804
  1609.2500     16.3260    211.1892     15.6549    145.6072
  1609.5000     15.6798    211.3071     15.2876    148.0026
  1609.7500     15.1263    211.4902     14.9294    149.0112
  1610.0000     14.7080    211.7449     14.5483    149.7726
  1610.2500     14.4413    212.0458     14.1186    149.4685
  1610.5000     14.2631    212.3526     13.6399    147.3350
  1610.7500     14.0752    212.6354     13.1412    145.0715
  1611.0000     13.8416    212.8809     12.6663    142.0894
  1611.2500     13.5949    213.0849     12.2556    141.6500
  1611.5000     13.3509    213.2501     11.9349    144.6767
  1611.7500     13.0672    213.3867     11.7137    148.9783
  1612.0000     12.7368    213.5091     11.5883    157.0576
  1612.2500     12.4191    213.6305     11.5454    162.1830
  1612.5000     12.1412    213.7636     11.5649    167.7962
  1612.7500     11.8817    213.9202     11.6247    169.7845
