~Version Information
VERS.                      2.0: CWLS Log ASCII Standard - VERSION 2.0
WRAP.                       NO: One line per depth step
~Well Information Block
STRT.FT               845.0000: 
STOP.FT              2308.2000: 
STEP.FT                 0.1000: 
NULL.                -999.2500: 
COMP.          Pioneer Natural Resources: COMPANY
WELL.             Vector 33-23: WELL
FLD.           Purgatoire River: FIELD
LOC.           1560' FEL & 1988' FSL----: LOCATION
PROV.                 Colorado: PROVINCE
CNTY.               Las Animas: COUNTRY
SRVC.                Patterson: SERVICE COMPANY
DATE.          Mon Mar 28 08:17:25 2005: LOG DATE
UWI.           05 071 08336 00: UNIQUE WELL ID
~Curve Information Block
DEPT.FT            0 000 00 00: Depth
DCAL.in                       : CDL Caliper
RHOB.g/cc                     : CDL Bulk Density
RHOC.g/cc                     : CDL Density Correction
DPOR.pu                       : CDL Density Porosity
NPOR.pu                       : Neutron Porosity
GR.GAPI                       : Gamma Ray
~Parameter Information Block
~A  Depth       DCAL        RHOB        RHOC        DPOR        NPOR         GR     
# ...
  1517.0000      8.0989      2.6043      0.1258      2.7702     22.5314     91.7351
  1517.1000      8.0989      2.5869      0.1115      3.8213     21.6203     92.3809
  1517.2000      8.0989      2.5671      0.0486      5.0215     21.1872     95.8696
  1517.3000      8.0675      2.5673      0.0658      5.0091     21.2694     98.7688
  1517.4000      8.0675      2.5817      0.1178      4.1408     21.5106    100.4237
  1517.5000      8.0657      2.5846      0.0910      3.9626     21.4034    101.2136
  1517.6000      8.0657      2.5708      0.0658      4.8015     20.9706    102.3463
  1517.7000      8.0657      2.5561      0.0386      5.6932     20.5738    104.1072
  1517.8000      8.0674      2.5578      0.0641      5.5894     20.1442    105.8025
  1517.9000      8.0674      2.5777      0.0452      4.3835     19.8008    105.4692
  1518.0000      8.0677      2.5984      0.0666      3.1290     19.9055    100.9199
  1518.1000      8.0677      2.6000      0.0811      3.0329     20.2146     95.3150
  1518.2000      8.0677      2.5824      0.0494      4.0944     20.3588     91.4731
  1518.3000      8.0656      2.5642      0.0309      5.2013     20.3700     88.7752
  1518.4000      8.0656      2.5614      0.0209      5.3687     20.4391     86.9856
  1518.5000      8.0631      2.5788      0.0441      4.3159     20.5998     84.7018
  1518.6000      8.0631      2.6057      0.1063      2.6845     20.6494     84.3495
  1518.7000      8.0631      2.6203      0.1188      1.8025     20.4636     89.4829
  1518.8000      8.0634      2.6186      0.0713      1.9030     20.1533     94.6655
  1518.9000      8.0634      2.6214      0.0700      1.7351     19.9268     94.2922
  1519.0000      8.0648      2.6337      0.1385      0.9890     19.8172     94.2268
  1519.1000      8.0648      2.6401      0.0916      0.6015     19.7566     98.4578
  1519.2000      8.0648      2.6387      0.1182      0.6831     19.9191     99.0870
  1519.3000      8.0634      2.6397      0.0780      0.6235     20.3272     91.4365
  1519.4000      8.0634      2.6435      0.1062      0.3960     20.8186     81.3444
  1519.5000      8.0616      2.6393      0.1090      0.6498     21.1672     76.2483
  1519.6000      8.0616      2.6266      0.0648      1.4197     20.9958     78.4809
  1519.7000      8.0616      2.6171      0.0780      1.9966     20.4796     84.8256
  1519.8000      8.0599      2.6190      0.0486      1.8759     20.2857     89.9491
  1519.9000      8.0599      2.6322      0.0882      1.0795     20.6945     91.0322
  1520.0000      8.0597      2.6426      0.1124      0.4489     21.3284     91.1960
  1520.1000      8.0597      2.6414      0.0938      0.5208     21.7537     93.2634
  1520.2000      8.0597      2.6397      0.0698      0.6241     22.0214     94.5147
  1520.3000      8.0609      2.6427      0.1120      0.4427     22.3561     93.7511
  1520.4000      8.0609      2.6433      0.0647      0.4047     22.7630     93.8421
  1520.5000      8.0614      2.6427      0.0958      0.4443     23.3177     96.5954
  1520.6000      8.0614      2.6419      0.1046      0.4934     23.9449    101.7267
  1520.7000      8.0614      2.6339      0.1225      0.9765     24.2880    108.5551
  1520.8000      8.0616      2.6164      0.0642      2.0392     24.4362    115.4358
  1520.9000      8.0616      2.5953      0.0533      3.3153     24.7268    120.7603
  1521.0000      8.0611      2.5739      0.0690      4.6144     24.9557    124.8376
  1521.1000      8.0611      2.5612      0.0282      5.3825     24.8159    131.5275
  1521.2000      8.0611      2.5697      0.0652      4.8637     24.6973    142.9707
  1521.3000      8.0566      2.5864      0.1130      3.8516     25.0553    153.3719
  1521.4000      8.0566      2.5892      0.0609      3.6862     25.5152    155.5498
  1521.5000      8.0470      2.5765      0.1050      4.4523     25.6061    151.6723
  1521.6000      8.0470      2.5609      0.0491      5.4029     25.5549    150.3847
  1521.7000      8.0470      2.5532      0.0874      5.8679     25.6669    154.5376
  1521.8000      8.0396      2.5504      0.0609      6.0336     25.9077    157.2166
  1521.9000      8.0396      2.5473      0.0698      6.2234     26.0456    154.7072
  1522.0000      8.0357      2.5435      0.0697      6.4555     25.6939    151.7082
  1522.1000      8.0357      2.5405      0.0604      6.6340     24.9809    151.0162
  1522.2000      8.0357      2.5438      0.0522      6.4370     24.3744    150.3367
  1522.3000      8.0326      2.5522      0.0849      5.9289     23.7960    146.9179
  1522.4000      8.0326      2.5601      0.0731      5.4479     22.9753    142.1771
  1522.5000      8.0281      2.5733      0.0618      4.6484     22.1967    138.7831
  1522.6000      8.0281      2.5968      0.0857      3.2256     21.6915    136.0440
  1522.7000      8.0281      2.6180      0.1252      1.9371     21.1599    130.3194
  1522.8000      8.0234      2.6252      0.0943      1.5060     20.4443    120.9808
  1522.9000      8.0234      2.6208      0.1071      1.7677     20.0675    111.6519
  1523.0000      8.0216      2.6114      0.0769      2.3383     20.5281    105.5754
  1523.1000      8.0216      2.6024      0.0757      2.8837     21.3944    103.8193
  1523.2000      8.0216      2.5919      0.0875      3.5201     22.0599    105.1583
  1523.3000      8.0231      2.5801      0.0551      4.2374     22.5199    106.3812
  1523.4000      8.0231      2.5827      0.0376      4.0807     22.8804    105.4751
  1523.5000      8.0273      2.6001      0.0963      3.0259     23.0491    104.2629
  1523.6000      8.0273      2.6148      0.0668      2.1310     22.8528    105.9924
  1523.7000      8.0273      2.6259      0.0785      1.4611     22.4975    110.8693
  1523.8000      8.0290      2.6345      0.1061      0.9381     22.4383    114.3462
  1523.9000      8.0290      2.6339      0.1067      0.9764     22.5957    113.7336
  1524.0000      8.0262      2.6283      0.0851      1.3147     22.6292    111.1439
  1524.1000      8.0262      2.6314      0.0958      1.1292     22.4573    109.9877
  1524.2000      8.0262      2.6519      0.0969     -0.1128     22.0709    110.4715
  1524.3000      8.0224      2.6829      0.1213     -1.9949     21.8181    108.6058
  1524.4000      8.0224      2.7048      0.1232     -3.3221     22.2176    105.3780
  1524.5000      8.0204      2.7111      0.1073     -3.7048     23.0035    103.3131
  1524.6000      8.0204      2.7090      0.1251     -3.5763     23.5219     99.6038
  1524.7000      8.0204      2.7028      0.1030     -3.1984     23.8234     94.9232
  1524.8000      8.0188      2.6991      0.0820     -2.9788     23.8854     93.4424
  1524.9000      8.0188      2.7029      0.0920     -3.2060     23.0919     96.6821
  1525.0000      8.0169      2.7125      0.1119     -3.7858     21.8109    100.7753
  1525.1000      8.0169      2.7205      0.1392     -4.2754     21.0869    101.7234
  1525.2000      8.0169      2.7153      0.1079     -3.9550     21.0437    100.6754
  1525.3000      8.0158      2.6928      0.0672     -2.5925     21.2558    100.0579
  1525.4000      8.0158      2.6628      0.0561     -0.7753     21.5662    103.1408
  1525.5000      8.0156      2.6351      0.0438      0.9014     21.9629    108.3549
  1525.6000      8.0156      2.6082      0.0839      2.5306     22.3399    108.7719
  1525.7000      8.0156      2.5819      0.0308      4.1257     22.6316    104.6070
  1525.8000      8.0173      2.5681      0.0548      4.9642     22.7844     99.6576
  1525.9000      8.0173      2.5736      0.0730      4.6326     22.6628     96.4254
  1526.0000      8.0213      2.5930      0.1198      3.4535     22.2135     96.8620
  1526.1000      8.0213      2.6175      0.1191      1.9719     21.6859     98.0239
  1526.2000      8.0213      2.6395      0.1315      0.6339     21.2714     93.6047
  1526.3000      8.0262      2.6519      0.1292     -0.1134     20.7524     84.7822
  1526.4000      8.0262      2.6554      0.1137     -0.3270     20.0419     80.0339
  1526.5000      8.0298      2.6584      0.1364     -0.5110     19.5980     83.2378
