~Version Information
VERS.                      2.0: CWLS Log ASCII Standard - VERSION 2.0
WRAP.                       NO: One line per depth step
~Well Information Block
STRT.FT               425.0000: 
STOP.FT              2461.0000: 
STEP.FT                 0.2500: 
NULL.                -999.2500: 
COMP.          Evergreen Operating Corporation: COMPANY
WELL.              Nomad 32-10: WELL
FLD.           Purgatorie River: FIELD
LOC.           2281' FNL & 1585' FEL: LOCATION
PROV.                 Colorado: PROVINCE
CNTY.               Las Animas: COUNTRY
SRVC.                Patterson: SERVICE COMPANY
DATE.          Thu Aug 12 02:01:07 2004: LOG DATE
UWI.           05 071 08127 00: UNIQUE WELL ID
~Curve Information Block
DEPT.FT            0 000 00 00: Depth
SN.Ohm-m                      : IEL Short Normal
SP.mV                         : IEL Spontaneous Potential
DIR.Ohm-m                     : IEL Induction Resistivity
GR.GAPI                       : Gamma Ray
~Parameter Information Block
~A  Depth        SN          SP         DIR          GR     
# ...
  1631.0000     19.9443    110.4839      1.7863    110.8553
  1631.2500     20.0797    112.3201      2.6498    113.9218
  1631.5000     20.0219    113.7962      4.2638    119.1489
  1631.7500     19.8899    114.9544      7.8078    122.3208
  1632.0000     19.7418    115.8435     18.8890    125.6737
  1632.2500     19.5951    116.5219    233.6569    126.8424
  1632.5000     19.4731    117.0525 100000.0000    127.0642
  1632.7500     19.4039    117.4920 100000.0000    126.0483
  1633.0000     19.3871    117.8795 100000.0000    122.3833
  1633.2500     19.3935    118.2312 100000.0000    118.7101
  1633.5000     19.3764    118.5432 100000.0000    112.8401
  1633.7500     19.2828    118.8032 100000.0000    109.7591
  1634.0000     19.0891    119.0031   1441.1307    107.4130
  1634.2500     18.8233    119.1471    180.4087    107.3275
  1634.5000     18.5354    119.2499    113.3044    108.9001
  1634.7500     18.2540    119.3281     85.9693    110.9223
  1635.0000     17.9620    119.3946     67.1858    115.3633
  1635.2500     17.6181    119.4610     52.6303    119.0452
  1635.5000     17.2060    119.5380     41.8718    124.7475
  1635.7500     16.7407    119.6295     34.2536    128.1527
  1636.0000     16.2387    119.7246     28.7987    132.4418
  1636.2500     15.7162    119.7999     24.6546    134.9557
  1636.5000     15.2134    119.8336     21.2925    138.7110
  1636.7500     14.7991    119.8195     18.4954    141.5405
  1637.0000     14.5451    119.7716     16.2265    146.9148
  1637.2500     14.4978    119.7128     14.4840    151.3443
  1637.5000     14.6735    119.6607     13.2308    158.1539
  1637.7500     15.0722    119.6271     12.3945    161.4487
  1638.0000     15.6719    119.6294     11.8913    162.1838
  1638.2500     16.4146    119.6865     11.6481    159.3116
  1638.5000     17.2297    119.7934     11.6142    150.6914
  1638.7500     18.0889    119.9065     11.7646    142.9239
  1639.0000     19.0379    119.9671     12.0944    129.7939
  1639.2500     20.1695    119.9387     12.6066    121.1834
  1639.5000     21.5464    119.8224     13.2989    110.4716
  1639.7500     23.1248    119.6395     14.1526    105.1885
  1640.0000     24.7615    119.4061     15.1309     98.8555
  1640.2500     26.3107    119.1209     16.1837     94.6858
  1640.5000     27.6975    118.7751     17.2584     87.8307
  1640.7500     28.9064    118.3732     18.3051     83.1572
  1641.0000     29.9488    117.9520     19.2799     76.7584
  1641.2500     30.8176    117.5814     20.1471     73.0634
  1641.5000     31.4415    117.3320     20.8867     68.2619
  1641.7500     31.7251    117.2268     21.5003     65.6740
  1642.0000     31.6587    117.2174     22.0059     63.4999
  1642.2500     31.3442    117.2106     22.4229     63.5489
  1642.5000     30.9100    117.1284     22.7578     65.4825
  1642.7500     30.4425    116.9532     23.0019     67.3802
  1643.0000     29.9858    116.7337     23.1387     70.4612
  1643.2500     29.5665    116.5483     23.1564     72.7176
  1643.5000     29.2151    116.4557     23.0582     76.3773
  1643.7500     28.9362    116.4631     22.8684     78.4926
  1644.0000     28.6763    116.5257     22.6304     80.0658
  1644.2500     28.3794    116.5720     22.3947     79.9166
  1644.5000     28.0469    116.5400     22.1992     78.7604
  1644.7500     27.7212    116.4086     22.0544     78.0669
  1645.0000     27.4304    116.2082     21.9422     77.9537
  1645.2500     27.1424    116.0029     21.8324     78.6159
  1645.5000     26.7924    115.8553     21.7056     80.2795
  1645.7500     26.3694    115.7929     21.5646     81.3076
  1646.0000     25.9310    115.7935     21.4230     81.8805
  1646.2500     25.5296    115.7990     21.2850     81.5409
  1646.5000     25.1856    115.7493     21.1345     80.7497
  1646.7500     24.9137    115.6128     20.9449     80.6491
  1647.0000     24.7305    115.3996     20.7005     81.4244
  1647.2500     24.6474    115.1512     20.4103     82.2222
  1647.5000     24.6729    114.9137     20.1059     83.2847
  1647.7500     24.7847    114.7104     19.8253     83.9658
  1648.0000     24.8953    114.5323     19.5985     85.4460
  1648.2500     24.9176    114.3520     19.4429     86.8680
  1648.5000     24.8308    114.1485     19.3674     89.3079
  1648.7500     24.6178    113.9208     19.3748     90.7935
  1649.0000     24.2427    113.6832     19.4605     92.5834
  1649.2500     23.7245    113.4549     19.6066     93.7858
  1649.5000     23.1729    113.2543     19.7813     96.8042
  1649.7500     22.7726    113.0967     19.9425    100.2703
  1650.0000     22.6949    112.9891     20.0473    107.4035
  1650.2500     22.9414    112.9235     20.0632    112.2726
  1650.5000     23.3368    112.8756     19.9771    117.0819
  1650.7500     23.7532    112.8166     19.7974    117.6366
  1651.0000     24.2517    112.7318     19.5504    114.7212
  1651.2500     24.9431    112.6273     19.2781    111.4165
  1651.5000     25.7987    112.5191     19.0362    107.1048
  1651.7500     26.6267    112.4224     18.8895    106.0486
  1652.0000     27.1765    112.3492     18.9009    108.4220
  1652.2500     27.2753    112.3093     19.1181    112.4137
  1652.5000     26.9113    112.3074     19.5559    120.1902
  1652.7500     26.2200    112.3402     20.1773    125.3212
  1653.0000     25.4193    112.3995     20.8840    131.6548
  1653.2500     24.7404    112.4746     21.5409    134.6172
  1653.5000     24.3650    112.5571     22.0431    136.3311
  1653.7500     24.3922    112.6489     22.3742    135.0114
  1654.0000     24.8466    112.7706     22.5978    128.6643
  1654.2500     25.7292    112.9568     22.7959    121.5407
  1654.5000     27.0974    113.2323     23.0227    107.1662
  1654.7500     29.0975    113.5876     23.3022     95.9080
  1655.0000     31.8031    113.9803     23.6463     78.5262
  1655.2500     34.8866    114.3651     24.0612     67.8655
  1655.5000     37.5738    114.7214     24.5359     54.8871
  1655.7500     39.1676    115.0534     25.0250     48.8015
  1656.0000     39.5340    115.3760     25.4495     43.9104
  1656.2500     38.9134    115.7052     25.7227     43.3104
  1656.5000     37.4945    116.0548     25.7845     45.4660
  1656.7500     35.4105    116.4321     25.6170     48.3117
  1657.0000     32.9422    116.8347     25.2299     54.0999
  1657.2500     30.4901    117.2520     24.6399     58.9368
  1657.5000     28.3952    117.6699     23.8715     67.7919
  1657.7500     26.8123    118.0741     22.9704     74.7801
  1658.0000     25.6717    118.4509     22.0070     86.5576
  1658.2500     24.7525    118.7872     21.0568     94.7469
  1658.5000     23.8534    119.0703     20.1768    106.2389
  1658.7500     22.9152    119.2911     19.3954    112.7102
  1659.0000     22.0055    119.4511     18.7191    120.2330
  1659.2500     21.2363    119.5682     18.1465    123.9505
  1659.5000     20.6751    119.6721     17.6777    127.7570
  1659.7500     20.3001    119.7875     17.3148    128.8535
  1660.0000     20.0436    119.9213     17.0554    127.8123
  1660.2500     19.8693    120.0651     16.8890    125.5501
  1660.5000     19.7899    120.2095     16.7997    121.1912
  1660.7500     19.8181    120.3490     16.7738    118.5574
  1661.0000     19.9243    120.4743     16.8063    115.9747
  1661.2500     20.0629    120.5690     16.9008    115.2100
  1661.5000     20.2215    120.6260     17.0624    114.8625
  1661.7500     20.4093    120.6623     17.2897    114.7412
  1662.0000     20.6177    120.7050     17.5709    114.5196
  1662.2500     20.8301    120.7635     17.8867    114.4637
  1662.5000     21.0595    120.8253     18.2161    114.5429
  1662.7500     21.3408    120.8772     18.5426    114.5815
  1663.0000     21.6612    120.9197     18.8594    114.5153
  1663.2500     21.9647    120.9647     19.1725    114.3697
  1663.5000     22.3033    121.0257     19.5002    113.6147
  1663.7500     22.7958    121.1067     19.8608    112.4194
  1664.0000     23.3812    121.1919     20.2548    109.5778
  1664.2500     23.8740    121.2469     20.6541    107.3870
