~Version Information
VERS.                      2.0: CWLS Log ASCII Standard - VERSION 2.0
WRAP.                       NO: One line per depth step
~Well Information Block
STRT.FT                -9.0000: 
STOP.FT              2130.0000: 
STEP.FT                 0.2500: 
NULL.                -999.2500: 
COMP.          Pioneer Natural Resources: COMPANY
WELL.               King 22-13: WELL
FLD.           Purgatorie River: FIELD
LOC.           2419' FNL & 1806' FWL: LOCATION
PROV.                 Colorado: PROVINCE
CNTY.               Las Animas: COUNTRY
SRVC.                Patterson: SERVICE COMPANY
DATE.          Wed Apr 20 09:20:28 2005: LOG DATE
UWI.           05-071-08318-00: UNIQUE WELL ID
~Curve Information Block
DEPT.FT            0 000 00 00: Depth
CCL.                          : Casing Collar Locator
TT3.usec                      : CBL 3' Travel Time
AMP3.mV                       : CBL 3' Amplitude
GR.GAPI                       : Gamma Ray
~Parameter Information Block
~A  Depth       CCL         TT3         AMP3         GR     
# ...
   694.5000      0.0000    745.3899      6.2078     83.3335
   694.7500      0.0000    732.5326      6.1416     82.6691
   695.0000      0.0000    728.3605      6.0585     79.9408
   695.2500      0.0000    729.8077      5.9762     76.8122
   695.5000      0.0000    732.5637      5.9139     74.1414
   695.7500      0.0000    733.4460      5.8844     72.1664
   696.0000      0.0000    731.3757      5.8871     70.8639
   696.2500      0.0000    726.0981      5.9042     69.9990
   696.5000      0.0000    716.3593      5.9068     69.5233
   696.7500      0.0000    700.4491      5.8720     70.1535
   697.0000      0.0000    678.9346      5.8000     73.0097
   697.2500      0.0000    656.0565      5.7140     78.3540
   697.5000      0.0000    637.7162      5.6392     84.7675
   697.7500      0.0000    628.0132      5.5857     89.7471
   698.0000      0.0000    627.4946      5.5511     91.3530
   698.2500      0.0000    633.8253      5.5306     89.4513
   698.5000      0.0000    643.6047      5.5208     85.4176
   698.7500      0.0000    654.3784      5.5199     80.8591
   699.0000      0.0000    666.0397      5.5298     76.8486
   699.2500      0.0000    680.2800      5.5548     73.9069
   699.5000      0.0000    698.0175      5.5949     71.8747
   699.7500      0.0000    717.3113      5.6399     69.8693
   700.0000      0.0000    734.2931      5.6722     67.1879
   700.2500      0.0000    746.0699      5.6759     64.5178
   700.5000      0.0000    752.3007      5.6501     63.7243
   700.7500      0.0000    754.2401      5.6111     66.1305
   701.0000      0.0000    753.1129      5.5808     71.2945
   701.2500      0.0000    749.7682      5.5708     77.5628
   701.5000      0.0000    745.5303      5.5778     83.2825
   701.7500      0.0000    742.5563      5.5904     87.2951
   702.0000      0.0000    742.5447      5.5971     88.9144
   702.2500      0.0000    744.9326      5.5913     88.1707
   702.5000      0.0000    746.8889      5.5723     86.1646
   702.7500      0.0000    745.4930      5.5444     84.6776
   703.0000      0.0000    739.9778      5.5151     84.9749
   703.2500      0.0000    732.0574      5.4924     87.0233
   703.5000      0.0000    724.3851      5.4813     90.0854
   703.7500      0.0000    718.7249      5.4814     93.7511
   704.0000      0.0000    715.3035      5.4867     97.9019
   704.2500      0.0000    713.4122      5.4884    101.7850
   704.5000      0.0000    712.2783      5.4804    103.6865
   704.7500      0.0000    711.4788      5.4653    102.0148
   705.0000      0.0000    710.9254      5.4538     96.8901
   705.2500      0.0000    710.7345      5.4592     90.4671
   705.5000      0.0000    711.1511      5.4906     85.3689
   705.7500      0.0000    712.5972      5.5512     82.8923
   706.0000      0.0000    715.7122      5.6346     82.8609
   706.2500      0.0000    721.0181      5.7172     84.6763
   706.5000      0.0000    728.0974      5.7543     87.7967
   706.7500      0.0000    735.0802      5.6925     91.3997
   707.0000      0.0000    739.5760      5.5096     94.3905
   707.2500      0.0000    740.6541      5.2638     96.0710
   707.5000      0.0000    740.1797      5.0823     96.5784
   707.7500      0.0000    742.3627      5.0579     96.4769
   708.0000      0.0000    751.5056      5.1589     95.8442
   708.2500      0.0000    768.9784      5.2745     93.9040
   708.5000      0.0000    792.1967      5.3347     89.9285
   708.7500      0.0000    817.0718      5.3496     84.5045
   709.0000      0.0000    840.2518      5.3573     79.4192
   709.2500      5.0000    858.3711      5.3841     76.2109
   709.5000      0.0000    868.3940      5.4548     75.2978
   709.7500      0.0000    871.0140      5.6162     76.5486
   710.0000      0.0000    870.6811      5.9350     80.0086
   710.2500      0.0000    869.9577      6.4534     85.7396
   710.5000      0.0000    866.3240      7.1343     93.1772
   710.7500      0.0000    856.3157      7.8812    100.8665
   711.0000      0.0000    840.8452      8.6366    106.9526
   711.2500      0.0000    824.9114      9.4072    110.0790
   711.5000      0.0000    813.5159     10.1617    110.0357
   711.7500      0.0000    809.3049     10.7731    107.8729
   712.0000      0.0000    812.9897     11.1150    105.4729
   712.2500      0.0000    823.4052     11.1651    104.7271
   712.5000      0.0000    836.2354     10.9871    106.6297
   712.7500      0.0000    844.3929     10.6522    110.7797
   713.0000      0.0000    841.8371     10.2031    115.6818
   713.2500      0.0000    828.0128      9.6738    119.6576
   713.5000      0.0000    808.5073      9.1183    121.6668
   713.7500      0.0000    790.8740      8.6112    121.5546
   714.0000      0.0000    779.2761      8.2233    119.8567
   714.2500      0.0000    772.9531      8.0080    117.5108
   714.5000      0.0000    769.2892      8.0185    115.6407
   714.7500      0.0000    767.4063      8.3218    115.3490
   715.0000      0.0000    768.7895      8.9700    117.2311
   715.2500      0.0000    775.2498      9.9447    120.6992
   715.5000      0.0000    786.4155     11.1293    123.8596
   715.7500      0.0000    798.6571     12.3329    124.5444
   716.0000      0.0000    806.8257     13.3456    121.8480
   716.2500      0.0000    808.0387     14.0010    116.7998
   716.5000      0.0000    803.7834     14.2429    111.5931
   716.7500      0.0000    797.9570     14.1777    108.1756
   717.0000      0.0000    793.3060     14.0522    107.3696
   717.2500      0.0000    790.2612     14.1134    108.7215
   717.5000      0.0000    788.3554     14.4091    110.7758
   717.7500      0.0000    787.3562     14.6993    111.8350
   718.0000      0.0000    786.7998     14.6026    110.9575
   718.2500      0.0000    785.4207     13.8992    108.2878
   718.5000      0.0000    781.9890     12.7300    104.6489
   718.7500      0.0000    776.8314     11.5148    101.2618
   719.0000      0.0000    772.1461     10.6765     99.6267
   719.2500      0.0000    770.6722     10.4130    100.7998
   719.5000      0.0000    774.1420     10.6455    104.3506
   719.7500      0.0000    782.6489     11.1019    108.4075
   720.0000      0.0000    794.9875     11.4593    111.0700
   720.2500      0.0000    809.6991     11.4979    111.6969
   720.5000      0.0000    826.4988     11.2013    110.7764
   720.7500      0.0000    847.0700     10.7327    108.9827
   721.0000      0.0000    872.9959     10.3000    106.9451
   721.2500      0.0000    900.5619     10.0192    105.7303
   721.5000      0.0000    918.5027      9.8733    106.4922
   721.7500      0.0000    915.3616      9.7627    109.2027
   722.0000      0.0000    890.5732      9.5785    112.4057
   722.2500      0.0000    855.4000      9.2485    114.5886
   722.5000      0.0000    822.5447      8.7619    115.4084
   722.7500      0.0000    797.5585      8.1764    115.5137
   723.0000      0.0000    779.5002      7.5954    115.6379
   723.2500      0.0000    765.5558      7.1184    115.9959
   723.5000      0.0000    753.5484      6.7956    116.2760
   723.7500      0.0000    742.5242      6.6152    116.0793
   724.0000      0.0000    733.1113      6.5269    115.3912
   724.2500      0.0000    727.2137      6.4801    114.6569
   724.5000      0.0000    726.5967      6.4442    114.4954
   724.7500      0.0000    731.5188      6.4041    115.2396
   725.0000      0.0000    740.8380      6.3473    116.5564
   725.2500      0.0000    753.4646      6.2625    117.5913
   725.5000      0.0000    769.3421      6.1484    117.6017
   725.7500      0.0000    788.4814      6.0177    116.5672
   726.0000      0.0000    809.1652      5.8909    115.3200
   726.2500      0.0000    827.8355      5.7859    114.8248
   726.5000      0.0000    841.0649      5.7096    114.9791
   726.7500      0.0000    847.3080      5.6588    114.4564
   727.0000      0.0000    846.8077      5.6254    112.1766
   727.2500      0.0000    840.2842      5.6028    108.6529
   727.5000      0.0000    828.0720      5.5893    105.4909
   727.7500      0.0000    810.6454      5.5897    103.9224
