~Version Information
VERS.                      2.0: CWLS Log ASCII Standard - VERSION 2.0
WRAP.                       NO: One line per depth step
~Well Information Block
STRT.FT               340.0000: 
STOP.FT              1542.5000: 
STEP.FT                 0.1000: 
NULL.                -999.2500: 
COMP.          Petrogulf Corporation: COMPANY
WELL.            Montoya 7-21R: WELL
FLD.           Purgatorie River: FIELD
LOC.           445' FNL & 1942' FWL: LOCATION
PROV.                 Colorado: PROVINCE
CNTY.               Las Animas: COUNTRY
SRVC.                Patterson: SERVICE COMPANY
DATE.          Thu Sep 15 10:33:27 2005: LOG DATE
UWI.                          : UNIQUE WELL ID
~Curve Information Block
DEPT.FT            0 000 00 00: Depth
DCAL.in                       : CDL Caliper
RHOB.g/cc                     : CDL Bulk Density
RHOC.g/cc                     : CDL Density Correction
DPOR.pu                       : CDL Density Porosity
GR.GAPI                       : Gamma Ray
NPOR.pu                       : Neutron Porosity
~Parameter Information Block
~A  Depth       DCAL        RHOB        RHOC        DPOR         GR         NPOR    
# ...
  1136.8000      8.0000      2.5444     -0.0593      6.4008    157.0862     24.9658
  1136.9000      8.0000      2.5259     -0.1181      7.5217    160.3332     25.0402
  1137.0000      8.0334      2.5245     -0.0920      7.6050    162.6496     24.7256
  1137.1000      8.0334      2.5331      0.0121      7.0867    161.1065     24.3712
  1137.2000      8.0334      2.5295      0.0279      7.3035    159.3471     24.4661
  1137.3000      8.0199      2.5161      0.0355      8.1122    160.8420     24.8536
  1137.4000      8.0199      2.5121      0.0208      8.3585    165.4540     25.3385
  1137.5000      7.9783      2.5265      0.0321      7.4860    171.3383     26.0004
  1137.6000      7.9783      2.5547      0.0631      5.7760    174.7100     26.6490
  1137.7000      7.9783      2.5844      0.0970      3.9761    174.9797     27.1424
  1137.8000      7.9626      2.6110      0.0478      2.3649    175.8368     27.4278
  1137.9000      7.9626      2.6367      0.1104      0.8054    178.0726     27.3223
  1138.0000      7.9674      2.6461      0.1835      0.2363    177.6774     26.8618
  1138.1000      7.9674      2.6286      0.1048      1.2950    174.1789     26.3396
  1138.2000      7.9674      2.6080      0.1013      2.5439    170.9342     26.0021
  1138.3000      7.9686      2.5991      0.0903      3.0847    168.7622     25.8615
  1138.4000      7.9686      2.5907      0.0686      3.5932    166.7075     25.7207
  1138.5000      7.9651      2.5831      0.0164      4.0540    164.3974     25.4851
  1138.6000      7.9651      2.5835      0.0526      4.0278    162.0236     25.3054
  1138.7000      7.9651      2.5841      0.0492      3.9955    161.2479     25.0730
  1138.8000      7.9755      2.5857      0.0125      3.8966    162.1876     24.7118
  1138.9000      7.9755      2.5969      0.0127      3.2170    163.0971     24.4808
  1139.0000      7.9745      2.6030      0.0867      2.8513    163.1481     24.6250
  1139.1000      7.9745      2.5924      0.0490      3.4892    160.3911     24.9317
  1139.2000      7.9745      2.5868      0.0594      3.8286    153.9411     24.8773
  1139.3000      7.9730      2.6010      0.0543      2.9671    147.9950     24.3663
  1139.4000      7.9730      2.6246      0.0657      1.5371    146.6445     23.6611
  1139.5000      7.9844      2.6443      0.0423      0.3431    148.5217     23.0855
  1139.6000      7.9844      2.6549      0.0397     -0.2999    151.6951     22.9688
  1139.7000      7.9844      2.6616      0.0477     -0.7060    154.3058     23.2939
  1139.8000      7.9756      2.6714      0.0674     -1.2954    154.6696     23.7967
  1139.9000      7.9756      2.6794      0.0887     -1.7838    154.7740     24.0588
  1140.0000      7.9798      2.6767      0.0488     -1.6154    156.9532     23.7234
  1140.1000      7.9798      2.6596      0.0526     -0.5835    158.4632     23.0934
  1140.2000      7.9798      2.6290     -0.0052      1.2741    155.3506     22.6397
  1140.3000      7.9857      2.5913      0.0222      3.5558    149.0131     22.3577
  1140.4000      7.9857      2.5622     -0.0278      5.3219    145.1891     22.1882
  1140.5000      7.9933      2.5529      0.0350      5.8829    146.8329     22.1847
  1140.6000      7.9933      2.5504      0.0598      6.0336    150.7756     22.2762
  1140.7000      7.9933      2.5433      0.0203      6.4661    151.5775     22.2710
  1140.8000      7.9851      2.5414      0.0604      6.5845    148.3098     22.0633
  1140.9000      7.9851      2.5517      0.0460      5.9603    145.6583     21.7285
  1141.0000      7.9832      2.5688      0.0296      4.9208    146.2643     21.5319
  1141.1000      7.9832      2.5790      0.0471      4.3044    147.1419     21.6464
  1141.2000      7.9832      2.5722      0.0409      4.7140    146.5668     21.7419
  1141.3000      7.9777      2.5552      0.0542      5.7483    146.2976     21.6207
  1141.4000      7.9777      2.5470     -0.0097      6.2447    147.5213     21.7111
  1141.5000      7.9733      2.5559      0.0223      5.7043    151.4989     22.0213
  1141.6000      7.9733      2.5654      0.0699      5.1249    155.8877     22.2259
  1141.7000      7.9733      2.5645      0.0279      5.1815    155.5262     22.3208
  1141.8000      7.9599      2.5594      0.0654      5.4936    150.7225     22.4665
  1141.9000      7.9599      2.5543      0.0269      5.8018    146.0910     22.6405
  1142.0000      7.9526      2.5538      0.0161      5.8327    143.4323     22.5723
  1142.1000      7.9526      2.5605      0.0122      5.4218    141.5632     22.3630
  1142.2000      7.9526      2.5658      0.0403      5.1023    140.7377     22.3720
  1142.3000      7.9478      2.5608      0.0023      5.4051    142.0145     22.4585
  1142.4000      7.9478      2.5543     -0.0125      5.7988    142.2639     22.2152
  1142.5000      7.9384      2.5605      0.0178      5.4266    139.8976     21.4496
  1142.6000      7.9384      2.5721      0.0467      4.7193    137.0124     20.4306
  1142.7000      7.9384      2.5767      0.0452      4.4452    133.0135     19.4410
  1142.8000      7.9269      2.5839      0.0136      4.0087    126.7885     18.4661
  1142.9000      7.9269      2.5999      0.0689      3.0368    120.7591     17.4674
  1143.0000      7.9396      2.6031      0.0300      2.8430    117.6493     16.7377
  1143.1000      7.9396      2.5867      0.0056      3.8382    117.7418     16.7937
  1143.2000      7.9396      2.5765      0.0136      4.4546    118.9369     17.4891
  1143.3000      7.9488      2.5871      0.0381      3.8144    119.1925     18.1349
  1143.4000      7.9488      2.5993      0.0988      3.0721    117.4128     18.4583
  1143.5000      7.9524      2.5946      0.0337      3.3592    113.9327     18.5312
  1143.6000      7.9524      2.5724      0.0630      4.7020    110.6484     18.4578
  1143.7000      7.9524      2.5432     -0.0246      6.4730    110.3005     18.2536
  1143.8000      7.9645      2.5310      0.0168      7.2146    115.4507     17.9014
  1143.9000      7.9645      2.5465     -0.0022      6.2716    124.9839     17.7017
  1144.0000      7.9697      2.5721      0.0537      4.7210    132.8535     17.9039
  1144.1000      7.9697      2.5851      0.0709      3.9322    133.1399     18.2042
  1144.2000      7.9697      2.5872      0.0336      3.8068    128.8472     18.1657
  1144.3000      7.9661      2.5957      0.0228      3.2929    129.5325     18.0753
  1144.4000      7.9661      2.6099      0.0648      2.4314    136.2485     18.3392
  1144.5000      7.9569      2.6148      0.0835      2.1361    140.5439     18.5881
  1144.6000      7.9569      2.6119      0.0858      2.3111    139.7912     18.7101
  1144.7000      7.9569      2.6145      0.0749      2.1515    139.4146     19.2895
  1144.8000      7.9513      2.6147      0.1081      2.1392    141.4577     20.3505
  1144.9000      7.9513      2.5975      0.0556      3.1806    145.7967     21.0858
  1145.0000      7.9408      2.5771      0.0603      4.4175    153.4718     21.1039
  1145.1000      7.9408      2.5790      0.0339      4.3039    159.8709     20.8889
  1145.2000      7.9408      2.6091      0.0499      2.4809    160.7119     20.8169
  1145.3000      7.9412      2.6531      0.0594     -0.1874    159.1954     20.8585
  1145.4000      7.9412      2.6996      0.0559     -3.0079    157.0512     21.1830
  1145.5000      7.9394      2.7425      0.1057     -5.6084    153.5210     21.8553
  1145.6000      7.9394      2.7677      0.1538     -7.1335    151.0387     22.4587
  1145.7000      7.9394      2.7683      0.1487     -7.1670    151.7633     22.6479
  1145.8000      7.9394      2.7544      0.1203     -6.3265    153.0543     22.6702
  1145.9000      7.9394      2.7362      0.1169     -5.2218    152.6130     22.8947
  1146.0000      7.9415      2.7149      0.0458     -3.9360    151.0088     23.0399
  1146.1000      7.9415      2.6904      0.0344     -2.4495    148.7896     22.9253
  1146.2000      7.9415      2.6607      0.0119     -0.6458    146.9885     22.8696
  1146.3000      7.9405      2.6309     -0.0282      1.1552    147.6967     22.7150
