~Version Information
VERS.                      2.0: CWLS Log ASCII Standard - VERSION 2.0
WRAP.                       NO: One line per depth step
~Well Information Block
STRT.FT               -10.0000: 
STOP.FT              2297.5000: 
STEP.FT                 0.2500: 
NULL.                -999.2500: 
COMP.          Pioneer Natural Resources: COMPANY
WELL.              Bobsy 34-11: WELL
FLD.           Purgatorie River: FIELD
LOC.           1937' FEL & 451' FSL----------: LOCATION
PROV.                       CO: PROVINCE
CNTY.               Las Animas: COUNTRY
SRVC.          Patterson Wireline: SERVICE COMPANY
DATE.          Mon Apr 18 09:37:11 2005: LOG DATE
UWI.           05 071 08330 00: UNIQUE WELL ID
~Curve Information Block
DEPT.FT            0 000 00 00: Depth
CCL.                          : Casing Collar Locator
TT3.usec                      : CBL 3' Travel Time
AMP3.mV                       : CBL 3' Amplitude
GR.GAPI                       : Gamma Ray
~Parameter Information Block
~A  Depth       CCL         TT3         AMP3         GR     
   -10.0000   -999.2500   -999.2500   -999.2500     49.0124
    -9.7500   -999.2500   -999.2500   -999.2500     49.7071
    -9.5000   -999.2500   -999.2500   -999.2500     50.2355
    -9.2500   -999.2500   -999.2500   -999.2500     50.1662
    -9.0000   -999.2500   -999.2500   -999.2500     49.7332
    -8.7500   -999.2500   -999.2500   -999.2500     49.4994
    -8.5000   -999.2500   -999.2500   -999.2500     49.9767
    -8.2500   -999.2500   -999.2500   -999.2500     51.4997
    -8.0000   -999.2500   -999.2500   -999.2500     54.1001
    -7.7500   -999.2500   -999.2500   -999.2500     57.4514
    -7.5000   -999.2500   -999.2500   -999.2500     60.9880
    -7.2500   -999.2500   -999.2500   -999.2500     63.9894
    -7.0000   -999.2500   -999.2500   -999.2500     65.7871
    -6.7500   -999.2500   -999.2500   -999.2500     66.3099
    -6.5000   -999.2500   -999.2500   -999.2500     66.2794
    -6.2500   -999.2500   -999.2500   -999.2500     66.3872
    -6.0000   -999.2500   -999.2500   -999.2500     66.3992
    -5.7500   -999.2500   -999.2500   -999.2500     65.5464
    -5.5000   -999.2500   -999.2500   -999.2500     63.6579
    -5.2500   -999.2500   -999.2500   -999.2500     61.4250
    -5.0000   -999.2500   1167.0000      1.1995     59.6624
    -4.7500   -999.2500   1167.0000      1.2163     58.7773
    -4.5000   -999.2500   1167.0000      1.2244     58.8079
    -4.2500   -999.2500   1167.0000      1.2234     59.3197
    -4.0000   -999.2500   1167.0000      1.2194     59.2006
    -3.7500   -999.2500   1167.0000      1.2167     57.1493
    -3.5000   -999.2500   1167.0000      1.2141     52.8017
    -3.2500   -999.2500   1167.0000      1.2067     47.3152
    -3.0000   -999.2500   1167.0000      1.1912     42.5936
    -2.7500   -999.2500   1167.0000      1.1688     39.7625
    -2.5000   -999.2500   1167.0000      1.1450     38.3653
    -2.2500   -999.2500   1167.0000      1.1264     36.9494
    -2.0000   -999.2500   1167.0000      1.1181     34.3408
    -1.7500   -999.2500   1167.0000      1.1222     30.5529
    -1.5000   -999.2500   1167.0000      1.1377     26.7845
    -1.2500   -999.2500   1167.0000      1.1607     24.6350
    -1.0000   -999.2500   1167.0000      1.1862     25.1053
    -0.7500   -999.2500   1167.0000      1.2106     28.0363
    -0.5000   -999.2500   1167.0000      1.2322     32.2764
    -0.2500   -999.2500   1167.0000      1.2496     36.4909
     0.0000   -999.2500   1167.0000      1.2608     40.0901
     0.2500      0.0000   1167.0000      1.2641     43.4575
     0.5000      0.0000   1167.0000      1.2572     51.5903
     0.7500      0.0000   1167.0000      1.2562     55.6879
     1.0000      0.0000   1167.0000      1.2570     58.5451
     1.2500      0.0000   1167.0000      1.2550     59.6682
     1.5000      0.0000   1167.0000      1.2471     59.4910
     1.7500      0.0000   1167.0000      1.2342     59.0067
     2.0000      0.0000   1167.0000      1.2202     58.8927
     2.2500      0.0000   1167.0000      1.2093     59.1021
     2.5000      0.0000   1167.0000      1.2041     59.4573
     2.7500      0.0000   1167.0000      1.2049     60.3361
     3.0000      0.0000   1167.0000      1.2099     62.4413
     3.2500      0.0000   1167.0000      1.2168     65.9038
     3.5000      0.0000   1167.0000      1.2238     69.7065
     3.7500      0.0000   1167.0000      1.2298     71.8849
     4.0000      0.0000   1167.0000      1.2336     70.5013
     4.2500      0.0000   1167.0000      1.2334     65.0764
     4.5000      0.0000   1167.0000      1.2293     57.3977
     4.7500      0.0000   1167.0000      1.2233     50.6353
     5.0000      0.0000   1167.0000      1.2177     47.2392
     5.2500      0.0000   1167.0000      1.2111     47.3411
     5.5000      0.0000   1167.0000      1.1998     48.9328
     5.7500      0.0000   1167.0000      1.1834     49.7093
     6.0000      0.0000   1167.0000      1.1685     49.0922
     6.2500      0.0000   1166.9596      1.1648     48.5363
     6.5000      0.0000   1166.6765      1.1821     49.7229
     6.7500      0.0000   1165.2101      1.2457     52.5766
     7.0000      0.0000   1159.2644      1.4647     55.3227
     7.2500      0.0000   1140.3744      2.1775     56.3263
     7.5000      0.0000   1093.2844      4.1298     55.4268
     7.7500      0.0000   1001.0500      8.4313     53.4585
     8.0000      0.0000    858.8902     15.9537     51.0999
     8.2500      0.0000    686.2149     26.3416     48.6341
     8.5000      0.0000    520.6888     37.6429     46.4912
     8.7500      0.0000    395.3132     47.3236     45.3083
     9.0000      0.0000    320.2082     53.8716     45.2173
     9.2500      0.0000    284.6075     57.4079     45.4723
     9.5000      0.0000    271.2631     58.9571     45.1848
     9.7500      0.0000    267.3511     59.4362     44.2959
    10.0000      0.0000    266.6093     59.2216     43.5217
    10.2500      0.0000    267.0002     58.2627     43.4961
    10.5000      0.0000    268.3611     56.3851     44.3379
    10.7500      0.0000    271.0560     53.5871     46.0231
    11.0000      0.0000    275.0842     50.2012     48.6814
    11.2500      0.0000    279.4449     46.8246     52.0665
    11.5000      0.0000    282.4329     44.0795     54.8801
    11.7500      0.0000    282.9489     42.3416     55.3701
    12.0000      0.0000    281.4370     41.5905     53.0331
    12.2500      0.0000    279.3080     41.5042     49.3363
    12.5000      0.0000    277.6941     41.7136     46.3928
    12.7500      2.0000    276.9800     41.9897     45.1632
    13.0000      2.0000    277.1860     42.2900     45.0987
    13.2500      0.0000    278.2638     42.7621     45.1303
    13.5000      0.0000    279.8138     43.7205     44.7780
    13.7500      0.0000    280.6756     45.4711     44.5183
    14.0000      0.0000    279.3315     47.9919     45.1877
    14.2500      0.0000    275.2395     50.8350     47.0318
    14.5000      0.0000    269.7256     53.5037     49.5736
    14.7500      0.0000    265.1121     55.8702     52.5162
    15.0000      0.0000    262.8595     58.0475     56.4935
    15.2500      0.0000    262.7120     59.9947     62.5795
    15.5000      0.0000    263.4722     61.5019     71.0116
    15.7500      0.0000    264.1856     62.4738     80.5172
    16.0000      0.0000    264.5623     63.0240     88.8339
    16.2500      0.0000    264.6993     63.3401     93.7958
    16.5000      0.0000    264.7351     63.5692     94.2783
    16.7500      0.0000    264.7260     63.8023     90.7854
    17.0000      0.0000    264.6808     64.0810     85.3462
    17.2500      0.0000    264.6081     64.3989     80.5173
    17.5000      0.0000    264.5320     64.7213     78.2025
    17.7500      0.0000    264.4733     65.0214     79.0293
    18.0000      0.0000    264.4365     65.2992     82.1518
    18.2500      0.0000    264.4123     65.5622     85.5643
    18.5000      0.0000    264.3922     65.8004     87.4069
    18.7500      0.0000    264.3788     65.9943     87.3288
    19.0000      0.0000    264.3789     66.1392     86.3841
    19.2500      0.0000    264.3903     66.2499     85.8088
    19.5000      0.0000    264.3994     66.3492     86.0812
    19.7500      0.0000    264.3943     66.4570     86.7759
    20.0000      0.0000    264.3796     66.5839     87.0154
    20.2500      0.0000    264.3709     66.7278     86.0519
    20.5000      0.0000    264.3757     66.8777     83.5308
    20.7500      0.0000    264.3842     67.0214     79.5910
    21.0000      0.0000    264.3803     67.1536     75.0908
    21.2500      0.0000    264.3591     67.2797     71.5652
    21.5000      0.0000    264.3300     67.4158     70.5002
    21.7500      0.0000    264.3038     67.5855     72.4399
    22.0000      0.0000    264.2820     67.8131     76.7201
    22.2500      0.0000    264.2582     68.1142     81.8356
    22.5000      0.0000    264.2281     68.4841     86.0837
    22.7500      0.0000    264.1922     68.8962     88.2515
    23.0000      0.0000    264.1551     69.3117     88.1441
    23.2500      0.0000    264.1238     69.6919     86.5534
