~Version Information
 VERS.                                  2.0 : CWLS LAS VERSION
 WRAP.                                   NO : WRAPING MODE
 SWARE .                 MController 2.5.0J : SOFTWARE VERSION
~Well Information
 WELL.                       Lavedure 7-44R : WELL
 COMP.                Petrogulf Corporation : COMPANY
 FLD.                      Purgatoire River : FIELD
 LOC.                 SE/SE Sec 7 T33S R67W : LOCATION
 DATE.                             09/23/05 : DATE(S) LOGGED
 SRVC.       BLANCO Geological Services LLC : SERVICE COMPANY
 STAT.                                   CO : STATE
 CNTY.                           Las Animas : COUNTY
 CTRY.                                  USA : COUNTRY
 API.                       05-071-08090-00 : API NUMBER
 STRT.FT                             828.00 : START DEPTH
 STOP.FT                            2020.00 : STOP DEPTH
 STEP.FT                               1.00 : DEPTH INCREMENT
 NULL.                                -9999 : NULL VALUE
~Curve information
 DEPTH.FT                                   :
 ROP.MIN/FT                                 :
 GAS.UNITS                                  :
~ASCII Log data
# ...
      1628.0         0.87         44.6 
      1629.0         0.67         43.1 
      1630.0         0.60         42.4 
      1631.0         0.65         43.3 
      1632.0         0.47         42.8 
      1633.0         0.67         40.9 
      1634.0         0.67         42.7 
      1635.0         0.77         43.1 
      1636.0         0.82         43.8 
      1637.0         1.30         44.3 
      1638.0         1.17         44.9 
      1639.0         0.62         46.9 
      1640.0         0.70         45.6 
      1641.0         0.83         45.3 
      1642.0         0.83         44.9 
      1643.0         0.92         43.6 
      1644.0         1.00         42.5 
      1645.0         0.87         41.0 
      1646.0         1.15         40.6 
      1647.0         1.20         40.3 
      1648.0         0.77         41.0 
      1649.0         0.68         39.8 
      1650.0         6.12        135.2 
      1651.0         0.88         57.3 
      1652.0         0.90         43.2 
      1653.0         0.63         39.9 
      1654.0         0.60         42.9 
      1655.0         0.65         43.2 
      1656.0         0.67         42.9 
      1657.0         0.70         41.6 
      1658.0         0.63         41.7 
      1659.0         0.70         42.4 
      1660.0         0.85         42.7 
      1661.0         0.77         44.0 
      1662.0         0.67         45.8 
      1663.0         0.73         45.7 
      1664.0         0.78         44.0 
      1665.0         0.63         42.1 
      1666.0         0.37         41.2 
      1667.0         0.63         41.8 
      1668.0         0.57         42.5 
      1669.0         0.80         42.6 
      1670.0         0.62         41.7 
      1671.0         0.77         39.9 
      1672.0         0.67         38.3 
      1673.0         0.63         38.7 
      1674.0         0.50         39.1 
      1675.0         0.68         40.2 
      1676.0         0.77         40.4 
      1677.0         0.70         40.8 
      1678.0         0.50         41.1 
      1679.0         0.47         41.8 
      1680.0         5.50        135.3 
      1681.0         1.10         72.2 
      1682.0         0.75         58.5 
      1683.0         0.77         42.0 
      1684.0         0.63         36.0 
      1685.0         0.63         36.1 
      1686.0         0.53         39.0 
      1687.0         0.43         40.2 
      1688.0         0.42         40.4 
      1689.0         0.37         40.2 
      1690.0         0.37         40.0 
      1691.0         0.47         43.1 
      1692.0         0.50         44.3 
      1693.0         3.38         73.9 
      1694.0         0.72         45.7 
      1695.0         0.43         34.8 
      1696.0         0.53         40.0 
      1697.0         0.33         41.8 
      1698.0         0.30         42.1 
      1699.0         0.37         42.6 
      1700.0         0.33         42.4 
      1701.0         0.33         41.4 
      1702.0         0.45         41.8 
      1703.0         0.60         42.4 
      1704.0         0.63         42.9 
      1705.0         1.03         46.2 
      1706.0         1.22         46.7 
      1707.0         0.57         45.7 
      1708.0         0.80         44.9 
      1709.0         0.90         42.7 
      1710.0         9.55        264.4 
      1711.0         0.90         38.6 
      1712.0         0.88         41.9 
      1713.0         0.83         44.8 
      1714.0         1.27         45.2 
      1715.0         1.52         44.3 
      1716.0         1.90         44.5 
      1717.0         1.05         43.6 
      1718.0         1.20         45.6 
      1719.0         1.82         46.1 
      1720.0         0.80         40.6 
      1721.0         0.70         36.3 
      1722.0         0.53         39.4 
      1723.0         0.63         42.0 
      1724.0         0.92         43.3 
      1725.0        10.48         57.0 
      1726.0         0.80         54.6 
      1727.0         0.82         47.1 
      1728.0         0.67         43.3 
      1729.0       186.72       9731.1 
      1730.0         0.88        128.3 
      1731.0         0.70         60.7 
      1732.0         0.70         51.4 
      1733.0         0.63         52.1 
      1734.0         0.60         50.6 
      1735.0         0.58         47.3 
      1736.0         0.60         45.3 
      1737.0         0.53         44.2 
      1738.0         0.53         44.0 
      1739.0         0.53         43.7 
      1740.0         0.50         43.5 
      1741.0         0.55         43.5 
      1742.0         0.53         43.3 
      1743.0         0.50         42.9 
      1744.0         0.57         42.3 
      1745.0         0.63         41.8 
      1746.0         0.67         41.3 
      1747.0         0.92         40.5 
      1748.0         0.60         39.5 
      1749.0         0.60         39.0 
      1750.0         0.57         39.0 
      1751.0         0.53         39.4 
      1752.0         0.58         39.6 
      1753.0         0.60         39.9 
      1754.0         0.57         40.6 
      1755.0         0.57         41.1 
      1756.0         0.57         41.3 
      1757.0         0.60         41.0 
      1758.0         0.58         40.9 
      1759.0         0.63         38.6 
      1760.0         0.80         36.6 
      1761.0         2.25        125.8 
      1762.0         0.53         70.2 
      1763.0         0.63         51.9 
      1764.0         0.63         47.6 
      1765.0         0.68         47.9 
      1766.0         0.70         47.5 
      1767.0         0.63         44.4 
      1768.0         0.57         42.0 
      1769.0         0.73         41.5 
      1770.0         0.85         41.6 
      1771.0         0.47         42.0 
      1772.0         0.57         43.5 
      1773.0         0.60         44.0 
      1774.0         0.85         43.3 
      1775.0         0.67         41.8 
      1776.0         0.60         40.6 
      1777.0         0.60         39.8 
      1778.0         0.92         38.6 
      1779.0         0.57         36.8 
      1780.0         0.77         35.7 
      1781.0         0.43         35.4 
      1782.0         0.50         35.3 
      1783.0         0.37         35.2 
      1784.0         0.43         35.2 
      1785.0         0.45         35.1 
      1786.0         0.43         35.0 
      1787.0         0.80         34.9 
      1788.0         0.63         34.3 
      1789.0         0.67         34.1 
      1790.0         0.65         34.5 
      1791.0         4.32        135.3 
      1792.0         0.60         53.0 
      1793.0         0.57         47.9 
      1794.0         0.43         48.1 
      1795.0         0.58         48.0 
      1796.0         0.60         47.8 
      1797.0         0.57         46.4 
      1798.0         0.53         43.8 
      1799.0         0.53         40.5 
      1800.0         0.47         39.4 
      1801.0         0.48         39.1 
      1802.0         0.50         39.4 
      1803.0         0.60         39.1 
      1804.0         0.47         39.1 
      1805.0         0.60         40.0 
      1806.0         0.50         39.9 
      1807.0         0.45         39.3 
      1808.0         0.47         38.6 
      1809.0         0.50         38.2 
      1810.0         0.47         37.9 
      1811.0         0.40         37.8 
      1812.0         0.47         37.7 
      1813.0         0.43         37.2 
      1814.0         0.37         36.7 
      1815.0         0.38         35.8 
      1816.0         0.37         34.8 
      1817.0         0.30         33.9 
      1818.0         0.30         33.5 
      1819.0         0.27         33.0 
      1820.0         0.37         33.2 
      1821.0         5.33        246.9 
      1822.0         0.67        127.0 
      1823.0         0.33         51.6 
      1824.0         0.33         41.6 
      1825.0         0.30         38.4 
      1826.0         0.27         38.3 
      1827.0         0.42         40.6 
