~Version Information
VERS.                      2.0: CWLS Log ASCII Standard - VERSION 2.0
WRAP.                       NO: One line per depth step
~Well Information Block
STRT.FT               482.2000: 
STOP.FT              2349.0000: 
STEP.FT                 0.1000: 
NULL.                -999.2500: 
COMP.          Pioneer Natural Resources: COMPANY
WELL.          Hill Climb 22-2: WELL
FLD.           Purgatoire River: FIELD
LOC.           1820' FNL & 2193' FWL: LOCATION
PROV.                 Colorado: PROVINCE
CNTY.               Las Animas: COUNTRY
SRVC.                Patterson: SERVICE COMPANY
DATE.          Wed Oct 20 09:25:25 2004: LOG DATE
UWI.           05 071 08175 00: UNIQUE WELL ID
~Curve Information Block
DEPT.FT            0 000 00 00: Depth
DCAL.in                       : CDL Caliper
DPOR.pu                       : CDL Density Porosity
NPOR.pu                       : Neutron Porosity
RHOB.g/cc                     : CDL Bulk Density
RHOC.g/cc                     : CDL Density Correction
GR.GAPI                       : Gamma Ray
~Parameter Information Block
~A  Depth       DCAL        DPOR        NPOR        RHOB        RHOC         GR     
# ...
   991.0000      0.0000      0.0000      0.0000      0.0000      0.0000    155.5907
   991.1000      0.0000      0.0000      0.0000      0.0000      0.0000    145.5671
   991.2000      0.0000      0.0000      0.0000      0.0000      0.0000    139.8264
   991.3000      0.0000      0.0000      0.0000      0.0000      0.0000    143.5910
   991.4000      0.0000      0.0000      0.0000      0.0000      0.0000    148.0802
   991.5000      0.0000      0.0000      0.0000      0.0000      0.0000    150.3468
   991.6000      0.0000      0.0000      0.0000      0.0000      0.0000    146.8007
   991.7000      0.0000      0.0000      0.0000      0.0000      0.0000    129.4474
   991.8000      0.0000      0.0000      0.0000      0.0000      0.0000    104.0538
   991.9000      0.0000      0.0000      0.0000      0.0000      0.0000     91.4883
   992.0000      0.0000      0.0000      0.0000      0.0000      0.0000     93.6508
   992.1000      0.0000      0.0000      0.0000      0.0000      0.0000     92.3799
   992.2000      0.0000      0.0000      0.0000      0.0000      0.0000     82.9816
   992.3000      0.0000      0.0000      0.0000      0.0000      0.0000     74.3080
   992.4000      0.0000      0.0000      0.0000      0.0000      0.0000     71.6360
   992.5000      0.0000      0.0000      0.0000      0.0000      0.0000     73.0794
   992.6000      0.0000      0.0000      0.0000      0.0000      0.0000     73.7914
   992.7000      0.0000      0.0000      0.0000      0.0000      0.0000     74.3252
   992.8000      0.0000      0.0000      0.0000      0.0000      0.0000     78.8839
   992.9000      0.0000      0.0000      0.0000      0.0000      0.0000     85.8820
   993.0000      0.0000      0.0000      0.0000      0.0000      0.0000     89.3550
   993.1000      0.0000      0.0000      0.0000      0.0000      0.0000     85.3761
   993.2000      0.0000      0.0000      0.0000      0.0000      0.0000     79.7147
   993.3000      0.0000      0.0000      0.0000      0.0000      0.0000     79.8409
   993.4000      0.0000      0.0000      0.0000      0.0000      0.0000     82.3465
   993.5000      0.0000      0.0000      0.0000      0.0000      0.0000     87.1393
   993.6000      0.0000      0.0000      0.0000      0.0000      0.0000     99.0387
   993.7000      0.0000      0.0000      0.0000      0.0000      0.0000    112.4472
   993.8000      0.0000      0.0000      0.0000      0.0000      0.0000    119.1294
   993.9000      0.0000      0.0000      0.0000      0.0000      0.0000    119.8514
   994.0000      0.0000      0.0000      0.0000      0.0000      0.0000    120.2946
   994.1000      0.0000      0.0000      0.0000      0.0000      0.0000    127.3848
   994.2000      0.0000      0.0000      0.0000      0.0000      0.0000    140.3931
   994.3000      0.0000      0.0000      0.0000      0.0000      0.0000    146.2557
   994.4000      0.0000      0.0000      0.0000      0.0000      0.0000    133.9286
   994.5000      0.0000      0.0000      0.0000      0.0000      0.0000    114.4020
   994.6000      0.0000      0.0000      0.0000      0.0000      0.0000    104.4525
   994.7000      0.0000      0.0000      0.0000      0.0000      0.0000    101.0149
   994.8000      0.0000      0.0000      0.0000      0.0000      0.0000     98.3149
   994.9000      0.0000      0.0000      0.0000      0.0000      0.0000     99.3052
   995.0000      0.0000      0.0000      0.0000      0.0000      0.0000     99.9566
   995.1000      0.0000      0.0000      0.0000      0.0000      0.0000     93.3310
   995.2000      0.0000      0.0000      0.0000      0.0000      0.0000     84.3283
   995.3000      0.0000      0.0000      0.0000      0.0000      0.0000     78.5186
   995.4000      0.0000      0.0000      0.0000      0.0000      0.0000     72.1943
   995.5000      0.0000      0.0000      0.0000      0.0000      0.0000     65.0751
   995.6000      0.0000      0.0000      0.0000      0.0000      0.0000     63.6521
   995.7000      0.0000      0.0000      0.0000      0.0000      0.0000     69.6827
   995.8000      0.0000      0.0000      0.0000      0.0000      0.0000     80.7445
   995.9000      0.0000      0.0000      0.0000      0.0000      0.0000     93.8768
   996.0000      0.0000      0.0000      0.0000      0.0000      0.0000    109.7037
   996.1000      0.0000      0.0000      0.0000      0.0000      0.0000    128.7148
   996.2000      0.0000      0.0000      0.0000      0.0000      0.0000    136.1244
   996.3000      0.0000      0.0000      0.0000      0.0000      0.0000    123.3430
   996.4000      0.0000      0.0000      0.0000      0.0000      0.0000    103.6742
   996.5000      0.0000      0.0000      0.0000      0.0000      0.0000     92.5434
   996.6000      0.0000      0.0000      0.0000      0.0000      0.0000     92.6990
   996.7000      0.0000      0.0000      0.0000      0.0000      0.0000     94.7688
   996.8000      0.0000      0.0000      0.0000      0.0000      0.0000     90.4061
   996.9000      0.0000      0.0000      0.0000      0.0000      0.0000     85.5893
   997.0000      0.0000      0.0000      0.0000      0.0000      0.0000     89.1613
   997.1000      0.0000      0.0000      0.0000      0.0000      0.0000     99.7890
   997.2000      0.0000      0.0000      0.0000      0.0000      0.0000    113.9549
   997.3000      0.0000      0.0000      0.0000      0.0000      0.0000    122.5718
   997.4000      0.0000      0.0000      0.0000      0.0000      0.0000    125.6545
   997.5000      0.0000      0.0000      0.0000      0.0000      0.0000    133.9022
   997.6000      0.0000      0.0000      0.0000      0.0000      0.0000    140.5451
   997.7000      0.0000      0.0000      0.0000      0.0000      0.0000    131.6178
   997.8000      0.0000      0.0000      0.0000      0.0000      0.0000    110.9568
   997.9000      0.0000      0.0000      0.0000      0.0000      0.0000     97.1359
   998.0000      0.0000      0.0000      0.0000      0.0000      0.0000     98.9504
   998.1000      0.0000      0.0000      0.0000      0.0000      0.0000    102.4438
   998.2000      0.0000      0.0000      0.0000      0.0000      0.0000     94.6178
   998.3000      0.0000      0.0000      0.0000      0.0000      0.0000     85.7774
   998.4000      0.0000      0.0000      0.0000      0.0000      0.0000     93.2312
   998.5000      0.0000      0.0000      0.0000      0.0000      0.0000    110.2187
   998.6000      0.0000      0.0000      0.0000      0.0000      0.0000    123.3643
   998.7000      0.0000      0.0000      0.0000      0.0000      0.0000    129.7339
   998.8000      0.0000      0.0000      0.0000      0.0000      0.0000    126.5311
   998.9000      0.0000      0.0000      0.0000      0.0000      0.0000    116.6803
   999.0000      0.0000      0.0000      0.0000      0.0000      0.0000    109.8376
   999.1000      0.0000      0.0000      0.0000      0.0000      0.0000    106.6830
   999.2000      0.0000      0.0000      0.0000      0.0000      0.0000     99.8692
   999.3000      0.0000      0.0000      0.0000      0.0000      0.0000     91.4778
   999.4000      0.0000      0.0000      0.0000      0.0000      0.0000     91.4806
   999.5000      0.0000      0.0000      0.0000      0.0000      0.0000    101.0960
   999.6000      0.0000      0.0000      0.0000      0.0000      0.0000    112.6486
   999.7000      0.0000      0.0000      0.0000      0.0000      0.0000    120.5108
   999.8000      0.0000      0.0000      0.0000      0.0000      0.0000    122.4740
   999.9000      0.0000      0.0000      0.0000      0.0000      0.0000    119.2214
  1000.0000      0.0000      0.0000      0.0000      0.0000      0.0000    121.5804
  1000.1000      0.0000      0.0000      0.0000      0.0000      0.0000    134.2988
  1000.2000      0.0000      0.0000      0.0000      0.0000      0.0000    142.1647
  1000.3000      0.0000      0.0000      0.0000      0.0000      0.0000    135.4501
  1000.4000      0.0000      0.0000      0.0000      0.0000      0.0000    120.0838
  1000.5000      0.0000      0.0000      0.0000      0.0000      0.0000    107.1875
