~Version Information
VERS.                      2.0: CWLS Log ASCII Standard - VERSION 2.0
WRAP.                       NO: One line per depth step
~Well Information Block
STRT.FT               221.2000: 
STOP.FT              2260.4000: 
STEP.FT                 0.1000: 
NULL.                -999.2500: 
COMP.          Petrogulf Corporation: COMPANY
WELL.          Anderson 18-43V: WELL
FLD.           Purgatorie River: FIELD
LOC.           1782' FSL & 887' FEL--: LOCATION
CNTY.               Las Animas: COUNTY
SRVC.                         : SERVICE COMPANY
DATE.          Mon Sep 13 14:11:09 2004: LOG DATE
UWI.                          : UNIQUE WELL ID
STAT.                       CO: STATE
~Curve Information Block
DEPT.FT            0 000 00 00: Depth
TT3.usec                      : CBL 3' Travel Time
AMP3.mV                       : CBL 3' Amplitude
GR.GAPI                       : Gamma Ray
CCL.                          : Casing Collar Locator
~Parameter Information Block
~A  Depth       TT3         AMP3         GR         CCL     
# ...
  1708.6000    666.4845      2.0029     65.5396      0.0000
  1708.7000    666.4845      2.0029     65.5396      0.0000
  1708.8000    673.6367      2.0189     66.8623      0.0000
  1708.9000    673.6367      2.0189     66.8623      0.0000
  1709.0000    679.0767      2.0731     70.7514      0.0000
  1709.1000    679.0767      2.0731     70.7514      0.0000
  1709.2000    679.0767      2.0731     70.7514      0.0000
  1709.3000    681.0757      2.1527     76.7319      0.0000
  1709.4000    681.0757      2.1527     76.7319      0.0000
  1709.5000    679.1152      2.2319     83.3538      0.0000
  1709.6000    679.1152      2.2319     83.3538      0.0000
  1709.7000    679.1152      2.2319     83.3538      0.0000
  1709.8000    673.9078      2.2830     89.1324      0.0000
  1709.9000    673.9078      2.2830     89.1324      0.0000
  1710.0000    666.7862      2.2863     93.4836      0.0000
  1710.1000    666.7862      2.2863     93.4836      0.0000
  1710.2000    666.7862      2.2863     93.4836      0.0000
  1710.3000    659.0135      2.2368     96.3355      0.0000
  1710.4000    659.0135      2.2368     96.3355      0.0000
  1710.5000    651.5778      2.1487     97.0795      0.0000
  1710.6000    651.5778      2.1487     97.0795      0.0000
  1710.7000    651.5778      2.1487     97.0795      0.0000
  1710.8000    645.4005      2.0536     94.5110      0.0000
  1710.9000    645.4005      2.0536     94.5110      0.0000
  1711.0000    641.3621      1.9878     88.1094      0.0000
  1711.1000    641.3621      1.9878     88.1094      0.0000
  1711.2000    641.3621      1.9878     88.1094      0.0000
  1711.3000    640.1035      1.9715     79.2475      0.0000
  1711.4000    640.1035      1.9715     79.2475      0.0000
  1711.5000    641.9647      1.9977     70.8337     -2.0000
  1711.6000    641.9647      1.9977     70.8337      2.0000
  1711.7000    641.9647      1.9977     70.8337      0.0000
  1711.8000    646.7313      2.0397     65.5071     -2.0000
  1711.9000    646.7313      2.0397     65.5071      0.0000
  1712.0000    652.8685      2.0686     64.0139      0.0000
  1712.1000    652.8685      2.0686     64.0139      0.0000
  1712.2000    652.8685      2.0686     64.0139      0.0000
  1712.3000    657.3779      2.0655     65.1777      0.0000
  1712.4000    657.3779      2.0655     65.1777      0.0000
  1712.5000    657.5480      2.0288     67.1579      0.0000
  1712.6000    657.5480      2.0288     67.1579      0.0000
  1712.7000    657.5480      2.0288     67.1579      0.0000
  1712.8000    653.2747      1.9796     68.5752      0.0000
  1712.9000    653.2747      1.9796     68.5752      0.0000
  1713.0000    647.1261      1.9523     68.9665      0.0000
  1713.1000    647.1261      1.9523     68.9665      0.0000
  1713.2000    647.1261      1.9523     68.9665      0.0000
  1713.3000    642.0704      1.9678     68.9713      0.0000
  1713.4000    642.0704      1.9678     68.9713      0.0000
  1713.5000    639.6177      2.0101     70.2762      0.0000
  1713.6000    639.6177      2.0101     70.2762      0.0000
  1713.7000    639.6177      2.0101     70.2762      0.0000
  1713.8000    639.9816      2.0365     74.7989      0.0000
  1713.9000    639.9816      2.0365     74.7989      0.0000
  1714.0000    643.1365      2.0112     83.2591      0.0000
  1714.1000    643.1365      2.0112     83.2591      0.0000
  1714.2000    643.1365      2.0112     83.2591      0.0000
  1714.3000    649.1179      1.9338     94.1968      0.0000
  1714.4000    649.1179      1.9338     94.1968      0.0000
  1714.5000    657.2913      1.8379    104.6540      0.0000
  1714.6000    657.2913      1.8379    104.6540      0.0000
  1714.7000    657.2913      1.8379    104.6540      0.0000
  1714.8000    665.6323      1.7684    112.3063      0.0000
  1714.9000    665.6323      1.7684    112.3063      0.0000
  1715.0000    671.1890      1.7575    116.6658      0.0000
  1715.1000    671.1890      1.7575    116.6658      0.0000
  1715.2000    671.1890      1.7575    116.6658      0.0000
  1715.3000    671.7058      1.8121    117.9669      0.0000
  1715.4000    671.7058      1.8121    117.9669      0.0000
  1715.5000    667.0881      1.9159    115.8465      0.0000
  1715.6000    667.0881      1.9159    115.8465      0.0000
  1715.7000    667.0881      1.9159    115.8465      0.0000
  1715.8000    659.4148      2.0368    109.9285      0.0000
  1715.9000    659.4148      2.0368    109.9285      0.0000
  1716.0000    651.4803      2.1388    101.0527      0.0000
  1716.1000    651.4803      2.1388    101.0527      0.0000
  1716.2000    651.4803      2.1388    101.0527      0.0000
  1716.3000    645.1340      2.1969     91.1522      0.0000
  1716.4000    645.1340      2.1969     91.1522      0.0000
  1716.5000    640.7506      2.2036     81.9652      0.0000
  1716.6000    640.7506      2.2036     81.9652      0.0000
  1716.7000    640.7506      2.2036     81.9652      0.0000
  1716.8000    637.8635      2.1649     74.0802      0.0000
  1716.9000    637.8635      2.1649     74.0802      0.0000
  1717.0000    635.9505      2.0944     67.3240      0.0000
  1717.1000    635.9505      2.0944     67.3240      0.0000
  1717.2000    635.9505      2.0944     67.3240      0.0000
  1717.3000    634.7128      2.0125     61.7925      0.0000
  1717.4000    634.7128      2.0125     61.7925      0.0000
  1717.5000    633.9932      1.9454     57.9733      0.0000
  1717.6000    633.9932      1.9454     57.9733      0.0000
  1717.7000    633.9932      1.9454     57.9733      0.0000
  1717.8000    633.6754      1.9175     55.9593      0.0000
  1717.9000    633.6754      1.9175     55.9593      0.0000
  1718.0000    633.6544      1.9409     55.2025      0.0000
  1718.1000    633.6544      1.9409     55.2025      0.0000
  1718.2000    633.6544      1.9409     55.2025      0.0000
  1718.3000    633.8293      2.0049     55.0126      0.0000
  1718.4000    633.8293      2.0049     55.0126      0.0000
  1718.5000    634.1007      2.0759     54.9117      0.0000
  1718.6000    634.1007      2.0759     54.9117      0.0000
  1718.7000    634.1007      2.0759     54.9117      0.0000
  1718.8000    634.3758      2.1120     54.6567      0.0000
  1718.9000    634.3758      2.1120     54.6567      0.0000
  1719.0000    634.5884      2.0879     54.0494      0.0000
  1719.1000    634.5884      2.0879     54.0494      0.0000
  1719.2000    634.5884      2.0879     54.0494      0.0000
  1719.3000    634.7205      2.0096     52.6720      0.0000
  1719.4000    634.7205      2.0096     52.6720      0.0000
  1719.5000    634.8409      1.9059     50.2520      0.0000
  1719.6000    634.8409      1.9059     50.2520      0.0000
  1719.7000    634.8409      1.9059     50.2520      0.0000
  1719.8000    635.1667      1.8097     47.6357      0.0000
  1719.9000    635.1667      1.8097     47.6357      0.0000
  1720.0000    636.1426      1.7499     46.6962      0.0000
  1720.1000    636.1426      1.7499     46.6962      0.0000
  1720.2000    636.1426      1.7499     46.6962      0.0000
  1720.3000    638.3926      1.7507     48.6128      0.0000
  1720.4000    638.3926      1.7507     48.6128      0.0000
  1720.5000    642.3677      1.8235     52.5625      0.0000
  1720.6000    642.3677      1.8235     52.5625      0.0000
  1720.7000    642.3677      1.8235     52.5625      0.0000
  1720.8000    647.8249      1.9501     56.4435      0.0000
  1720.9000    647.8249      1.9501     56.4435      0.0000
  1721.0000    653.6470      2.0785     58.6704      0.0000
  1721.1000    653.6470      2.0785     58.6704      0.0000
  1721.2000    653.6470      2.0785     58.6704      0.0000
  1721.3000    658.2389      2.1515     59.1807      0.0000
  1721.4000    658.2389      2.1515     59.1807      0.0000
  1721.5000    660.2440      2.1445     59.1127      0.0000
  1721.6000    660.2440      2.1445     59.1127      0.0000
  1721.7000    660.2440      2.1445     59.1127      0.0000
  1721.8000    659.2664      2.0803     59.7477      0.0000
  1721.9000    659.2664      2.0803     59.7477      0.0000
