~Version Information
VERS.                      2.0: CWLS Log ASCII Standard - VERSION 2.0
WRAP.                       NO: One line per depth step
~Well Information Block
STRT.FT                -6.7500: 
STOP.FT              1766.5000: 
STEP.FT                 0.2500: 
NULL.                -999.2500: 
COMP.          Pioneer Natural Resources: COMPANY
WELL.            Hill 33-22 Tr: WELL
FLD.           Purgatorie River: FIELD
LOC.           1573' FSL & 1585' FEL: LOCATION
PROV.                 Colorado: PROVINCE
CNTY.               Las Animas: COUNTRY
SRVC.          Patterson Wireline: SERVICE COMPANY
DATE.          Tue Apr 19 09:26:19 2005: LOG DATE
UWI.           05-071-08316-00: UNIQUE WELL ID
~Curve Information Block
DEPT.FT            0 000 00 00: Depth
CCL.                          : Casing Collar Locator
TT3.usec                      : CBL 3' Travel Time
AMP3.mV                       : CBL 3' Amplitude
GR.GAPI                       : Gamma Ray
~Parameter Information Block
~A  Depth       CCL         TT3         AMP3         GR     
# ...
  1031.7500      0.0000    794.1257      6.4433     51.5853
  1032.0000      0.0000    793.9962      6.4024     49.4634
  1032.2500      0.0000    794.0839      6.3186     49.9085
  1032.5000      0.0000    795.3646      6.1805     51.8601
  1032.7500      0.0000    800.0607      5.9789     53.6808
  1033.0000      0.0000    812.0395      5.7174     54.3418
  1033.2500      0.0000    836.1370      5.4173     54.0076
  1033.5000      0.0000    875.4385      5.1062     53.7203
  1033.7500      0.0000    927.3625      4.8007     54.5758
  1034.0000      0.0000    982.4744      4.5081     57.0109
  1034.2500      0.0000   1028.9918      4.2421     60.5543
  1034.5000      0.0000   1059.4720      4.0255     64.1397
  1034.7500      0.0000   1072.1793      3.8690     66.8029
  1035.0000      0.0000   1065.9637      3.7497     68.2493
  1035.2500      0.0000   1036.6047      3.6187     68.7751
  1035.5000      0.0000    981.4865      3.4375     68.6411
  1035.7500      0.0000    907.8491      3.2086     67.6439
  1036.0000      0.0000    832.9548      2.9739     65.3633
  1036.2500      0.0000    774.0626      2.7884     61.7991
  1036.5000      0.0000    739.2753      2.7005     57.7123
  1036.7500      0.0000    727.8002      2.7463     54.2778
  1037.0000      0.0000    735.4533      2.9398     52.3044
  1037.2500      0.0000    757.0624      3.2603     51.7674
  1037.5000      0.0000    785.4156      3.6594     52.0600
  1037.7500      0.0000    812.8756      4.0938     52.5755
  1038.0000      0.0000    837.7338      4.5560     53.1297
  1038.2500      0.0000    867.3035      5.0763     54.0315
  1038.5000      0.0000    910.5054      5.6962     55.8178
  1038.7500      0.0000    967.5399      6.4387     58.7855
  1039.0000      0.0000   1031.7465      7.2939     62.6174
  1039.2500      0.0000   1101.5261      8.2245     66.3253
  1039.5000      0.0000   1181.9648      9.1825     68.6801
  1039.7500      0.0000   1271.3268     10.1291     68.9923
  1040.0000      0.0000   1354.4923     11.0513     67.5843
  1040.2500      0.0000   1415.0978     11.9674     65.4989
  1040.5000      0.0000   1449.0444     12.9115     63.8450
  1040.7500      0.0000   1463.6437     13.8962     63.3726
  1041.0000      0.0000   1468.4795     14.8781     64.3168
  1041.2500      0.0000   1469.7122     15.7585     66.4009
  1041.5000      0.0000   1469.9268     16.4268     69.0023
  1041.7500      0.0000   1469.7694     16.8137     71.3774
  1042.0000      0.0000   1468.8291     16.9242     72.9174
  1042.2500      0.0000   1465.3693     16.8424     73.4731
  1042.5000      0.0000   1455.7362     16.7013     73.5977
  1042.7500      0.0000   1435.7831     16.6246     74.4413
  1043.0000      0.0000   1406.0742     16.6807     77.2061
  1043.2500      0.0000   1376.9886     16.8825     82.2702
  1043.5000      0.0000   1364.6042     17.2213     88.5173
  1043.7500      0.0000   1376.9886     17.6925     93.6957
  1044.0000      0.0000   1406.0742     18.3003     95.8242
  1044.2500      0.0000   1435.7831     19.0505     94.4124
  1044.5000      0.0000   1455.7362     19.9356     90.4388
  1044.7500      0.0000   1465.3693     20.9057     85.5078
  1045.0000      0.0000   1468.8291     21.8399     81.0986
  1045.2500      0.0000   1469.7694     22.5504     78.2081
  1045.5000      0.0000   1469.9646     22.8375     77.2837
  1045.7500      0.0000   1469.9652     22.5706     78.3081
  1046.0000      0.0000   1469.7734     21.7310     80.8864
  1046.2500      0.0000   1468.8496     20.3897     84.2269
  1046.5000      0.0000   1465.4240     18.6642     87.2200
  1046.7500      0.0000   1455.7856     16.7089     88.9403
  1047.0000      0.0000   1435.2963     14.7185     89.3396
  1047.2500      0.0000   1402.5647     12.8885     89.2592
  1047.5000      0.0000   1362.9182     11.3448     89.5095
  1047.7500      0.0000   1323.5645     10.1151     90.1095
  1048.0000      0.0000   1282.8523      9.1652     90.5243
  1048.2500      0.0000   1228.8976      8.4432     90.3198
  1048.5000      0.0000   1152.5803      7.8909     89.4455
  1048.7500      0.0000   1058.9211      7.4484     88.3164
  1049.0000      0.0000    964.6572      7.0737     87.7975
  1049.2500      0.0000    888.2529      6.7543     88.5501
  1049.5000      0.0000    840.9195      6.4934     89.9802
  1049.7500      0.0000    821.7383      6.2882     90.3575
  1050.0000      0.0000    820.1067      6.1189     88.4342
  1050.2500      0.0000    824.4325      5.9531     84.5344
  1050.5000      0.0000    828.8259      5.7607     79.8549
  1050.7500      0.0000    832.6125      5.5334     75.3957
  1051.0000      0.0000    836.7416      5.2904     72.0645
  1051.2500      0.0000    842.3137      5.0650     71.2054
  1051.5000      0.0000    851.0876      4.8848     73.9044
  1051.7500      0.0000    865.0322      4.7620     79.4988
  1052.0000      0.0000    884.0699      4.6965     85.3597
  1052.2500      0.0000    904.2740      4.6833     88.6893
  1052.5000      0.0000    918.9127      4.7195     88.6801
  1052.7500      0.0000    921.6789      4.8065     86.9561
  1053.0000      0.0000    909.6539      4.9512     85.8773
  1053.2500      0.0000    884.8314      5.1659     86.4947
  1053.5000      0.0000    853.7534      5.4666     88.2317
  1053.7500      0.0000    824.6243      5.8669     90.0845
  1054.0000      0.0000    803.2100      6.3744     91.5569
  1054.2500      0.0000    790.7250      6.9948     92.6399
  1054.5000      0.0000    784.9576      7.7374     93.4491
  1054.7500      0.0000    782.8538      8.6098     93.9073
  1055.0000      0.0000    782.3118      9.6092     93.6093
  1055.2500      0.0000    782.4759     10.7253     92.3104
  1055.5000      0.0000    783.3401     11.9466     90.8308
  1055.7500      0.0000    785.4225     13.2594     91.1276
  1056.0000      0.0000    789.3033     14.6435     94.8416
  1056.2500      0.0000    795.1054     16.0743    101.5881
  1056.5000      0.0000    802.4001     17.5296    108.9069
  1056.7500      0.0000    810.2875     18.9941    114.0725
  1057.0000      0.0000    817.2103     20.4584    115.8886
  1057.2500      0.0000    821.0201     21.9050    114.8979
  1057.5000      0.0000    819.7893     23.2884    112.5887
  1057.7500      0.0000    812.8834     24.5313    110.7725
  1058.0000      0.0000    801.6453     25.5493    110.9052
  1058.2500      0.0000    789.1575     26.2907    113.0312
  1058.5000      0.0000    778.8139     26.7652    115.5390
  1058.7500      0.0000    771.7080     27.0433    116.6539
  1059.0000      0.0000    765.0140     27.2218    116.1787
  1059.2500      0.0000    754.5473     27.3680    115.3037
  1059.5000      0.0000    739.3596     27.4873    114.7138
  1059.7500      0.0000    720.7477     27.5448    113.4721
  1060.0000      0.0000    697.4014     27.5156    109.9693
  1060.2500      0.0000    669.4140     27.4015    103.6137
  1060.5000      0.0000    648.5015     27.2044     95.5189
  1060.7500      0.0000    653.0291     26.9091     87.8668
  1061.0000      0.0000    688.0470     26.5057     82.5002
  1061.2500      0.0000    738.4400     26.0260     79.7267
  1061.5000      0.0000    784.0422     25.5437     78.5267
  1061.7500      0.0000    814.3732     25.1335     77.9727
  1062.0000      0.0000    828.8359     24.8274     77.9929
  1062.2500      0.0000    830.6832     24.6066     78.6251
  1062.5000      0.0000    823.6284     24.4226     79.2149
  1062.7500      0.0000    810.9050     24.2096     78.9782
  1063.0000      0.0000    795.6448     23.8646     78.1545
  1063.2500      0.0000    781.4446     23.2248     78.0399
  1063.5000      0.0000    771.5140     22.1011     79.6923
  1063.7500      0.0000    767.8956     20.3901     83.0479
  1064.0000      0.0000    773.2709     18.2067     87.4869
  1064.2500      0.0000    794.3873     15.8818     92.6232
  1064.5000      0.0000    842.9473     13.7298     97.9746
  1064.7500      0.0000    929.2426     11.7882    102.4158
  1065.0000      0.0000   1049.1595      9.8890    104.7909
