~Version Information
VERS.                      2.0: CWLS Log ASCII Standard - VERSION 2.0
WRAP.                       NO: One line per depth step
~Well Information Block
STRT.FT               460.0000: 
STOP.FT               961.2500: 
STEP.FT                 0.2500: 
NULL.                -999.2500: 
COMP.          Pioneer Natural Resources: COMPANY
WELL.                Pug 33-19: WELL
FLD.           Purgatoire River: FIELD
LOC.           1381' FSL & 2140' FEL: LOCATION
PROV.                 Colorado: PROVINCE
CNTY.               Las Animas: COUNTRY
SRVC.                Patterson: SERVICE COMPANY
DATE.          Tue Dec 14 08:25:14 2004: LOG DATE
UWI.           05 071 08193 00: UNIQUE WELL ID
~Curve Information Block
DEPT.FT            0 000 00 00: Depth
SN.Ohm-m                      : IEL Short Normal
SP.mV                         : IEL Spontaneous Potential
DIR.Ohm-m                     : IEL Induction Resistivity
GR.GAPI                       : Gamma Ray
~Parameter Information Block
~A  Depth        SN          SP         DIR          GR     
# ...
   594.0000      7.4413     64.2022      8.1449    123.1315
   594.2500      7.4506     64.5307      8.0436    122.9252
   594.5000      7.4982     64.8486      7.9512    123.2891
   594.7500      7.5451     65.1728      7.8706    124.1278
   595.0000      7.5544     65.5179      7.8021    125.7453
   595.2500      7.5081     65.8940      7.7442    126.4581
   595.5000      7.4127     66.3055      7.6949    126.3769
   595.7500      7.2852     66.7515      7.6536    125.6888
   596.0000      7.1376     67.2253      7.6215    124.2490
   596.2500      6.9738     67.7167      7.6002    123.2398
   596.5000      6.8007     68.2151      7.5902    121.9464
   596.7500      6.6361     68.7132      7.5902    121.4433
   597.0000      6.5056     69.2092      7.5980    121.4158
   597.2500      6.4336     69.7060      7.6113    121.8357
   597.5000      6.4341     70.2069      7.6293    123.1213
   597.7500      6.5033     70.7105      7.6521    124.4925
   598.0000      6.6172     71.2083      7.6798    126.9336
   598.2500      6.7394     71.6857      7.7117    128.1295
   598.5000      6.8388     72.1276      7.7458    128.3258
   598.7500      6.9026     72.5233      7.7794    127.6045
   599.0000      6.9335     72.8700      7.8114    126.6274
   599.2500      6.9383     73.1730      7.8432    126.7391
   599.5000      6.9221     73.4419      7.8777    128.2654
   599.7500      6.8920     73.6882      7.9173    129.8263
   600.0000      6.8631     73.9224      7.9614    131.9328
   600.2500      6.8549     74.1547      8.0064    132.5238
   600.5000      6.8768     74.3956      8.0473    131.4178
   600.7500      6.9203     74.6562      8.0798    129.2549
   601.0000      6.9669     74.9434      8.1020    124.3457
   601.2500      7.0035     75.2545      8.1148    120.5834
   601.5000      7.0301     75.5727      8.1214    115.5569
   601.7500      7.0577     75.8694      8.1270    113.1558
   602.0000      7.0992     76.1149      8.1382    110.8177
   602.2500      7.1597     76.2909      8.1614    109.5315
   602.5000      7.2311     76.4001      8.1997    107.1933
   602.7500      7.2958     76.4642      8.2495    105.2744
   603.0000      7.3356     76.5143      8.3000    102.0922
   603.2500      7.3425     76.5777      8.3368     99.9238
   603.5000      7.3218     76.6702      8.3468     96.9861
   603.7500      7.2852     76.7948      8.3224     95.6618
   604.0000      7.2377     76.9462      8.2633     95.5386
   604.2500      7.1739     77.1173      8.1758     97.0973
   604.5000      7.0835     77.3023      8.0697    101.9341
   604.7500      6.9621     77.4965      7.9566    106.2991
   605.0000      6.8170     77.6948      7.8476    112.8917
   605.2500      6.6641     77.8899      7.7513    116.4394
   605.5000      6.5213     78.0719      7.6733    120.1954
   605.7500      6.4023     78.2288      7.6159    122.1737
   606.0000      6.3153     78.3473      7.5791    125.3808
   606.2500      6.2642     78.4166      7.5627    127.8067
   606.5000      6.2470     78.4317      7.5666    131.1542
   606.7500      6.2558     78.3970      7.5908    132.6211
   607.0000      6.2798     78.3275      7.6338    133.2460
   607.2500      6.3115     78.2455      7.6917    132.7472
   607.5000      6.3472     78.1745      7.7586    131.0435
   607.7500      6.3844     78.1328      7.8272    129.4177
   608.0000      6.4192     78.1296      7.8899    126.3830
   608.2500      6.4483     78.1643      7.9392    124.1814
   608.5000      6.4725     78.2295      7.9691    121.5218
   608.7500      6.4974     78.3150      7.9766    120.8983
   609.0000      6.5271     78.4122      7.9635    122.4617
   609.2500      6.5596     78.5159      7.9358    124.9529
   609.5000      6.5901     78.6240      7.9013    129.2671
   609.7500      6.6176     78.7356      7.8667    131.2891
   610.0000      6.6485     78.8495      7.8369    131.7603
   610.2500      6.6940     78.9636      7.8168    130.6315
   610.5000      6.7653     79.0746      7.8129    128.3730
   610.7500      6.8683     79.1778      7.8337    127.1751
   611.0000      7.0015     79.2671      7.8867    125.6461
   611.2500      7.1583     79.3366      7.9751    124.2385
   611.5000      7.3318     79.3835      8.0953    121.2384
   611.7500      7.5162     79.4113      8.2384    119.2140
   612.0000      7.7057     79.4308      8.3938    117.3327
   612.2500      7.8953     79.4576      8.5524    116.7644
   612.5000      8.0845     79.5073      8.7089    115.5173
   612.7500      8.2790     79.5898      8.8609    113.9150
   613.0000      8.4900     79.7064      9.0081    111.4106
   613.2500      8.7328     79.8499      9.1519    110.9433
   613.5000      9.0228     80.0068      9.2989    113.4031
   613.7500      9.3723     80.1607      9.4623    116.8055
   614.0000      9.7895     80.2942      9.6606    122.2110
   614.2500     10.2844     80.3894      9.9130    124.3267
   614.5000     10.8732     80.4292     10.2344    123.4548
   614.7500     11.5791     80.3985     10.6333    120.3230
   615.0000     12.4306     80.2860     11.1128    113.8050
   615.2500     13.4631     80.0857     11.6739    109.5866
   615.5000     14.7206     79.7969     12.3209    104.2908
   615.7500     16.2522     79.4237     13.0653    100.8901
   616.0000     18.1024     78.9724     13.9270     94.5249
   616.2500     20.2995     78.4503     14.9318     89.1019
   616.5000     22.8501     77.8638     16.1037     79.7548
   616.7500     25.7424     77.2175     17.4569     73.3235
   617.0000     28.9465     76.5152     18.9901     64.3764
   617.2500     32.4053     75.7599     20.6862     59.3796
   617.5000     36.0276     74.9553     22.5152     53.9251
   617.7500     39.6978     74.1062     24.4353     51.7189
   618.0000     43.2983     73.2202     26.3888     50.1489
   618.2500     46.7239     72.3104     28.3034     66.4243
   618.5000     49.8852     71.3989     30.1103     66.1395
   618.7500     52.7119     70.5186     31.7729     65.8053
   619.0000     55.1617     69.7096     33.3030     64.9291
   619.2500     57.2204     69.0113     34.7475     64.1321
   619.5000     58.8894     68.4509     36.1520     62.5714
   619.7500     60.1699     68.0352     37.5234     61.1801
   620.0000     61.0607     67.7482     38.8085     58.3650
   620.2500     61.5710     67.5564     39.8997     56.0034
   620.5000     61.7337     67.4188     40.6761     52.3656
   620.7500     61.6006     67.2984     41.0630     50.6600
   621.0000     61.2176     67.1688     41.0740     50.4140
   621.2500     60.6000     67.0188     40.8001     51.8012
   621.5000     59.7303     66.8516     40.3501     54.6058
   621.7500     58.5766     66.6845     39.7877     55.5782
   622.0000     57.1143     66.5486     39.1071     54.2780
   622.2500     55.3325     66.4879     38.2606     51.9316
   622.5000     53.2278     66.5557     37.2055     48.2771
   622.7500     50.8019     66.8061     35.9291     46.9036
   623.0000     48.0696     67.2789     34.4371     47.2083
   623.2500     45.0770     67.9842     32.7399     48.9066
   623.5000     41.9151     68.8938     30.8635     53.4540
   623.7500     38.7170     69.9453     28.8699     57.8305
   624.0000     35.6302     71.0597     26.8492     66.7710
   624.2500     32.7699     72.1652     24.8840     74.6914
   624.5000     30.1811     73.2146     23.0191     89.8999
   624.7500     27.8356     74.1912     21.2607    101.8318
   625.0000     25.6674     75.0992     19.5978    120.2908
   625.2500     23.6219     75.9488     18.0258    131.3609
   625.5000     21.6855     76.7430     16.5556    143.9348
   625.7500     19.8839     77.4740     15.2086    149.1531
   626.0000     18.2594     78.1283     14.0069    152.9606
   626.2500     16.8465     78.6961     12.9647    153.8817
   626.5000     15.6558     79.1778     12.0855    154.8783
   626.7500     14.6693     79.5848     11.3621    156.1447
   627.0000     13.8484     79.9329     10.7777    159.3609
   627.2500     13.1523     80.2355     10.3082    161.9544
