~Version Information
VERS.                      2.0: CWLS Log ASCII Standard - VERSION 2.0
WRAP.                       NO: One line per depth step
~Well Information Block
STRT.FT               620.0000: 
STOP.FT              2663.2500: 
STEP.FT                 0.2500: 
NULL.                -999.2500: 
COMP.          Evergreen Operating Corporation: COMPANY
WELL.             Carbon 34-21: WELL
FLD.           Purgatoire River: FIELD
LOC.           56' FSL & 2304' FEL: LOCATION
PROV.                 Colorado: PROVINCE
CNTY.               Las Animas: COUNTRY
SRVC.                Patterson: SERVICE COMPANY
DATE.          Mon Sep 13 11:41:04 2004: LOG DATE
UWI.           05 071 08117 00: UNIQUE WELL ID
~Curve Information Block
DEPT.FT            0 000 00 00: Depth
DIR.Ohm-m                     : IEL Induction Resistivity
SN.Ohm-m                      : IEL Short Normal
SP.mV                         : IEL Spontaneous Potential
GR.GAPI                       : Gamma Ray
~Parameter Information Block
~A  Depth       DIR          SN          SP          GR     
# ...
  1290.0000      0.2702      6.7516   -116.2420    100.8771
  1290.2500      0.6691     12.5449    -73.0258    106.6906
  1290.5000      2.3466     16.5625    -38.4375    111.7102
  1290.7500 100000.0000     18.0608    -12.0720    113.3094
  1291.0000 100000.0000     19.2323      7.2283    112.5225
  1291.2500 100000.0000     20.1543     21.0647    108.9917
  1291.5000 100000.0000     21.0415     31.2735     99.6947
  1291.7500 100000.0000     22.0689     39.5177     92.7315
  1292.0000 100000.0000     23.1628     46.8086     84.5994
  1292.2500     10.4129     25.0567     53.4390     81.4952
  1292.5000      5.9430     24.5635     59.4029     79.6600
  1292.7500      5.2859     24.6018     64.7717     79.6233
  1293.0000      5.8585     24.6191     69.6301     80.2942
  1293.2500      7.4533     24.2495     73.8395     80.6952
  1293.5000     10.2687     23.9966     77.1035     80.8194
  1293.7500     14.4419     24.4839     79.3483     80.6951
  1294.0000     20.4288     25.0266     80.9838     80.2237
  1294.2500     31.3799     26.0763     82.7286     79.3627
  1294.5000     86.8002     27.4019     85.1526     76.7195
  1294.7500 100000.0000     29.0072     88.3672     74.3299
  1295.0000 100000.0000     30.8071     92.0636     71.0785
  1295.2500 100000.0000     31.0135     95.7357     69.7864
  1295.5000 100000.0000     30.6385     98.8994     69.6334
  1295.7500 100000.0000     29.7767    101.2838     70.7610
  1296.0000 100000.0000     29.4514    102.9648     74.0583
  1296.2500 100000.0000     29.6526    104.3321     76.9521
  1296.5000 100000.0000     29.6989    105.8991     81.7617
  1296.7500 100000.0000     29.2869    108.0833     85.3627
  1297.0000     46.6124     28.9357    111.0439     91.8381
  1297.2500     24.8398     28.5909    114.5973     96.6989
  1297.5000     20.9643     27.6717    118.2651    103.4912
  1297.7500     21.5451     26.5620    121.4678    106.9319
  1298.0000     24.8209     25.6900    123.7719    110.0910
  1298.2500     30.7774     25.6093    125.0671    111.0570
  1298.5000     39.9662     26.0359    125.6021    111.2422
  1298.7500     53.0395     26.9431    125.8579    110.6499
  1299.0000     70.0873     27.3089    126.3219    108.4786
  1299.2500     89.7792     27.6770    127.2856    105.9764
  1299.5000    109.2606     27.4973    128.7628    101.0944
  1299.7500    125.7621     26.9312    130.5469     98.0648
  1300.0000    138.4930     26.6247    132.3455     95.7090
  1300.2500 100000.0000     26.1933    133.8964     95.9568
  1300.5000 100000.0000     26.2422    134.9057     98.2409
  1300.7500 100000.0000     27.0293    134.7089    100.2011
  1301.0000 100000.0000     27.2568    131.7228    102.2585
  1301.2500 100000.0000     27.1480    123.2858    102.3212
  1301.5000 100000.0000     26.8002    106.8898    100.5520
  1301.7500 100000.0000     26.2822     82.7473     99.0884
  1302.0000 100000.0000     26.0819     55.2728     97.8995
  1302.2500 100000.0000     22.2300     30.9821     97.5961
  1302.5000 100000.0000     -1.7567     14.2711     96.4411
  1302.7500 100000.0000     -4.9920      5.3210     94.7560
  1303.0000 100000.0000   2000.0000      1.5884     91.5547
  1303.2500 100000.0000   2000.0000      0.3762     89.8260
  1303.5000 100000.0000   2000.0000      0.0696     89.1029
  1303.7500 100000.0000   2000.0000      0.0093     90.2283
  1304.0000 100000.0000   2000.0000      0.0000     94.1323
  1304.2500 100000.0000   2000.0000      0.0000     97.5498
  1304.5000 100000.0000   2000.0000      0.0000    101.9889
  1304.7500 100000.0000   2000.0000      0.0000    103.3596
  1305.0000 100000.0000   2000.0000      0.0000    102.0293
  1305.2500 100000.0000   2000.0000      0.0000     99.1071
  1305.5000 100000.0000   2000.0000      0.0000     93.3010
  1305.7500 100000.0000   2000.0000      0.0000     89.8534
  1306.0000 100000.0000   2000.0000      0.0000     87.2875
  1306.2500 100000.0000   2000.0000      0.0000     87.5976
  1306.5000 100000.0000   2000.0000      0.0000     90.0424
  1306.7500 100000.0000   2000.0000      0.0000     92.1310
  1307.0000      0.0137   2000.0000      0.0000     95.1203
  1307.2500      0.0137   2000.0000      0.0000     96.9312
  1307.5000      0.0137   2000.0000      0.0000     99.3931
  1307.7500      0.0137   2000.0000      0.0000    100.8440
  1308.0000      0.0137   2000.0000      0.0000    102.7783
  1308.2500      0.0137   2000.0000      0.0000    104.0825
  1308.5000      0.0137   2000.0000      0.0000    106.4813
  1308.7500      0.0137   2000.0000      0.0000    108.5174
  1309.0000      0.0137   2000.0000      0.0000    112.0450
  1309.2500      0.0137   2000.0000      0.0000    114.2485
  1309.5000      0.0137   2000.0000      0.0000    116.2602
  1309.7500      0.0137   2000.0000      0.0000    116.4720
  1310.0000      0.0137   2000.0000      0.0000    115.7609
  1310.2500      0.0137   2000.0000      0.0000    115.0902
  1310.5000      0.0137   2000.0000      0.0000    113.4483
  1310.7500      0.0137   2000.0000      0.0000    111.2580
  1311.0000      0.0137   2000.0000      0.0000    106.3482
  1311.2500      0.0137   2000.0000      0.0000    103.2328
  1311.5000      0.0137   2000.0000      0.0000    101.1536
  1311.7500      0.0137   2000.0000      0.0000    101.3522
  1312.0000      0.0137   2000.0000      0.0000    100.9737
  1312.2500      0.0137   2000.0000      0.0000     98.6725
  1312.5000      0.0137   2000.0000      0.0000     92.5280
  1312.7500      0.0137   2000.0000      0.0000     88.2331
  1313.0000      0.0137   2000.0000      0.0000     84.3577
  1313.2500      0.0137   2000.0000      0.0000     84.7953
  1313.5000      0.0137   2000.0000      0.0000     91.2504
  1313.7500      0.0137   2000.0000      0.0000     98.9831
  1314.0000      0.0137   2000.0000      0.0000    112.4027
  1314.2500      0.0137   2000.0000      0.0000    119.9634
  1314.5000      0.0137   2000.0000      0.0000    126.4257
  1314.7500      0.0137   2000.0000      0.0000    127.5921
  1315.0000      0.0137   2000.0000      0.0000    126.4481
  1315.2500      0.0137   2000.0000      0.0000    124.4884
  1315.5000      0.0137   2000.0000      0.0000    119.8799
  1315.7500      0.0137   2000.0000      0.0000    115.8256
  1316.0000      0.0137   2000.0000      0.0000    109.5026
  1316.2500      0.0137   2000.0000      0.0000    106.1040
  1316.5000      0.0137   2000.0000      0.0000    103.0700
  1316.7500      0.0137   2000.0000      0.0000    102.0426
  1317.0000      0.0137   2000.0000      0.0000    100.4493
  1317.2500      0.0137   2000.0000      0.0000     98.7306
  1317.5000      0.0137   2000.0000      0.0000     95.6589
  1317.7500      0.0137   2000.0000      0.0000     94.3452
  1318.0000      0.0137   2000.0000      0.0000     95.0689
  1318.2500      0.0137   2000.0000      0.0000     97.3138
  1318.5000      0.0137   2000.0000      0.0000    101.5710
  1318.7500      0.0137   2000.0000      0.0000    103.7400
  1319.0000      0.0137   2000.0000      0.0000    104.7563
  1319.2500      0.0137   2000.0000      0.0000    104.0412
  1319.5000      0.0137   2000.0000      0.0000    102.1562
  1319.7500      0.0137   2000.0000      0.0000    101.1750
  1320.0000      0.0137   2000.0000   2000.0000    100.6715
  1320.2500      0.0137   2000.0000   2000.0000    100.9112
  1320.5000      0.0137   2000.0000   2000.0000    102.1073
  1320.7500      0.0137   2000.0000   2000.0000    103.3562
  1321.0000      0.0137   2000.0000   2000.0000    104.6381
  1321.2500      0.0137   2000.0000   2000.0000    103.9268
  1321.5000      0.0137   2000.0000   2000.0000     99.6257
  1321.7500      0.0137   2000.0000   2000.0000     95.3304
  1322.0000      0.0137   2000.0000   2000.0000     88.9104
  1322.2500      0.0137   2000.0000   2000.0000     85.4347
  1322.5000      0.0137   2000.0000   2000.0000     81.8511
  1322.7500      0.0137   2000.0000   2000.0000     80.8682
  1323.0000      0.0137   2000.0000   2000.0000     82.1659
  1323.2500      0.0137   2000.0000   2000.0000     84.7215
