~Version Information
VERS.                      2.0: CWLS Log ASCII Standard - VERSION 2.0
WRAP.                       NO: One line per depth step
~Well Information Block
STRT.FT               845.0000: 
STOP.FT              2308.2500: 
STEP.FT                 0.2500: 
NULL.                -999.2500: 
COMP.          Pioneer Natural Resources: COMPANY
WELL.             Vector 33-23: WELL
FLD.           Purgatoire River: FIELD
LOC.           1560' FEL & 1988' FSL----: LOCATION
PROV.                 Colorado: PROVINCE
CNTY.               Las Animas: COUNTRY
SRVC.                Patterson: SERVICE COMPANY
DATE.          Sat Mar 26 12:39:07 2005: LOG DATE
UWI.           05 071 08336 00: UNIQUE WELL ID
~Curve Information Block
DEPT.FT            0 000 00 00: Depth
SN.Ohm-m                      : IEL Short Normal
SP.mV                         : IEL Spontaneous Potential
DIR.Ohm-m                     : IEL Induction Resistivity
GR.GAPI                       : Gamma Ray
~Parameter Information Block
~A  Depth        SN          SP         DIR          GR     
# ...
  1146.5000   2000.0000   2000.0000      7.3527    138.9563
  1146.7500   2000.0000   2000.0000      7.8188    139.3380
  1147.0000   2000.0000   2000.0000      8.6645    139.9158
  1147.2500   2000.0000   2000.0000      9.8193    140.0558
  1147.5000   2000.0000   2000.0000     10.9554    139.3932
  1147.7500   2000.0000   2000.0000     11.5716    138.3872
  1148.0000   2000.0000   2000.0000     11.5340    136.8500
  1148.2500   2000.0000   2000.0000     11.3053    136.5721
  1148.5000   2000.0000   2000.0000     11.4452    138.0372
  1148.7500   2000.0000   2000.0000     12.2355    139.8194
  1149.0000   2000.0000   2000.0000     13.5657    141.7068
  1149.2500   2000.0000   2000.0000     14.7390    141.4651
  1149.5000   2000.0000   2000.0000     14.6927    138.7324
  1149.7500   2000.0000   2000.0000     13.1940    136.0333
  1150.0000   2000.0000   2000.0000     11.1472    132.2083
  1150.2500   2000.0000   2000.0000      9.4328    130.4566
  1150.5000   2000.0000   2000.0000      8.4532    129.3558
  1150.7500   2000.0000   2000.0000      8.5320    129.4139
  1151.0000   2000.0000   2000.0000     10.8903    129.9169
  1151.2500   2000.0000   2000.0000     28.8420    130.0936
  1151.5000   2000.0000   2000.0000 100000.0000    129.8187
  1151.7500   2000.0000   2000.0000 100000.0000    129.4422
  1152.0000   2000.0000   2000.0000 100000.0000    129.2428
  1152.2500   2000.0000   2000.0000 100000.0000    129.7497
  1152.5000   2000.0000   2000.0000 100000.0000    131.8814
  1152.7500   2000.0000   2000.0000 100000.0000    134.2310
  1153.0000   2000.0000   2000.0000 100000.0000    138.8745
  1153.2500   2000.0000   2000.0000 100000.0000    142.4385
  1153.5000   2000.0000   2000.0000 100000.0000    147.6983
  1153.7500   2000.0000   2000.0000     10.5456    150.4764
  1154.0000   2000.0000   2000.0000      3.0404    152.4042
  1154.2500   2000.0000   2000.0000      2.2370    151.7077
  1154.5000   2000.0000   2000.0000      2.3312    147.0128
  1154.7500   2000.0000   2000.0000      2.8259    141.0423
  1155.0000   2000.0000   2000.0000      3.1312    127.5124
  1155.2500   2000.0000   2000.0000      2.7226    115.9235
  1155.5000   2000.0000   2000.0000      2.1432     97.0576
  1155.7500   2000.0000   2000.0000      1.8624     85.4352
  1156.0000   2000.0000   2000.0000      1.9635     72.1744
  1156.2500   2000.0000   2000.0000      2.6191     66.6194
  1156.5000   2000.0000   2000.0000      4.7298     62.0872
  1156.7500   2000.0000   2000.0000     16.7380     60.4214
  1157.0000   2000.0000   2000.0000 100000.0000     58.5459
  1157.2500   2000.0000   2000.0000 100000.0000     57.6047
  1157.5000   2000.0000   2000.0000 100000.0000     57.1304
  1157.7500   2000.0000   2000.0000 100000.0000     57.5033
  1158.0000   2000.0000   2000.0000 100000.0000     58.4955
  1158.2500   2000.0000   2000.0000      4.8028     59.0627
  1158.5000   2000.0000   2000.0000      1.2719     59.8520
  1158.7500   2000.0000   2000.0000      0.4905     60.7890
  1159.0000   2000.0000   2000.0000      0.1953     63.6435
  1159.2500   2000.0000   2000.0000      0.0732     66.7586
  1159.5000   2000.0000   2000.0000      0.0296     73.2645
  1159.7500   2000.0000   2000.0000      0.0147     78.7189
  1160.0000   2000.0000   2000.0000      0.0091     88.1333
  1160.2500   2000.0000   2000.0000      0.0069     94.5663
  1160.5000   2000.0000   2000.0000      0.0063    102.4824
  1160.7500   2000.0000   2000.0000      0.0067    105.4163
  1161.0000   2000.0000   2000.0000      0.0088    105.5382
  1161.2500   2000.0000   2000.0000      0.0142    103.4124
  1161.5000   2000.0000   2000.0000      0.0297     99.1830
  1161.7500   2000.0000   2000.0000      0.0768     96.9529
  1162.0000   2000.0000   2000.0000      0.2113     95.8575
  1162.2500   2000.0000   2000.0000      0.5415     96.9404
  1162.5000   2000.0000   2000.0000      1.4759    101.1252
  1162.7500   2000.0000   2000.0000      6.6995    105.1891
  1163.0000   2000.0000   2000.0000 100000.0000    112.3126
  1163.2500   2000.0000   2000.0000 100000.0000    117.4455
  1163.5000   2000.0000   2000.0000 100000.0000    125.4723
  1163.7500   2000.0000   2000.0000 100000.0000    130.6807
  1164.0000   2000.0000   2000.0000     42.7883    137.0708
  1164.2500   2000.0000   2000.0000     10.9599    139.7099
  1164.5000   2000.0000   2000.0000      7.2702    140.8700
  1164.7500   2000.0000   2000.0000      6.7404    140.0397
  1165.0000   2000.0000   2000.0000      8.1838    137.2788
  1165.2500   2000.0000   2000.0000     14.5686    134.9860
  1165.5000   2000.0000   2000.0000    328.5602    131.6030
  1165.7500   2000.0000   2000.0000 100000.0000    129.7138
  1166.0000   2000.0000   2000.0000 100000.0000    128.0026
  1166.2500   2000.0000   2000.0000 100000.0000    127.7608
  1166.5000   2000.0000   2000.0000 100000.0000    128.1485
  1166.7500   2000.0000   2000.0000 100000.0000    128.2319
  1167.0000   2000.0000   2000.0000 100000.0000    127.4561
  1167.2500   2000.0000   2000.0000 100000.0000    126.5443
  1167.5000   2000.0000   2000.0000 100000.0000    125.2613
  1167.7500   2000.0000   2000.0000 100000.0000    124.5208
  1168.0000   2000.0000   2000.0000 100000.0000    123.0315
  1168.2500   2000.0000   2000.0000 100000.0000    121.5513
  1168.5000   2000.0000   2000.0000     70.0970    119.0312
  1168.7500   2000.0000   2000.0000     15.4103    117.6853
  1169.0000   2000.0000   2000.0000      9.6230    116.4818
  1169.2500   2000.0000   2000.0000      7.7508    115.7012
  1169.5000   2000.0000   2000.0000      7.0418    113.1729
  1169.7500   2000.0000   2000.0000      6.8315    110.3255
  1170.0000   2000.0000   2000.0000      6.8816    105.5609
  1170.2500   2000.0000   2000.0000      7.0936    103.3211
  1170.5000   2000.0000   2000.0000      7.4220    102.9728
  1170.7500   2000.0000   2000.0000      7.8319    104.8416
  1171.0000   2000.0000   2000.0000      8.2792    109.5450
  1171.2500   2000.0000   2000.0000      8.7109    112.9468
  1171.5000   2000.0000   2000.0000      9.0816    117.5358
  1171.7500   2000.0000   2000.0000      9.3712    120.3270
  1172.0000   2000.0000   2000.0000      9.5899    124.4086
  1172.2500   2000.0000   2000.0000      9.7676    126.9550
  1172.5000   2000.0000   2000.0000      9.9401    129.9852
  1172.7500   2000.0000   2000.0000     10.1378    131.1200
  1173.0000   2000.0000   2000.0000     10.3818    130.9844
  1173.2500   2000.0000   2000.0000     10.6825    129.7130
  1173.5000   2000.0000   2000.0000     11.0424    127.0543
  1173.7500   2000.0000   2000.0000     11.4575    125.6005
  1174.0000   2000.0000   2000.0000     11.9196    124.4863
  1174.2500   2000.0000   2000.0000     12.4168    123.9202
  1174.5000   2000.0000   2000.0000     12.9346    121.2432
  1174.7500   2000.0000   2000.0000     13.4566    117.0304
  1175.0000   2000.0000   2000.0000     13.9651    106.6643
  1175.2500   2000.0000   2000.0000     14.4405     98.2355
  1175.5000   2000.0000   2000.0000     14.8597     86.9400
  1175.7500   2000.0000   2000.0000     15.1950     82.3277
  1176.0000   2000.0000   2000.0000     15.4158     81.5209
  1176.2500   2000.0000   2000.0000     15.4943     84.8031
  1176.5000   2000.0000   2000.0000     15.4143     93.2878
  1176.7500   2000.0000   2000.0000     15.1825     99.5947
  1177.0000   2000.0000   2000.0000     14.8342    107.6230
  1177.2500   2000.0000   2000.0000     14.4289    111.4284
  1177.5000   2000.0000   2000.0000     14.0339    114.9877
  1177.7500   2000.0000   2000.0000     13.7052    116.2615
  1178.0000   2000.0000   2000.0000     13.4731    117.0696
  1178.2500   2000.0000   2000.0000     13.3354    117.2226
  1178.5000   2000.0000   2000.0000     13.2582    117.3283
  1178.7500   2000.0000   2000.0000     13.1846    117.1975
  1179.0000   2000.0000   2000.0000     13.0524    115.7926
  1179.2500   2000.0000   2000.0000     12.8177    113.6396
  1179.5000   2000.0000   2000.0000     12.4734    109.2362
  1179.7500   2000.0000   2000.0000     12.0532    106.7311
