~Version Information
VERS.                      2.0: CWLS Log ASCII Standard - VERSION 2.0
WRAP.                       NO: One line per depth step
~Well Information Block
STRT.FT               819.0000: 
STOP.FT              2499.5000: 
STEP.FT                 0.2500: 
NULL.                -999.2500: 
COMP.          Petrogulf Corporation: COMPANY
WELL.             State 16-21V: WELL
FLD.           Purgatorie River: FIELD
LOC.           1738' FWL & 332' FWL: LOCATION
PROV.                 Colorado: PROVINCE
CNTY.               Las Animas: COUNTRY
SRVC.          Patterson Wireline: SERVICE COMPANY
DATE.          Sun Jul 13 13:34:36 2003: LOG DATE
UWI.           05 071 08829 00: UNIQUE WELL ID
~Curve Information Block
DEPT.FT            0 000 00 00: Depth
SP.mV                         : DIL Spontaneous Potential
RILD.Ohm-m                    : DIL Deep Resistivity
RILM.Ohm-m                    : DIL Medium Resistivity
RLL3.Ohm-m                    : DIL Shallow Resistivity
GR.GAPI                       : Gamma Ray
~Parameter Information Block
~A  Depth        SP         RILD        RILM        RLL3         GR     
# ...
  1183.0000   -194.6014     13.0722     13.3613     18.5971    129.4475
  1183.2500   -194.5033     13.3518     13.6403     19.1072    132.2055
  1183.5000   -194.3129     13.5938     13.9464     20.0287    135.4212
  1183.7500   -194.0406     13.7863     14.2711     21.3469    136.7758
  1184.0000   -193.7137     13.9341     14.6026     23.1520    136.9343
  1184.2500   -193.3685     14.0553     14.9265     25.5220    135.3435
  1184.5000   -193.0416     14.1708     15.2267     28.3083    130.0327
  1184.7500   -192.7623     14.2958     15.4872     30.9649    124.8355
  1185.0000   -192.5494     14.4340     15.6936     32.6294    116.2579
  1185.2500   -192.4074     14.5759     15.8348     32.5478    111.5417
  1185.5000   -192.3279     14.7012     15.9034     30.6140    108.4212
  1185.7500   -192.2975     14.7842     15.8966     27.5699    109.5211
  1186.0000   -192.3059     14.8018     15.8154     24.6389    114.5623
  1186.2500   -192.3459     14.7389     15.6644     22.8632    118.4820
  1186.5000   -192.4067     14.5905     15.4515     22.6168    122.6385
  1186.7500   -192.4720     14.3626     15.1872     23.5300    123.6860
  1187.0000   -192.5260     14.0735     14.8848     24.7698    123.2909
  1187.2500   -192.5629     13.7525     14.5597     25.4896    122.6115
  1187.5000   -192.5918     13.4354     14.2288     25.2203    122.4159
  1187.7500   -192.6327     13.1561     13.9098     24.0079    123.1395
  1188.0000   -192.7040     12.9404     13.6198     22.2551    125.1241
  1188.2500   -192.8125     12.8021     13.3745     20.4216    126.7697
  1188.5000   -192.9557     12.7431     13.1875     18.8193    129.5616
  1188.7500   -193.1289     12.7552     13.0700     17.6247    131.3572
  1189.0000   -193.3270     12.8239     13.0306     17.0236    132.6703
  1189.2500   -193.5371     12.9336     13.0759     17.2909    131.8284
  1189.5000   -193.7345     13.0734     13.2105     18.6729    127.7785
  1189.7500   -193.8839     13.2416     13.4379     21.1215    123.9630
  1190.0000   -193.9461     13.4460     13.7605     24.1482    118.5792
  1190.2500   -193.8918     13.7013     14.1806     27.1029    116.1487
  1190.5000   -193.7151     14.0240     14.7004     29.7826    114.4640
  1190.7500   -193.4422     14.4313     15.3229     32.7568    113.9622
  1191.0000   -193.1249     14.9417     16.0522     36.9228    112.5673
  1191.2500   -192.8203     15.5761     16.8945     42.6001    110.7923
  1191.5000   -192.5701     16.3551     17.8585     48.9603    107.5368
  1191.7500   -192.3924     17.2934     18.9557     54.2492    105.6748
  1192.0000   -192.2848     18.3926     20.2016     56.6984    103.6130
  1192.2500   -192.2283     19.6371     21.6151     55.7586    102.2726
  1192.5000   -192.1884     20.9966     23.2189     53.0673     99.9030
  1192.7500   -192.1233     22.4345     25.0387     52.3428     98.4395
  1193.0000   -191.9988     23.9173     27.1023     57.8227     96.7690
  1193.2500   -191.8029     25.4148     29.4381     71.9349     95.2587
  1193.5000   -191.5502     26.8966     32.0732     93.5766     89.9569
  1193.7500   -191.2756     28.3342     35.0308    118.1067     83.4137
  1194.0000   -191.0197     29.7181     38.3279    139.3310     69.7551
  1194.2500   -190.8077     31.0740     41.9720    152.6730     59.7582
  1194.5000   -190.6363     32.4591     45.9567    157.7804     46.7858
  1194.7500   -190.4801     33.9342     50.2565    158.8712     40.6944
  1195.0000   -190.3127     35.5301     54.8172    162.4675     35.3482
  1195.2500   -190.1254     37.2260     59.5437    173.8510     33.4057
  1195.5000   -189.9302     38.9463     64.2812    194.2626     31.2634
  1195.7500   -189.7488     40.5718     68.7970    220.2178     29.8552
  1196.0000   -189.5991     41.9591     72.7678    245.1246     27.7872
  1196.2500   -189.4858     42.9608     75.7925    262.4368     26.6671
  1196.5000   -189.3976     43.4418     77.4456    268.9792     25.7339
  1196.7500   -189.3108     43.2988     77.3787    266.7935     25.7559
  1197.0000   -189.2010     42.4856     75.4419    262.1007     26.9120
  1197.2500   -189.0575     41.0396     71.7659    261.3974     28.4038
  1197.5000   -188.8923     39.0896     66.7472    267.1248     31.4232
  1197.7500   -188.7389     36.8315     60.9356    276.1846     33.7280
  1198.0000   -188.6406     34.4747     54.8842    282.0160     37.3454
  1198.2500   -188.6343     32.1868     49.0355    277.8652     39.7565
  1198.5000   -188.7341     30.0641     43.6760    259.1207     43.2495
  1198.7500   -188.9224     28.1399     38.9465    224.8207     45.5599
  1199.0000   -189.1564     26.4089     34.8809    178.7702     49.7203
  1199.2500   -189.3875     24.8496     31.4464    129.1239     53.7843
  1199.5000   -189.5810     23.4360     28.5760     85.2694     63.1789
  1199.7500   -189.7240     22.1423     26.1903     53.5113     71.7565
  1200.0000   -189.8202     20.9468     24.2098     34.8711     86.7197
  1200.2500   -189.8797     19.8345     22.5611     26.3961     96.7406
  1200.5000   -189.9100     18.7981     21.1801     24.0845    109.3033
  1200.7500   -189.9113     17.8388     20.0128     24.8487    114.7137
  1201.0000   -189.8744     16.9654     19.0151     26.7778    117.2431
  1201.2500   -189.7819     16.1924     18.1524     28.5877    115.6501
  1201.5000   -189.6136     15.5348     17.3982     29.3015    110.8562
  1201.7500   -189.3568     15.0005     16.7336     28.4538    107.9328
  1202.0000   -189.0158     14.5859     16.1450     26.3578    106.4926
  1202.2500   -188.6173     14.2756     15.6232     23.8897    108.0050
  1202.5000   -188.2032     14.0465     15.1616     21.8752    112.9514
  1202.7500   -187.8156     13.8736     14.7554     20.6500    116.7913
  1203.0000   -187.4845     13.7346     14.4006     20.0993    121.5606
  1203.2500   -187.2238     13.6121     14.0937     19.9566    123.7562
  1203.5000   -187.0332     13.4944     13.8313     20.0176    126.0756
  1203.7500   -186.9041     13.3757     13.6106     20.1592    127.3418
  1204.0000   -186.8264     13.2564     13.4295     20.2741    128.8878
  1204.2500   -186.7948     13.1426     13.2867     20.2630    129.4985
  1204.5000   -186.8102     13.0446     13.1816     20.1109    129.7032
  1204.7500   -186.8735     12.9741     13.1147     19.9343    129.5885
  1205.0000   -186.9805     12.9414     13.0875     19.9029    129.6572
  1205.2500   -187.1218     12.9544     13.1017     20.0961    130.1615
  1205.5000   -187.2866     13.0178     13.1592     20.4314    131.7415
  1205.7500   -187.4659     13.1339     13.2614     20.7261    133.1465
  1206.0000   -187.6553     13.3016     13.4086     20.8347    135.0125
  1206.2500   -187.8569     13.5146     13.5987     20.7687    135.5187
  1206.5000   -188.0779     13.7582     13.8270     20.7368    134.3279
  1206.7500   -188.3260     14.0076     14.0845     21.1371    132.0796
  1207.0000   -188.6033     14.2312     14.3579     22.6088    127.1850
  1207.2500   -188.9012     14.3992     14.6294     26.1382    123.6576
  1207.5000   -189.1975     14.4935     14.8777     32.8670    118.7790
  1207.7500   -189.4617     14.5137     15.0805     43.1180    115.5006
  1208.0000   -189.6672     14.4753     15.2175     54.9690    109.3670
  1208.2500   -189.8022     14.4008     15.2745     64.0436    104.4529
  1208.5000   -189.8728     14.3103     15.2458     65.8666     98.0312
  1208.7500   -189.8996     14.2165     15.1362     59.2892     96.2598
  1209.0000   -189.9099     14.1251     14.9594     47.5354     99.1180
  1209.2500   -189.9297     14.0384     14.7361     35.7033    104.1062
  1209.5000   -189.9769     13.9572     14.4902     27.3659    113.3008
  1209.7500   -190.0565     13.8806     14.2461     23.2193    118.9282
  1210.0000   -190.1591     13.8074     14.0263     21.9681    125.2964
  1210.2500   -190.2642     13.7401     13.8506     21.8582    128.1348
  1210.5000   -190.3458     13.6906     13.7356     21.6938    130.5242
  1210.7500   -190.3748     13.6810     13.6950     21.1124    130.8906
