~Version Information
 VERS.                                  2.0 : CWLS LAS VERSION
 WRAP.                                   NO : WRAPING MODE
 SWARE .                 MController 2.5.0I : SOFTWARE VERSION
~Well Information
 WELL.                           J&P 12-33v : WELL
 COMP.             Petrogulf Operating Corp : COMPANY
 FLD.                      Purgatorie River : FIELD
 LOC.                NW/SE Sec 12 T33S R68W : LOCATION
 DATE.                              8/27/04 : DATE(S) LOGGED
 SRVC.       Blanco Geological services LLC : SERVICE COMPANY
 STAT.                                   CO : STATE
 CNTY.                           Las Animas : COUNTY
 CTRY.                                  USA : COUNTRY
 API.                       05-071-08091-00 : API NUMBER
 STRT.FT                             770.00 : START DEPTH
 STOP.FT                            2580.00 : STOP DEPTH
 STEP.FT                               1.00 : DEPTH INCREMENT
 NULL.                                -9999 : NULL VALUE
~Curve information
 DEPTH.FT                                   :
 ROP.MIN/FT                                 :
 GAS.UNITS                                  :
~ASCII Log data
# ...
      1970.0          0.3         10.0 
      1971.0          0.3         10.5 
      1972.0          0.3         10.8 
      1973.0          0.3         10.2 
      1974.0          0.3         10.4 
      1975.0          0.3         11.1 
      1976.0          0.3         11.3 
      1977.0          0.3         11.7 
      1978.0          0.3         11.1 
      1979.0          0.3         10.9 
      1980.0          0.3         10.8 
      1981.0          0.3         10.9 
      1982.0          4.0         37.9 
      1983.0          0.4         20.2 
      1984.0          0.4         29.0 
      1985.0          0.4         32.4 
      1986.0          0.4         31.2 
      1987.0          0.4         27.9 
      1988.0          0.4         24.4 
      1989.0          0.4         21.8 
      1990.0          0.5         20.7 
      1991.0          0.4         18.0 
      1992.0          0.6         15.1 
      1993.0          0.6         10.9 
      1994.0          0.5          9.4 
      1995.0          0.6         10.4 
      1996.0          0.5         10.8 
      1997.0          0.6         10.7 
      1998.0          0.5         10.2 
      1999.0          0.7         10.4 
      2000.0          0.3          9.6 
      2001.0          0.2         10.5 
      2002.0          0.3         11.9 
      2003.0          0.3         12.2 
      2004.0          0.3         11.6 
      2005.0          0.3         10.8 
      2006.0          0.3         10.2 
      2007.0          0.3         10.2 
      2008.0          0.3         10.1 
      2009.0          0.3         10.0 
      2010.0          0.3          9.8 
      2011.0          0.3          9.5 
      2012.0          4.8         42.7 
      2013.0          0.4         36.2 
      2014.0          0.5         36.6 
      2015.0          0.6         30.5 
      2016.0          0.4         25.4 
      2017.0          0.4         21.6 
      2018.0          0.4         20.3 
      2019.0          0.5         19.5 
      2020.0          0.7         17.3 
      2021.0          0.5         13.4 
      2022.0          0.3         12.1 
      2023.0          0.4         12.4 
      2024.0          0.4         13.7 
      2025.0          0.4         14.1 
      2026.0          0.3         14.0 
      2027.0          0.3         13.4 
      2028.0          0.3         12.7 
      2029.0          0.3         12.0 
      2030.0          0.3         11.7 
      2031.0          0.3         11.0 
      2032.0          0.3         10.4 
      2033.0          0.3         10.3 
      2034.0          0.3          9.9 
      2035.0          0.3          9.6 
      2036.0          0.3          9.8 
      2037.0          0.3          9.3 
      2038.0          0.3          9.1 
      2039.0          0.4          9.4 
      2040.0          0.4          9.2 
      2041.0          0.4          9.1 
      2042.0          5.0         35.5 
      2043.0          0.6         36.3 
      2044.0          0.5         37.0 
      2045.0          0.4         33.0 
      2046.0          0.2         26.3 
      2047.0          0.3         24.6 
      2048.0          0.4         20.9 
      2049.0          0.3         19.0 
      2050.0          0.4         17.5 
      2051.0          0.4         14.2 
      2052.0          0.3         12.6 
      2053.0          0.3         11.0 
      2054.0          0.4          9.8 
      2055.0          0.3          9.6 
      2056.0          0.3         10.0 
      2057.0          0.3          9.5 
      2058.0          0.3          9.7 
      2059.0          0.3          9.1 
      2060.0          0.3          9.2 
      2061.0          0.3          9.5 
      2062.0          0.2          9.8 
      2063.0          0.3          9.9 
      2064.0          0.3          9.8 
      2065.0          0.2         10.3 
      2066.0          0.3         10.7 
      2067.0          0.3         11.4 
      2068.0          0.3         11.9 
      2069.0          0.3         12.3 
      2070.0          0.3         12.6 
      2071.0          0.3         12.7 
      2072.0          4.6         41.7 
      2073.0          0.6         33.2 
      2074.0          0.4         30.4 
      2075.0          0.4         27.0 
      2076.0          0.4         24.9 
      2077.0          0.4         21.2 
      2078.0          0.4         18.8 
      2079.0          0.4         17.5 
      2080.0          0.4         16.3 
      2081.0          0.5         13.9 
      2082.0          0.5         12.7 
      2083.0          0.5         11.7 
      2084.0          0.5         11.2 
      2085.0          0.3         10.7 
      2086.0          0.2         10.6 
      2087.0          0.2         10.4 
      2088.0          0.2         10.7 
      2089.0          0.3         11.4 
      2090.0          0.2         11.7 
      2091.0          0.3         12.1 
      2092.0          0.3         12.0 
      2093.0          0.3         12.2 
      2094.0          0.3         11.9 
      2095.0          0.3         11.8 
      2096.0          0.2         11.6 
      2097.0          0.3         10.9 
      2098.0          0.1         10.6 
      2099.0          0.2         11.0 
      2100.0          0.2         12.2 
      2101.0          0.2         12.3 
      2102.0          4.0         41.2 
      2103.0          0.3         21.3 
      2104.0          0.4         29.4 
      2105.0          0.5         32.3 
      2106.0          0.5         30.4 
      2107.0          0.4         23.1 
      2108.0          0.4         21.7 
      2109.0          0.2         20.9 
      2110.0          0.3         19.6 
      2111.0          0.3         18.5 
      2112.0          0.3         16.5 
      2113.0          0.4         15.4 
      2114.0          0.3         13.9 
      2115.0          0.2         12.7 
      2116.0          0.2         12.1 
      2117.0          0.2         11.6 
      2118.0          0.3         11.0 
      2119.0          0.3         12.4 
      2120.0          0.3         12.2 
      2121.0          0.3         11.4 
      2122.0          0.3         11.3 
      2123.0          0.3         11.6 
      2124.0          0.3         11.7 
      2125.0          0.3         11.6 
      2126.0          0.3         11.7 
      2127.0          0.2         11.6 
      2128.0          0.2         11.5 
      2129.0          0.2         10.7 
      2130.0          0.3         10.2 
      2131.0          0.4         16.0 
      2132.0          6.1        139.1 
      2133.0          0.2         17.2 
      2134.0          0.1         16.7 
      2135.0          0.6         21.2 
      2136.0          1.0         70.0 
      2137.0          2.4         84.5 
      2138.0          0.2         30.9 
      2139.0          0.6         25.1 
      2140.0          0.1         25.2 
      2141.0          1.5         27.1 
      2142.0          0.2         24.2 
      2143.0          0.1         26.4 
      2144.0          0.1         27.7 
      2145.0          2.9         61.6 
      2146.0          0.2         35.7 
      2147.0          0.3         37.0 
      2148.0          1.6         79.6 
      2149.0          0.6         81.1 
      2150.0          1.0         80.9 
      2151.0          0.1         37.0 
      2152.0          4.2         42.8 
      2153.0          1.0         36.4 
      2154.0        223.1       7888.7 
      2155.0          0.1        373.8 
      2156.0          0.2        392.1 
      2157.0          0.2        421.7 
      2158.0          0.3        466.7 
      2159.0          0.2       1034.8 
      2160.0          0.4       1360.3 
      2161.0          0.3       1277.1 
      2162.0          0.5        440.0 
      2163.0          0.3          0.7 
      2164.0          0.4         11.1 
      2165.0          0.4         11.1 
      2166.0          0.2         11.1 
      2167.0          0.4         11.2 
      2168.0          0.2         11.1 
      2169.0          0.3         11.2 
