~Version Information
VERS.                      2.0: CWLS Log ASCII Standard - VERSION 2.0
WRAP.                       NO: One line per depth step
~Well Information Block
STRT.FT               530.0000: 
STOP.FT              1825.0000: 
STEP.FT                 0.1000: 
NULL.                -999.2500: 
COMP.          Pioneer Natural Resources: COMPANY
WELL.          Vision 31-11 Tr: WELL
FLD.           Purgatoire River: FIELD
LOC.           742' FNL & 1593' FEL: LOCATION
STAT.                 Colorado: State
CNTY.               Las Animas: COUNTY
CTRY. USA : Country
SECT. 11 : Section
TOWN. 32S : Township
RANG. 66W : Range
SRVC.                Patterson: SERVICE COMPANY
DATE.          Mon Oct 10 07:17:32 2005: LOG DATE
API.           05 071 08305 00: UNIQUE WELL ID
~Curve Information Block
DEPT.FT            0 000 00 00: Depth
DCAL.in                       : CDL Caliper
RHOB.g/cc                     : CDL Bulk Density
RHOC.g/cc                     : CDL Density Correction
DPOR.pu                       : CDL Density Porosity
GR.GAPI                       : Gamma Ray
NPOR.pu                       : Neutron Porosity
~Parameter Information Block
~A  Depth       DCAL        RHOB        RHOC        DPOR         GR         NPOR    
# ...
   702.8000      8.2993      2.5733      0.0911      4.6494    129.5979     29.5619
   702.9000      8.2993      2.5792      0.0392      4.2899    130.6455     29.5812
   703.0000      8.3322      2.5742      0.0625      4.5944    137.1723     29.3223
   703.1000      8.3322      2.5624      0.0281      5.3101    144.7368     28.9448
   703.2000      8.3322      2.5577      0.0102      5.5963    151.6567     29.2477
   703.3000      8.3331      2.5704      0.0067      4.8263    155.5428     30.1334
   703.4000      8.3331      2.5937      0.0162      3.4148    156.4015     30.5435
   703.5000      8.3748      2.6127      0.0546      2.2607    158.7290     30.3062
   703.6000      8.3748      2.6220      0.0334      1.6985    161.0224     30.2673
   703.7000      8.3748      2.6336      0.0129      0.9942    156.7402     30.5373
   703.8000      8.3796      2.6576      0.0970     -0.4620    148.1666     30.3323
   703.9000      8.3796      2.6833      0.0748     -2.0195    141.3799     29.3305
   704.0000      8.3503      2.6881      0.1099     -2.3069    136.2610     28.3334
   704.1000      8.3503      2.6645      0.0543     -0.8802    131.3973     28.0022
   704.2000      8.3503      2.6401      0.0179      0.5971    126.4069     28.0112
   704.3000      8.3141      2.6305      0.0636      1.1790    121.1010     27.6057
   704.4000      8.3141      2.6111      0.0561      2.3566    116.9562     26.7879
   704.5000      8.3262      2.5716     -0.0031      4.7526    114.3163     26.0336
   704.6000      8.3262      2.5381     -0.0487      6.7832    112.1953     25.4109
   704.7000      8.3262      2.5296     -0.0066      7.2978    111.9478     25.0437
   704.8000      8.3240      2.5417     -0.0023      6.5648    114.6327     25.0385
   704.9000      8.3240      2.5613      0.0387      5.3741    117.2063     25.2886
   705.0000      8.3069      2.5726      0.0639      4.6912    118.1207     25.8313
   705.1000      8.3069      2.5690      0.0600      4.9066    118.3288     26.4674
   705.2000      8.3069      2.5629      0.0424      5.2788    115.1310     27.0529
   705.3000      8.2272      2.5687      0.0816      4.9250    110.7119     27.8415
   705.4000      8.2272      2.5813      0.0521      4.1661    111.3816     28.5366
   705.5000      8.2321      2.5794      0.1206      4.2766    117.4105     28.5306
   705.6000      8.2321      2.5542      0.0779      5.8074    125.1124     27.9943
   705.7000      8.2321      2.5314      0.0421      7.1879    131.7059     27.6443
   705.8000      8.2563      2.5398      0.0185      6.6792    136.3217     27.6768
   705.9000      8.2563      2.5681      0.0819      4.9664    140.0064     27.6061
   706.0000      8.2501      2.5846      0.1234      3.9621    145.2530     27.1843
   706.1000      8.2501      2.5784      0.0549      4.3382    150.9586     26.9189
   706.2000      8.2501      2.5613      0.0340      5.3746    151.6024     27.2356
   706.3000      8.2589      2.5449      0.0364      6.3708    147.4168     27.7185
   706.4000      8.2589      2.5329      0.0126      7.0995    144.8467     27.8138
   706.5000      8.2659      2.5263      0.0334      7.4979    144.9130     27.5040
   706.6000      8.2659      2.5256      0.0135      7.5410    145.0039     26.9930
   706.7000      8.2659      2.5305      0.0502      7.2399    142.9024     26.5258
   706.8000      8.2863      2.5459      0.0187      6.3111    136.9074     26.4363
   706.9000      8.2863      2.5739      0.0665      4.6115    130.2189     26.7003
   707.0000      8.2757      2.5919      0.0900      3.5224    128.3430     27.0007
   707.1000      8.2757      2.5880      0.0222      3.7571    132.0367     27.1874
   707.2000      8.2757      2.5843      0.0725      3.9831    135.0637     27.1214
   707.3000      8.2629      2.5897      0.0594      3.6526    132.0284     26.9962
   707.4000      8.2629      2.5970      0.0619      3.2099    125.4162     27.2527
   707.5000      8.2446      2.6004      0.0788      3.0078    120.9779     27.7065
   707.6000      8.2446      2.5850      0.0949      3.9398    118.9602     27.8810
   707.7000      8.2446      2.5443      0.0812      6.4060    117.9372     27.9519
   707.8000      8.2129      2.5032      0.0128      8.8953    118.6117     28.2294
   707.9000      8.2129      2.4918      0.0097      9.5871    118.6635     28.3778
   708.0000      8.1933      2.5041      0.0363      8.8417    118.9026     28.1200
   708.1000      8.1933      2.5123      0.0524      8.3470    122.6004     27.7151
   708.2000      8.1933      2.5159      0.0007      8.1297    124.1794     27.5051
   708.3000      8.1349      2.5386      0.0442      6.7487    117.5935     27.6739
   708.4000      8.1349      2.5792      0.1114      4.2929    110.0414     28.1844
   708.5000      8.0528      2.6084      0.1553      2.5189    109.4112     28.6108
   708.6000      8.0528      2.6147      0.1274      2.1403    114.3470     28.2502
   708.7000      8.0528      2.6164      0.1209      2.0369    119.2855     26.9681
   708.8000      8.0348      2.6236      0.1532      1.6015    118.4619     25.5694
   708.9000      8.0348      2.6262      0.1372      1.4451    113.1673     24.5916
   709.0000      8.0168      2.6220      0.0887      1.6997    108.4006     24.0398
   709.1000      8.0168      2.6144      0.0687      2.1567    104.6970     23.9864
   709.2000      8.0168      2.6009      0.0568      2.9759    100.9354     24.3461
   709.3000      8.0380      2.5807      0.0284      4.2019     99.4308     24.7213
   709.4000      8.0380      2.5625      0.0308      5.3022    102.3253     24.8522
   709.5000      8.0901      2.5557      0.0397      5.7158    106.0029     24.8364
   709.6000      8.0901      2.5568      0.0964      5.6509    107.3428     25.0184
   709.7000      8.0901      2.5620      0.0705      5.3343    109.3309     25.5210
   709.8000      8.1279      2.5791      0.0607      4.2992    114.3442     26.1164
   709.9000      8.1279      2.6025      0.1158      2.8809    119.7523     26.6237
   710.0000      8.0913      2.6041      0.1354      2.7847    121.8508     27.2007
   710.1000      8.0913      2.5743      0.0826      4.5856    118.6281     27.9617
   710.2000      8.0913      2.5427      0.0145      6.5037    112.2202     28.6705
   710.3000      8.1229      2.5333      0.0758      7.0705    108.2748     29.0510
   710.4000      8.1229      2.5349      0.0695      6.9764    110.4500     28.9614
   710.5000      8.1470      2.5417      0.0152      6.5655    118.8475     28.7116
   710.6000      8.1470      2.5623      0.0789      5.3149    129.8400     28.5965
   710.7000      8.1470      2.5801      0.1161      4.2378    137.9492     28.1440
   710.8000      8.1530      2.5762      0.0975      4.4710    141.9361     27.1141
   710.9000      8.1530      2.5682      0.0252      4.9559    143.0053     26.2073
   711.0000      8.1665      2.5745      0.0934      4.5778    141.6839     26.0462
   711.1000      8.1665      2.5789      0.1237      4.3092    138.5368     26.5156
   711.2000      8.1665      2.5704      0.0852      4.8245    133.9797     26.9563
   711.3000      8.1585      2.5689      0.0383      4.9146    128.5912     26.9119
   711.4000      8.1585      2.5883      0.0677      3.7393    122.5856     26.5712
   711.5000      8.1531      2.6118      0.0935      2.3130    118.8552     26.2310
   711.6000      8.1531      2.6160      0.1213      2.0629    121.9708     25.9876
   711.7000      8.1531      2.5976      0.0730      3.1747    129.9764     25.9234
   711.8000      8.1572      2.5809      0.0106      4.1855    133.9661     26.1453
   711.9000      8.1572      2.5891      0.0607      3.6933    130.1738     26.6766
   712.0000      8.1578      2.6095      0.1129      2.4539    122.6343     27.2920
   712.1000      8.1578      2.6236      0.0765      1.6008    117.3243     27.6707
   712.2000      8.1578      2.6286      0.0715      1.2981    119.0308     27.4509
   712.3000      8.1548      2.6159      0.0990      2.0657    128.4897     26.9454
