~Version Information
VERS.                      2.0: CWLS Log ASCII Standard - VERSION 2.0
WRAP.                       NO: One line per depth step
~Well Information Block
STRT.FT                -6.7500: 
STOP.FT               983.2500: 
STEP.FT                 0.2500: 
NULL.                -999.2500: 
COMP.          Pioneer Natural Resources: COMPANY
WELL.          Run-Away-Train 43-26: WELL
FLD.           Purgatorie River: FIELD
LOC.           1693' FSL & 1195' FWL------------: LOCATION
PROV.                       CO: PROVINCE
CNTY.               Las Animas: COUNTRY
SRVC.          Patterson Wireline: SERVICE COMPANY
DATE.          Thu Apr 14 12:30:00 2005: LOG DATE
UWI.           05 071 08188 00: UNIQUE WELL ID
~Curve Information Block
DEPT.FT            0 000 00 00: Depth
CCL.                          : Casing Collar Locator
TT3.usec                      : CBL 3' Travel Time
AMP3.mV                       : CBL 3' Amplitude
GR.GAPI                       : Gamma Ray
~Parameter Information Block
~A  Depth       CCL         TT3         AMP3         GR     
# ...
   696.7500      0.0000    811.2535      8.4385     61.3299
   697.0000      0.0000    817.7317      8.8200     62.3068
   697.2500      0.0000    826.3674      9.0746     60.7998
   697.5000      0.0000    833.8076      9.1572     57.3941
   697.7500      0.0000    837.7062      9.1068     53.9783
   698.0000      0.0000    837.6092      9.0182     51.9668
   698.2500      0.0000    834.6455      8.9872     51.5938
   698.5000      0.0000    830.6640      9.0460     52.5014
   698.7500      0.0000    827.2303      9.1405     54.0727
   699.0000      0.0000    824.9904      9.1747     55.3223
   699.2500      0.0000    823.7908      9.0804     55.4533
   699.5000      0.0000    823.2254      8.8480     54.7544
   699.7500      0.0000    823.0001      8.5139     54.3247
   700.0000      0.0000    822.9676      8.1392     54.7094
   700.2500      0.0000    823.0520      7.7978     55.2360
   700.5000      0.0000    823.2301      7.5651     54.8158
   700.7500      0.0000    823.5170      7.4907     53.0089
   701.0000      0.0000    823.9138      7.5627     50.3162
   701.2500      0.0000    824.3467      7.6882     47.8529
   701.5000      0.0000    824.6877      7.7245     46.7868
   701.7500      0.0000    824.8504      7.5604     47.6690
   702.0000      0.0000    824.8167      7.1950     50.0525
   702.2500      0.0000    824.4863      6.7487     52.8785
   702.5000      0.0000    823.4123      6.3924     55.3111
   702.7500      0.0000    820.6862      6.2370     57.1089
   703.0000      0.0000    815.3000      6.2651     58.3479
   703.2500      0.0000    806.9348      6.3571     59.1816
   703.5000      0.0000    796.5669      6.3763     59.8617
   703.7500      0.0000    786.2789      6.2476     60.6368
   704.0000      0.0000    778.3632      5.9992     61.6017
   704.2500      0.0000    774.2176      5.7519     62.7711
   704.5000      0.0000    773.5170      5.6368     64.1200
   704.7500      0.0000    774.2311      5.6898     65.5007
   705.0000      0.0000    773.7061      5.8256     66.9162
   705.2500      0.0000    770.1500      5.9156     68.9495
   705.5000      0.0000    763.6192      5.8841     72.4072
   705.7500      0.0000    755.9897      5.7519     77.2518
   706.0000      0.0000    749.7128      5.6257     82.1205
   706.2500      0.0000    745.9820      5.6540     85.0812
   706.5000      0.0000    744.0118      5.9457     84.8153
   706.7500      0.0000    742.5977      6.4728     81.3015
   707.0000      0.0000    742.5928      7.0383     75.9082
   707.2500      0.0000    747.1493      7.3804     70.9635
   707.5000      0.0000    758.7391      7.3527     68.5977
   707.7500      0.0000    776.1086      7.0202     69.3146
   708.0000      0.0000    794.5433      6.5887     71.6400
   708.2500      2.0000    808.6204      6.2487     73.3616
   708.5000      2.0000    814.4222      6.0759     73.2824
   708.7500      0.0000    810.6235      6.0482     71.9549
   709.0000      0.0000    799.3690      6.1254     70.8133
   709.2500      0.0000    785.7411      6.2941     70.6086
   709.5000      0.0000    774.4052      6.5472     70.7703
   709.7500      0.0000    766.3824      6.8341     70.1898
   710.0000      0.0000    760.0229      7.0499     68.3315
   710.2500      0.0000    754.6545      7.0922     65.5695
   710.5000      0.0000    751.7195      6.9308     62.6510
   710.7500      0.0000    752.2023      6.6128     59.8737
   711.0000      0.0000    754.4256      6.2268     56.9245
   711.2500      0.0000    755.5649      5.8838     53.6727
   711.5000      0.0000    754.8610      5.6945     50.8145
   711.7500      0.0000    754.2397      5.7074     49.4756
   712.0000      0.0000    755.6848      5.8598     50.5758
   712.2500      0.0000    758.6396      6.0160     54.5010
   712.5000      0.0000    760.1568      6.0530     60.4603
   712.7500      0.0000    757.5458      5.9087     66.0955
   713.0000      0.0000    751.0632      5.5878     68.9313
   713.2500      0.0000    743.7820      5.1649     68.6184
   713.5000      0.0000    738.3186      4.7641     66.9669
   713.7500      0.0000    734.4108      4.4931     65.7472
   714.0000      0.0000    730.6795      4.3776     65.3532
   714.2500      0.0000    727.7145      4.3581     65.4815
   714.5000      0.0000    727.2042      4.3421     65.8858
   714.7500      0.0000    728.2560      4.2628     66.1170
   715.0000      0.0000    726.9011      4.1065     65.3048
   715.2500      0.0000    719.9091      3.9037     62.6845
   715.5000      0.0000    707.8593      3.7064     58.3778
   715.7500      0.0000    694.8905      3.5666     53.6425
   716.0000      0.0000    686.5026      3.5166     50.2280
   716.2500      0.0000    686.3687      3.5492     49.2620
   716.5000      0.0000    693.7907      3.6165     50.6189
   716.7500      0.0000    704.6476      3.6598     53.2814
   717.0000      0.0000    714.9901      3.6511     56.3328
   717.2500      0.0000    723.1080      3.6104     59.7426
   717.5000      0.0000    728.8458      3.5892     64.1815
   717.7500      0.0000    732.4625      3.6334     69.9242
   718.0000      0.0000    734.3762      3.7540     76.0467
   718.2500      0.0000    735.1849      3.9237     81.0236
   718.5000      0.0000    735.4193      4.0940     84.0176
   718.7500      0.0000    735.2971      4.2166     85.2100
   719.0000      0.0000    734.6573      4.2592     85.0560
   719.2500      0.0000    733.1884      4.2169     83.8377
   719.5000      0.0000    730.9410      4.1175     81.8893
   719.7500      0.0000    728.7843      4.0097     79.5535
   720.0000      0.0000    728.0483      3.9403     76.8714
   720.2500      0.0000    729.3443      3.9393     73.8485
   720.5000      0.0000    731.8297      4.0169     71.0361
   720.7500      0.0000    733.7859      4.1600     69.3689
   721.0000      0.0000    733.7474      4.3280     69.3052
   721.2500      0.0000    731.1181      4.4651     70.2942
   721.5000      0.0000    726.1876      4.5234     71.1264
   721.7500      0.0000    719.8383      4.4770     70.8557
   722.0000      0.0000    713.1559      4.3249     69.5869
   722.2500      0.0000    707.3102      4.0932     68.4973
   722.5000      0.0000    703.5790      3.8356     68.8665
   722.7500      0.0000    702.9452      3.6210     70.7222
   723.0000      0.0000    705.4636      3.5080     72.4149
   723.2500      0.0000    710.2911      3.5197     71.8887
   723.5000      0.0000    716.3291      3.6359     68.5991
   723.7500      0.0000    722.5805      3.8128     64.1020
   724.0000      0.0000    728.1461      4.0193     60.7325
   724.2500      0.0000    732.5028      4.2557     59.7675
   724.5000      0.0000    735.9640      4.5326     60.8658
   724.7500      0.0000    739.5493      4.8374     63.0721
   725.0000      0.0000    744.2188      5.1278     65.9794
   725.2500      0.0000    750.2365      5.3551     69.6983
   725.5000      0.0000    757.3185      5.4914     74.0334
   725.7500      0.0000    765.3052      5.5444     78.1574
   726.0000      0.0000    774.4034      5.5578     81.0739
   726.2500      0.0000    784.6069      5.5948     82.0788
   726.5000      0.0000    794.8647      5.7049     80.8903
   726.7500      0.0000    802.9536      5.8972     77.9276
   727.0000      0.0000    806.6252      6.1437     74.6139
   727.2500      0.0000    805.5361      6.4089     72.7463
   727.5000      0.0000    802.1419      6.6726     72.8874
   727.7500      0.0000    800.3051      6.9311     73.5135
   728.0000      0.0000    802.7688      7.1839     72.4574
   728.2500      0.0000    809.7057      7.4184     69.3848
   728.5000      0.0000    818.9858      7.6003     66.2968
   728.7500      0.0000    827.2738      7.6814     65.4446
   729.0000      0.0000    831.4012      7.6308     67.2916
   729.2500      0.0000    829.5306      7.4734     70.5934
   729.5000      0.0000    821.2190      7.3050     73.7832
   729.7500      0.0000    806.8660      7.2643     75.8689
   730.0000      0.0000    788.2928      7.4598     76.3278
