~Version Information
VERS.                      2.0: CWLS Log ASCII Standard - VERSION 2.0
WRAP.                       NO: One line per depth step
~Well Information Block
STRT.FT               521.0000: 
STOP.FT              2732.5000: 
STEP.FT                 0.2500: 
NULL.                -999.2500: 
COMP.          Petrogulf Corporation: COMPANY
WELL.              Silva 6-22V: WELL
FLD.           Purgatorie River: FIELD
LOC.           1936' FNL & 1798' FWL: LOCATION
CNTY.               Las Animas: COUNTY
SRVC.                         : SERVICE COMPANY
DATE.          Tue Nov 09 08:09:38 2004: LOG DATE
UWI.           05 071 08143 00: UNIQUE WELL ID
STAT.                 Colorado: STATE
~Curve Information Block
DEPT.FT            0 000 00 00: Depth
SP.mV                         : DIL Spontaneous Potential
RILD.Ohm-m                    : DIL Deep Resistivity
RILM.Ohm-m                    : DIL Medium Resistivity
RLL3.Ohm-m                    : DIL Shallow Resistivity
GR.GAPI                       : Gamma Ray
~Parameter Information Block
~A  Depth        SP         RILD        RILM        RLL3         GR     
# ...
  2285.0000     19.2938     14.2685     15.8543     31.5389     92.5352
  2285.2500     18.2752     14.8055     16.9164     37.1207     87.5047
  2285.5000     17.0667     15.3902     18.1631     43.2730     79.8949
  2285.7500     15.9309     16.0221     19.6077     49.5283     75.5090
  2286.0000     15.1294     16.7013     21.2605     55.3311     71.1141
  2286.2500     14.8636     17.4281     23.1269     60.1903     69.8292
  2286.5000     15.2349     18.2014     25.2064     63.8340     69.7552
  2286.7500     16.2231     19.0175     27.4900     66.3024     70.3831
  2287.0000     17.6955     19.8683     29.9556     67.9299     71.6438
  2287.2500     19.4325     20.7411     32.5644     69.2197     72.4615
  2287.5000     21.1625     21.6204     35.2545     70.6603     73.2913
  2287.7500     22.6087     22.4898     37.9397     72.5703     73.3163
  2288.0000     23.5307     23.3370     40.5107     75.0317     72.1809
  2288.2500     23.7603     24.1556     42.8469     77.9263     70.6594
  2288.5000     23.2304     24.9450     44.8353     81.0333     67.7369
  2288.7500     21.9882     25.7064     46.3941     84.1182     65.6905
  2289.0000     20.1857     26.4366     47.4870     86.9659     62.5824
  2289.2500     18.0554     27.1208     48.1269     89.3554     60.3478
  2289.5000     15.8654     27.7291     48.3666     91.0204     56.8239
  2289.7500     13.8670     28.2180     48.2784     91.6503     54.7955
  2290.0000     12.2612     28.5357     47.9313     90.9542     53.2889
  2290.2500     11.1609     28.6366     47.3795     88.7630     53.6852
  2290.5000     10.5879     28.4918     46.6523     85.1090     56.2610
  2290.7500     10.4802     28.1007     45.7571     80.2368     58.9210
  2291.0000     10.7150     27.4907     44.6846     74.5361     63.4858
  2291.2500     11.1384     26.7107     43.4192     68.4368     66.4118
  2291.5000     11.6013     25.8193     41.9512     62.3187     70.0713
  2291.7500     11.9868     24.8708     40.2818     56.4704     72.0757
  2292.0000     12.2290     23.9082     38.4295     51.0915     75.0011
  2292.2500     12.3177     22.9581     36.4287     46.3085     77.1557
  2292.5000     12.2921     22.0310     34.3262     42.1787     80.6144
  2292.7500     12.2281     21.1262     32.1736     38.6825     82.8320
  2293.0000     12.2178     20.2363     30.0225     35.7216     85.7076
  2293.2500     12.3507     19.3533     27.9173     33.1429     87.2993
  2293.5000     12.6943     18.4735     25.8945     30.7843     89.4796
  2293.7500     13.2783     17.5991     23.9816     28.5261     91.0929
  2294.0000     14.0821     16.7387     22.1962     26.3194     94.0939
  2294.2500     15.0324     15.9048     20.5484     24.1797     96.3229
  2294.5000     16.0070     15.1105     19.0416     22.1557     99.1370
  2294.7500     16.8615     14.3677     17.6747     20.2928    100.1942
  2295.0000     17.4616     13.6848     16.4435     18.6099    100.6440
  2295.2500     17.7096     13.0668     15.3425     17.0983    100.7892
  2295.5000     17.5722     12.5155     14.3657     15.7358    101.7830
  2295.7500     17.0835     12.0300     13.5074     14.5061    102.9983
  2296.0000     16.3327     11.6079     12.7622     13.4110    104.7921
  2296.2500     15.4413     11.2456     12.1244     12.4708    105.3569
  2296.5000     14.5336     10.9391     11.5881     11.7147    104.7278
  2296.7500     13.7142     10.6841     11.1465     11.1653    103.5024
  2297.0000     13.0512     10.4764     10.7922     10.8264    101.3095
  2297.2500     12.5708     10.3121     10.5176     10.6774     99.8930
  2297.5000     12.2660     10.1876     10.3148     10.6782     97.3343
  2297.7500     12.1115     10.0997     10.1769     10.7788     94.9223
  2298.0000     12.0724     10.0458     10.0976     10.9336     90.6088
  2298.2500     12.1111     10.0234     10.0724     11.1119     88.1015
  2298.5000     12.1912     10.0305     10.0983     11.3047     86.0621
  2298.7500     12.2733     10.0652     10.1732     11.5267     85.7721
  2299.0000     12.3222     10.1258     10.2961     11.8130     85.7742
  2299.2500     12.3079     10.2110     10.4655     12.2123     85.4521
  2299.5000     12.2228     10.3197     10.6788     12.7720     84.2931
  2299.7500     12.0935     10.4511     10.9316     13.5171     83.2456
  2300.0000     11.9915     10.6043     11.2168     14.4289     81.3388
  2300.2500     12.0325     10.7780     11.5244     15.4330     79.7207
  2300.5000     12.3520     10.9700     11.8422     16.4064     76.6677
  2300.7500     13.0737     11.1764     12.1567     17.2060     74.3758
  2301.0000     14.2722     11.3912     12.4547     17.7111     71.2377
  2301.2500     15.9380     11.6064     12.7248     17.8606     69.8097
  2301.5000     17.9733     11.8123     12.9589     17.6692     69.0149
  2301.7500     20.2117     11.9992     13.1525     17.2157     69.2137
  2302.0000     22.4495     12.1582     13.3047     16.6115     70.1218
  2302.2500     24.4896     12.2831     13.4170     15.9648     71.0017
  2302.5000     26.1705     12.3713     13.4929     15.3579     72.6229
  2302.7500     27.3823     12.4238     13.5371     14.8412     73.7303
  2303.0000     28.0616     12.4450     13.5549     14.4399     75.0885
  2303.2500     28.1876     12.4412     13.5528     14.1640     75.8058
  2303.5000     27.7829     12.4200     13.5381     14.0142     77.0305
  2303.7500     26.9091     12.3886     13.5189     13.9819     78.1210
  2304.0000     25.6733     12.3535     13.5036     14.0460     79.7905
  2304.2500     24.2189     12.3197     13.4997     14.1709     80.4693
  2304.5000     22.7131     12.2905     13.5130     14.3104     80.5983
  2304.7500     21.3315     12.2675     13.5464     14.4179     80.4416
  2305.0000     20.2309     12.2511     13.5991     14.4602     80.5300
  2305.2500     19.5429     12.2407     13.6672     14.4290     80.9235
  2305.5000     19.3527     12.2349     13.7438     14.3448     81.9810
  2305.7500     19.6857     12.2320     13.8204     14.2486     82.9932
  2306.0000     20.4929     12.2307     13.8894     14.1862     84.6721
  2306.2500     21.6429     12.2294     13.9445     14.1891     85.4320
  2306.5000     22.9297     12.2270     13.9833     14.2635     85.2686
  2306.7500     24.1053     12.2223     14.0066     14.3902     84.2630
  2307.0000     24.9328     12.2141     14.0185     14.5355     82.0654
  2307.2500     25.2353     12.2018     14.0241     14.6670     80.5930
  2307.5000     24.9445     12.1856     14.0287     14.7663     78.8983
  2307.7500     24.1003     12.1669     14.0359     14.8335     78.3507
  2308.0000     22.8342     12.1482     14.0477     14.8840     78.7423
  2308.2500     21.3203     12.1336     14.0642     14.9390     79.8416
  2308.5000     19.7247     12.1279     14.0845     15.0172     82.3909
  2308.7500     18.1851     12.1365     14.1069     15.1301     84.3026
  2309.0000     16.7908     12.1652     14.1300     15.2835     86.6645
  2309.2500     15.5966     12.2187     14.1526     15.4828     87.4376
  2309.5000     14.6362     12.3008     14.1733     15.7369     86.8816
  2309.7500     13.9252     12.4132     14.1911     16.0556     85.3017
  2310.0000     13.4608     12.5547     14.2050     16.4419     81.3849
  2310.2500     13.2188     12.7207     14.2146     16.8818     78.1388
  2310.5000     13.1543     12.9032     14.2199     17.3385     73.3308
  2310.7500     13.2113     13.0912     14.2211     17.7578     70.6929
  2311.0000     13.3389     13.2722     14.2184     18.0816     67.8895
  2311.2500     13.5125     13.4337     14.2112     18.2660     66.7088
  2311.5000     13.7359     13.5664     14.1979     18.2932     65.9753
  2311.7500     14.0382     13.6642     14.1757     18.1743     66.3753
  2312.0000     14.4605     13.7252     14.1413     17.9422     68.6912
  2312.2500     15.0381     13.7508     14.0919     17.6379     71.4505
  2312.5000     15.7896     13.7436     14.0263     17.2995     77.0579
  2312.7500     16.7174     13.7059     13.9456     16.9570     81.2781
