~Version Information
VERS.                      2.0: CWLS Log ASCII Standard - VERSION 2.0
WRAP.                       NO: One line per depth step
~Well Information Block
STRT.FT               300.0000: 
STOP.FT               871.2000: 
STEP.FT                 0.1000: 
NULL.                -999.2500: 
COMP.          Pioneer Natural Resources: COMPANY
WELL.            Hustler 12-17: WELL
FLD.           Purgatoire River: FIELD
LOC.           2150' FNL & 450' FWL: LOCATION
PROV.                 Colorado: PROVINCE
CNTY.               Las Animas: COUNTRY
SRVC.                Patterson: SERVICE COMPANY
DATE.          Mon Dec 20 11:14:19 2004: LOG DATE
UWI.           05 071 08236 00: UNIQUE WELL ID
~Curve Information Block
DEPT.FT            0 000 00 00: Depth
DCAL.in                       : CDL Caliper
RHOB.g/cc                     : CDL Bulk Density
RHOC.g/cc                     : CDL Density Correction
DPOR.pu                       : CDL Density Porosity
NPOR.pu                       : Neutron Porosity
GR.GAPI                       : Gamma Ray
~Parameter Information Block
~A  Depth       DCAL        RHOB        RHOC        DPOR        NPOR         GR     
# ...
   626.4000      7.9310      2.5898      0.0554      3.6472     22.0754    114.1105
   626.5000      7.9321      2.5876      0.0815      3.7823     22.2575    108.6014
   626.6000      7.9321      2.5824      0.0673      4.0963     22.3969    101.9132
   626.7000      7.9321      2.5786      0.0365      4.3243     22.4461     98.8296
   626.8000      7.9371      2.5861      0.0331      3.8725     22.2343    102.8427
   626.9000      7.9371      2.6019      0.0884      2.9125     21.7966    111.6247
   627.0000      7.9413      2.6064      0.1049      2.6411     21.4248    115.9718
   627.1000      7.9413      2.5893      0.0291      3.6804     21.4158    112.9035
   627.2000      7.9413      2.5628      0.0462      5.2832     21.7132    108.6365
   627.3000      7.9358      2.5378      0.0368      6.8025     22.1059    105.7750
   627.4000      7.9358      2.5203     -0.0016      7.8634     22.6129    101.8050
   627.5000      7.9287      2.5197     -0.0038      7.8982     23.1170     96.4102
   627.6000      7.9287      2.5342      0.0180      7.0197     23.3364     92.9730
   627.7000      7.9287      2.5540      0.0474      5.8172     23.1742     95.2382
   627.8000      7.9383      2.5737     -0.0039      4.6269     22.7735     99.7231
   627.9000      7.9383      2.5802      0.0771      4.2297     22.4591     98.4249
   628.0000      7.9511      2.5657      0.0164      5.1079     22.3813     91.5331
   628.1000      7.9511      2.5516      0.0210      5.9624     22.4067     85.1639
   628.2000      7.9511      2.5508      0.0362      6.0124     22.3692     82.1494
   628.3000      7.9548      2.5435      0.0562      6.4573     22.3618     83.9639
   628.4000      7.9548      2.5182     -0.0144      7.9884     22.4489     90.0709
   628.5000      7.9529      2.4951      0.0218      9.3886     22.2658     96.0309
   628.6000      7.9529      2.4957      0.0037      9.3538     21.7442     98.4980
   628.7000      7.9529      2.5216      0.0095      7.7825     21.2716     97.0438
   628.8000      7.9506      2.5530      0.0763      5.8770     20.9407     93.0785
   628.9000      7.9506      2.5661      0.0592      5.0846     20.8521     90.7072
   629.0000      7.9475      2.5600      0.0510      5.4547     21.0613     91.9923
   629.1000      7.9475      2.5449      0.0827      6.3679     21.1914     94.9910
   629.2000      7.9475      2.5235      0.0601      7.6695     21.0873     98.8756
   629.3000      7.9433      2.5051     -0.0171      8.7811     21.0351    102.7361
   629.4000      7.9433      2.5039      0.0247      8.8553     21.0575    103.3470
   629.5000      7.9442      2.5210      0.0141      7.8158     21.0096    103.7613
   629.6000      7.9442      2.5529      0.0396      5.8858     20.8956    106.6354
   629.7000      7.9442      2.5903      0.0608      3.6195     20.8839    106.2221
   629.8000      7.9494      2.6109      0.0920      2.3707     21.0843    101.7102
   629.9000      7.9494      2.5967      0.0750      3.2294     21.2598     97.9973
   630.0000      7.9474      2.5644      0.0050      5.1862     21.3146     99.1612
   630.1000      7.9474      2.5453      0.0612      6.3439     21.4998    104.3945
   630.2000      7.9474      2.5437      0.0306      6.4451     21.8733    104.4354
   630.3000      7.9359      2.5487      0.0557      6.1414     22.3226     98.2577
   630.4000      7.9359      2.5505      0.0467      6.0321     22.5913     97.4076
   630.5000      7.9306      2.5478     -0.0033      6.1959     22.4382    105.8089
   630.6000      7.9306      2.5488      0.0394      6.1344     22.1141    113.6877
   630.7000      7.9306      2.5583      0.0467      5.5575     21.8599    117.2750
   630.8000      7.9318      2.5735      0.0366      4.6369     21.6654    123.5049
   630.9000      7.9318      2.5827      0.0858      4.0772     21.5430    131.0218
   631.0000      7.9294      2.5788      0.0492      4.3141     21.4210    130.0090
   631.1000      7.9294      2.5705      0.0623      4.8210     21.1663    118.8696
   631.2000      7.9294      2.5652      0.0676      5.1376     21.0621    110.4398
   631.3000      7.9264      2.5587      0.0925      5.5315     21.3819    114.4173
   631.4000      7.9264      2.5450      0.0539      6.3649     21.7911    121.3922
   631.5000      7.9253      2.5324      0.0333      7.1301     22.0148    120.5664
   631.6000      7.9253      2.5375     -0.0011      6.8189     22.0968    114.9471
   631.7000      7.9253      2.5618      0.0601      5.3458     22.0591    110.0723
   631.8000      7.9262      2.5820      0.0803      4.1235     22.0796    107.8554
   631.9000      7.9262      2.5715      0.0883      4.7574     22.1968    108.7369
   632.0000      7.9277      2.5314      0.0158      7.1870     22.2651    114.8729
   632.1000      7.9277      2.4961     -0.0281      9.3249     22.4921    122.3912
   632.2000      7.9277      2.4967     -0.0004      9.2891     23.1855    120.3041
   632.3000      7.9281      2.5266      0.0464      7.4766     24.0377    110.6602
   632.4000      7.9281      2.5565      0.0381      5.6690     24.3860    104.4937
   632.5000      7.9288      2.5660      0.0423      5.0883     24.1965    105.6874
   632.6000      7.9288      2.5561      0.0178      5.6937     23.9533    109.3554
   632.7000      7.9288      2.5433      0.0258      6.4665     23.7662    111.0585
   632.8000      7.9293      2.5405      0.0362      6.6352     23.3833    111.2309
   632.9000      7.9293      2.5483     -0.0009      6.1656     22.8524    110.0729
   633.0000      7.9269      2.5644      0.0547      5.1861     22.5102    110.8637
   633.1000      7.9269      2.5835      0.0477      4.0298     22.3830    116.9344
   633.2000      7.9269      2.6001      0.0541      3.0229     22.4918    122.7629
   633.3000      7.9247      2.6067      0.0825      2.6235     22.8632    121.4753
   633.4000      7.9247      2.5917      0.1087      3.5307     23.1983    114.9621
   633.5000      7.9256      2.5605      0.0358      5.4237     23.2797    108.6347
   633.6000      7.9256      2.5400     -0.0010      6.6697     23.1328    104.6882
   633.7000      7.9256      2.5423      0.0616      6.5266     22.9655    103.9396
   633.8000      7.9275      2.5518      0.0459      5.9492     22.9140    104.4212
   633.9000      7.9275      2.5551      0.0133      5.7542     22.9955    100.8330
   634.0000      7.9282      2.5495      0.0623      6.0928     23.1461     93.7194
   634.1000      7.9282      2.5296      0.0420      7.2952     23.2777     91.6362
   634.2000      7.9282      2.4912      0.0360      9.6213     23.4298     97.8869
   634.3000      7.9260      2.4450      0.0071     12.4251     23.5918    105.9322
   634.4000      7.9260      2.4132     -0.0226     14.3529     23.6513    108.6659
   634.5000      7.9170      2.4049     -0.0070     14.8542     23.4818    102.1127
   634.6000      7.9170      2.4057     -0.0052     14.8068     23.1204     91.6757
   634.7000      7.9170      2.3977      0.0205     15.2931     22.7340     88.7782
   634.8000      7.9037      2.3698      0.0107     16.9811     22.2962     91.4108
   634.9000      7.9037      2.3185      0.0597     20.0913     21.9476     90.6068
   635.0000      7.8981      2.2557      0.0214     23.8944     21.8098     89.5677
   635.1000      7.8981      2.2043      0.0197     27.0139     21.3123     93.8592
   635.2000      7.8981      2.1772      0.0016     28.6531     20.1943    101.5803
   635.3000      7.9076      2.1736      0.0142     28.8705     19.0465    108.7773
   635.4000      7.9076      2.1870      0.0495     28.0585     17.9450    111.8611
   635.5000      7.9425      2.2116      0.0573     26.5671     16.5790    111.0159
   635.6000      7.9425      2.2413      0.0892     24.7688     15.3967    112.8023
   635.7000      7.9425      2.2783      0.1035     22.5294     14.9948    119.5281
   635.8000      7.9878      2.3371      0.1636     18.9626     15.1799    126.5782
   635.9000      7.9878      2.4127      0.2153     14.3789     15.3651    132.2068
