~Version Information
VERS.                      2.0: CWLS Log ASCII Standard - VERSION 2.0
WRAP.                       NO: One line per depth step
~Well Information Block
STRT.FT               652.0000: 
STOP.FT              1880.0000: 
STEP.FT                 0.1000: 
NULL.                -999.2500: 
COMP.          Pioneer Natural Resources: COMPANY
WELL.          Corkscrew 33-12 Tr: WELL
FLD.           Purgatoire River: FIELD
LOC.           1870' FSL & 1706' FEL: LOCATION
PROV.                 Colorado: PROVINCE
CNTY.               Las Animas: COUNTRY
SRVC.                Patterson: SERVICE COMPANY
DATE.          Tue Mar 29 09:18:51 2005: LOG DATE
UWI.           05 071 08295 00: UNIQUE WELL ID
~Curve Information Block
DEPT.FT            0 000 00 00: Depth
DCAL.in                       : CDL Caliper
RHOB.g/cc                     : CDL Bulk Density
RHOC.g/cc                     : CDL Density Correction
DPOR.pu                       : CDL Density Porosity
GR.GAPI                       : Gamma Ray
NPOR.pu                       : Neutron Porosity
~Parameter Information Block
~A  Depth       DCAL        RHOB        RHOC        DPOR         GR         NPOR    
# ...
  1055.2000      7.8514      2.5347     -0.0696      6.9880     94.1039     20.5972
  1055.3000      7.8522      2.5304      0.0009      7.2455     96.4450     19.6763
  1055.4000      7.8522      2.5173      0.0195      8.0450    100.6750     18.7706
  1055.5000      7.8536      2.4676      0.0506     11.0562    102.2989     18.0033
  1055.6000      7.8536      2.3773     -0.0227     16.5285     99.5371     17.2899
  1055.7000      7.8536      2.2626     -0.0330     23.4802     94.7145     16.5403
  1055.8000      7.8617      2.1394     -0.1024     30.9451     91.6100     15.9920
  1055.9000      7.8617      2.0331     -0.1187     37.3859     92.5333     15.9631
  1056.0000      7.8850      1.9686     -0.1306     41.2968     99.0745     16.4927
  1056.1000      7.8850      1.9565     -0.1414     42.0323    108.2030     17.1892
  1056.2000      7.8850      1.9960     -0.0545     39.6364    113.1417     17.5592
  1056.3000      7.9281      2.0719      0.0492     35.0379    113.7355     17.7597
  1056.4000      7.9281      2.1655      0.1817     29.3610    116.0398     18.5080
  1056.5000      7.9572      2.2643      0.2929     23.3733    120.5874     19.9852
  1056.6000      7.9572      2.3563      0.3525     17.7989    122.1389     21.5537
  1056.7000      7.9572      2.4375      0.3088     12.8795    122.3823     22.8580
  1056.8000      8.0243      2.5051      0.3010      8.7809    128.2755     23.9895
  1056.9000      8.0243      2.5454      0.2539      6.3394    142.7183     24.7701
  1057.0000      8.1574      2.5603      0.1047      5.4333    160.2220     25.3068
  1057.1000      8.1574      2.5653      0.1076      5.1318    166.7522     26.0693
  1057.2000      8.1574      2.5583      0.0847      5.5605    160.7280     27.0604
  1057.3000      8.1839      2.5411     -0.0173      6.5988    154.9023     27.6686
  1057.4000      8.1839      2.5248      0.0368      7.5905    156.4085     27.5291
  1057.5000      8.0834      2.5073      0.0156      8.6514    165.2672     27.1645
  1057.6000      8.0834      2.4971     -0.0309      9.2669    172.0276     27.0746
  1057.7000      8.0834      2.5101      0.0193      8.4806    167.1669     27.2078
  1057.8000      8.0075      2.5334      0.0275      7.0638    156.5204     27.4059
  1057.9000      8.0075      2.5445      0.0543      6.3961    148.6513     27.3690
  1058.0000      8.0168      2.5439      0.0106      6.4284    144.5522     26.8472
  1058.1000      8.0168      2.5448      0.0397      6.3779    146.1284     26.0977
  1058.2000      8.0168      2.5389      0.0565      6.7306    155.0382     25.6221
  1058.3000      8.0049      2.5144     -0.0092      8.2176    166.0359     25.6195
  1058.4000      8.0049      2.4859     -0.0239      9.9434    170.8134     25.8719
  1058.5000      8.0011      2.4714     -0.0113     10.8219    168.0936     26.1858
  1058.6000      8.0011      2.4665     -0.0026     11.1225    162.3666     26.7366
  1058.7000      8.0011      2.4643      0.0009     11.2574    157.7992     27.3859
  1058.8000      7.9926      2.4663     -0.0017     11.1360    154.2973     27.5938
  1058.9000      7.9926      2.4730      0.0013     10.7245    151.2376     27.3986
  1059.0000      7.9791      2.4871      0.0238      9.8699    151.0232     27.3117
  1059.1000      7.9791      2.5137      0.0205      8.2618    153.8786     27.4459
  1059.2000      7.9791      2.5497      0.0622      6.0761    156.0211     27.6620
  1059.3000      7.9766      2.5837      0.0238      4.0169    155.1390     27.9931
  1059.4000      7.9766      2.6065      0.0504      2.6355    152.3381     28.5256
  1059.5000      7.9748      2.6213      0.0086      1.7364    149.2269     29.0606
  1059.6000      7.9748      2.6335      0.0684      0.9987    147.2698     29.1846
  1059.7000      7.9748      2.6323      0.0393      1.0698    146.3126     29.0533
  1059.8000      7.9748      2.6078      0.0398      2.5584    142.7524     28.9305
  1059.9000      7.9748      2.5712     -0.0642      4.7776    132.0415     28.5777
  1060.0000      7.9704      2.5529     -0.0611      5.8845    119.3372     27.8773
  1060.1000      7.9704      2.5693     -0.0580      4.8922    114.2500     27.1382
  1060.2000      7.9704      2.6094      0.0104      2.4605    114.6569     26.6714
  1060.3000      7.9712      2.6528      0.0030     -0.1679    111.1035     26.4549
  1060.4000      7.9712      2.6771      0.0573     -1.6410    104.7121     26.2077
  1060.5000      7.9686      2.6720      0.0239     -1.3331    106.3457     25.8830
  1060.6000      7.9686      2.6534      0.0004     -0.2058    115.3924     25.7226
  1060.7000      7.9686      2.6381     -0.0212      0.7222    118.5614     25.7835
  1060.8000      7.9709      2.6255     -0.0332      1.4856    113.0682     25.9676
  1060.9000      7.9709      2.6134      0.0354      2.2157    110.7017     26.0659
  1061.0000      7.9679      2.6025     -0.0012      2.8786    115.5272     25.9129
  1061.1000      7.9679      2.5890     -0.0152      3.6992    121.6562     25.7150
  1061.2000      7.9679      2.5653      0.0074      5.1332    125.4251     25.6394
  1061.3000      7.9740      2.5421     -0.0999      6.5381    125.1842     25.6621
  1061.4000      7.9740      2.5412      0.0091      6.5909    122.7733     25.6847
  1061.5000      7.9747      2.5531      0.0181      5.8732    124.7668     25.5904
  1061.6000      7.9747      2.5507      0.0905      6.0207    131.9555     25.5415
  1061.7000      7.9747      2.5364      0.0096      6.8877    138.3274     25.6180
  1061.8000      7.9802      2.5363     -0.0055      6.8892    140.1211     25.8017
  1061.9000      7.9802      2.5535      0.0573      5.8502    139.0692     26.1765
  1062.0000      7.9802      2.5642      0.1208      5.2002    138.5449     26.4283
  1062.1000      7.9802      2.5560      0.0619      5.6945    138.7199     26.3077
  1062.2000      7.9802      2.5348      0.0953      6.9798    136.6189     26.0826
  1062.3000      7.9834      2.5096      0.0371      8.5066    132.5950     25.9454
  1062.4000      7.9834      2.4906     -0.0013      9.6616    130.3670     25.9261
  1062.5000      7.9984      2.4783      0.0538     10.4063    129.8776     25.8671
  1062.6000      7.9984      2.4619      0.0178     11.3984    128.8904     25.7245
  1062.7000      7.9984      2.4396     -0.0120     12.7502    127.6672     25.8268
  1062.8000      8.0092      2.4253     -0.0108     13.6154    127.4787     26.2249
  1062.9000      8.0092      2.4315     -0.0202     13.2422    126.8512     26.4408
  1063.0000      8.0004      2.4527      0.0033     11.9550    123.4484     26.1240
  1063.1000      8.0004      2.4847     -0.0193     10.0194    117.6880     25.6094
  1063.2000      8.0004      2.5337      0.0455      7.0491    109.8666     25.3942
  1063.3000      8.0104      2.5880      0.1906      3.7584    102.3354     25.5637
  1063.4000      8.0104      2.6290      0.1222      1.2725     97.9924     25.9099
  1063.5000      8.0028      2.6554      0.1963     -0.3267     96.5773     26.1868
  1063.6000      8.0028      2.6586      0.1444     -0.5223     93.5222     26.0769
  1063.7000      8.0028      2.6356      0.0772      0.8712     87.4629     25.5192
  1063.8000      7.9969      2.6152     -0.0017      2.1071     83.6112     24.8501
  1063.9000      7.9969      2.6192      0.0323      1.8681     82.3064     24.2686
  1064.0000      7.9512      2.6260      0.0342      1.4546     80.4480     23.7296
  1064.1000      7.9512      2.6105      0.0077      2.3940     80.5396     23.0368
  1064.2000      7.9512      2.5668      0.0074      5.0438     86.0710     22.1122
  1064.3000      7.9339      2.4988     -0.0277      9.1610     94.6337     21.1103
  1064.4000      7.9339      2.4362     -0.0974     12.9570     99.6049     20.3398
  1064.5000      7.9449      2.4071     -0.0456     14.7182     98.3520     19.8387
  1064.6000      7.9449      2.3907     -0.0165     15.7166     97.7401     19.3125
  1064.7000      7.9449      2.3520     -0.0035     18.0595    103.0310     18.8995
