~Version Information
VERS.                      2.0: CWLS Log ASCII Standard - VERSION 2.0
WRAP.                       NO: One line per depth step
~Well Information Block
STRT.FT               -16.0000: 
STOP.FT              2454.2500: 
STEP.FT                 0.2500: 
NULL.                -999.2500: 
COMP.                         : COMPANY
WELL.                         : WELL
FLD.                          : FIELD
LOC.                          : LOCATION
CNTY.                         : COUNTY
SRVC.                         : SERVICE COMPANY
DATE.          Tue Aug 31 08:09:44 2004: LOG DATE
UWI.                          : UNIQUE WELL ID
STAT.                         : STATE
~Curve Information Block
DEPT.FT            0 000 00 00: Depth
GR.GAPI                       : Gamma Ray
CCL.                          : Casing Collar Locator
TT3.usec                      : CBL 3' Travel Time
AMP3.mV                       : CBL 3' Amplitude
~Parameter Information Block
~A  Depth        GR         CCL         TT3         AMP3    
# ...
  2262.0000     69.2140      0.0000    657.5193      6.8545
  2262.2500     67.5873      0.0000    600.7749      7.0911
  2262.5000     66.2833      0.0000    563.2486      7.4485
  2262.7500     65.2816      0.0000    553.0167      7.7423
  2263.0000     63.9253      0.0000    564.8796      7.8796
  2263.2500     61.6230      0.0000    585.4612      7.8727
  2263.5000     58.2286      0.0000    596.5724      7.7807
  2263.7500     54.2678      0.0000    586.4906      7.6782
  2264.0000     50.8349      0.0000    560.8450      7.6161
  2264.2500     48.7628      0.0000    535.6125      7.5919
  2264.5000     47.8504      0.0000    520.0104      7.5889
  2264.7500     47.1458      0.0000    512.9912      7.6117
  2265.0000     45.8622      0.0000    512.4728      7.6615
  2265.2500     43.8518      0.0000    521.2057      7.7303
  2265.5000     41.4924      0.0000    544.1412      7.8156
  2265.7500     39.4815      0.0000    582.6420      7.9073
  2266.0000     38.6018      0.0000    633.5966      7.9776
  2266.2500     39.3300      0.0000    690.1287      8.0073
  2266.5000     41.5503      0.0000    739.9038      8.0230
  2266.7500     44.6027      0.0000    770.8306      8.0823
  2267.0000     47.5402      0.0000    778.2047      8.2085
  2267.2500     49.5539      0.0000    759.4720      8.3539
  2267.5000     50.5079      0.0000    711.1610      8.4426
  2267.7500     51.0561      0.0000    639.9451      8.4373
  2268.0000     52.0133      0.0000    566.2910      8.3588
  2268.2500     53.5439      0.0000    510.0160      8.2493
  2268.5000     55.0344      0.0000    478.1422      8.1377
  2268.7500     55.7472      0.0000    465.5893      8.0532
  2269.0000     55.5159      0.0000    462.9227      8.0219
  2269.2500     54.7052      0.0000    463.2570      8.0318
  2269.5000     53.6549      0.0000    463.7605      8.0383
  2269.7500     52.4326      0.0000    464.0077      8.0052
  2270.0000     50.9681      0.0000    464.4303      7.9210
  2270.2500     49.0619      0.0000    465.7821      7.7892
  2270.5000     46.3858      0.0000    470.4998      7.6278
  2270.7500     42.8515      0.0000    486.3848      7.4701
  2271.0000     38.9343      0.0000    527.0748      7.3310
  2271.2500     35.3846      0.0000    598.6011      7.1730
  2271.5000     32.6449      0.0000    682.2676      6.9388
  2271.7500     30.6742      0.0000    746.8475      6.6290
  2272.0000     29.2353      0.0000    779.9159      6.3286
  2272.2500     28.2051      0.0000    791.3646      6.1364
  2272.5000     27.6994      0.0000    793.9051      6.0663
  2272.7500     28.1095      0.0000    793.8318      6.0409
  2273.0000     30.0938      0.0000    793.3437      5.9852
  2273.2500     34.2661      0.0000    793.1611      5.8973
  2273.5000     40.5173      0.0000    793.3649      5.8299
  2273.7500     47.6980      0.0000    793.7939      5.8331
  2274.0000     54.3630      0.0000    794.2674      5.9273
  2274.2500     59.7961      0.0000    794.3748      6.1204
  2274.5000     64.0061      0.0000    792.3279      6.4156
  2274.7500     66.9226      0.0000    782.1124      6.7726
  2275.0000     68.0692      0.0000    752.2203      7.1220
  2275.2500     66.9790      0.0000    697.4884      7.4436
  2275.5000     63.6161      0.0000    639.7526      7.7441
  2275.7500     58.4873      0.0000    617.9207      7.9773
  2276.0000     52.6073      0.0000    641.0322      8.0948
  2276.2500     47.2471      0.0000    668.2326      8.1280
  2276.5000     43.4588      0.0000    652.1932      8.1467
  2276.7500     41.7516      0.0000    594.1675      8.1965
  2277.0000     42.1283      0.0000    538.0988      8.2969
  2277.2500     44.1878      0.0000    515.0096      8.4332
  2277.5000     47.0828      0.0000    514.5506      8.5608
  2277.7500     49.6738      0.0000    510.1040      8.6475
  2278.0000     51.1468      0.0000    493.9004      8.6874
  2278.2500     51.6671      0.0000    479.6835      8.6907
  2278.5000     52.3175      0.0000    483.9134      8.6733
  2278.7500     54.1951      0.0000    516.3384      8.6470
  2279.0000     57.5158      0.0000    574.1318      8.6301
  2279.2500     61.5626      0.0000    632.8907      8.6595
  2279.5000     65.3193      0.0000    657.0988      8.7766
  2279.7500     68.1918      0.0000    629.5828      8.9833
  2280.0000     70.5647      0.0000    568.8904      9.2186
  2280.2500     73.6813      0.0000    513.1523      9.3985
  2280.5000     78.2553      0.0000    482.2295      9.4867
  2280.7500     82.9861      0.0000    467.1064      9.5221
  2281.0000     85.2888      0.0000    456.0125      9.5601
  2281.2500     83.8839      0.0000    450.8941      9.6096
  2281.5000     80.0458      0.0000    461.2272      9.6453
  2281.7500     76.0879      0.0000    493.8374      9.6396
  2282.0000     73.3644      0.0000    540.4780      9.5799
  2282.2500     72.1033      0.0000    571.4114      9.4904
  2282.5000     72.3116      0.0000    559.2953      9.4215
  2282.7500     73.9091      0.0000    513.9821      9.3994
  2283.0000     76.1844      0.0000    472.0524      9.4022
  2283.2500     77.9929      0.0000    451.4922      9.4050
  2283.5000     78.7363      0.0000    442.0583      9.4094
  2283.7500     78.7829      0.0000    433.8519      9.3979
  2284.0000     78.8470      0.0000    430.2207      9.3273
  2284.2500     79.1617      0.0000    436.9301      9.1907
  2284.5000     79.2262      0.0000    456.6904      9.0210
  2284.7500     78.2561      0.0000    497.4875      8.8170
  2285.0000     75.9263      0.0000    569.7507      8.4876
  2285.2500     72.6549      0.0000    661.9319      7.9275
  2285.5000     69.1234      0.0000    740.9484      7.1707
  2285.7500     65.6152      0.0000    788.9134      6.3733
  2286.0000     61.8794      0.0000    814.1862      5.6525
  2286.2500     57.5762      0.0000    830.1941      5.0399
  2286.5000     52.7988      0.0000    843.7034      4.5352
  2286.7500     48.2238      0.0000    855.3002      4.1369
  2287.0000     44.8403      0.0000    861.8900      3.8483
  2287.2500     43.4785      0.0000    860.2615      3.6619
  2287.5000     44.2999      0.0000    849.5385      3.5537
  2287.7500     46.5867      0.0000    833.8986      3.5060
  2288.0000     49.1684      0.0000    823.5966      3.5123
  2288.2500     51.2292      0.0000    826.5709      3.5642
  2288.5000     52.7240      0.0000    837.5265      3.6718
  2288.7500     54.0006      0.0000    842.7473      3.8739
  2289.0000     55.2108      0.0000    835.7418      4.1921
  2289.2500     56.3530      0.0000    821.0419      4.6092
  2289.5000     57.6558      0.0000    806.2740      5.0952
  2289.7500     59.4340      0.0000    796.4460      5.6180
  2290.0000     61.6403      0.0000    792.3779      6.1287
  2290.2500     63.8899      0.0000    791.6813      6.5458
  2290.5000     65.7606      0.0000    790.5443      6.7848
  2290.7500     66.8448      0.0000    783.7496      6.8455
  2291.0000     66.7824      0.0000    766.7530      6.8281
  2291.2500     65.5355      0.0000    744.3295      6.8580
  2291.5000     63.5120      0.0000    732.6454      7.0237
  2291.7500     61.2210      0.0000    741.0971      7.3246
  2292.0000     58.8624      0.0000    760.8448      7.6218
  2292.2500     56.4342      0.0000    780.2145      7.7212
  2292.5000     54.1148      0.0000    795.6113      7.5627
  2292.7500     52.2037      0.0000    800.9594      7.2384
  2293.0000     50.6654      0.0000    777.4230      6.8558
  2293.2500     49.1272      0.0000    711.3663      6.5113
  2293.5000     47.4223      0.0000    625.7584      6.3012
  2293.7500     45.7631      0.0000    566.5398      6.2598
  2294.0000     44.2487      0.0000    556.6353      6.3639
  2294.2500     42.5646      0.0000    587.4518      6.5583
  2294.5000     40.4129      5.0000    637.9661      6.7375
  2294.7500     38.0368      0.0000    684.0334      6.8040
  2295.0000     36.1332      0.0000    711.2759      6.7618
  2295.2500     35.2426      0.0000    726.0926      6.6916
