~Version Information
VERS.                      2.0: CWLS Log ASCII Standard - VERSION 2.0
WRAP.                       NO: One line per depth step
~Well Information Block
STRT.FT               720.0000: 
STOP.FT              2730.2000: 
STEP.FT                 0.1000: 
NULL.                -999.2500: 
COMP.          Evergreen Operating Corporation: COMPANY
WELL.            Rangely 22-28: WELL
FLD.           Purgatoire River: FIELD
LOC.           1741' FNL & 2335' FWL: LOCATION
PROV.                 Colorado: PROVINCE
CNTY.               Las Animas: COUNTRY
SRVC.                Patterson: SERVICE COMPANY
DATE.          Thu Sep 16 15:10:36 2004: LOG DATE
UWI.           05 071 08044 00: UNIQUE WELL ID
~Curve Information Block
DEPT.FT            0 000 00 00: Depth
DCAL.in                       : CDL Caliper
DPOR.pu                       : CDL Density Porosity
NPOR.pu                       : Neutron Porosity
RHOB.g/cc                     : CDL Bulk Density
RHOC.g/cc                     : CDL Density Correction
GR.GAPI                       : Gamma Ray
~Parameter Information Block
~A  Depth       DCAL        DPOR        NPOR        RHOB        RHOC         GR     
# ...
  1286.4000      8.0353     11.5188     21.1104      2.4599     -0.0316     94.8704
  1286.5000      8.0251     11.3555     20.5652      2.4626     -0.0125     93.2208
  1286.6000      8.0251     11.0040     19.9631      2.4684      0.0248     86.3328
  1286.7000      8.0251     10.9751     19.3379      2.4689      0.0021     78.7132
  1286.8000      8.0159     10.8690     18.9939      2.4707     -0.0368     74.2073
  1286.9000      8.0159     10.1261     19.2115      2.4829      0.0240     75.4368
  1287.0000      8.0126      8.6726     19.7304      2.5069      0.0483     80.4896
  1287.1000      8.0126      6.8503     20.4267      2.5370      0.0472     83.5611
  1287.2000      8.0126      5.5782     21.1537      2.5580      0.0664     81.6221
  1287.3000      8.0126      5.4535     21.3654      2.5600      0.0374     77.8937
  1287.4000      8.0126      5.5247     21.1319      2.5588     -0.0091     76.1228
  1287.5000      8.0126      5.2656     21.2610      2.5631      0.0516     75.2414
  1287.6000      8.0126      5.7438     21.9169      2.5552      0.0488     75.0861
  1287.7000      8.0126      7.0790     22.5613      2.5332     -0.0049     78.0845
  1287.8000      8.0119      8.1211     22.8743      2.5160      0.0118     85.9441
  1287.9000      8.0119      7.8931     22.8364      2.5198     -0.0228     95.4844
  1288.0000      8.0110      5.9184     22.5934      2.5523     -0.0096     97.2102
  1288.1000      8.0110      3.1852     22.4378      2.5974      0.0165     88.5674
  1288.2000      8.0110      2.1130     22.5643      2.6151      0.0879     81.1684
  1288.3000      8.0121      3.7862     22.6329      2.5875      0.0354     83.7263
  1288.4000      8.0121      6.5335     22.2027      2.5422      0.0046     90.0038
  1288.5000      8.0147      8.3511     21.6541      2.5122      0.0024     89.3880
  1288.6000      8.0147      8.6969     21.4435      2.5065     -0.0111     80.7047
  1288.7000      8.0147      8.2470     21.4774      2.5139      0.0333     72.6487
  1288.8000      8.0128      8.2612     21.5515      2.5137      0.0461     73.9038
  1288.9000      8.0128      9.1827     21.6992      2.4985      0.0291     81.7703
  1289.0000      8.0097      9.8254     21.9191      2.4879     -0.0217     86.4322
  1289.1000      8.0097      9.1799     21.8426      2.4985      0.0172     87.6842
  1289.2000      8.0097      8.4522     21.2182      2.5105      0.0428     90.6997
  1289.3000      8.0100      8.9413     20.5145      2.5025      0.0158     93.2888
  1289.4000      8.0100      9.5795     20.2113      2.4919     -0.0104     90.7309
  1289.5000      8.0110      9.0916     20.1044      2.5000      0.0567     84.9579
  1289.6000      8.0110      8.2949     19.9536      2.5131      0.0692     81.2674
  1289.7000      8.0110      8.7383     19.9288      2.5058      0.0709     80.2553
  1289.8000      8.0134     10.6264     19.9083      2.4747      0.0420     78.3683
  1289.9000      8.0134     12.1692     19.8257      2.4492     -0.0550     75.6561
  1290.0000      8.0239     12.0964     20.1384      2.4504      0.0284     74.7714
  1290.1000      8.0239     11.4860     20.6646      2.4605      0.0274     75.3759
  1290.2000      8.0239     11.1728     20.7947      2.4656      0.0358     75.2613
  1290.3000      8.0328     10.7318     20.5125      2.4729      0.0097     74.9165
  1290.4000      8.0328     10.0424     20.2487      2.4843      0.0521     77.6218
  1290.5000      8.0237      9.6954     20.3025      2.4900      0.0615     83.4365
  1290.6000      8.0237      9.7514     20.5373      2.4891      0.0238     87.1647
  1290.7000      8.0237      9.8100     20.6427      2.4881      0.0401     85.2916
  1290.8000      8.0128      9.8319     20.5658      2.4878      0.0274     81.1676
  1290.9000      8.0128      9.6863     20.5416      2.4902      0.0045     81.5628
  1291.0000      8.0099      9.0895     20.8050      2.5000      0.0265     85.4165
  1291.1000      8.0099      8.1811     21.2147      2.5150      0.0354     87.9067
  1291.2000      8.0099      7.2932     21.3955      2.5297      0.0365     89.7643
  1291.3000      8.0089      6.7226     21.4986      2.5391      0.0535     92.6969
  1291.4000      8.0089      6.7890     21.7133      2.5380      0.0538     95.2438
  1291.5000      8.0090      7.2855     21.8746      2.5298      0.0240     94.7070
  1291.6000      8.0090      7.5623     22.0689      2.5252      0.0157     89.6988
  1291.7000      8.0090      7.3297     22.3696      2.5291      0.0403     83.8941
  1291.8000      8.0107      6.7314     22.6647      2.5389      0.0053     83.0805
  1291.9000      8.0107      6.1411     23.0110      2.5487      0.0290     87.4852
  1292.0000      8.0130      5.9711     23.5165      2.5515      0.0330     94.1364
  1292.1000      8.0130      6.0131     24.0425      2.5508      0.0371     99.2549
  1292.2000      8.0130      5.8334     24.3020      2.5537      0.0430     99.5656
  1292.3000      8.0142      5.5020     24.2927      2.5592      0.0353     98.0176
  1292.4000      8.0142      5.6436     24.0229      2.5569      0.0734     98.3719
  1292.5000      8.0141      6.3860     23.3669      2.5446      0.0339    100.4364
  1292.6000      8.0141      7.0269     22.6520      2.5341      0.0226    102.7276
  1292.7000      8.0141      7.6956     22.3212      2.5230      0.0260    103.5581
  1292.8000      8.0141      8.8266     22.3802      2.5044      0.0142    102.0410
  1292.9000      8.0141      9.5341     22.5066      2.4927      0.0017     98.1701
  1293.0000      8.0134      9.0445     22.6334      2.5008      0.0349     95.0219
  1293.1000      8.0134      8.0442     22.9422      2.5173      0.0436     95.5321
  1293.2000      8.0134      7.2998     23.1873      2.5296      0.0442     97.0035
  1293.3000      8.0119      6.7550     22.9595      2.5385      0.0139     96.9314
  1293.4000      8.0119      6.4943     22.4410      2.5428      0.0632     97.1703
  1293.5000      8.0105      6.9582     22.0711      2.5352      0.0342     99.3267
  1293.6000      8.0105      7.8869     21.9335      2.5199      0.0394    104.9400
  1293.7000      8.0105      8.7155     21.9337      2.5062      0.0196    112.0441
  1293.8000      8.0092      8.9293     22.0625      2.5027     -0.0073    115.0107
  1293.9000      8.0092      8.3882     22.3544      2.5116      0.0205    112.0324
  1294.0000      8.0086      7.8506     22.7327      2.5205      0.0291    106.1685
  1294.1000      8.0086      7.4754     23.0548      2.5267      0.0186    102.6208
  1294.2000      8.0086      6.6755     23.2711      2.5399      0.0513    104.0810
  1294.3000      8.0089      5.7080     23.2610      2.5558      0.0573    105.8158
  1294.4000      8.0089      4.9494     22.8995      2.5683      0.0388    102.1682
  1294.5000      8.0101      4.4653     22.5271      2.5763      0.0757     96.4155
  1294.6000      8.0101      4.7129     22.5094      2.5722      0.0617     94.4467
  1294.7000      8.0101      5.9431     22.7960      2.5519      0.0754     95.6380
  1294.8000      8.0125      7.7876     23.0973      2.5215      0.0135     97.5135
  1294.9000      8.0125      9.3625     23.1947      2.4955     -0.0186     98.1996
  1295.0000      8.0141      9.9868     23.2557      2.4852     -0.0001     97.2973
  1295.1000      8.0141      9.6230     23.4836      2.4912     -0.0027     98.3034
  1295.2000      8.0141      8.4261     23.6808      2.5110      0.0082    102.9069
  1295.3000      8.0130      6.9049     23.6310      2.5361      0.0395    107.6536
  1295.4000      8.0130      5.7967     23.5352      2.5544      0.0203    107.6360
  1295.5000      8.0109      5.1455     23.5467      2.5651      0.0461    103.1908
  1295.6000      8.0109      4.7056     23.4594      2.5724      0.0442    100.2707
  1295.7000      8.0109      4.3493     23.3770      2.5782      0.0117    104.0737
  1295.8000      8.0105      4.0603     23.5313      2.5830      0.0490    113.1326
  1295.9000      8.0105      3.9735     23.6801      2.5844      0.0422    118.4901
