~Version Information
VERS.                      2.0: CWLS Log ASCII Standard - VERSION 2.0
WRAP.                       NO: One line per depth step
~Well Information Block
STRT.FT               440.0000: 
STOP.FT              2735.2000: 
STEP.FT                 0.1000: 
NULL.                -999.2500: 
COMP.          Pioneer Natural Resources: COMPANY
WELL.              Cluck 21-25: WELL
FLD.           Purgatoire River: FIELD
LOC.           91' FNL & 1834' FWL--: LOCATION
PROV.                 Colorado: PROVINCE
CNTY.               Las Animas: COUNTRY
SRVC.                Patterson: SERVICE COMPANY
DATE.          Tue Jun 07 07:26:19 2005: LOG DATE
UWI.           05 071 08397 00: UNIQUE WELL ID
~Curve Information Block
DEPT.FT            0 000 00 00: Depth
DCAL.in                       : CDL Caliper
RHOB.g/cc                     : CDL Bulk Density
RHOC.g/cc                     : CDL Density Correction
DPOR.pu                       : CDL Density Porosity
NPOR.pu                       : Neutron Porosity
GR.GAPI                       : Gamma Ray
~Parameter Information Block
SNDERRM.mmho-m          0.0000: Medium Sonde Error Correction
~A  Depth       DCAL        RHOB        RHOC        DPOR        NPOR         GR     
# ...
   593.6000      8.0817      2.4102      0.0691     14.5343     15.8245     53.6265
   593.7000      8.0817      2.3831      0.0250     16.1773     15.8522     57.3035
   593.8000      8.0810      2.3668      0.0264     17.1621     16.1275     66.5129
   593.9000      8.0810      2.3710      0.0039     16.9105     16.4550     71.9408
   594.0000      8.0821      2.3895      0.0426     15.7901     16.4910     68.3947
   594.1000      8.0821      2.4084      0.0249     14.6414     16.2732     61.3300
   594.2000      8.0821      2.4168      0.0721     14.1307     15.8784     57.4667
   594.3000      8.0833      2.4102      0.0501     14.5333     15.6385     58.3986
   594.4000      8.0833      2.3974      0.0503     15.3076     15.7244     61.6612
   594.5000      8.0843      2.3933      0.0289     15.5582     15.8090     63.3854
   594.6000      8.0843      2.4026      0.0383     14.9921     15.9352     62.4336
   594.7000      8.0843      2.4170      0.0364     14.1183     16.2157     60.3287
   594.8000      8.0856      2.4239      0.0911     13.7057     16.5338     58.3030
   594.9000      8.0856      2.4174      0.0611     14.0942     16.9779     58.1725
   595.0000      8.0865      2.4064      0.0616     14.7635     17.5540     60.8038
   595.1000      8.0865      2.3992      0.0336     15.1983     18.1156     64.1647
   595.2000      8.0865      2.3992      0.0362     15.2030     18.4206     66.6636
   595.3000      8.0868      2.4129      0.0165     14.3726     18.4671     67.4795
   595.4000      8.0868      2.4362      0.0783     12.9548     18.8066     68.2244
   595.5000      8.0864      2.4532      0.0577     11.9293     19.7580     71.7522
   595.6000      8.0864      2.4686      0.0588     10.9925     20.9612     76.0595
   595.7000      8.0864      2.4966      0.0961      9.2941     22.0852     77.9821
   595.8000      8.0867      2.5299      0.1232      7.2816     23.3926     81.4810
   595.9000      8.0867      2.5556      0.1120      5.7190     25.2555     89.6008
   596.0000      8.0877      2.5742      0.1086      4.5946     27.2448     97.4188
   596.1000      8.0877      2.5899      0.1334      3.6425     28.6312    102.0461
   596.2000      8.0877      2.6020      0.1006      2.9079     29.4236    106.8647
   596.3000      8.0872      2.5998      0.1206      3.0449     29.7016    113.3887
   596.4000      8.0872      2.5734      0.0421      4.6436     29.4530    117.9099
   596.5000      8.0860      2.5401     -0.0028      6.6624     29.0393    119.9935
   596.6000      8.0860      2.5283      0.0109      7.3766     28.7580    122.9546
   596.7000      8.0860      2.5370      0.0671      6.8505     28.6254    124.1484
   596.8000      8.0852      2.5401      0.0362      6.6614     28.2896    121.4154
   596.9000      8.0852      2.5305      0.0242      7.2418     27.6747    119.9635
   597.0000      8.0841      2.5266      0.0032      7.4787     27.1604    121.7935
   597.1000      8.0841      2.5434      0.0546      6.4631     26.7597    125.1688
   597.2000      8.0841      2.5743      0.0629      4.5882     26.4510    128.1124
   597.3000      8.0852      2.5974      0.0890      3.1852     26.0619    127.8746
   597.4000      8.0852      2.6027      0.0444      2.8639     25.1908    123.5890
   597.5000      8.0906      2.5990      0.0804      3.0938     24.2716    118.6240
   597.6000      8.0906      2.5816      0.0892      4.1446     23.7735    116.8846
   597.7000      8.0906      2.5446      0.0465      6.3878     23.5821    118.3621
   597.8000      8.0971      2.5087      0.0043      8.5648     23.5213    121.4335
   597.9000      8.0971      2.4982      0.0118      9.1973     23.4295    124.0246
   598.0000      8.0982      2.5130      0.0216      8.3045     23.1069    123.4151
   598.1000      8.0982      2.5353      0.0533      6.9512     22.5567    119.4172
   598.2000      8.0982      2.5448      0.0528      6.3752     22.1318    114.2160
   598.3000      8.0939      2.5334      0.0313      7.0665     22.1180    111.1067
   598.4000      8.0939      2.5088      0.0233      8.5569     22.4294    111.7567
   598.5000      8.0900      2.4850      0.0109      9.9973     22.6904    112.1510
   598.6000      8.0900      2.4696      0.0195     10.9306     22.8149    108.9864
   598.7000      8.0900      2.4632     -0.0140     11.3206     23.0739    107.3347
   598.8000      8.0881      2.4731      0.0194     10.7191     23.3392    109.8499
   598.9000      8.0881      2.5019      0.0334      8.9767     23.5140    110.1331
   599.0000      8.0864      2.5363      0.0568      6.8883     23.8875    106.6600
   599.1000      8.0864      2.5636      0.0776      5.2340     24.4302    105.7045
   599.2000      8.0864      2.5814      0.0480      4.1572     24.6808    107.7794
   599.3000      8.0857      2.5925      0.0943      3.4821     24.3906    107.7792
   599.4000      8.0857      2.5952      0.1110      3.3221     23.6938    105.3723
   599.5000      8.0862      2.5881      0.0776      3.7542     23.0404    103.1637
   599.6000      8.0862      2.5808      0.0084      4.1967     23.1775    101.6540
   599.7000      8.0862      2.5784      0.0596      4.3401     24.1152    102.3289
   599.8000      8.0859      2.5678      0.0424      4.9801     24.4954    107.3969
   599.9000      8.0859      2.5474      0.0061      6.2177     23.5925    114.8771
   600.0000      8.0850      2.5378      0.0173      6.7989     22.6589    120.2647
   600.1000      8.0850      2.5471      0.0503      6.2392     22.7125    121.4395
   600.2000      8.0850      2.5624      0.0923      5.3113     23.2581    119.1192
   600.3000      8.0844      2.5747      0.0625      4.5637     23.5985    114.3024
   600.4000      8.0844      2.5799      0.0612      4.2489     23.5179    106.8909
   600.5000      8.0831      2.5775      0.0159      4.3956     22.9562     99.5974
   600.6000      8.0831      2.5722      0.0684      4.7163     22.2265     97.7711
   600.7000      8.0831      2.5572      0.0927      5.6223     21.7963    100.9194
   600.8000      8.0812      2.5363      0.0302      6.8914     21.7375    102.8848
   600.9000      8.0812      2.5271      0.0647      7.4469     21.9276     99.8837
   601.0000      8.0825      2.5282      0.0497      7.3801     22.2281     94.7335
   601.1000      8.0825      2.5309      0.0782      7.2197     22.5555     91.7528
   601.2000      8.0825      2.5307      0.0760      7.2278     22.7968     89.7656
   601.3000      8.0857      2.5292      0.0420      7.3190     22.5797     86.6817
   601.4000      8.0857      2.5306      0.0601      7.2383     21.8021     81.4528
   601.5000      8.0887      2.5309      0.0471      7.2200     21.0013     74.4137
   601.6000      8.0887      2.5324      0.0188      7.1265     20.5705     71.1346
   601.7000      8.0887      2.5409      0.0536      6.6150     20.6127     75.0836
   601.8000      8.0941      2.5499      0.0381      6.0656     21.0819     81.9940
   601.9000      8.0941      2.5531      0.0461      5.8736     21.5305     88.5466
   602.0000      8.1037      2.5495      0.0480      6.0907     21.8515     93.7296
   602.1000      8.1037      2.5454      0.0325      6.3402     22.3816     95.5535
   602.2000      8.1037      2.5575      0.0280      5.6090     22.8164     95.3219
   602.3000      8.1164      2.5809      0.0629      4.1890     22.6742     94.9060
   602.4000      8.1164      2.5864      0.0451      3.8530     22.2116     93.1881
   602.5000      8.1306      2.5689      0.0253      4.9132     21.9509     91.2560
   602.6000      8.1306      2.5474      0.0084      6.2196     21.8954     91.5209
   602.7000      8.1306      2.5352      0.0183      6.9566     21.8817     93.0950
   602.8000      8.1384      2.5413     -0.0058      6.5871     22.0286     94.3099
   602.9000      8.1384      2.5615      0.0596      5.3645     22.1556     94.8343
   603.0000      8.1365      2.5700      0.0398      4.8479     21.9618     94.0137
   603.1000      8.1365      2.5541      0.0379      5.8151     21.6950     90.7820
