~Version Information
 VERS.                                  2.0 : CWLS LAS VERSION
 WRAP.                                   NO : WRAPING MODE
 SWARE .                 MController 2.5.0J : SOFTWARE VERSION
~Well Information
 WELL.                          Silva 6-22V : WELL
 COMP.                       Petrogulf Corp : COMPANY
 FLD.                      Purgatoire River : FIELD
 LOC.                 SE/NW Sec 6 T33S R67W : LOCATION
 DATE.                            11/7-9/04 : DATE(S) LOGGED
 SRVC.       Blanco Geological Services LLC : SERVICE COMPANY
 STAT.                                   CO : STATE
 CNTY.                           Las Animas : COUNTY
 CTRY.                                  USA : COUNTRY
 API.                       05-071-08143-00 : API NUMBER
 STRT.FT                              35.00 : START DEPTH
 STOP.FT                            2732.00 : STOP DEPTH
 STEP.FT                               1.00 : DEPTH INCREMENT
 NULL.                                -9999 : NULL VALUE
~Curve information
 DEPTH.FT                                   :
 ROP.MIN/FT                                 :
 GAS.UNITS                                  :
~ASCII Log data
# ...
      1235.0         0.10         14.0 
      1236.0         0.23         14.3 
      1237.0         0.30         13.9 
      1238.0         0.30         13.9 
      1239.0         0.23         12.7 
      1240.0         0.23         12.7 
      1241.0         0.27         12.8 
      1242.0         0.20         13.6 
      1243.0         0.30         13.6 
      1244.0         0.25         13.4 
      1245.0         0.23         13.0 
      1246.0         0.23         67.7 
      1247.0         0.23         67.7 
      1248.0         0.20         67.7 
      1249.0         0.30         83.4 
      1250.0         0.23         78.4 
      1251.0         0.27         58.0 
      1252.0         0.30         55.6 
      1253.0         0.27         35.9 
      1254.0         0.27         23.4 
      1255.0         0.27         18.8 
      1256.0         0.13         15.1 
      1257.0         0.37         15.2 
      1258.0         0.37         14.5 
      1259.0         0.27         14.5 
      1260.0         0.13         14.2 
      1261.0         0.33         13.8 
      1262.0         0.35         13.9 
      1263.0         0.30         14.3 
      1264.0         0.23         14.3 
      1265.0         0.20         13.6 
      1266.0         0.33         14.0 
      1267.0         0.27         13.3 
      1268.0         0.30         12.9 
      1269.0         0.30         13.8 
      1270.0         0.27         14.1 
      1271.0         0.27         13.9 
      1272.0         0.27         13.3 
      1273.0         0.23         12.8 
      1274.0         0.28         12.6 
      1275.0         0.23         14.1 
      1276.0         0.20         13.8 
      1277.0         0.20         18.1 
      1278.0         0.27         30.3 
      1279.0         0.20         30.3 
      1280.0         0.23         47.7 
      1281.0         0.27         58.9 
      1282.0         0.23         58.5 
      1283.0         0.23         44.9 
      1284.0         0.20         40.1 
      1285.0         0.27         32.7 
      1286.0         0.27         23.9 
      1287.0         0.27         17.7 
      1288.0         0.20         14.6 
      1289.0         0.27         14.6 
      1290.0         0.33         13.6 
      1291.0         0.33         13.8 
      1292.0         0.30         14.2 
      1293.0         0.37         13.9 
      1294.0         0.25         13.0 
      1295.0         0.23         13.1 
      1296.0         0.27         13.2 
      1297.0         0.20         13.3 
      1298.0         0.27         13.8 
      1299.0         0.30         13.7 
      1300.0         0.27         13.5 
      1301.0         0.30         13.5 
      1302.0         0.27         13.6 
      1303.0         0.33         13.7 
      1304.0         0.20         13.1 
      1305.0         0.23         68.2 
      1306.0         0.23         61.0 
      1307.0         0.25         59.3 
      1308.0         0.27         43.2 
      1309.0         0.23         28.4 
      1310.0         0.20         23.2 
      1311.0         0.27         18.0 
      1312.0         0.23         17.2 
      1313.0         0.20         15.9 
      1314.0         0.17         15.3 
      1315.0         0.23         15.1 
      1316.0         0.40         14.4 
      1317.0         0.33         13.7 
      1318.0         0.38         14.0 
      1319.0         0.33         14.8 
      1320.0         0.47         13.5 
      1321.0         0.37         14.6 
      1322.0         0.33         14.4 
      1323.0         0.30         14.4 
      1324.0         0.30         14.5 
      1325.0         0.33         13.8 
      1326.0         0.30         13.5 
      1327.0         0.27         14.1 
      1328.0         0.23         14.5 
      1329.0         0.28         14.0 
      1330.0         0.27         14.5 
      1331.0         0.30         13.7 
      1332.0         0.27         14.4 
      1333.0         0.37         14.4 
      1334.0         0.27         14.5 
      1335.0         0.23         14.5 
      1336.0         0.30         15.0 
      1337.0         0.23         14.8 
      1338.0         0.27         15.6 
      1339.0         0.23         15.6 
      1340.0         0.27         15.9 
      1341.0         0.32         15.9 
      1342.0         0.30         14.9 
      1343.0         0.27         15.1 
      1344.0         0.27         15.1 
      1345.0         0.27         15.5 
      1346.0         0.27         16.1 
      1347.0         0.23         15.7 
      1348.0         0.27         14.9 
      1349.0         0.33         15.7 
      1350.0         0.37         14.8 
      1351.0         0.37         14.7 
      1352.0         0.33         14.6 
      1353.0         0.30         14.7 
      1354.0         0.33         14.4 
      1355.0         0.35         14.5 
      1356.0         0.30         14.7 
      1357.0         0.30         14.8 
      1358.0         0.30         14.7 
      1359.0         0.30         14.7 
      1360.0         0.30         15.1 
      1361.0         0.27         15.1 
      1362.0         0.27         14.7 
      1363.0         0.20         15.0 
      1364.0         0.20         16.0 
      1365.0         0.30         18.6 
      1366.0         0.33         21.1 
      1367.0         0.32         22.2 
      1368.0         0.43         24.0 
      1369.0         0.40         28.0 
      1370.0         0.40         30.5 
      1371.0         0.37         32.2 
      1372.0         0.27         31.0 
      1373.0         0.27         27.5 
      1374.0         0.23         22.8 
      1375.0         0.23         23.2 
      1376.0         0.27         22.6 
      1377.0         1.12         24.1 
      1378.0         0.83         22.0 
      1379.0         0.53         21.5 
      1380.0         0.50         21.3 
      1381.0         0.47         21.8 
      1382.0         0.43         22.5 
      1383.0         0.38         22.4 
      1384.0         0.23         21.1 
      1385.0         0.27         21.9 
      1386.0         0.23         21.1 
      1387.0         0.33         21.7 
      1388.0         0.27         22.6 
      1389.0         0.33         22.6 
      1390.0         0.37         21.7 
      1391.0         0.33         22.0 
      1392.0         0.13         22.0 
      1393.0         0.13         22.7 
      1394.0         0.13         22.4 
      1395.0         0.33         23.6 
      1396.0         0.35         22.6 
      1397.0         0.20         22.7 
      1398.0         0.13         18.3 
      1399.0         0.17         19.3 
      1400.0         0.30         19.9 
      1401.0         0.40         23.7 
      1402.0         0.40         25.3 
      1403.0         0.37         30.2 
      1404.0         0.33         32.1 
      1405.0         0.27         29.6 
      1406.0         0.47         28.1 
      1407.0         0.80         24.3 
      1408.0         0.97         25.8 
      1409.0         0.85         25.6 
      1410.0         0.67         23.2 
      1411.0         1.30         22.3 
      1412.0         0.88         22.1 
      1413.0         0.50         21.6 
      1414.0         0.43         21.0 
      1415.0         0.40         20.7 
      1416.0         0.23         21.7 
      1417.0         0.27         21.2 
      1418.0         0.23         21.2 
      1419.0         0.33         21.2 
      1420.0         0.30         21.7 
      1421.0         0.33         20.7 
      1422.0         0.38         21.4 
      1423.0         0.37         21.8 
      1424.0         0.30         21.7 
      1425.0         0.30         21.4 
      1426.0         0.27         22.4 
      1427.0         0.27         23.3 
      1428.0         0.33         24.2 
      1429.0         0.47         25.2 
      1430.0         0.37         42.0 
      1431.0         0.38         26.5 
      1432.0         0.43         23.4 
      1433.0         0.50         26.4 
      1434.0         0.40         28.2 
