~Version Information
VERS.                      2.0: CWLS Log ASCII Standard - VERSION 2.0
WRAP.                       NO: One line per depth step
~Well Information Block
STRT.FT               768.0000: 
STOP.FT              2635.5000: 
STEP.FT                 0.1000: 
NULL.                -999.2500: 
COMP.          Pioneer Natural Resources: COMPANY
WELL.               Zink 44-10: WELL
FLD.           Purgatoire River: FIELD
LOC.           548' FSL & 473' FEL: LOCATION
PROV.                 Colorado: PROVINCE
CNTY.               Las Animas: COUNTRY
SRVC.                Patterson: SERVICE COMPANY
DATE.          Tue May 31 07:05:25 2005: LOG DATE
UWI.           05 071 08380 00: UNIQUE WELL ID
~Curve Information Block
DEPT.FT            0 000 00 00: Depth
DCAL.in                       : CDL Caliper
RHOB.g/cc                     : CDL Bulk Density
RHOC.g/cc                     : CDL Density Correction
DPOR.pu                       : CDL Density Porosity
GR.GAPI                       : Gamma Ray
NPOR.pu                       : Neutron Porosity
~Parameter Information Block
~A  Depth       DCAL        RHOB        RHOC        DPOR         GR         NPOR    
# ...
  1382.4000      8.0536      2.5909      0.0813      3.5833    105.7932     27.4312
  1382.5000      8.0382      2.5972      0.0879      3.1992    101.3392     26.6807
  1382.6000      8.0382      2.5840      0.0575      3.9989    101.2614     25.7056
  1382.7000      8.0382      2.5612      0.0239      5.3807    105.8805     25.1631
  1382.8000      8.0450      2.5496      0.0277      6.0869    112.1139     25.0152
  1382.9000      8.0450      2.5533      0.0562      5.8579    118.4046     25.2494
  1383.0000      8.0464      2.5585      0.0751      5.5478    121.9601     25.3384
  1383.1000      8.0464      2.5585      0.0707      5.5430    120.2557     25.0607
  1383.2000      8.0464      2.5581      0.0277      5.5668    116.3665     25.1730
  1383.3000      8.0194      2.5609      0.0671      5.4011    115.0923     25.6667
  1383.4000      8.0194      2.5689      0.0438      4.9166    115.0658     25.9980
  1383.5000      8.0099      2.5862      0.0536      3.8690    111.5882     26.2664
  1383.6000      8.0099      2.6062      0.0661      2.6522    106.7237     26.9974
  1383.7000      8.0099      2.6149      0.0828      2.1276    104.8935     28.2953
  1383.8000      8.0614      2.6141      0.0547      2.1747    103.0702     29.0003
  1383.9000      8.0614      2.6205      0.0469      1.7902     99.2685     28.0492
  1384.0000      8.0722      2.6400      0.0598      0.6047     96.5459     26.2713
  1384.1000      8.0722      2.6538      0.0875     -0.2290     95.9297     25.1064
  1384.2000      8.0722      2.6414      0.0793      0.5202     95.4653     25.2330
  1384.3000      8.0851      2.6168      0.0287      2.0136     91.7723     26.4548
  1384.4000      8.0851      2.6057      0.0025      2.6848     86.5197     27.4262
  1384.5000      8.0819      2.6120      0.0189      2.3024     86.1002     27.3298
  1384.6000      8.0819      2.6269      0.0605      1.3979     89.9699     27.1892
  1384.7000      8.0819      2.6399      0.0653      0.6128     90.5087     27.4057
  1384.8000      8.0692      2.6397      0.0676      0.6271     86.7410     27.5284
  1384.9000      8.0692      2.6277      0.0936      1.3493     86.8432     27.7241
  1385.0000      8.0398      2.6145      0.0949      2.1510     93.9402     27.8231
  1385.1000      8.0398      2.6015      0.1274      2.9421    102.6067     27.2316
  1385.2000      8.0398      2.5910      0.1339      3.5749    109.1066     26.1821
  1385.3000      7.9803      2.5945      0.1041      3.3665    115.9678     25.4529
  1385.4000      7.9803      2.6139      0.1602      2.1903    124.7735     25.6199
  1385.5000      7.9675      2.6323      0.1643      1.0707    129.9349     26.7596
  1385.6000      7.9675      2.6338      0.1197      0.9792    127.3062     28.2375
  1385.7000      7.9675      2.6220      0.0870      1.6942    124.0225     28.9308
  1385.8000      8.0330      2.6062      0.0749      2.6571    125.3606     28.6551
  1385.9000      8.0330      2.5862      0.0788      3.8655    126.1048     28.2763
  1386.0000      8.0666      2.5684      0.0249      4.9439    123.5360     28.4062
  1386.1000      8.0666      2.5649      0.0374      5.1547    118.8553     28.8638
  1386.2000      8.0666      2.5728      0.0382      4.6773    115.3201     28.8511
  1386.3000      8.1059      2.5784      0.1043      4.3382    116.5237     28.5655
  1386.4000      8.1059      2.5804      0.0326      4.2177    122.1448     29.0431
  1386.5000      8.1057      2.5861      0.0228      3.8747    127.1205     30.0792
  1386.6000      8.1057      2.5951      0.0650      3.3254    124.9695     30.3709
  1386.7000      8.1057      2.6151      0.0315      2.1159    119.0328     29.5100
  1386.8000      8.1131      2.6475      0.1339      0.1508    118.4717     28.1268
  1386.9000      8.1131      2.6626      0.1317     -0.7619    123.4574     26.6505
  1387.0000      8.1069      2.6404      0.1058      0.5829    128.2091     25.5524
  1387.1000      8.1069      2.6017      0.0488      2.9245    128.7271     25.1165
  1387.2000      8.1069      2.5763      0.0400      4.4650    126.8082     24.7958
  1387.3000      8.1098      2.5653      0.0643      5.1354    124.2759     24.5565
  1387.4000      8.1098      2.5590      0.0451      5.5141    119.3801     25.3283
  1387.5000      8.1068      2.5687      0.0489      4.9258    113.3907     26.9105
  1387.6000      8.1068      2.6072      0.0474      2.5923    110.7647     28.0054
  1387.7000      8.1068      2.6663      0.0917     -0.9909    112.9164     28.2887
  1387.8000      8.0688      2.7289      0.1328     -4.7836    117.2150     27.9744
  1387.9000      8.0688      2.7874      0.1766     -8.3255    121.3276     27.1395
  1388.0000      8.0475      2.8331      0.1698    -11.0961    122.0435     26.4498
  1388.1000      8.0475      2.8502      0.1827    -12.1361    117.3738     26.7349
  1388.2000      8.0475      2.8296      0.1733    -10.8846    112.0096     28.0079
  1388.3000      8.0389      2.7791      0.1277     -7.8266    111.8741     29.3713
  1388.4000      8.0389      2.7249      0.1008     -4.5389    117.2194     29.8373
  1388.5000      8.0378      2.6889      0.0366     -2.3595    121.7130     29.3017
  1388.6000      8.0378      2.6670      0.0649     -1.0282    120.1556     28.7751
  1388.7000      8.0378      2.6403      0.0660      0.5881    115.5696     29.1300
  1388.8000      8.0382      2.6119      0.0638      2.3102    113.8339     29.8236
  1388.9000      8.0382      2.6057      0.0492      2.6821    116.9047     30.2053
  1389.0000      8.0788      2.6263      0.1151      1.4372    121.7301     30.6280
  1389.1000      8.0788      2.6485      0.1048      0.0905    125.6063     30.9874
  1389.2000      8.0788      2.6457      0.1591      0.2624    128.9318     30.5607
  1389.3000      8.0838      2.6092      0.1336      2.4732    132.3655     29.3915
  1389.4000      8.0838      2.5572      0.1051      5.6215    133.9000     28.4546
  1389.5000      8.0530      2.5251      0.0234      7.5712    133.1704     28.4285
  1389.6000      8.0530      2.5351      0.0556      6.9639    134.8476     29.0592
  1389.7000      8.0530      2.5716      0.0696      4.7489    140.7944     29.6455
  1389.8000      8.0554      2.5991      0.1348      3.0828    144.9554     29.9911
  1389.9000      8.0554      2.5943      0.1296      3.3736    140.9566     30.2234
  1390.0000      8.1026      2.5670      0.0523      5.0296    131.3420     30.1430
  1390.1000      8.1026      2.5498      0.1048      6.0701    124.0356     29.5846
  1390.2000      8.1026      2.5532      0.0835      5.8693    122.9990     28.9206
  1390.3000      8.1161      2.5560      0.1322      5.6945    125.2928     28.8637
  1390.4000      8.1161      2.5405      0.0960      6.6340    126.9428     29.3993
  1390.5000      8.1101      2.5173      0.0603      8.0416    126.4464     29.6846
  1390.6000      8.1101      2.5090      0.0832      8.5435    123.9431     29.6359
  1390.7000      8.1101      2.5192      0.1106      7.9290    121.6189     29.1561
  1390.8000      8.1267      2.5412      0.1021      6.5922    121.0726     27.8358
  1390.9000      8.1267      2.5732      0.1349      4.6542    124.0078     26.4375
  1391.0000      8.1637      2.6074      0.1388      2.5811    130.1691     25.8997
  1391.1000      8.1637      2.6310      0.1489      1.1504    134.4956     26.2394
  1391.2000      8.1637      2.6336      0.1405      0.9946    133.3527     26.9213
  1391.3000      8.1838      2.6206      0.0492      1.7839    127.1740     27.5648
  1391.4000      8.1838      2.6129      0.0979      2.2465    120.0596     28.2450
  1391.5000      8.2758      2.6129      0.1424      2.2496    117.3563     28.7569
  1391.6000      8.2758      2.6084      0.0732      2.5196    119.3437     28.6554
  1391.7000      8.2758      2.5990      0.0699      3.0918    122.0312     28.2519
  1391.8000      8.2995      2.5911      0.0235      3.5680    125.3843     28.3857
  1391.9000      8.2995      2.5869      0.0594      3.8227    130.5593     29.2742
