~Version Information
VERS.                      2.0: CWLS Log ASCII Standard - VERSION 2.0
WRAP.                       NO: One line per depth step
~Well Information Block
STRT.FT               250.0000: 
STOP.FT              2600.7000: 
STEP.FT                 0.1000: 
NULL.                -999.2500: 
COMP.          Pioneer Natural Resources: COMPANY
WELL.              Quack 22-24: WELL
FLD.           Purgatoire River: FIELD
LOC.           2492' FNL & 2459' FWL--: LOCATION
PROV.                 Colorado: PROVINCE
CNTY.               Las Animas: COUNTRY
SRVC.                Patterson: SERVICE COMPANY
DATE.          Mon Jun 13 08:03:15 2005: LOG DATE
UWI.            05 071 0840200: UNIQUE WELL ID
~Curve Information Block
DEPT.FT            0 000 00 00: Depth
DCAL.in                       : CDL Caliper
RHOB.g/cc                     : CDL Bulk Density
RHOC.g/cc                     : CDL Density Correction
DPOR.pu                       : CDL Density Porosity
NPOR.pu                       : Neutron Porosity
GR.GAPI                       : Gamma Ray
~Parameter Information Block
~A  Depth       DCAL        RHOB        RHOC        DPOR        NPOR         GR     
# ...
   403.6000      8.3105      2.3628      0.0178     17.4061     11.6772     57.0285
   403.7000      8.3105      2.3791      0.0191     16.4169     12.0696     57.7445
   403.8000      8.3129      2.3920      0.0597     15.6352     12.4127     55.4277
   403.9000      8.3129      2.3855      0.0631     16.0279     12.6544     51.4879
   404.0000      8.3149      2.3630      0.0159     17.3943     12.9700     49.9546
   404.1000      8.3149      2.3464      0.0125     18.3991     13.1815     53.2640
   404.2000      8.3149      2.3442      0.0474     18.5357     13.3034     56.1444
   404.3000      8.3170      2.3441      0.0446     18.5397     13.1750     53.8632
   404.4000      8.3170      2.3404      0.0279     18.7625     12.4655     49.4253
   404.5000      8.3164      2.3376      0.0173     18.9358     11.6504     46.7958
   404.6000      8.3164      2.3348      0.0295     19.1050     11.2909     47.7007
   404.7000      8.3164      2.3273      0.0262     19.5572     11.3850     52.2267
   404.8000      8.3140      2.3174     -0.0009     20.1584     11.6443     57.0294
   404.9000      8.3140      2.3152      0.0234     20.2901     11.7736     57.3368
   405.0000      8.3145      2.3270      0.0170     19.5765     11.7250     52.9557
   405.1000      8.3145      2.3468      0.0459     18.3739     11.4988     48.9644
   405.2000      8.3145      2.3606      0.0723     17.5383     11.1924     49.4422
   405.3000      8.3175      2.3628      0.0462     17.4063     11.1700     52.3752
   405.4000      8.3175      2.3650      0.0327     17.2712     11.3645     54.0117
   405.5000      8.3193      2.3760      0.0602     16.6053     11.2937     53.7004
   405.6000      8.3193      2.3842      0.0590     16.1063     11.0849     52.3915
   405.7000      8.3193      2.3766      0.0587     16.5724     11.1215     52.0312
   405.8000      8.3175      2.3551      0.0436     17.8729     11.2286     53.5649
   405.9000      8.3175      2.3308      0.0203     19.3446     11.1925     55.7206
   406.0000      8.3153      2.3169      0.0071     20.1906     11.1718     56.4013
   406.1000      8.3153      2.3189      0.0239     20.0689     11.3417     54.7993
   406.2000      8.3153      2.3300      0.0441     19.3914     11.6745     51.8203
   406.3000      8.3157      2.3407      0.0369     18.7458     11.9731     48.7874
   406.4000      8.3157      2.3469      0.0171     18.3699     12.2051     47.4618
   406.5000      8.3163      2.3451      0.0861     18.4816     12.4416     49.1326
   406.6000      8.3163      2.3341      0.0361     19.1442     12.4805     52.2830
   406.7000      8.3163      2.3251      0.0328     19.6916     12.1998     54.0855
   406.8000      8.3170      2.3217      0.0434     19.8970     11.9565     54.8823
   406.9000      8.3170      2.3180      0.0101     20.1238     12.0710     56.5965
   407.0000      8.3179      2.3143      0.0689     20.3426     12.1762     57.0467
   407.1000      8.3179      2.3149      0.0307     20.3078     11.8497     53.7656
   407.2000      8.3179      2.3220      0.0584     19.8796     11.5174     50.1277
   407.3000      8.3180      2.3309      0.0323     19.3367     11.5707     49.1260
   407.4000      8.3180      2.3404      0.0036     18.7655     11.7056     49.4033
   407.5000      8.3166      2.3529      0.0771     18.0051     11.7105     50.7733
   407.6000      8.3166      2.3693      0.0594     17.0126     11.6630     54.3326
   407.7000      8.3166      2.3878      0.1163     15.8882     11.6233     58.8210
   407.8000      8.3154      2.3969      0.1246     15.3411     11.6983     60.7705
   407.9000      8.3154      2.3927      0.0748     15.5916     11.9604     58.6203
   408.0000      8.3154      2.3888      0.0753     15.8332     12.4669     56.6498
   408.1000      8.3154      2.3879      0.1220     15.8864     13.0761     57.5406
   408.2000      8.3154      2.3814      0.0811     16.2775     13.3220     58.3943
   408.3000      8.3160      2.3710      0.0489     16.9063     13.2866     57.9781
   408.4000      8.3160      2.3631      0.0517     17.3855     13.6012     56.5808
   408.5000      8.3167      2.3635      0.0374     17.3655     14.2496     54.6868
   408.6000      8.3167      2.3697      0.1052     16.9900     14.6187     53.7144
   408.7000      8.3167      2.3698      0.0812     16.9797     14.4900     54.3820
   408.8000      8.3171      2.3615      0.0664     17.4830     14.1876     58.5133
   408.9000      8.3171      2.3529      0.0105     18.0035     13.8792     63.0224
   409.0000      8.3161      2.3482      0.0446     18.2905     13.5390     61.7174
   409.1000      8.3161      2.3441      0.0481     18.5367     13.2169     57.7256
   409.2000      8.3161      2.3436      0.0335     18.5675     12.9252     56.7819
   409.3000      8.3146      2.3543      0.0592     17.9208     12.8446     56.8721
   409.4000      8.3146      2.3718      0.0869     16.8602     12.9990     55.6995
   409.5000      8.3136      2.3805      0.0924     16.3358     12.9636     55.7171
   409.6000      8.3136      2.3763      0.0575     16.5875     12.6968     58.1025
   409.7000      8.3136      2.3706      0.0555     16.9351     12.5052     58.8613
   409.8000      8.3135      2.3697      0.0568     16.9851     12.4724     55.5494
   409.9000      8.3135      2.3720      0.1174     16.8471     12.4407     50.8133
   410.0000      8.3160      2.3726      0.0863     16.8141     12.2575     45.8950
   410.1000      8.3160      2.3713      0.0764     16.8885     12.0103     42.2433
   410.2000      8.3160      2.3705      0.0657     16.9376     11.8626     42.5984
   410.3000      8.3177      2.3667      0.0806     17.1679     11.9624     45.2851
   410.4000      8.3177      2.3552      0.0639     17.8655     12.2156     47.2405
   410.5000      8.3166      2.3452      0.0007     18.4735     12.3116     49.4980
   410.6000      8.3166      2.3502      0.0509     18.1687     12.1437     53.6737
   410.7000      8.3166      2.3632      0.0601     17.3836     11.9090     57.9120
   410.8000      8.3146      2.3696      0.0827     16.9934     11.8313     58.7594
   410.9000      8.3146      2.3695      0.0393     16.9988     11.9266     56.5492
   411.0000      8.3151      2.3675      0.0915     17.1218     12.0689     53.9806
   411.1000      8.3151      2.3608      0.0564     17.5245     12.1749     52.5160
   411.2000      8.3151      2.3497      0.0523     18.1990     12.1334     53.7995
   411.3000      8.3176      2.3398      0.0359     18.8028     11.8613     56.9646
   411.4000      8.3176      2.3352      0.0162     19.0816     11.5235     58.4150
   411.5000      8.3190      2.3352      0.0285     19.0769     11.3971     57.3114
   411.6000      8.3190      2.3406      0.0302     18.7531     11.6636     55.6825
   411.7000      8.3190      2.3559      0.0208     17.8227     12.2295     55.9256
   411.8000      8.3177      2.3728      0.0866     16.8011     12.8137     58.0906
   411.9000      8.3177      2.3777      0.0372     16.5008     13.0788     58.6705
   412.0000      8.3147      2.3736      0.0869     16.7545     12.8836     55.6701
   412.1000      8.3147      2.3609      0.0991     17.5234     12.5335     52.2323
   412.2000      8.3147      2.3410      0.0373     18.7271     12.5199     50.6654
   412.3000      8.3135      2.3301      0.0022     19.3879     12.9384     49.7454
   412.4000      8.3135      2.3327      0.0528     19.2279     13.3284     49.1074
   412.5000      8.3146      2.3330      0.0515     19.2121     13.3200     48.5931
   412.6000      8.3146      2.3261      0.0151     19.6323     13.0394     47.8029
   412.7000      8.3146      2.3229      0.0479     19.8238     12.8915     48.2348
   412.8000      8.3166      2.3325      0.0255     19.2446     13.1677     50.1431
   412.9000      8.3166      2.3539      0.0649     17.9467     13.8611     50.8160
   413.0000      8.3191      2.3696      0.0977     16.9936     14.6499     49.1144
   413.1000      8.3191      2.3634      0.0611     17.3705     15.0867     48.5919
