~Version Information
 VERS.                                  2.0 : CWLS LAS VERSION
 WRAP.                                   NO : WRAPING MODE
 SWARE .                 MController 2.5.0N : SOFTWARE VERSION
~Well Information
 WELL.                          Border 21-3 : WELL
 COMP.              Pioneer Natural Resouce : COMPANY
 FLD.                 NE/NW Sec 3 T35S R65W : FIELD
 LOC.                      Purgatiore River : LOCATION
 DATE.                             12/09/04 : DATE(S) LOGGED
 SRVC.       Blanco Geological Services LLC : SERVICE COMPANY
 STAT.                                   CO : STATE
 CNTY.                           Las Animas : COUNTY
 CTRY.                                  USA : COUNTRY
 API.                          05-071-08169 : API NUMBER
 STRT.FT                             250.00 : START DEPTH
 STOP.FT                            1525.00 : STOP DEPTH
 STEP.FT                               1.00 : DEPTH INCREMENT
 NULL.                                -9999 : NULL VALUE
~Curve information
 DEPTH.FT                                   :
 ROP.MIN/FT                                 :
 GAS.UNITS                                  :
~ASCII Log data
# ...
       850.0         0.20         26.4 
       851.0         0.20         25.7 
       852.0         0.22         24.4 
       853.0         0.20         20.5 
       854.0         0.23         17.4 
       855.0         0.17         17.4 
       856.0         0.20         23.4 
       857.0         0.23         44.3 
       858.0         0.17         76.0 
       859.0         0.17         76.0 
       860.0         0.20        110.3 
       861.0         0.13        154.9 
       862.0         0.17        154.9 
       863.0         0.17        162.9 
       864.0         0.27        131.9 
       865.0         0.27         93.3 
       866.0         2.15         66.8 
       867.0         0.37         23.2 
       868.0         0.23         20.5 
       869.0         0.23         19.5 
       870.0         0.13         19.3 
       871.0         0.20         18.9 
       872.0         0.20         18.1 
       873.0         0.17         18.5 
       874.0         0.23         16.1 
       875.0         0.22         16.6 
       876.0         0.17         16.6 
       877.0         0.13         17.9 
       878.0         0.17         21.1 
       879.0         0.20         21.1 
       880.0         0.13         16.4 
       881.0         0.17         16.4 
       882.0         0.13         13.9 
       883.0         0.17         12.8 
       884.0         0.13         17.9 
       885.0         0.13         29.7 
       886.0         0.17         39.2 
       887.0         0.13         71.8 
       888.0         0.20         76.2 
       889.0         0.17        102.5 
       890.0         0.17        155.2 
       891.0         0.17        155.2 
       892.0         0.17        158.9 
       893.0         0.17        131.4 
       894.0         0.23         96.8 
       895.0         0.28         68.1 
       896.0         1.33         50.9 
       897.0         0.53         25.4 
       898.0         0.30         21.2 
       899.0         0.27         20.5 
       900.0         0.23         17.3 
       901.0         0.20         15.1 
       902.0         0.23         11.1 
       903.0         0.22          7.9 
       904.0         0.20          6.7 
       905.0         0.20          6.0 
       906.0         0.20          5.6 
       907.0         0.23          4.5 
       908.0         0.20          3.8 
       909.0         0.20          3.5 
       910.0         0.20          3.6 
       911.0         0.20          3.0 
       912.0         0.20          3.0 
       913.0         0.23          3.3 
       914.0         0.20          3.8 
       915.0         0.17          3.8 
       916.0         0.17          3.7 
       917.0         0.23          7.1 
       918.0         0.22         29.7 
       919.0         0.20         53.8 
       920.0         0.17         63.0 
       921.0         0.23         96.4 
       922.0         0.20        120.8 
       923.0         0.20        161.6 
       924.0         0.20        157.3 
       925.0         0.30        131.3 
       926.0         2.02         81.4 
       927.0         0.57         30.3 
       928.0         0.40         24.1 
       929.0         0.30         23.3 
       930.0         0.23         22.1 
       931.0         0.23         17.1 
       932.0         0.23         17.3 
       933.0         0.22         13.7 
       934.0         0.23         13.0 
       935.0         0.20         12.6 
       936.0         0.23         12.3 
       937.0         0.20         13.0 
       938.0         0.20         13.4 
       939.0         0.27         11.0 
       940.0         0.23         10.2 
       941.0         0.23          9.5 
       942.0         0.20          9.6 
       943.0         0.23         12.0 
       944.0         0.17         13.9 
       945.0         0.23          9.5 
       946.0         0.20          9.5 
       947.0         0.20          9.0 
       948.0         0.17         18.8 
       949.0         0.22         31.1 
       950.0         0.20         47.7 
       951.0         0.27         80.9 
       952.0         0.37        124.0 
       953.0         0.20        144.9 
       954.0         0.17        133.8 
       955.0         0.17        118.2 
       956.0         1.83         86.0 
       957.0         0.15         29.1 
       958.0         0.30         28.0 
       959.0         0.23         26.4 
       960.0         0.23         22.1 
       961.0         0.33         20.4 
       962.0         0.23         22.3 
       963.0         0.23         24.5 
       964.0         0.27         22.1 
       965.0         0.23         20.3 
       966.0         0.23         20.7 
       967.0         0.23         22.0 
       968.0         0.33         26.3 
       969.0         0.23         27.6 
       970.0         0.25         27.1 
       971.0         0.20         27.0 
       972.0         0.17         27.0 
       973.0         0.20         25.9 
       974.0         0.23         22.9 
       975.0         0.20         18.1 
       976.0         0.23         17.7 
       977.0         0.17         17.7 
       978.0         0.20         32.9 
       979.0         0.17         69.8 
       980.0         0.17         69.8 
       981.0         0.17         92.0 
       982.0         0.20        145.5 
       983.0         0.17        145.5 
       984.0         0.20        158.6 
       985.0         0.20        137.2 
       986.0         2.02        109.2 
       987.0         0.53         27.8 
       988.0         0.27         27.3 
       989.0         0.27         26.9 
       990.0         0.30         26.4 
       991.0         0.20         26.1 
       992.0         0.32         25.5 
       993.0         0.27         23.6 
       994.0         0.27         19.2 
       995.0         0.20         18.6 
       996.0         0.23         17.3 
       997.0         0.27         16.2 
       998.0         0.23         15.9 
       999.0         0.23         18.6 
      1000.0         0.28         18.2 
      1001.0         0.23         18.9 
      1002.0         0.23         20.1 
      1003.0         0.27         22.4 
      1004.0         0.23         21.5 
      1005.0         0.20         22.0 
      1006.0         0.20         22.0 
      1007.0         0.23         20.1 
      1008.0         0.40         18.2 
      1009.0         0.27         24.8 
      1010.0         0.20         45.2 
      1011.0         0.40         92.8 
      1012.0         0.23        153.4 
      1013.0         0.25        156.1 
      1014.0         0.23        136.6 
      1015.0         0.27        122.3 
      1016.0         1.63         87.5 
      1017.0         0.13         33.3 
      1018.0         0.53         32.0 
      1019.0         0.33         27.2 
      1020.0         0.25         27.0 
      1021.0         0.17         27.1 
      1022.0         0.13         27.1 
      1023.0         0.13         25.8 
      1024.0         0.13         25.8 
      1025.0         0.13         25.3 
      1026.0         0.17         25.2 
      1027.0         0.17         25.8 
      1028.0         0.27         25.9 
      1029.0         0.27         26.8 
      1030.0         0.27         26.7 
      1031.0         0.20         27.9 
      1032.0         0.23         28.1 
      1033.0         0.23         26.2 
      1034.0         0.20         24.5 
      1035.0         0.20         23.0 
      1036.0         0.23         20.2 
      1037.0         0.22         16.4 
      1038.0         0.23         17.6 
      1039.0         0.20         22.3 
      1040.0         0.20         30.1 
      1041.0         0.23         70.0 
      1042.0         0.20         70.0 
      1043.0         0.23         97.8 
      1044.0         0.20        127.9 
      1045.0         0.33        174.3 
      1046.0         2.05        132.6 
      1047.0         0.50         30.1 
      1048.0         0.33         28.5 
      1049.0         0.30         28.2 
