~Version Information
 VERS.                                  2.0 : CWLS LAS VERSION
 WRAP.                                   NO : WRAPING MODE
 SWARE .                 MController 2.5.0J : SOFTWARE VERSION
~Well Information
 WELL.                         Leier 17-24R : WELL
 COMP.                Petrogulf Corporation : COMPANY
 FLD.                      Purgatoire River : FIELD
 LOC.                SE/NE Sec 17 T33S R67W : LOCATION
 DATE.                          10/17-18/05 : DATE(S) LOGGED
 SRVC.       BLANCO Geological Services LLC : SERVICE COMPANY
 STAT.                                   CO : STATE
 CNTY.                           Las Animas : COUNTY
 CTRY.                                  USA : COUNTRY
 API.                       05-071-08410-00 : API NUMBER
 STRT.FT                              31.00 : START DEPTH
 STOP.FT                            1390.00 : STOP DEPTH
 STEP.FT                               1.00 : DEPTH INCREMENT
 NULL.                                -9999 : NULL VALUE
~Curve information
 DEPTH.FT                                   :
 ROP.MIN/FT                                 :
 GAS.UNITS                                  :
~ASCII Log data
# ...
       631.0         0.30          8.3 
       632.0         0.23          8.2 
       633.0         0.30          8.3 
       634.0         0.27          7.8 
       635.0         0.30          7.4 
       636.0         0.23          7.6 
       637.0         0.27          7.7 
       638.0         0.23          7.6 
       639.0         0.20          7.4 
       640.0         0.23          7.2 
       641.0         0.25          7.6 
       642.0         0.13          7.0 
       643.0         0.23          7.0 
       644.0         0.20          7.6 
       645.0         0.23          7.6 
       646.0         0.20          7.3 
       647.0         0.23          7.6 
       648.0         0.23          8.1 
       649.0         0.20          8.3 
       650.0         0.23          7.8 
       651.0         0.17          7.2 
       652.0         0.13          6.6 
       653.0         0.17          6.2 
       654.0         0.13          6.5 
       655.0         0.13          7.8 
       656.0         2.05         37.4 
       657.0         0.17         17.5 
       658.0         0.17         14.4 
       659.0         0.13         12.5 
       660.0         0.13         11.2 
       661.0         0.23         11.2 
       662.0         0.17          9.5 
       663.0         0.20          8.9 
       664.0         0.17          8.4 
       665.0         0.20          8.4 
       666.0         0.22          8.3 
       667.0         0.27          8.4 
       668.0         0.20          8.5 
       669.0         0.17          7.8 
       670.0         0.23          7.8 
       671.0         0.17          7.2 
       672.0         0.23          7.6 
       673.0         0.20          7.7 
       674.0         0.27          7.6 
       675.0         0.20          8.1 
       676.0         0.20          8.3 
       677.0         0.20          8.1 
       678.0         0.23          8.0 
       679.0         0.27          8.6 
       680.0         0.23          8.3 
       681.0         0.25          7.9 
       682.0         0.23          7.8 
       683.0         0.17          7.8 
       684.0         0.20          7.9 
       685.0         0.20          7.0 
       686.0         1.97         39.1 
       687.0         0.32         16.7 
       688.0         0.33         12.7 
       689.0         0.27         10.2 
       690.0         0.20          8.5 
       691.0         0.20          8.6 
       692.0         0.20          8.2 
       693.0         0.20          7.8 
       694.0         0.23          7.8 
       695.0         0.17          7.9 
       696.0         0.20          7.9 
       697.0         0.23          8.3 
       698.0         0.33          8.1 
       699.0         0.27          8.0 
       700.0         0.23          8.3 
       701.0         0.25          8.3 
       702.0         0.23          7.9 
       703.0         0.20          8.2 
       704.0         0.23          8.0 
       705.0         0.20          8.2 
       706.0         0.20          7.8 
       707.0         0.23          8.1 
       708.0         0.27          8.2 
       709.0         0.27          7.8 
       710.0         0.23          7.6 
       711.0         0.23          7.9 
       712.0         0.23          7.4 
       713.0         0.20          6.7 
       714.0         0.17          6.3 
       715.0         0.20          9.8 
       716.0         2.52         37.5 
       717.0         0.37          8.4 
       718.0         0.20          8.1 
       719.0         0.28         10.2 
       720.0         0.23         12.8 
       721.0         0.20         12.0 
       722.0         0.13         11.3 
       723.0         0.13         10.6 
       724.0         0.10          9.6 
       725.0         0.10          9.1 
       726.0         0.10          9.0 
       727.0         0.10          9.0 
       728.0         0.17          9.6 
       729.0         0.30          9.7 
       730.0         0.23         10.4 
       731.0         0.17          9.4 
       732.0         0.10          8.6 
       733.0         0.10          8.1 
       734.0         0.13          8.4 
       735.0         0.10          7.8 
       736.0         0.10          7.6 
       737.0         0.13          8.1 
       738.0         0.17          7.7 
       739.0         0.17          7.4 
       740.0         0.13          6.6 
       741.0         0.18          6.3 
       742.0         0.17          7.2 
       743.0         0.17         11.1 
       744.0         0.13         15.0 
       745.0         0.20         22.4 
       746.0         1.63         41.5 
       747.0         0.17         13.5 
       748.0         0.13         12.8 
       749.0         0.13         10.8 
       750.0         0.17          9.9 
       751.0         0.28          9.0 
       752.0         0.23          8.3 
       753.0         0.30          8.0 
       754.0         0.27          7.7 
       755.0         0.20          6.8 
       756.0         0.20          7.1 
       757.0         0.20          7.1 
       758.0         0.20          6.8 
       759.0         0.17          6.8 
       760.0         0.20          7.2 
       761.0         0.20          7.5 
       762.0         0.20          9.0 
       763.0         0.23          9.3 
       764.0         0.17          8.4 
       765.0         0.10          8.9 
       766.0         0.10          8.5 
       767.0         0.10          8.0 
       768.0         0.22          8.2 
       769.0         0.27          7.8 
       770.0         0.30          7.8 
       771.0         0.40          7.6 
       772.0         0.27          6.1 
       773.0         0.30          9.7 
       774.0         0.30         19.3 
       775.0         0.27         31.5 
       776.0         1.35         35.6 
       777.0         0.33         11.9 
       778.0         0.27          9.3 
       779.0         0.20          8.4 
       780.0         0.17          8.1 
       781.0         0.20          7.5 
       782.0         0.27          6.8 
       783.0         0.30          6.2 
       784.0         3.52          8.6 
       785.0         0.15          9.4 
       786.0         0.13          9.6 
       787.0         0.17          9.5 
       788.0         0.17          9.2 
       789.0         0.20          9.1 
       790.0         0.20          9.0 
       791.0         0.27         12.0 
       792.0         0.20         13.8 
       793.0         0.17         14.2 
       794.0         0.13         14.4 
       795.0         0.13         14.7 
       796.0         0.10         14.1 
       797.0         0.13         14.4 
       798.0         0.17         13.4 
       799.0         0.30         14.2 
       800.0         0.20         13.8 
       801.0         0.13         13.5 
       802.0         0.13         13.9 
       803.0         0.20         13.4 
       804.0         0.18         12.1 
       805.0         0.13         10.8 
       806.0         2.43         62.3 
       807.0         0.17         18.4 
       808.0         0.27         17.8 
       809.0         0.18         17.6 
       810.0         0.17         18.2 
       811.0         0.13         18.0 
       812.0         0.13         17.8 
       813.0         0.13         17.0 
       814.0         0.13         16.0 
       815.0         0.13         15.5 
       816.0         0.17         13.9 
       817.0         0.27         12.6 
       818.0         0.20         11.5 
       819.0         0.17         11.0 
       820.0         0.17         10.4 
       821.0         0.17         10.6 
       822.0         0.20          9.6 
       823.0         0.30          9.0 
       824.0         0.20          9.3 
       825.0         0.17          8.6 
       826.0         0.20          9.2 
       827.0         0.25          9.2 
       828.0         0.17          9.5 
       829.0         0.13          9.1 
       830.0         0.23          9.1 
