~Version Information
VERS.                      2.0: CWLS Log ASCII Standard - VERSION 2.0
WRAP.                       NO: One line per depth step
~Well Information Block
STRT.FT               806.0000: 
STOP.FT              1814.0000: 
STEP.FT                 0.2500: 
NULL.                -999.2500: 
COMP.          Pioneer Natural Resources: COMPANY
WELL.            Hill 33-22 Tr: WELL
FLD.           Purgatoire River: FIELD
LOC.           1573' FSL & 1585' FEL: LOCATION
PROV.                 Colorado: PROVINCE
CNTY.               Las Animas: COUNTRY
SRVC.                Patterson: SERVICE COMPANY
DATE.          Thu Apr 14 09:13:17 2005: LOG DATE
UWI.           05 071 08316 00: UNIQUE WELL ID
~Curve Information Block
DEPT.FT            0 000 00 00: Depth
SN.Ohm-m                      : IEL Short Normal
SP.mV                         : IEL Spontaneous Potential
DIR.Ohm-m                     : IEL Induction Resistivity
GR.GAPI                       : Gamma Ray
~Parameter Information Block
~A  Depth        SN          SP         DIR          GR     
# ...
  1509.5000     18.7979     53.1929     17.4040    117.2709
  1509.7500     18.3350     53.2774     17.2193    121.1335
  1510.0000     17.7056     53.3670     17.1765    125.8169
  1510.2500     17.0497     53.4493     17.2804    127.8331
  1510.5000     16.5062     53.5080     17.5178    129.2239
  1510.7500     16.1420     53.5250     17.8482    129.1863
  1511.0000     15.9924     53.4858     18.2101    127.3582
  1511.2500     16.1276     53.3818     18.5464    124.3283
  1511.5000     16.5752     53.2080     18.8329    116.1645
  1511.7500     17.2455     52.9610     19.0855    108.7142
  1512.0000     18.0191     52.6421     19.3427     97.1064
  1512.2500     18.8682     52.2658     19.6420     90.8323
  1512.5000     19.8315     51.8674     20.0073     85.2361
  1512.7500     20.9134     51.4972     20.4513     83.9389
  1513.0000     22.0065     51.1980     20.9795     84.4423
  1513.2500     22.8675     50.9812     21.5848     85.5898
  1513.5000     23.2957     50.8237     22.2317     87.3740
  1513.7500     23.3752     50.6863     22.8436     88.2507
  1514.0000     23.3814     50.5430     23.3199     89.1889
  1514.2500     23.4509     50.4005     23.5832     89.8020
  1514.5000     23.4900     50.2963     23.6224     90.8558
  1514.7500     23.3488     50.2752     23.4890     91.5824
  1515.0000     22.9621     50.3611     23.2478     92.6748
  1515.2500     22.4076     50.5422     22.9246     93.4578
  1515.5000     21.8703     50.7785     22.4840     94.8296
  1515.7500     21.4492     51.0231     21.8546     95.9773
  1516.0000     21.0422     51.2409     20.9905     98.2559
  1516.2500     20.5295     51.4152     19.9262    100.2175
  1516.5000     19.9641     51.5471     18.7699    103.9068
  1516.7500     19.4379     51.6498     17.6451    106.9372
  1517.0000     18.9265     51.7395     16.6381    112.2919
  1517.2500     18.4074     51.8247     15.7894    116.0971
  1517.5000     17.9288     51.9016     15.1107    121.3876
  1517.7500     17.4649     51.9598     14.6025    124.4163
  1518.0000     16.9120     51.9922     14.2604    128.5294
  1518.2500     16.2643     51.9996     14.0710    131.2898
  1518.5000     15.5874     51.9872     14.0075    135.4844
  1518.7500     14.9125     51.9563     14.0304    137.9246
  1519.0000     14.3082     51.8991     14.0930    139.9497
  1519.2500     13.8632     51.8006     14.1520    139.5041
  1519.5000     13.5974     51.6507     14.1773    135.1428
  1519.7500     13.5221     51.4601     14.1618    129.5729
  1520.0000     13.6754     51.2684     14.1266    118.0734
  1520.2500     14.0702     51.1339     14.1172    109.4545
  1520.5000     14.7354     51.1089     14.1896     97.2451
  1520.7500     15.7338     51.2130     14.3889     90.4954
  1521.0000     16.9843     51.4230     14.7353     83.4724
  1521.2500     18.1806     51.6876     15.2219     81.3565
  1521.5000     19.0345     51.9526     15.8245     82.4053
  1521.7500     19.5256     52.1819     16.5153     85.3686
  1522.0000     19.8403     52.3695     17.2694     90.7554
  1522.2500     20.1673     52.5417     18.0621     93.3559
  1522.5000     20.6097     52.7399     18.8648     94.3193
  1522.7500     21.1671     52.9914     19.6437     93.1271
  1523.0000     21.7722     53.2920     20.3652     89.3893
  1523.2500     22.3960     53.6168     21.0059     85.8787
  1523.5000     23.0680     53.9373     21.5632     79.4415
  1523.7500     23.8053     54.2274     22.0575     74.9256
  1524.0000     24.5621     54.4608     22.5170     69.4780
  1524.2500     25.2546     54.6170     22.9604     67.6641
  1524.5000     25.8718     54.6940     23.3963     68.2398
  1524.7500     26.5087     54.7164     23.8407     70.4412
  1525.0000     27.2710     54.7248     24.3280     75.1240
  1525.2500     28.1588     54.7520     24.8959     78.2552
  1525.5000     28.9748     54.8067     25.5556     81.4156
  1525.7500     29.4113     54.8775     26.2761     81.8084
  1526.0000     29.4153     54.9489     26.9983     79.6086
  1526.2500     29.3750     55.0159     27.6658     76.7903
  1526.5000     29.6645     55.0828     28.2415     71.8889
  1526.7500     30.1744     55.1492     28.6944     68.8669
  1527.0000     30.5335     55.1946     28.9783     65.4773
  1527.2500     30.5211     55.1814     29.0362     64.1765
  1527.5000     30.1521     55.0751     28.8372     63.6258
  1527.7500     29.5806     54.8659     28.4076     64.1458
  1528.0000     28.9474     54.5762     27.8208     66.5294
  1528.2500     28.2664     54.2522     27.1533     69.3925
  1528.5000     27.4946     53.9451     26.4511     75.2212
  1528.7500     26.6658     53.6938     25.7327     79.4042
  1529.0000     25.9069     53.5127     25.0152     84.8639
  1529.2500     25.3220     53.3877     24.3263     87.5870
  1529.5000     24.8493     53.2848     23.6902     90.0748
  1529.7500     24.3200     53.1711     23.1073     90.6267
  1530.0000     23.6922     53.0362     22.5539     90.1866
  1530.2500     23.0643     52.9005     22.0065     89.7061
  1530.5000     22.4404     52.8047     21.4688     90.1644
  1530.7500     21.7249     52.7877     20.9734     91.8841
  1531.0000     20.9285     52.8652     20.5530     96.7409
  1531.2500     20.1578     53.0196     20.2066    101.0388
  1531.5000     19.5104     53.2066     19.8882    107.6512
  1531.7500     19.0746     53.3748     19.5318    111.1003
  1532.0000     18.8528     53.4890     19.0926    112.8879
  1532.2500     18.7142     53.5434     18.5690    111.1272
  1532.5000     18.5907     53.5573     17.9846    104.8824
  1532.7500     18.5628     53.5569     17.3586     99.9921
  1533.0000     18.5869     53.5590     16.6978     94.7402
  1533.2500     18.3896     53.5636     16.0117     93.6435
  1533.5000     17.8315     53.5585     15.3287     95.6145
  1533.7500     17.1304     53.5322     14.6915     98.8115
  1534.0000     16.5688     53.4857     14.1347    105.3109
  1534.2500     16.1599     53.4330     13.6621    110.0712
  1534.5000     15.6794     53.3895     13.2419    116.6739
  1534.7500     14.9444     53.3562     12.8231    120.2788
  1535.0000     14.0768     53.3114     12.3658    124.6074
  1535.2500     13.4040     53.2199     11.8619    127.2726
  1535.5000     13.0375     53.0554     11.3327    131.6018
  1535.7500     12.8123     52.8194     10.8102    134.4170
  1536.0000     12.5843     52.5426     10.3231    137.0029
  1536.2500     12.2866     52.2702      9.8909    137.0134
  1536.5000     11.8859     52.0418      9.5247    135.3118
  1536.7500     11.4786     51.8783      9.2283    134.3701
  1537.0000     11.2338     51.7807      8.9996    134.8958
  1537.2500     11.1497     51.7351      8.8316    136.4480
  1537.5000     11.0592     51.7213      8.7136    139.3600
  1537.7500     10.9016     51.7216      8.6338    141.0123
  1538.0000     10.7890     51.7290      8.5822    142.1923
  1538.2500     10.8061     51.7514      8.5531    141.7280
  1538.5000     10.9149     51.8050      8.5462    139.1308
  1538.7500     11.0618     51.9029      8.5651    136.7248
  1539.0000     11.2444     52.0478      8.6158    133.7072
  1539.2500     11.4058     52.2318      8.7056    132.8335
  1539.5000     11.3890     52.4391      8.8414    133.5758
  1539.7500     11.1115     52.6479      9.0282    135.1236
  1540.0000     10.7148     52.8314      9.2671    137.8046
  1540.2500     10.4926     52.9666      9.5555    138.9236
  1540.5000     10.6701     53.0488      9.8881    138.5425
  1540.7500     11.2457     53.1002     10.2599    136.9504
  1541.0000     12.0642     53.1577     10.6691    133.3478
  1541.2500     12.9518     53.2473     11.1188    130.4827
  1541.5000     13.7642     53.3667     11.6168    125.4403
  1541.7500     14.4423     53.4927     12.1726    121.3562
  1542.0000     15.0732     53.6001     12.7948    113.9713
  1542.2500     15.8299     53.6762     13.4891    108.4665
  1542.5000     16.7690     53.7228     14.2572    100.4298
  1542.7500     17.7414     53.7510     15.0950     95.9570
