~Version Information
VERS.                      2.0: CWLS Log ASCII Standard - VERSION 2.0
WRAP.                       NO: One line per depth step
~Well Information Block
STRT.FT               545.0000: 
STOP.FT              1920.5000: 
STEP.FT                 0.1000: 
NULL.                -999.2500: 
COMP.          Pioneer Natural Resources: COMPANY
WELL.            Summers 21-19: WELL
FLD.           Purgatoire River: FIELD
LOC.           900' FNL & 1950' FWL: LOCATION
PROV.                 Colorado: PROVINCE
CNTY.               Las Animas: COUNTRY
SRVC.                Patterson: SERVICE COMPANY
DATE.          Mon Oct 17 07:05:22 2005: LOG DATE
UWI.           05 071 08315 00: UNIQUE WELL ID
~Curve Information Block
DEPT.FT            0 000 00 00: Depth
DCAL.in                       : CDL Caliper
RHOB.g/cc                     : CDL Bulk Density
RHOC.g/cc                     : CDL Density Correction
DPOR.pu                       : CDL Density Porosity
GR.GAPI                       : Gamma Ray
NPOR.pu                       : Neutron Porosity
~Parameter Information Block
~A  Depth       DCAL        RHOB        RHOC        DPOR         GR         NPOR    
# ...
   996.2000      8.1613      2.4814      0.0737     10.2155    143.3280     31.1518
   996.3000      8.1844      2.4551      0.0997     11.8137    140.7465     30.8594
   996.4000      8.1844      2.4304      0.0539     13.3062    139.7608     30.8016
   996.5000      8.1768      2.4032      0.1007     14.9606    136.2077     30.6347
   996.6000      8.1768      2.3667      0.0947     17.1674    134.8486     30.5291
   996.7000      8.1768      2.3281      0.0331     19.5116    139.2923     30.5294
   996.8000      8.1367      2.3004      0.0352     21.1907    143.8624     30.7113
   996.9000      8.1367      2.2876      0.0404     21.9640    144.2851     31.2916
   997.0000      8.0979      2.2906      0.0750     21.7847    142.5437     32.3562
   997.1000      8.0979      2.3080      0.0810     20.7266    143.6613     33.3377
   997.2000      8.0979      2.3335      0.1085     19.1800    150.3286     33.3156
   997.3000      8.0867      2.3606      0.1122     17.5409    157.4874     32.5643
   997.4000      8.0867      2.3808      0.0827     16.3180    157.7068     32.0157
   997.5000      8.1138      2.3865      0.0646     15.9699    154.8646     31.9090
   997.6000      8.1138      2.3822      0.0781     16.2281    160.1285     31.9961
   997.7000      8.1138      2.3761      0.0696     16.6005    172.9687     31.8910
   997.8000      8.1186      2.3675      0.0760     17.1208    180.2848     31.5436
   997.9000      8.1186      2.3557      0.0764     17.8350    175.6720     31.2128
   998.0000      8.0989      2.3533     -0.0188     17.9809    165.4974     30.8789
   998.1000      8.0989      2.3709      0.0377     16.9150    157.1926     30.7711
   998.2000      8.0989      2.3904      0.0255     15.7358    151.5877     31.2380
   998.3000      8.0920      2.3946     -0.0530     15.4774    147.2307     31.7403
   998.4000      8.0920      2.3999     -0.0315     15.1581    144.6797     31.8648
   998.5000      8.0920      2.4335      0.0282     13.1187    144.7997     31.6597
   998.6000      8.0920      2.5087      0.0102      8.5642    145.1991     30.8772
   998.7000      8.0920      2.6039      0.1089      2.7917    142.4680     30.0128
   998.8000      8.1244      2.6726      0.1184     -1.3689    135.3201     30.1878
   998.9000      8.1244      2.7054      0.0847     -3.3553    126.7455     30.6861
   999.0000      8.1170      2.7294      0.1208     -4.8142    117.9687     29.8626
   999.1000      8.1170      2.7488      0.1097     -5.9872    105.7797     28.1271
   999.2000      8.1170      2.7476      0.1115     -5.9134     91.1191     26.6667
   999.3000      8.1299      2.7296      0.0380     -4.8270     77.0369     25.4716
   999.4000      8.1299      2.7077      0.0944     -3.4944     65.2073     24.0217
   999.5000      8.0968      2.6769      0.0788     -1.6278     56.8463     22.5658
   999.6000      8.0968      2.6377      0.0503      0.7435     52.1265     21.1341
   999.7000      8.0968      2.6034      0.0021      2.8235     50.1608     19.1093
   999.8000      8.0449      2.5747      0.0497      4.5664     49.7871     17.4558
   999.9000      8.0449      2.5424      0.0237      6.5184     48.1839     17.4686
  1000.0000      8.0250      2.5139     -0.0137      8.2493     43.7554     18.4026
  1000.1000      8.0250      2.4988      0.0151      9.1623     39.3431     18.2661
  1000.2000      8.0250      2.4863     -0.0056      9.9202     36.6327     17.0902
  1000.3000      8.0270      2.4665     -0.0094     11.1223     36.8706     16.9313
  1000.4000      8.0270      2.4568     -0.0558     11.7067     41.4592     18.2128
  1000.5000      8.0508      2.4761      0.0229     10.5396     46.5250     19.4712
  1000.6000      8.0508      2.5076      0.0377      8.6276     48.1160     19.6151
  1000.7000      8.0508      2.5201      0.0545      7.8734     46.8244     19.0174
  1000.8000      8.0478      2.5039     -0.0053      8.8522     45.3386     18.6880
  1000.9000      8.0478      2.4595      0.0393     11.5447     45.2078     18.9058
  1001.0000      8.0847      2.3842     -0.0145     16.1065     45.2366     19.2021
  1001.1000      8.0847      2.2898     -0.0361     21.8330     43.8618     19.2325
  1001.2000      8.0847      2.1902     -0.0546     27.8664     42.3750     19.5224
  1001.3000      8.1002      2.0756     -0.0543     34.8096     43.4757     20.7465
  1001.4000      8.1002      1.9302     -0.1347     43.6261     47.6569     22.4001
  1001.5000      8.1445      1.7786     -0.2354     52.8139     53.9894     23.9752
  1001.6000      8.1445      1.6618     -0.2307     59.8886     61.5011     25.6604
  1001.7000      8.1445      1.5666     -0.1364     65.6606     65.4762     26.7530
  1001.8000      8.1787      1.4599     -0.1658     72.1282     63.9820     26.8615
  1001.9000      8.1787      1.3695     -0.1676     77.6074     63.5206     27.1184
  1002.0000      8.2035      1.3412     -0.0666     79.3186     65.6404     28.3864
  1002.1000      8.2035      1.3734     -0.0249     77.3690     65.6331     30.0525
  1002.2000      8.2035      1.4439      0.0118     73.0991     63.0397     31.5001
  1002.3000      8.2486      1.5333      0.0742     67.6761     60.7804     32.8274
  1002.4000      8.2486      1.6249      0.0541     62.1267     62.7042     33.8601
  1002.5000      8.4218      1.7150      0.0967     56.6667     70.2763     34.5034
  1002.6000      8.4218      1.8033      0.1480     51.3167     77.6436     35.1049
  1002.7000      8.4218      1.8876      0.1147     46.2064     79.7477     35.5114
  1002.8000      8.3104      1.9708      0.1424     41.1639     78.7747     35.3706
  1002.9000      8.3104      2.0552      0.1245     36.0501     79.2085     34.7781
  1003.0000      8.2816      2.1352      0.1221     31.2018     85.7042     33.8721
  1003.1000      8.2816      2.1933      0.1019     27.6775     97.2910     32.6670
  1003.2000      8.2816      2.2168      0.0663     26.2522    105.6597     31.5833
  1003.3000      8.2196      2.2154      0.0132     26.3419    106.8711     31.1083
  1003.4000      8.2196      2.2085      0.0557     26.7580    106.4299     30.6473
  1003.5000      8.2731      2.2080      0.0517     26.7855    107.3066     29.4796
  1003.6000      8.2731      2.2130      0.0827     26.4821    108.9017     28.7447
  1003.7000      8.2731      2.2135      0.0579     26.4522    115.7081     29.3107
  1003.8000      8.1661      2.2108      0.0432     26.6207    125.9086     29.8117
  1003.9000      8.1661      2.2180      0.0314     26.1810    131.0571     29.5481
  1004.0000      8.1544      2.2445      0.0402     24.5780    131.6730     29.8006
  1004.1000      8.1544      2.2941      0.0786     21.5678    131.7355     31.0672
  1004.2000      8.1544      2.3629      0.1383     17.3997    131.7747     32.0970
  1004.3000      8.0688      2.4280      0.1849     13.4520    132.7367     32.1414
  1004.4000      8.0688      2.4657      0.1941     11.1678    135.9822     31.7343
  1004.5000      8.1357      2.4940      0.1265      9.4535    140.2598     31.1798
  1004.6000      8.1357      2.5488      0.2357      6.1338    142.8100     30.5152
  1004.7000      8.1357      2.6139      0.3357      2.1880    142.5177     29.8921
  1004.8000      8.2964      2.6404      0.2978      0.5841    141.3145     29.3623
  1004.9000      8.2964      2.6199      0.2073      1.8214    140.8203     28.6054
  1005.0000      8.3426      2.5888      0.1743      3.7103    140.6918     27.8518
  1005.1000      8.3426      2.5702      0.1610      4.8373    139.8033     27.7868
  1005.2000      8.3426      2.5619      0.1224      5.3378    139.2327     28.2246
  1005.3000      8.1464      2.5609      0.1636      5.4005    142.2098     28.5155
  1005.4000      8.1464      2.5596      0.1280      5.4788    149.8793     29.0241
  1005.5000      8.1035      2.5462      0.1072      6.2937    158.7771     30.3307
  1005.6000      8.1035      2.5214      0.0771      7.7943    162.9821     31.3856
  1005.7000      8.1035      2.5006      0.0533      9.0541    158.6194     31.0489
