~Version Information
VERS.                      2.0: CWLS Log ASCII Standard - VERSION 2.0
WRAP.                       NO: One line per depth step
~Well Information Block
STRT.FT               630.0000: 
STOP.FT              1156.0000: 
STEP.FT                 0.2500: 
NULL.                -999.2500: 
COMP.          Pioneer Natural Resources: COMPANY
WELL.          Drewmeister 34-34: WELL
FLD.           Purgatoire River: FIELD
LOC.           958' FSL & 1857' FEL: LOCATION
STAT.                 Colorado: State
CNTY.               Las Animas: COUNTY
CTRY. USA : Country
SECT. 34 : Section
TOWN. 32S : Township
RANG. 65W : Range
SRVC.                Patterson: SERVICE COMPANY
DATE.          Mon Oct 03 23:24:37 2005: LOG DATE
API.           05 071 08131 00: UNIQUE WELL ID
~Curve Information Block
DEPT.FT            0 000 00 00: Depth
SN.Ohm-m                      : IEL Short Normal
SP.mV                         : IEL Spontaneous Potential
DIR.Ohm-m                     : IEL Induction Resistivity
GR.GAPI                       : Gamma Ray
~Parameter Information Block
~A  Depth        SN          SP         DIR          GR     
# ...
   831.0000    502.4275    734.6768     26.1125     60.9824
   831.2500    625.7717    749.9994     26.0609     59.7917
   831.5000    641.8822    761.6878     25.9320     58.9319
   831.7500    564.6982    768.4700     25.7423     59.2676
   832.0000    490.6844    773.3731     25.5598     60.8511
   832.2500    502.9608    779.2792     25.5030     62.1121
   832.5000    568.7017    786.2357     25.6958     63.3163
   832.7500    573.6431    792.4677     26.2124     63.3461
   833.0000    463.5880    796.6504     27.0426     62.5356
   833.2500    295.7710    798.7909     28.0904     61.9977
   833.5000    155.9245    799.6378     29.2056     62.0135
   833.7500     78.8394    799.8992     30.2371     62.5097
   834.0000     48.6964    799.9626     31.0867     63.0895
   834.2500     38.6968    799.9746     31.7338     62.9301
   834.5000     34.5007    799.9761     32.2153     61.9183
   834.7500     32.2587    799.9761     32.5839     61.0036
   835.0000     31.1523    799.9761     32.8832     59.4846
   835.2500     30.8363    799.9761     33.1432     58.3624
   835.5000     31.1726    799.9761     33.3679     56.7559
   835.7500     32.1039    799.9761     33.5115     56.0495
   836.0000     33.5455    799.9761     33.4759     55.8207
   836.2500     35.1827    799.9761     33.1661     56.0608
   836.5000     36.5433    799.9761     32.5740     56.5590
   836.7500     37.4756    799.9761     31.8066     56.9313
   837.0000     38.1513    799.9761     31.0290     57.9001
   837.2500     38.5239    799.9761     30.3831     59.0863
   837.5000     38.5042    799.9761     29.9394     62.1206
   837.7500     38.4752    799.9761     29.6880     65.3364
   838.0000     38.7092    799.9744     29.5532     72.5917
   838.2500     38.9123    799.9597     29.4286     79.0736
   838.5000     39.4887    799.8746     29.2242     90.2492
   838.7500     41.5956    799.4958     28.8999     97.6315
   839.0000     44.1993    798.1431     28.4603    106.8596
   839.2500     43.9577    794.2302     27.9257    111.1881
   839.5000     40.5279    784.9584     27.3165    115.0539
   839.7500     38.5596    766.7293     26.6655    116.4183
   840.0000     42.8087    736.5115     26.0305    117.3717
   840.2500     58.2807    693.4390     25.4799    117.1251
   840.5000     99.0570    639.4496     25.0603    114.5441
   840.7500    184.5947    578.7061     24.7753    111.2700
   841.0000    313.8094    516.7567     24.5922    105.7311
   841.2500    458.4633    460.0378     24.4659    103.2538
   841.5000    594.3589    415.0016     24.3613    103.0612
   841.7500    710.5817    386.3041     24.2550    104.8681
   842.0000    792.7158    375.1903     24.1210    107.9939
   842.2500    834.1984    379.7250     23.9169    108.8482
   842.5000    848.0471    396.7190     23.5896    106.9346
   842.7500    850.9474    423.5867     23.1047    103.5541
   843.0000    850.7586    458.8979     22.4754     96.3747
   843.2500    847.7168    501.8744     21.7598     91.3001
   843.5000    836.9810    551.5532     21.0274     85.9079
   843.7500    810.0862    605.8561     20.3267     85.2578
   844.0000    756.2366    660.7734     19.6799     89.5184
   844.2500    660.8526    710.5712     19.1007     94.9280
   844.5000    514.8905    749.7623     18.6121    103.7701
   844.7500    342.7545    775.7288     18.2453    108.4051
   845.0000    198.3756    789.5854     18.0208    112.1169
   845.2500    113.1612    794.3959     17.9318    112.7223
   845.5000     75.1137    792.5019     17.9443    111.9444
   845.7500     60.1323    784.2681     18.0169    110.5717
   846.0000     56.3975    768.9989     18.1262    107.2155
   846.2500     64.3292    747.1884     18.2744    104.4894
   846.5000     88.7355    722.4386     18.4765    101.1104
   846.7500    135.1444    701.1563     18.7442     99.8732
   847.0000    214.2893    689.3190     19.0827     98.9804
   847.2500    323.9874    688.5226     19.4961     98.2017
   847.5000    416.8355    695.2236     19.9855     95.7275
   847.7500    438.2321    704.2993     20.5365     93.0458
   848.0000    392.3773    713.3928     21.1065     87.6961
   848.2500    316.9738    723.8412     21.6244     83.6401
   848.5000    237.8823    737.8190     22.0110     78.0615
   848.7500    175.2799    755.0029     22.2088     75.5584
   849.0000    135.1687    772.1369     22.2040     74.8212
   849.2500    103.2799    785.5808     22.0252     76.7474
   849.5000     72.2305    793.8565     21.7209     83.4763
   849.7500     48.4226    797.8610     21.3335     90.1839
   850.0000     34.9894    799.3870     20.8845    101.7620
   850.2500     28.0584    799.8450     20.3774    108.9192
   850.5000     23.7533    799.9535     19.8128    116.5225
   850.7500     20.7169    799.9737     19.2046    119.0806
   851.0000     18.6595    799.9761     18.5868    120.2388
   851.2500     17.3075    799.9761     18.0034    120.4292
   851.5000     16.4675    799.9761     17.4902    121.5307
   851.7500     16.1560    799.9761     17.0658    123.0650
   852.0000     16.3419    799.9761     16.7343    125.5542
   852.2500     16.8282    799.9761     16.4928    126.2456
   852.5000     17.4614    799.9761     16.3339    124.5743
   852.7500     18.1554    799.9761     16.2445    122.0684
   853.0000     18.7475    799.9761     16.2081    118.5893
   853.2500     19.1166    799.9761     16.2119    117.6388
   853.5000     19.3059    799.9761     16.2552    118.1647
   853.7500     19.4395    799.9761     16.3517    118.6898
   854.0000     19.6152    799.9761     16.5237    117.8069
   854.2500     19.8298    799.9761     16.7900    115.8049
   854.5000     20.0212    799.9761     17.1548    111.7033
   854.7500     20.1694    799.9761     17.6048    109.1874
   855.0000     20.2915    799.9761     18.1185    106.7869
   855.2500     20.4814    799.9761     18.6772    106.0539
   855.5000     20.9635    799.9761     19.2652    105.2781
   855.7500     21.7890    799.9761     19.8592    104.3448
   856.0000     22.5418    799.9761     20.4222    101.9275
   856.2500     22.8208    799.9761     20.9152     99.8490
   856.5000     22.8435    799.9761     21.3185     96.5579
   856.7500     23.1072    799.9761     21.6454     94.4424
   857.0000     23.7371    799.9761     21.9340     91.6884
   857.2500     24.4531    799.9761     22.2280     90.3199
   857.5000     24.9397    799.9761     22.5648     88.9779
   857.7500     25.1303    799.9761     22.9795     88.3485
   858.0000     25.2078    799.9761     23.5049     87.5484
   858.2500     25.4558    799.9761     24.1508     87.1735
   858.5000     26.2706    799.9761     24.8737     87.1059
   858.7500     27.9973    799.9761     25.5764     87.4515
   859.0000     30.3656    799.9761     26.1643     88.3287
   859.2500     32.5556    799.9761     26.6173     88.7920
   859.5000     34.0769    799.9761     27.0021     88.5309
   859.7500     34.9717    799.9761     27.4108     87.4777
   860.0000     35.3056    799.9761     27.8879     84.8971
   860.2500     35.3300    799.9761     28.3985     82.9718
   860.5000     35.5961    799.9761     28.8458     80.4175
   860.7500     36.1245    799.9752     29.1181     78.9752
   861.0000     36.5084    799.9652     29.1397     76.7390
   861.2500     36.7643    799.9055     28.9031     74.8401
   861.5000     36.9613    799.6293     28.4699     71.1140
   861.7500     36.9490    798.6073     27.9516     68.2620
   862.0000     37.1439    795.5477     27.4763     64.4336
   862.2500     38.6879    788.0745     27.1581     62.9698
   862.5000     42.6085    773.0535     27.0689     63.5639
   862.7500     49.3059    747.9767     27.2162     66.0336
   863.0000     61.9086    712.9027     27.5238     72.1022
   863.2500     95.7789    671.5826     27.8278     76.7949
   863.5000    180.7018    630.7295     27.9165     82.9419
   863.7500    334.2059    597.7164     27.6144     85.4040
   864.0000    525.5405    578.0543     26.8575     85.2645
   864.2500    690.5121    574.0548     25.6942     82.4085
