~Version Information
VERS.                      2.0: CWLS Log ASCII Standard - VERSION 2.0
WRAP.                       NO: One line per depth step
~Well Information Block
STRT.FT               533.0000: 
STOP.FT              1578.0000: 
STEP.FT                 0.2500: 
NULL.                -999.2500: 
COMP.          Pioneer Natural Resources: COMPANY
WELL.           Telna 24-22 Tr: WELL
FLD.           Purgatoire River: FIELD
LOC.           748' FSL & 1931' FWL: LOCATION
PROV.                 Colorado: PROVINCE
CNTY.               Las Animas: COUNTRY
SRVC.                Patterson: SERVICE COMPANY
DATE.          Sun May 01 14:14:42 2005: LOG DATE
UWI.           05 071 08304 00: UNIQUE WELL ID
~Curve Information Block
DEPT.FT            0 000 00 00: Depth
SN.Ohm-m                      : IEL Short Normal
SP.mV                         : IEL Spontaneous Potential
DIR.Ohm-m                     : IEL Induction Resistivity
GR.GAPI                       : Gamma Ray
~Parameter Information Block
~A  Depth        SN          SP         DIR          GR     
# ...
   600.0000   2000.0000   2000.0000     10.1845    127.7333
   600.2500   2000.0000   2000.0000     10.2812    134.4611
   600.5000   2000.0000   2000.0000     10.4086    141.6759
   600.7500   2000.0000   2000.0000     10.5799    144.1031
   601.0000   2000.0000   2000.0000     10.7940    144.7965
   601.2500   2000.0000   2000.0000     11.0429    144.0995
   601.5000   2000.0000   2000.0000     11.3218    142.6982
   601.7500   2000.0000   2000.0000     11.6339    142.0782
   602.0000   2000.0000   2000.0000     11.9835    141.5852
   602.2500   2000.0000   2000.0000     12.3661    140.6504
   602.5000   2000.0000   2000.0000     12.7691    135.8651
   602.7500   2000.0000   2000.0000     13.1859    129.5518
   603.0000   2000.0000   2000.0000     13.6335    116.5557
   603.2500   2000.0000   2000.0000     14.1563    107.4067
   603.5000   2000.0000   2000.0000     14.8116     96.1847
   603.7500   2000.0000   2000.0000     15.6477     91.6705
   604.0000   2000.0000   2000.0000     16.6905     90.7261
   604.2500   2000.0000   2000.0000     17.9462     94.2869
   604.5000   2000.0000   2000.0000     19.4127    105.0306
   604.7500   2000.0000   2000.0000     21.0814    114.3233
   605.0000   2000.0000   2000.0000     22.9098    127.8826
   605.2500   2000.0000   2000.0000     24.7763    134.6442
   605.5000   2000.0000   2000.0000     26.4707    139.2686
   605.7500   2000.0000   2000.0000     27.7775    138.5594
   606.0000   2000.0000   2000.0000     28.6236    133.0369
   606.2500   2000.0000   2000.0000     29.1510    127.4141
   606.5000   2000.0000   2000.0000     29.6328    117.5997
   606.7500   2000.0000   2000.0000     30.3206    110.6366
   607.0000   2000.0000   2000.0000     31.3482     99.7940
   607.2500   2000.0000   2000.0000     32.7161     92.4340
   607.5000   2000.0000   2000.0000     34.3250     82.0087
   607.7500   2000.0000   2000.0000     36.0167     76.1674
   608.0000   2000.0000   2000.0000     37.5915     70.0154
   608.2500   2000.0000   2000.0000     38.8191     67.8818
   608.5000   2000.0000   2000.0000     39.5199     67.5878
   608.7500   2000.0000   2000.0000     39.7442     69.1332
   609.0000   2000.0000   2000.0000     39.8906     73.3605
   609.2500   2000.0000   2000.0000     40.5974     76.7333
   609.5000   2000.0000   2000.0000     42.5120     81.0636
   609.7500   2000.0000   2000.0000     46.1217     82.7202
   610.0000   2000.0000   2000.0000     51.6204     82.9677
   610.2500   2000.0000   2000.0000     58.6978     81.8993
   610.5000   2000.0000   2000.0000     66.3523     79.0382
   610.7500   2000.0000   2000.0000     73.0963     76.4506
   611.0000   2000.0000   2000.0000     77.6926     71.7437
   611.2500   2000.0000   2000.0000     79.7493     68.3791
   611.5000   2000.0000   2000.0000     79.6244     63.7506
   611.7500   2000.0000   2000.0000     78.0071     61.2216
   612.0000   2000.0000   2000.0000     75.6328     58.2949
   612.2500   2000.0000   2000.0000     73.1300     56.8096
   612.5000   2000.0000   2000.0000     70.9651     55.1701
   612.7500   2000.0000   2000.0000     69.4755     54.5750
   613.0000   2000.0000   2000.0000     68.9499     54.8438
   613.2500   2000.0000   2000.0000     69.6454     55.9639
   613.5000   2000.0000   2000.0000     71.7149     58.8315
   613.7500   2000.0000   2000.0000     75.0183     61.0923
   614.0000   2000.0000   2000.0000     78.8416     64.1042
   614.2500   2000.0000   2000.0000     81.6151     65.5298
   614.5000   2000.0000   2000.0000     81.1286     66.7383
   614.7500   2000.0000   2000.0000     75.9149     67.0191
   615.0000   2000.0000   2000.0000     66.9329     66.8349
   615.2500   2000.0000   2000.0000     57.0399     66.5313
   615.5000   2000.0000   2000.0000     48.6850     66.4667
   615.7500   2000.0000   2000.0000     42.8053     67.0689
   616.0000   2000.0000   2000.0000     39.2721     69.4009
   616.2500   2000.0000   2000.0000     37.5479     72.0937
   616.5000   2000.0000   2000.0000     37.0209     78.0069
   616.7500   2000.0000   2000.0000     37.1345     83.1620
   617.0000   2000.0000   2000.0000     37.4483     92.4306
   617.2500   2000.0000   2000.0000     37.6436     99.2567
   617.5000   2000.0000   2000.0000     37.4771    109.2763
   617.7500   2000.0000   2000.0000     36.7501    115.0517
   618.0000   2000.0000   2000.0000     35.3729    121.7240
   618.2500   2000.0000   2000.0000     33.4824    124.8780
   618.5000   2000.0000   2000.0000     31.4586    127.9191
   618.7500   2000.0000   2000.0000     29.7626    129.1388
   619.0000   2000.0000   2000.0000     28.7402    130.8199
   619.2500   2000.0000   2000.0000     28.5288    132.3426
   619.5000   2000.0000   2000.0000     29.0597    134.9875
   619.7500   2000.0000   2000.0000     30.0964    136.3881
   620.0000   2000.0000   2000.0000     31.3133    137.1610
   620.2500   2000.0000   2000.0000     32.4228    136.7102
   620.5000   2000.0000   2000.0000     33.2763    134.8070
   620.7500   2000.0000   2000.0000     33.8548    132.9817
   621.0000   2000.0000   2000.0000     34.2018    130.2871
   621.2500   2000.0000   2000.0000     34.3922    129.2287
   621.5000   2000.0000   2000.0000     34.5321    129.3604
   621.7500   2000.0000   2000.0000     34.7345    130.1796
   622.0000   2000.0000   2000.0000     35.0688    131.0607
   622.2500   2000.0000   2000.0000     35.5380    130.9052
   622.5000   2000.0000   2000.0000     36.0967    129.8258
   622.7500   2000.0000   2000.0000     36.6799    129.0036
   623.0000   2000.0000   2000.0000     37.2178    128.0933
   623.2500   2000.0000   2000.0000     37.6378    127.7053
   623.5000   2000.0000   2000.0000     37.8781    127.3493
   623.7500   2000.0000   2000.0000     37.9159    127.3671
   624.0000   2000.0000   2000.0000     37.7919    128.3424
   624.2500   2000.0000   2000.0000     37.5970    129.9832
   624.5000   2000.0000   2000.0000     37.4222    134.0616
   624.7500   2000.0000   2000.0000     37.3007    137.5941
   625.0000   2000.0000   2000.0000     37.1800    143.4338
   625.2500   2000.0000   2000.0000     36.9472    147.2364
   625.5000   2000.0000   2000.0000     36.5005    151.7044
   625.7500   2000.0000   2000.0000     35.8257    153.0415
   626.0000   2000.0000   2000.0000     35.0135    151.6588
   626.2500   2000.0000   2000.0000     34.1963    148.6783
   626.5000   2000.0000   2000.0000     33.4560    142.5317
   626.7500   2000.0000   2000.0000     32.7815    138.1862
   627.0000   2000.0000   2000.0000     32.1037    132.2943
   627.2500   2000.0000   2000.0000     31.3742    129.2945
   627.5000   2000.0000   2000.0000     30.6235    127.2320
   627.7500   2000.0000   2000.0000     29.9607    127.9420
   628.0000   2000.0000   2000.0000     29.5269    131.9436
   628.2500   2000.0000   2000.0000     29.4393    135.6973
   628.5000   2000.0000   2000.0000     29.7484    140.6981
   628.7500   2000.0000   2000.0000     30.4089    142.6092
   629.0000   2000.0000   2000.0000     31.2724    143.0374
   629.2500   2000.0000   2000.0000     32.1235    141.9327
   629.5000   2000.0000   2000.0000     32.7665    137.9330
   629.7500   2000.0000   2000.0000     33.1107    133.0557
   630.0000   2000.0000   2000.0000     33.1788    121.5068
   630.2500   2000.0000   2000.0000     33.0431    111.2731
   630.5000   2000.0000   2000.0000     32.7641     94.6237
   630.7500   2000.0000   2000.0000     32.3887     84.8846
   631.0000   2000.0000   2000.0000     31.9829     75.6299
   631.2500   2000.0000   2000.0000     31.6457     73.7836
   631.5000   2000.0000   2000.0000     31.4791     76.6436
   631.7500   2000.0000   2000.0000     31.5331     81.2312
   632.0000   2000.0000   2000.0000     31.7692     90.5936
   632.2500   2000.0000   2000.0000     32.0727     97.9034
   632.5000   2000.0000   2000.0000     32.3070    109.5047
   632.7500   2000.0000   2000.0000     32.3716    116.9023
   633.0000   2000.0000   2000.0000     32.2216    126.0133
   633.2500   2000.0000   2000.0000     31.8523    130.1500
