~Version Information
VERS.                      2.0: CWLS Log ASCII Standard - VERSION 2.0
WRAP.                       NO: One line per depth step
~Well Information Block
STRT.FT                -9.0000: 
STOP.FT              2130.0000: 
STEP.FT                 0.2500: 
NULL.                -999.2500: 
COMP.          Pioneer Natural Resources: COMPANY
WELL.               King 22-13: WELL
FLD.           Purgatorie River: FIELD
LOC.           2419' FNL & 1806' FWL: LOCATION
PROV.                 Colorado: PROVINCE
CNTY.               Las Animas: COUNTRY
SRVC.                Patterson: SERVICE COMPANY
DATE.          Wed Apr 20 09:20:28 2005: LOG DATE
UWI.           05-071-08318-00: UNIQUE WELL ID
~Curve Information Block
DEPT.FT            0 000 00 00: Depth
CCL.                          : Casing Collar Locator
TT3.usec                      : CBL 3' Travel Time
AMP3.mV                       : CBL 3' Amplitude
GR.GAPI                       : Gamma Ray
~Parameter Information Block
~A  Depth       CCL         TT3         AMP3         GR     
# ...
  1833.5000      0.0000    781.6840      2.4733     51.7795
  1833.7500      0.0000    848.9104      2.4049     49.8281
  1834.0000      0.0000    919.2753      2.3599     47.4907
  1834.2500      0.0000    981.2731      2.3255     44.7613
  1834.5000      0.0000   1017.3710      2.2935     42.1988
  1834.7500      0.0000   1011.6263      2.2619     40.5881
  1835.0000      0.0000    961.5300      2.2323     40.5687
  1835.2500      0.0000    884.2072      2.1999     42.5184
  1835.5000      0.0000    808.1102      2.1514     46.4267
  1835.7500      0.0000    755.6106      2.0788     51.4861
  1836.0000      0.0000    733.2392      1.9922     55.9260
  1836.2500      0.0000    736.7813      1.9130     57.8496
  1836.5000      0.0000    761.5638      1.8596     56.5790
  1836.7500      0.0000    805.8881      1.8406     53.0576
  1837.0000      0.0000    864.9749      1.8589     49.0016
  1837.2500      0.0000    922.9568      1.9141     45.9102
  1837.5000      0.0000    955.1759      1.9993     44.5571
  1837.7500      0.0000    944.6788      2.1026     44.7665
  1838.0000      0.0000    897.6553      2.2151     45.5999
  1838.2500      0.0000    838.2181      2.3376     46.1628
  1838.5000      0.0000    787.0239      2.4777     46.4691
  1838.7500      0.0000    748.0606      2.6413     47.5575
  1839.0000      0.0000    714.9459      2.8308     50.6181
  1839.2500      0.0000    683.8073      3.0473     55.7786
  1839.5000      0.0000    657.1444      3.2891     61.7736
  1839.7500      0.0000    638.6496      3.5458     66.9909
  1840.0000      0.0000    628.4758      3.7965     70.7601
  1840.2500      0.0000    623.5143      4.0176     73.3454
  1840.5000      0.0000    619.6693      4.1902     74.8508
  1840.7500      0.0000    612.7242      4.3055     74.6904
  1841.0000      0.0000    598.5081      4.3717     72.3258
  1841.2500      0.0000    575.2010      4.4152     68.2077
  1841.5000      0.0000    547.1407      4.4664     63.7737
  1841.7500      0.0000    523.8920      4.5367     60.5767
  1842.0000      0.0000    511.1467      4.6091     59.2912
  1842.2500      0.0000    502.7614      4.6569     59.3229
  1842.5000      0.0000    486.4101      4.6689     59.4575
  1842.7500      0.0000    457.6576      4.6544     58.9274
  1843.0000      0.0000    424.4720      4.6284     57.7223
  1843.2500      0.0000    397.9256      4.5992     56.1315
  1843.5000      0.0000    382.6016      4.5691     54.4377
  1843.7500      0.0000    376.2546      4.5382     52.9513
  1844.0000      0.0000    374.6914      4.5052     51.9602
  1844.2500      0.0000    375.0087      4.4689     51.5998
  1844.5000      0.0000    375.8761      4.4300     51.9435
  1844.7500      0.0000    376.7596      4.3902     53.1168
  1845.0000      0.0000    377.4038      4.3531     55.1289
  1845.2500      0.0000    377.7073      4.3254     57.6417
  1845.5000      0.0000    377.7156      4.3150     60.0622
  1845.7500      0.0000    377.5477      4.3215     61.7704
  1846.0000      0.0000    377.3068      4.3316     62.1351
  1846.2500      0.0000    377.0425      4.3274     60.6203
  1846.5000      0.0000    376.7661      4.3007     57.3083
  1846.7500      0.0000    376.4642      4.2604     53.2286
  1847.0000      0.0000    376.0798      4.2242     49.7604
  1847.2500      0.0000    375.5144      4.2046     47.7017
  1847.5000      0.0000    374.7109      4.2016     47.1855
  1847.7500      0.0000    373.7581      4.2084     48.2331
  1848.0000      0.0000    372.8839      4.2182     50.7214
  1848.2500      0.0000    372.3187      4.2253     53.7609
  1848.5000      0.0000    372.1683      4.2240     55.7435
  1848.7500      0.0000    372.3968      4.2123     55.5241
  1849.0000      0.0000    372.8863      4.1955     53.5358
  1849.2500      0.0000    373.4900      4.1843     51.4825
  1849.5000      0.0000    374.0587      4.1869     50.8617
  1849.7500      0.0000    374.4825      4.2035     51.8679
  1850.0000      0.0000    374.7748      4.2251     53.6158
  1850.2500      0.0000    375.3227      4.2341     55.0935
  1850.5000      0.0000    377.4018      4.2050     55.7257
  1850.7500      0.0000    383.9552      4.1104     55.3423
  1851.0000      0.0000    399.7489      3.9372     54.1549
  1851.2500      0.0000    429.4478      3.7118     52.9315
  1851.5000      0.0000    473.9547      3.5097     52.7317
  1851.7500      0.0000    528.9755      3.4145     54.0942
  1852.0000      0.0000    588.6243      3.4427     56.4483
  1852.2500      0.0000    649.1478      3.5287     58.3842
  1852.5000      0.0000    706.3649      3.6081     58.5123
  1852.7500      0.0000    751.4595      3.6887     56.2541
  1853.0000      0.0000    776.0129      3.8139     52.0943
  1853.2500      0.0000    782.9821      3.9874     47.2742
  1853.5000      5.0000    786.8804      4.1621     43.1061
  1853.7500      0.0000    798.8021      4.2799     40.3081
  1854.0000      0.0000    813.8233      4.3041     38.9342
  1854.2500      0.0000    816.3000      4.2346     39.0500
  1854.5000      0.0000    796.1589      4.1009     41.3138
  1854.7500      0.0000    757.9823      3.9364     46.5177
  1855.0000      0.0000    715.4041      3.7619     54.5456
  1855.2500      0.0000    679.6238      3.5983     64.0521
  1855.5000      0.0000    653.9534      3.4792     73.0124
  1855.7500      0.0000    636.2360      3.4348     79.3299
  1856.0000      0.0000    622.5504      3.4685     81.3821
  1856.2500      0.0000    608.9725      3.5569     78.9423
  1856.5000      0.0000    593.5344      3.6693     73.8300
  1856.7500      0.0000    578.1226      3.7803     69.1325
  1857.0000      0.0000    566.1572      3.8713     67.2732
  1857.2500      0.0000    556.2863      3.9293     68.6532
  1857.5000      0.0000    540.7028      3.9496     71.9685
  1857.7500      0.0000    512.8732      3.9390     75.6124
  1858.0000      0.0000    476.1191      3.9147     78.8139
  1858.2500      0.0000    442.2881      3.8975     81.6356
  1858.5000      0.0000    423.1012      3.8999     84.2755
  1858.7500      0.0000    424.5497      3.9201     86.7948
  1859.0000      0.0000    446.9341      3.9486     89.2662
  1859.2500      0.0000    485.4920      3.9763     91.4299
  1859.5000      0.0000    530.4388      3.9958     92.3423
  1859.7500      0.0000    570.2553      4.0002     91.1773
  1860.0000      0.0000    597.6330      3.9869     88.3106
  1860.2500      0.0000    612.3045      3.9629     85.0275
  1860.5000      0.0000    618.4206      3.9430     82.3343
  1860.7500      0.0000    620.3783      3.9403     80.4630
  1861.0000      0.0000    620.8334      3.9584     79.1966
  1861.2500      0.0000    620.8947      3.9911     78.1611
  1861.5000      0.0000    620.9025      4.0284     76.9990
  1861.7500      0.0000    620.9821      4.0603     75.7157
  1862.0000      0.0000    621.4185      4.0800     74.7797
  1862.2500      0.0000    622.8382      4.0878     74.5313
  1862.5000      0.0000    625.8540      4.0926     74.7205
  1862.7500      0.0000    630.0753      4.1035     75.0158
  1863.0000      0.0000    633.6406      4.1181     75.7486
  1863.2500      0.0000    634.4890      4.1210     77.6159
  1863.5000      0.0000    632.3004      4.0964     80.7401
  1863.7500      0.0000    628.7515      4.0433     84.4048
  1864.0000      0.0000    625.9985      3.9779     87.5994
  1864.2500      0.0000    625.5196      3.9227     89.4436
  1864.5000      0.0000    628.2066      3.8911     89.2088
  1864.7500      0.0000    634.4966      3.8779     86.6245
  1865.0000      0.0000    643.6609      3.8637     82.5486
  1865.2500      0.0000    653.1276      3.8332     78.9559
  1865.5000      0.0000    659.2301      3.7884     77.7401
  1865.7500      0.0000    659.3156      3.7418     79.3619
  1866.0000      0.0000    653.6533      3.7041     82.6253
  1866.2500      0.0000    645.6394      3.6846     85.6412
  1866.5000      0.0000    640.0266      3.6981     87.0163
  1866.7500      0.0000    640.2805      3.7601     86.3819
