~Version Information
VERS.                      2.0: CWLS Log ASCII Standard - VERSION 2.0
WRAP.                       NO: One line per depth step
~Well Information Block
STRT.FT                -4.5000: 
STOP.FT              1680.2500: 
STEP.FT                 0.2500: 
NULL.                -999.2500: 
COMP.          Pioneer Natural Resources: COMPANY
WELL.            Salty 42-6 Tr: WELL
FLD.           Purgatorie River: FIELD
LOC.           2409' FNL & 599' FEL--: LOCATION
PROV.                       CO: PROVINCE
CNTY.               Las Animas: COUNTRY
SRVC.                         : SERVICE COMPANY
DATE.          Mon Dec 20 13:36:48 2004: LOG DATE
UWI.           071-08238      : UNIQUE WELL ID
~Curve Information Block
DEPT.FT            0 000 00 00: Depth
HVOLTA.V                      : Head Voltage Apparent
GR.GAPI                       : Gamma Ray
CCL.                          : Casing Collar Locator
TT3.usec                      : CBL 3' Travel Time
AMP3.mV                       : CBL 3' Amplitude
~Parameter Information Block
~A  Depth      HVOLTA        GR         CCL         TT3         AMP3    
# ...
   863.5000     97.2194     90.3110      0.0000    754.7900     15.3474
   863.7500     97.0175     86.6322      0.0000    757.5756     15.3176
   864.0000     97.3424     86.2987      0.0000    758.8312     15.2660
   864.2500     97.2911     89.2274      0.0000    759.2141     15.2220
   864.5000     97.1310     94.8371      0.0000    759.0496     15.2550
   864.7500     97.1406    101.9363      0.0000    758.2418     15.4260
   865.0000     97.2779    109.2421      0.0000    756.3741     15.7300
   865.2500     97.3293    116.2835      0.0000    753.0198     16.0822
   865.5000     97.2504    123.7562      0.0000    748.1520     16.3630
   865.7500     97.2433    132.9593      0.0000    742.2319     16.4742
   866.0000     97.3078    144.5962      0.0000    735.9066     16.3619
   866.2500     97.2158    157.7507      0.0000    729.7908     16.0170
   866.5000     97.2397    170.0339      0.0000    724.3077     15.4763
   866.7500     97.3556    178.9537      0.0000    719.1794     14.8129
   867.0000     97.0963    183.1228      0.0000    712.8221     14.1102
   867.2500     97.0175    182.4070      0.0000    703.0493     13.4420
   867.5000     97.1334    177.7924      0.0000    689.8396     12.8665
   867.7500     97.2051    171.4469      0.0000    677.9830     12.4159
   868.0000     97.1776    166.1246      0.0000    675.2526     12.0817
   868.2500     97.3831    163.6559      0.0000    685.8448     11.8258
   868.5000     97.1131    163.7277      0.0000    706.0107     11.6188
   868.7500     97.3150    164.2919      0.0000    727.2687     11.4613
   869.0000     97.2087    163.4014      0.0000    743.1188     11.3633
   869.2500     97.2839    160.7261      0.0000    752.0450     11.3130
   869.5000     97.3353    157.4755      0.0000    755.7807     11.2793
   869.7500     97.2600    155.2107      0.0000    756.4950     11.2423
   870.0000     97.2230    154.9025      0.0000    755.5203     11.2109
   870.2500     97.0211    156.7108      0.0000    753.6744     11.2055
   870.5000     97.2672    159.9047      0.0000    751.9774     11.2242
   870.7500     97.1310    162.8016      0.0000    751.6166     11.2340
   871.0000     97.2672    163.6719      0.0000    753.0361     11.2004
   871.2500     97.2158    162.5312      0.0000    755.4632     11.1224
   871.5000     97.3150    161.6033      0.0000    757.6420     11.0298
   871.7500     97.2026    163.3210      0.0000    758.8893     10.9484
   872.0000     97.3353    168.0632      0.0000    759.2971     10.8782
   872.2500     97.2087    173.9170      0.0000    759.2286     10.8056
   872.5000     97.1370    178.0841      0.0000    758.8947     10.7268
   872.7500     97.1609    178.5504      0.0000    758.2878     10.6507
   873.0000     97.2051    175.2125      0.0000    757.2525     10.5829
   873.2500     97.3460    169.8895      0.0000    755.6063     10.5182
   873.5000     97.3724    164.9345      0.0000    753.4398     10.4520
   873.7500     97.2361    161.4709      0.0000    751.4385     10.3920
   874.0000     97.0378    158.9463      0.0000    750.6625     10.3523
   874.2500     97.0414    156.1309      0.0000    751.6682     10.3381
   874.5000     97.1106    152.1345      0.0000    753.9377     10.3390
   874.7500     97.3174    146.7758      0.0000    756.3808     10.3359
   875.0000     97.1680    140.8203      0.0000    758.2393     10.3135
   875.2500     97.2051    136.0120      0.0000    759.3724     10.2648
   875.5000     97.1060    134.2990      0.0000    759.9500     10.1867
   875.7500     97.2230    136.7231      0.0000    760.1548     10.0772
   876.0000     97.1645    142.9795      0.0000    760.1142      9.9438
   876.2500     97.4930    151.5253      0.0000    759.9195      9.8132
   876.5000     97.2194    159.8515      0.0000    759.6395      9.7281
   876.7500     97.2600    165.2930      0.0000    759.3381      9.7246
   877.0000     97.1680    166.2748      0.0000    759.0699      9.8088
   877.2500     97.2122    162.9401      0.0000    758.8567      9.9538
   877.5000     97.2326    156.8931      0.0000    758.6846     10.1150
   877.7500     97.3867    150.6988      0.0000    758.5419     10.2486
   878.0000     97.3007    147.0539      0.0000    758.4504     10.3225
   878.2500     97.4106    147.4055      0.0000    758.4454     10.3239
   878.5000     97.1848    151.0967      0.0000    758.5378     10.2673
   878.7500     97.0892    156.0869      0.0000    758.7128     10.1911
   879.0000     97.2636    160.4398      0.0000    758.9543     10.1376
   879.2500     97.1573    163.0616      0.0000    759.2422     10.1312
   879.5000     97.1131    163.2863      0.0000    759.5272     10.1729
   879.7500     97.1645    160.2961      0.0000    759.7426     10.2483
   880.0000     97.1537    153.6696      0.0000    759.8933     10.3383
   880.2500     97.1095    144.7037      0.0000    760.1603     10.4246
   880.5000     97.2265    136.6387      0.0000    760.9263     10.4895
   880.7500     97.2672    132.8925      0.0000    762.5942     10.5178
   881.0000     97.2433    134.8943      0.0000    765.1371     10.5063
   881.2500     97.3521    141.4967      0.0000    767.7232     10.4699
   881.5000     97.1955    149.8840      0.0000    769.1282     10.4361
   881.7500     97.1131    156.6408      0.0000    769.0315     10.4280
   882.0000     97.0486    158.7953      0.0000    769.0551     10.4505
   882.2500     97.2158    155.1169      0.0000    772.4227     10.4894
   882.5000     97.2397    146.8765      0.0000    782.1980     10.5246
   882.7500     97.3185    137.1250      0.0000    798.4841     10.5481
   883.0000     97.2839    128.7999      0.0000    815.9838     10.5680
   883.2500     97.0832    122.9473      0.0000    825.2881     10.5972
   883.5000     97.2672    118.3729      0.0000    819.4420     10.6399
   883.7500     97.2433    113.0200      0.0000    800.4385     10.6865
   884.0000     97.3460    105.9360      0.0000    778.0402     10.7154
   884.2500     97.1609     98.0705      0.0000    761.5154     10.6951
   884.5000     97.0999     91.3227      0.0000    753.1793     10.5907
   884.7500     97.1884     87.0936      0.0000    749.4611     10.3823
   885.0000     97.1441     85.9647      0.0000    746.4483     10.0805
   885.2500     97.2779     88.3212      0.0000    743.8882      9.7114
   885.5000     97.2982     94.4275      0.0000    745.2969      9.2903
   885.7500     97.1823    103.6354      0.0000    755.1890      8.8362
   886.0000     97.3018    113.9977      0.0000    774.8704      8.4083
   886.2500     97.1310    123.0586      0.0000    799.2426      8.0944
   886.5000     97.1991    129.1856      0.0000    818.4520      7.9453
   886.7500     97.2540    132.4239      0.0000    825.1615      7.9361
   887.0000     97.2361    134.2042      2.0000    820.8959      7.9933
   887.2500     97.3150    135.9977      2.0000    813.7368      8.0548
   887.5000     97.1370    138.1884      0.0000    809.7545      8.1337
   887.7500     97.1178    140.3505      0.0000    808.5141      8.3493
   888.0000     97.1035    142.0897      0.0000    806.3932      8.8467
   888.2500     97.2433    143.0025      0.0000    801.0309      9.6161
   888.5000     97.2051    142.2586      0.0000    792.0757     10.4212
   888.7500     97.0760    139.1105      0.0000    780.7398     10.9793
   889.0000     97.3831    134.0353      0.0000    769.8353     11.1914
   889.2500     97.0653    128.8448      0.0000    762.2897     11.1532
   889.5000     97.2946    125.1460      0.0000    758.8263     11.0012
   889.7500     97.2158    122.9321      0.0000    757.7910     10.8184
   890.0000     97.3902    121.1475      0.0000    756.8860     10.6448
   890.2500     97.3902    119.1663      0.0000    754.4163     10.5018
   890.5000     97.2672    116.9082      0.0000    749.4207     10.3925
   890.7500     97.0175    113.9228      0.0000    741.6916     10.3069
   891.0000     97.5869    109.5771      0.0000    731.6183     10.2407
   891.2500     97.8613    104.2476      0.0000    719.4152     10.2091
