~Version Information
VERS.                      2.0: CWLS Log ASCII Standard - VERSION 2.0
WRAP.                       NO: One line per depth step
~Well Information Block
STRT.FT               750.0000: 
STOP.FT              2433.0000: 
STEP.FT                 0.2500: 
NULL.                -999.2500: 
COMP.          Petrogulf Corporation: COMPANY
WELL.           McDaniel 9-34V: WELL
FLD.           Purgatorie River: FIELD
LOC.           620' FSL & 1800' FEL: LOCATION
PROV.                 Colorado: PROVINCE
CNTY.               Las Animas: COUNTRY
SRVC.                Patterson: SERVICE COMPANY
DATE.          Tue Sep 27 19:56:11 2005: LOG DATE
UWI.                          : UNIQUE WELL ID
~Curve Information Block
DEPT.FT            0 000 00 00: Depth
SP.mV                         : DIL Spontaneous Potential
RILD.Ohm-m                    : DIL Deep Resistivity
RILM.Ohm-m                    : DIL Medium Resistivity
RLL3.Ohm-m                    : DIL Shallow Resistivity
GR.GAPI                       : Gamma Ray
~Parameter Information Block
~A  Depth        SP         RILD        RILM        RLL3         GR     
# ...
  1086.0000    178.8906     18.6296     20.4113     24.7436    128.9769
  1086.2500    178.2944     17.7714     19.6509     25.5087    123.9178
  1086.5000    177.6900     16.9874     18.8380     25.7340    117.1633
  1086.7500    177.0813     16.3244     17.9985     25.2887    114.4312
  1087.0000    176.4797     15.8036     17.1684     24.2358    113.9932
  1087.2500    175.9052     15.4201     16.3863     22.7244    115.9654
  1087.5000    175.3856     15.1485     15.6864     20.9291    120.8014
  1087.7500    174.9539     14.9515     15.0937     19.0219    124.0903
  1088.0000    174.6441     14.7872     14.6208     17.1967    127.7618
  1088.2500    174.4876     14.6140     14.2669     15.7562    129.2764
  1088.5000    174.5083     14.3969     14.0178     15.2158    130.4356
  1088.7500    174.7190     14.1171     13.8456     16.3575    130.2001
  1089.0000    175.1194     13.7796     13.7118     20.0802    127.0160
  1089.2500    175.6936     13.4116     13.5729     26.7818    122.4781
  1089.5000    176.4115     13.0511     13.3903     35.3500    112.7532
  1089.7500    177.2298     12.7349     13.1426     42.7551    105.5012
  1090.0000    178.0961     12.4900     12.8330     45.4230     95.6228
  1090.2500    178.9544     12.3323     12.4873     41.8217     90.5837
  1090.5000    179.7516     12.2665     12.1447     33.7665     86.1192
  1090.7500    180.4436     12.2871     11.8446     24.9727     85.3933
  1091.0000    181.0006     12.3797     11.6174     18.4416     87.9337
  1091.2500    181.4097     12.5229     11.4809     15.1594     92.1510
  1091.5000    181.6748     12.6926     11.4412     14.5575    101.5623
  1091.7500    181.8140     12.8681     11.4966     15.5068    108.6393
  1092.0000    181.8552     13.0395     11.6417     16.9494    117.6160
  1092.2500    181.8319     13.2121     11.8717     18.1664    121.3147
  1092.5000    181.7782     13.4034     12.1853     18.9003    122.8148
  1092.7500    181.7251     13.6340     12.5848     19.3509    121.3264
  1093.0000    181.6984     13.9160     13.0740     20.0334    116.2570
  1093.2500    181.7164     14.2480     13.6540     21.6324    111.6840
  1093.5000    181.7896     14.6156     14.3163     24.9196    104.2540
  1093.7500    181.9199     14.9991     15.0374     30.5115     99.5407
  1094.0000    182.1019     15.3808     15.7758     38.2813     93.4151
  1094.2500    182.3243     15.7489     16.4754     46.7559     89.7687
  1094.5000    182.5709     16.0954     17.0760     53.2109     84.0602
  1094.7500    182.8231     16.4105     17.5282     54.8741     79.9971
  1095.0000    183.0607     16.6781     17.8059     50.7263     75.0577
  1095.2500    183.2622     16.8741     17.9089     42.4570     74.0647
  1095.5000    183.4052     16.9713     17.8555     33.4659     77.9857
  1095.7500    183.4663     16.9466     17.6712     26.6511     84.2354
  1096.0000    183.4223     16.7922     17.3792     22.9571     97.1998
  1096.2500    183.2534     16.5218     16.9983     21.6248    106.6376
  1096.5000    182.9463     16.1678     16.5460     21.3439    119.6607
  1096.7500    182.4982     15.7711     16.0426     21.1356    126.7362
  1097.0000    181.9197     15.3695     15.5136     20.5722    133.9598
  1097.2500    181.2344     14.9902     14.9879     19.6238    136.0857
  1097.5000    180.4762     14.6506     14.4933     18.4920    135.3034
  1097.7500    179.6846     14.3621     14.0522     17.5204    132.9571
  1098.0000    178.8988     14.1357     13.6789     17.0685    128.8067
  1098.2500    178.1533     13.9826     13.3799     17.3032    126.4106
  1098.5000    177.4739     13.9114     13.1567     18.0411    123.2629
  1098.7500    176.8760     13.9253     13.0091     18.8052    120.9933
  1099.0000    176.3637     14.0223     12.9388     19.1139    117.0495
  1099.2500    175.9293     14.1984     12.9518     18.8170    114.3877
  1099.5000    175.5545     14.4525     13.0586     18.2211    111.3936
  1099.7500    175.2120     14.7896     13.2741     17.8910    110.6997
  1100.0000    174.8688     15.2206     13.6158     18.2902    112.3149
  1100.2500    174.4911     15.7582     14.1029     19.5432    115.1447
  1100.5000    174.0504     16.4112     14.7554     21.4755    121.0363
  1100.7500    173.5291     17.1812     15.5944     23.8718    125.0105
  1101.0000    172.9251     18.0642     16.6420     26.7825    129.2279
  1101.2500    172.2523     19.0579     17.9217     30.6865    130.3891
  1101.5000    171.5389     20.1690     19.4572     36.3451    129.9056
  1101.7500    170.8218     21.4151     21.2704     44.2887    128.3169
  1102.0000    170.1394     22.8180     23.3759     54.1993    123.8121
  1102.2500    169.5243     24.3901     25.7722     64.8178    119.2118
  1102.5000    168.9981     26.1165     28.4286     74.8023    110.2778
  1102.7500    168.5681     27.9398     31.2689     83.8889    103.5421
  1103.0000    168.2279     29.7589     34.1571     92.9625     93.5010
  1103.2500    167.9598     31.4518     36.8952    102.6609     87.6264
  1103.5000    167.7387     32.9151     39.2454    111.9423     81.0047
  1103.7500    167.5358     34.0932     40.9832    118.2109     77.9388
  1104.0000    167.3222     34.9720     41.9665    118.8328     74.1938
  1104.2500    167.0707     35.5523     42.1877    112.5870     71.9432
  1104.5000    166.7567     35.8344     41.7747    100.1671     70.2966
  1104.7500    166.3595     35.8263     40.9420     83.9284     71.7758
  1105.0000    165.8626     35.5627     39.9218     67.2003     78.9287
  1105.2500    165.2567     35.1136     38.9098     53.1863     85.9326
  1105.5000    164.5415     34.5763     38.0389     43.7770     96.1790
  1105.7500    163.7296     34.0550     37.3766     39.0614    101.3047
  1106.0000    162.8476     33.6367     36.9365     37.8719    106.6584
  1106.2500    161.9374     33.3710     36.6934     38.7615    109.8090
  1106.5000    161.0522     33.2685     36.6019     40.6390    114.9059
  1106.7500    160.2516     33.3164     36.6141     42.9055    117.9510
  1107.0000    159.5937     33.5002     36.6958     45.3531    120.0889
  1107.2500    159.1263     33.8147     36.8374     47.9607    119.2469
  1107.5000    158.8808     34.2548     37.0538     50.5546    114.9567
  1107.7500    158.8688     34.8003     37.3782     52.5424    110.9461
  1108.0000    159.0835     35.4097     37.8491     53.1805    105.2140
  1108.2500    159.5042     36.0275     38.4992     52.3565    102.7089
  1108.5000    160.1026     36.5981     39.3466     51.0450    101.7449
  1108.7500    160.8485     37.0726     40.3874     50.8012    102.4197
  1109.0000    161.7132     37.4098     41.5884     52.8972    103.4167
  1109.2500    162.6691     37.5765     42.8771     58.0475    103.0879
  1109.5000    163.6878     37.5551     44.1339     66.4826    100.4861
  1109.7500    164.7368     37.3548     45.1946     77.4198     97.5226
  1110.0000    165.7792     37.0175     45.8732     88.1895     91.9867
  1110.2500    166.7744     36.6039     46.0092     94.6005     87.9587
  1110.5000    167.6833     36.1647     45.5208     93.1888     81.8142
  1110.7500    168.4733     35.7100     44.4336     83.6829     78.0862
  1111.0000    169.1242     35.2008     42.8649     69.3978     74.6606
  1111.2500    169.6310     34.5667     40.9738     55.1588     74.9156
  1111.5000    170.0042     33.7449     38.9105     44.5262     79.8842
  1111.7500    170.2666     32.7146     36.7873     38.3755     85.6763
  1112.0000    170.4478     31.5057     34.6750     35.4248     95.8499
  1112.2500    170.5789     30.1783     32.6146     33.7668    102.3214
  1112.5000    170.6871     28.7949     30.6301     32.1165    110.3155
  1112.7500    170.7930     27.4071     28.7380     30.1582    114.2605
  1113.0000    170.9093     26.0565     26.9513     28.1960    118.0603
  1113.2500    171.0419     24.7796     25.2802     26.6336    119.3994
  1113.5000    171.1913     23.6060     23.7335     25.6411    120.4500
  1113.7500    171.3536     22.5562     22.3196     25.0802    121.0047
