~Version Information               
VERS.     2.0     :     CWLS LAS VERSION
WRAP.                         NO     :     WRAPING MODE
~Well Information   
API.                      :            
WELL.               Egan 9-11V     :     WELL
COMP.                    N/A     :     COMPANY
FLD.                    N/A     :     FIELD
LOC.                    N/A     :     LOCATION
CNTY.                    N/A     :     COUNTY
STATE.              N/A     :     STATE
CTRY.                    N/A     :     COUNTRY
DATE.                N/A     :     DATE (LOGGED)
UWI.                    N/A     :     UNIQUE WELL ID
SRVC.                N/A     :     SERVICE COMPANY
STAT.                           :
STRT.FT              612.00     :     START DEPTH
STOP.FT             2500.00     :     STOP DEPTH
STEP.FT                1.00     :     DEPTH INCREMENT
NULL.             -9999           :     NULL VALUE
~Curve information               
 DEPTH.FT                                   :
 ROP.MIN/FT                                 :
 GAS.UNITS                                  :     
C1.PPM          :     
C2.PPM          :
~ASCII Log data               
# ...
1934.00        0.26     7         13.6          -49995
1935.00        0.26     7         14.1          -49995
1936.00        0.26     7         12.9          -49995
1937.00        0.23     3         12.5          -49995
1938.00        0.23     3         13.4          -49995
1939.00        6.73     3         20.0          -49995
1940.00        0.23     3         33.7          -49995
1941.00        0.20     0         33.7          -49995
1942.00        0.51     7         55.1          -49995
1943.00        0.36     7         69.4          -49995
1944.00        0.30     0         63.9          -49995
1945.00        0.36     7         58.2          -49995
1946.00        0.26     7         44.0          -49995
1947.00        0.23     3         40.4          -49995
1948.00        0.26     7         36.1          -49995
1949.00        0.30     0         33.3          -49995
1950.00        0.26     7         32.2          -49995
1951.00        0.23     3         28.8          -49995
1952.00        0.20     0         28.5          -49995
1953.00        0.20     0         27.5          -49995
1954.00        0.20     0         25.8          -49995
1955.00        0.21     7         25.4          -49995
1956.00        0.26     7         23.1          -49995
1957.00        0.30     0         20.1          -49995
1958.00        0.23     3         20.8          -49995
1959.00        0.26     7         18.3          -49995
1960.00        0.23     3         17.4          -49995
1961.00        0.23     3         18.0          -49995
1962.00        0.20     0         17.5          -49995
1963.00        0.23     3         17.3          -49995
1964.00        0.23     3         16.8          -49995
1965.00        0.26     7         16.5          -49995
1966.00        0.26     7         15.5          -49995
1967.00        0.20     0         15.3          -49995
1968.00        0.16     7         15.3          -49995
1969.00        0.21     7         14.6          -49995
1970.00        0.23     3         10.5          -49995
1971.00        0.20     0         13.7          -49995
1972.00        0.06     7         13.7          -49995
1973.00        0.36     7         20.4          -49995
1974.00        0.53     3         39.1          -49995
1975.00        0.66     7         55.0          -49995
1976.00        0.40     0         47.0          -49995
1977.00        0.43     3         31.2          -49995
1978.00        0.36     7         18.5          -49995
1979.00        0.28     3         13.4          -49995
1980.00        0.20     0         12.1          -49995
1981.00        0.20     0         11.6          -49995
1982.00        0.33     3         10.3          -49995
1983.00        0.26     7          9.7          -49995
1984.00        0.26     7         10.1          -49995
1985.00        0.26     7          9.6          -49995
1986.00        0.23     3          9.1          -49995
1987.00        0.20     0          8.6          -49995
1988.00        0.26     7          8.0          -49995
1989.00        0.23     3          8.1          -49995
1990.00        0.26     7          8.0          -49995
1991.00        0.23     3          7.4          -49995
1992.00        0.23     3          7.7          -49995
1993.00        0.25     0          7.7          -49995
1994.00        0.23     3          7.8          -49995
1995.00        0.23     3          7.4          -49995
1996.00        0.20     0          7.1          -49995
1997.00        0.20     0          7.1          -49995
1998.00        0.16     7          7.1          -49995
1999.00        0.23     3         14.2          -49995
2000.00        0.23     3          8.0          -49995
2001.00        0.20     0          7.1          -49995
2002.00        0.20     0          7.8          -49995
2003.00        0.56     7          8.2          -49995
2004.00        0.36     7         11.5          -49995
2005.00        0.43     3         16.6          -49995
2006.00        0.40     0         26.4          -49995
2007.00        0.40     0         27.4          -49995
2008.00        0.40     0         24.7          -49995
2009.00        0.35     0         21.4          -49995
2010.00        0.33     3         16.9          -49995
2011.00        0.33     3         14.5          -49995
2012.00        0.30     0         11.7          -49995
2013.00        0.23     3         11.7          -49995
2014.00        0.26     7          9.6          -49995
2015.00        0.26     7          9.2          -49995
2016.00        0.26     7          8.6          -49995
2017.00        0.26     7          8.7          -49995
2018.00        0.26     7          8.2          -49995
2019.00        0.33     3          8.4          -49995
2020.00        0.21     7          8.8          -49995
2021.00        0.23     3          9.3          -49995
2022.00        0.23     3          9.1          -49995
2023.00        0.26     7          8.8          -49995
2024.00        0.23     3          8.3          -49995
2025.00        0.23     3          8.0          -49995
2026.00        0.23     3          7.6          -49995
2027.00        0.23     3          7.8          -49995
2028.00        0.23     3          7.4          -49995
2029.00        0.30     0          6.9          -49995
2030.00        0.26     7          6.8          -49995
2031.00        0.26     7          4.0          -49995
2032.00        0.26     7          3.8          -49995
2033.00        0.50     0          5.2          -49995
2034.00        0.36     7          6.9          -49995
2035.00        0.36     7         11.9          -49995
2036.00        0.33     3         22.1          -49995
2037.00        0.31     7         25.8          -49995
2038.00        0.30     0         26.2          -49995
2039.00        0.30     0         24.9          -49995
2040.00        0.30     0         21.8          -49995
2041.00        0.30     0         18.1          -49995
2042.00        0.30     0         14.5          -49995
2043.00        0.30     0         13.2          -49995
2044.00        0.30     0         10.9          -49995
2045.00        0.30     0          9.7          -49995
2046.00        0.26     7          9.5          -49995
2047.00        0.26     7          9.4          -49995
2048.00        0.26     7          9.2          -49995
2049.00        0.28     3          9.5          -49995
2050.00        0.20     0          9.5          -49995
2051.00        0.26     7          9.2          -49995
2052.00        0.16     7          9.2          -49995
2053.00        0.26     7          9.1          -49995
2054.00        0.20     0          9.4          -49995
2055.00        0.23     3          9.4          -49995
2056.00        0.20     0          9.3          -49995
2057.00        0.23     3          9.5          -49995
2058.00        0.16     7          9.3          -49995
2059.00        0.16     7         10.5          -49995
2060.00        0.20     0          5.6          -49995
2061.00        0.26     7          5.5          -49995
2062.00        0.26     7          5.4          -49995
2063.00        0.26     7          6.1          -49995
2064.00        0.26     7          6.6          -49995
2065.00        0.26     7          8.8          -49995
2066.00        0.26     7         12.7          -49995
2067.00        0.23     3         18.3          -49995
2068.00        0.26     7         21.8          -49995
2069.00        0.31     7         24.0          -49995
2070.00        0.43     3         23.3          -49995
2071.00        0.23     3         19.2          -49995
2072.00        0.36     7         16.8          -49995
2073.00        0.36     7         15.0          -49995
2074.00        0.26     7         11.9          -49995
2075.00        0.30     0         11.1          -49995
2076.00        0.26     7         12.1          -49995
2077.00        0.26     7         11.3          -49995
2078.00        0.30     0         11.5          -49995
2079.00        0.23     3         10.8          -49995
