~Version Information
VERS.                      2.0: CWLS Log ASCII Standard - VERSION 2.0
WRAP.                       NO: One line per depth step
~Well Information Block
STRT.FT               -12.5000: 
STOP.FT              2487.7500: 
STEP.FT                 0.2500: 
NULL.                -999.2500: 
COMP.          Petrogulf Corporation: COMPANY
WELL.             Royal 8-33 V: WELL
FLD.           Purgatorie River: FIELD
LOC.           2365' FSL & 2336' FEL--: LOCATION
CNTY.               Las Animas: COUNTY
SRVC.                         : SERVICE COMPANY
DATE.          Sat Jan 17 11:43:49 2004: LOG DATE
UWI.           05 071 07934 00: UNIQUE WELL ID
STAT.                       CO: STATE
~Curve Information Block
DEPT.FT            0 000 00 00: Depth
CCL.                          : Casing Collar Locator
TT3.usec                      : CBL 3' Travel Time
AMP3.mV                       : CBL 3' Amplitude
GR.GAPI                       : Gamma Ray
~Parameter Information Block
~A  Depth       CCL         TT3         AMP3         GR     
# ...
  1964.0000      0.0000    696.3954      3.8669    102.9196
  1964.2500      0.0000    703.1771      3.8985    106.0197
  1964.5000      0.0000    711.6508      3.8704    108.1784
  1964.7500      0.0000    721.1006      3.8454    108.9494
  1965.0000      0.0000    731.6993      3.8811    108.0615
  1965.2500      0.0000    743.9344      4.0021    105.8428
  1965.5000      0.0000    756.6526      4.1641    103.5085
  1965.7500      0.0000    765.7748      4.2674    102.6996
  1966.0000      0.0000    765.9583      4.2310    104.1945
  1966.2500      0.0000    754.8882      4.0472    107.0177
  1966.5000      0.0000    736.3669      3.7617    109.1665
  1966.7500      0.0000    718.3859      3.4299    109.3483
  1967.0000      0.0000    707.4859      3.1010    107.9879
  1967.2500      0.0000    704.7840      2.8136    106.7722
  1967.5000      0.0000    706.6716      2.5818    107.1699
  1967.7500      0.0000    708.3383      2.3919    108.9829
  1968.0000      0.0000    706.8002      2.2246    110.3839
  1968.2500      0.0000    701.8484      2.0807    109.7929
  1968.5000      0.0000    695.2972      1.9798    107.6527
  1968.7500      0.0000    689.5283      1.9319    106.0234
  1969.0000      0.0000    686.1639      1.9190    106.5419
  1969.2500      0.0000    685.4894      1.9049    109.0581
  1969.5000      0.0000    686.7780      1.8606    112.0584
  1969.7500      0.0000    689.0881      1.7875    113.9420
  1970.0000      0.0000    692.0273      1.7181    113.9754
  1970.2500      0.0000    695.9591      1.6896    112.5882
  1970.5000      0.0000    701.1518      1.7131    110.8940
  1970.7500      0.0000    706.4543      1.7714    109.6604
  1971.0000      0.0000    709.3741      1.8462    108.8018
  1971.2500      0.0000    708.2532      1.9426    107.9381
  1971.5000      0.0000    704.2245      2.0791    106.9484
  1971.7500      0.0000    700.6665      2.2564    105.6674
  1972.0000      0.0000    701.0440      2.4481    103.5992
  1972.2500      0.0000    707.3033      2.6157    100.4460
  1972.5000      0.0000    719.3051      2.7296     96.5586
  1972.7500      0.0000    735.0726      2.7855     92.4256
  1973.0000      0.0000    751.7188      2.8130     88.1053
  1973.2500      0.0000    765.9729      2.8567     83.6399
  1973.5000      0.0000    773.8538      2.9385     79.7335
  1973.7500      0.0000    771.8252      3.0419     77.5340
  1974.0000      0.0000    760.5650      3.1320     77.7802
  1974.2500      0.0000    746.6880      3.1782     80.2260
  1974.5000      0.0000    738.1187      3.1603     83.6102
  1974.7500      0.0000    737.1797      3.0761     86.0686
  1975.0000      0.0000    739.0703      2.9557     86.0169
  1975.2500      0.0000    736.9452      2.8493     83.2495
  1975.5000      0.0000    727.8579      2.7878     79.3887
  1975.7500      0.0000    714.2655      2.7601     76.8879
  1976.0000      0.0000    701.1732      2.7326     77.1899
  1976.2500      0.0000    692.7017      2.6838     79.8650
  1976.5000      0.0000    690.6352      2.6190     83.5816
  1976.7500      0.0000    694.7062      2.5584     87.4485
  1977.0000      0.0000    703.5225      2.5187     91.1949
  1977.2500      0.0000    715.5668      2.5049     94.6301
  1977.5000      0.0000    729.5745      2.5070     97.4264
  1977.7500      0.0000    743.6539      2.5008     99.2348
  1978.0000      0.0000    753.9238      2.4597     99.6770
  1978.2500      0.0000    755.1791      2.3739     98.2360
  1978.5000      0.0000    744.8561      2.2591     94.3915
  1978.7500      0.0000    726.6613      2.1527     88.1345
  1979.0000      0.0000    708.7909      2.1019     80.5019
  1979.2500      0.0000    697.8065      2.1369     73.4052
  1979.5000      0.0000    694.3632      2.2375     68.5398
  1979.7500      0.0000    694.2679      2.3335     66.4289
  1980.0000      0.0000    692.8583      2.3562     66.8165
  1980.2500      0.0000    688.5244      2.2941     69.7273
  1980.5000      0.0000    682.8098      2.1965     75.5001
  1980.7500      0.0000    677.9584      2.1218     83.7838
  1981.0000      0.0000    674.7647      2.0848     93.0266
  1981.2500      0.0000    672.3131      2.0558    101.1212
  1981.5000      0.0000    668.9450      2.0037    106.4679
  1981.7500      0.0000    663.4407      1.9278    108.6864
  1982.0000      0.0000    655.9922      1.8459    108.6553
  1982.2500      0.0000    648.5405      1.7722    107.8975
  1982.5000      0.0000    643.9787      1.7158    107.7629
  1982.7500      0.0000    644.5230      1.6855    108.8526
  1983.0000      0.0000    650.3367      1.6799    110.6950
  1983.2500      0.0000    659.2404      1.6838    111.8902
  1983.5000      0.0000    667.6337      1.6820    111.1009
  1983.7500      0.0000    672.3310      1.6682    108.1562
  1984.0000      0.0000    672.5889      1.6409    103.9389
  1984.2500      0.0000    670.9863      1.6108     99.2912
  1984.5000      0.0000    671.9532      1.6127     94.5527
  1984.7500      0.0000    678.6546      1.6862     90.1465
  1985.0000      0.0000    690.7870      1.8337     86.9468
  1985.2500      0.0000    705.0764      2.0180     85.5499
  1985.5000      0.0000    718.0101      2.2067     85.2326
  1985.7500     -4.0000    728.5646      2.4011     84.1053
  1986.0000      0.0000    738.3505      2.6215     80.6369
  1986.2500      0.0000    748.8199      2.8877     74.9663
  1986.5000      0.0000    759.0332      3.2077     68.5738
  1986.7500      0.0000    766.7772      3.5564     62.9282
  1987.0000      0.0000    770.2686      3.8640     58.8550
  1987.2500      0.0000    767.8126      4.0688     56.9241
  1987.5000      0.0000    758.1874      4.2005     57.7049
  1987.7500      0.0000    742.8652      4.3894     61.3791
  1988.0000      0.0000    725.3937      4.7804     67.3855
  1988.2500      0.0000    707.0353      5.4412     74.6975
  1988.5000      0.0000    686.0496      6.3423     82.4126
  1988.7500      0.0000    664.4426      7.3847     89.7876
  1989.0000      0.0000    652.8478      8.4250     95.7236
  1989.2500      0.0000    662.6618      9.2916     98.8385
  1989.5000      0.0000    692.3146      9.8143     98.6212
  1989.7500      0.0000    725.8547      9.8762     96.3944
  1990.0000      0.0000    746.4930      9.4663     94.6352
  1990.2500      0.0000    748.8246      8.7035     95.0899
  1990.5000      0.0000    738.6345      7.8040     97.4668
  1990.7500      0.0000    725.0728      6.9937     99.8785
  1991.0000      0.0000    714.2676      6.4081    100.5162
  1991.2500      0.0000    707.8546      6.0575     99.0420
  1991.5000      0.0000    704.7629      5.8790     96.8243
  1991.7500      0.0000    703.4257      5.8161     96.1965
  1992.0000      0.0000    702.8270      5.8539     99.0852
  1992.2500      0.0000    702.5464      5.9993    105.4836
  1992.5000      0.0000    702.5706      6.2367    112.9621
  1992.7500      0.0000    703.2112      6.4993    118.1043
  1993.0000      0.0000    705.1936      6.6858    118.9015
  1993.2500      0.0000    709.6684      6.7222    115.9293
  1993.5000      0.0000    717.7807      6.6159    111.3495
  1993.7500      0.0000    729.7932      6.4431    107.0181
  1994.0000      0.0000    744.4288      6.2775    103.6805
  1994.2500      0.0000    759.1815      6.1272    101.6848
  1994.5000      0.0000    771.4542      5.9389    101.6556
  1994.7500      0.0000    779.6133      5.6550    103.8335
  1995.0000      0.0000    783.2025      5.2732    106.9472
  1995.2500      0.0000    782.3992      4.8608    108.6210
  1995.5000      0.0000    777.5605      4.5066    107.3865
  1995.7500      0.0000    769.5214      4.2483    103.8857
  1996.0000      0.0000    759.9197      4.0562     99.8138
  1996.2500      0.0000    750.3959      3.8882     96.4933
  1996.5000      0.0000    741.0109      3.7381     94.9949
  1996.7500      0.0000    730.1254      3.6248     96.5249
  1997.0000      0.0000    717.0825      3.5619    101.4334
  1997.2500      0.0000    705.2288      3.5530    108.2942
