~Version Information
VERS.                      2.0: CWLS Log ASCII Standard - VERSION 2.0
WRAP.                       NO: One line per depth step
~Well Information Block
STRT.FT               395.0000: 
STOP.FT              1998.0000: 
STEP.FT                 0.1000: 
NULL.                -999.2500: 
COMP.          Pioneer Natural Resources: COMPANY
WELL.          Easton 12-30 Tr: WELL
FLD.           Purgatoire River: FIELD
LOC.           549' FWL & 2416' FNL--: LOCATION
PROV.                 Colorado: PROVINCE
CNTY.               Las Animas: COUNTRY
SRVC.                Patterson: SERVICE COMPANY
DATE.          Thu Jun 02 09:14:44 2005: LOG DATE
UWI.           05 071 08379 00: UNIQUE WELL ID
~Curve Information Block
DEPT.FT            0 000 00 00: Depth
DCAL.in                       : CDL Caliper
RHOB.g/cc                     : CDL Bulk Density
RHOC.g/cc                     : CDL Density Correction
DPOR.pu                       : CDL Density Porosity
NPOR.pu                       : Neutron Porosity
GR.GAPI                       : Gamma Ray
~Parameter Information Block
~A  Depth       DCAL        RHOB        RHOC        DPOR        NPOR         GR     
# ...
   500.6000      8.0925      2.6191      0.0395      1.8699     27.9296     98.6227
   500.7000      8.0925      2.6104      0.0449      2.4023     28.1611     95.6359
   500.8000      8.0907      2.6061     -0.0095      2.6629     28.1098     92.7263
   500.9000      8.0907      2.6100     -0.0064      2.4217     28.1766     90.3502
   501.0000      8.0891      2.6142      0.0130      2.1719     28.4771     90.7429
   501.1000      8.0891      2.6171     -0.0325      1.9956     28.5682     93.6826
   501.2000      8.0891      2.6236     -0.0029      1.5970     28.3906     96.8390
   501.3000      8.0890      2.6251     -0.0065      1.5081     28.5525     98.4452
   501.4000      8.0890      2.6117      0.0067      2.3219     28.9725     99.2147
   501.5000      8.0908      2.5876     -0.0253      3.7830     29.0436    101.9123
   501.6000      8.0908      2.5595     -0.0158      5.4837     28.8926    107.3643
   501.7000      8.0908      2.5321     -0.0396      7.1483     28.8896    112.4669
   501.8000      8.0925      2.5208     -0.0348      7.8293     28.9685    114.2171
   501.9000      8.0925      2.5342     -0.0047      7.0158     28.8657    115.0846
   502.0000      8.0930      2.5479      0.0493      6.1876     28.3470    119.1127
   502.1000      8.0930      2.5330      0.0351      7.0895     27.5586    125.9603
   502.2000      8.0930      2.5017     -0.0350      8.9873     26.8412    133.4046
   502.3000      8.0933      2.4910     -0.0219      9.6363     26.3274    137.3911
   502.4000      8.0933      2.5096      0.0350      8.5061     26.0500    135.7896
   502.5000      8.0943      2.5329      0.0257      7.0993     26.0508    134.7208
   502.6000      8.0943      2.5379      0.0401      6.7919     26.0080    136.8752
   502.7000      8.0943      2.5279      0.0167      7.4020     25.5174    137.3700
   502.8000      8.0930      2.5205      0.0443      7.8496     24.7476    135.5023
   502.9000      8.0930      2.5223      0.0547      7.7405     24.0880    133.9609
   503.0000      8.0909      2.5316      0.0402      7.1774     23.6909    133.4198
   503.1000      8.0909      2.5462      0.0897      6.2906     23.4922    134.7326
   503.2000      8.0909      2.5564      0.1146      5.6714     23.4768    135.2402
   503.3000      8.0915      2.5536      0.1104      5.8453     23.8031    130.4932
   503.4000      8.0915      2.5361      0.0793      6.9023     24.1735    124.0732
   503.5000      8.0930      2.5127      0.0520      8.3227     23.9818    121.4948
   503.6000      8.0930      2.4969      0.0714      9.2802     23.3597    122.5872
   503.7000      8.0930      2.4942      0.0548      9.4442     22.7107    124.8425
   503.8000      8.0937      2.5031      0.0875      8.9013     22.3546    125.6586
   503.9000      8.0937      2.5173      0.0830      8.0428     22.4546    124.5875
   504.0000      8.0946      2.5272      0.0873      7.4408     22.3731    124.0536
   504.1000      8.0946      2.5286      0.0604      7.3576     21.7784    124.4338
   504.2000      8.0946      2.5248      0.0766      7.5909     21.5370    123.1056
   504.3000      8.0943      2.5196      0.1009      7.9057     22.1806    121.4629
   504.4000      8.0943      2.5201      0.0477      7.8726     23.2500    121.2513
   504.5000      8.0929      2.5345      0.0873      7.0006     24.2389    123.3312
   504.6000      8.0929      2.5570      0.1006      5.6390     25.0846    127.7528
   504.7000      8.0929      2.5749      0.1360      4.5525     25.8452    128.4917
   504.8000      8.0927      2.5843      0.0983      3.9796     26.6771    123.4249
   504.9000      8.0927      2.5905      0.0891      3.6047     27.7015    119.0735
   505.0000      8.0924      2.5944      0.0844      3.3708     28.6395    118.0979
   505.1000      8.0924      2.5949      0.0618      3.3414     29.1682    118.4240
   505.2000      8.0924      2.6003      0.0512      3.0133     29.3413    120.4318
   505.3000      8.0906      2.6127      0.0721      2.2580     29.4015    122.1822
   505.4000      8.0906      2.6166      0.0688      2.0265     29.3915    119.7095
   505.5000      8.0900      2.6020      0.0533      2.9080     29.1228    114.5731
   505.6000      8.0900      2.5889     -0.0088      3.7028     28.6117    110.1372
   505.7000      8.0900      2.6016      0.0441      2.9317     27.9552    109.0526
   505.8000      8.0916      2.6266      0.0619      1.4152     27.2063    110.0411
   505.9000      8.0916      2.6306      0.0698      1.1765     26.7846    108.0293
   506.0000      8.0923      2.6094      0.0279      2.4582     26.9435    104.9124
   506.1000      8.0923      2.5896      0.0111      3.6599     27.1941    106.7899
   506.2000      8.0923      2.5847      0.0445      3.9582     27.1898    112.4412
   506.3000      8.0919      2.5890      0.0138      3.6956     27.1535    114.1370
   506.4000      8.0919      2.6037      0.0281      2.8038     27.4324    109.5775
   506.5000      8.0912      2.6284      0.0334      1.3074     27.9459    104.8578
   506.6000      8.0912      2.6458      0.0636      0.2566     28.2794    103.7473
   506.7000      8.0912      2.6376      0.0432      0.7525     28.5122    103.6436
   506.8000      8.0912      2.6124      0.0292      2.2789     28.9306    101.5575
   506.9000      8.0912      2.5906      0.0320      3.6003     29.4767    100.0730
   507.0000      8.0916      2.5819      0.0127      4.1297     30.0507    101.1179
   507.1000      8.0916      2.5860      0.0224      3.8764     30.4614    103.5459
   507.2000      8.0916      2.5911      0.0440      3.5679     30.6035    107.1060
   507.3000      8.0906      2.5843     -0.0097      3.9830     30.7418    109.2570
   507.4000      8.0906      2.5678     -0.0037      4.9818     30.7711    107.4880
   507.5000      8.0903      2.5561     -0.0250      5.6906     30.3150    102.6142
   507.6000      8.0903      2.5583      0.0000      5.5571     29.6347     98.0013
   507.7000      8.0903      2.5657      0.0023      5.1105     29.2005     97.2450
   507.8000      8.0927      2.5660      0.0146      5.0894     29.1298    101.0494
   507.9000      8.0927      2.5568     -0.0010      5.6471     29.1739    107.2361
   508.0000      8.0935      2.5428      0.0085      6.4952     28.7499    113.6636
   508.1000      8.0935      2.5363     -0.0090      6.8921     27.8852    119.4955
   508.2000      8.0935      2.5485      0.0165      6.1495     27.4259    124.5609
   508.3000      8.0923      2.5765      0.0077      4.4520     27.4348    126.6772
   508.4000      8.0923      2.6114      0.0475      2.3385     27.4957    126.1160
   508.5000      8.0920      2.6448      0.0871      0.3135     27.7741    128.9114
   508.6000      8.0920      2.6609      0.1250     -0.6582     28.1775    135.3090
   508.7000      8.0920      2.6493      0.0591      0.0411     28.3843    136.7957
   508.8000      8.0918      2.6231      0.0415      1.6284     28.5854    131.5596
   508.9000      8.0918      2.6030      0.0449      2.8465     29.0807    124.4567
   509.0000      8.0917      2.5963      0.0713      3.2524     29.7555    119.6708
   509.1000      8.0917      2.5933      0.0710      3.4344     30.2312    119.4771
   509.2000      8.0917      2.5882      0.0169      3.7441     30.1151    123.8814
   509.3000      8.0918      2.5878      0.0082      3.7723     29.4625    131.7350
   509.4000      8.0918      2.5909      0.0168      3.5841     28.6162    138.0001
   509.5000      8.0927      2.5855      0.0273      3.9063     27.7061    138.5624
   509.6000      8.0927      2.5726     -0.0024      4.6890     26.9627    133.7994
   509.7000      8.0927      2.5709     -0.0043      4.7947     26.6364    127.2929
   509.8000      8.0926      2.5846      0.0463      3.9653     26.6702    126.9444
   509.9000      8.0926      2.5953      0.0585      3.3158     26.5769    132.7981
   510.0000      8.0916      2.5978      0.0667      3.1622     26.0458    136.1141
   510.1000      8.0916      2.6019      0.0556      2.9148     25.4383    134.4271
