~Version Information
VERS.                      2.0: CWLS Log ASCII Standard - VERSION 2.0
WRAP.                       NO: One line per depth step
~Well Information Block
STRT.FT               840.0000: 
STOP.FT              2020.0000: 
STEP.FT                 0.1000: 
NULL.                -999.2500: 
COMP.          Petrogulf Corporation: COMPANY
WELL.           Lavedure 7-44R: WELL
FLD.           Purgatorie River: FIELD
LOC.           946' FSL & 521' FEL: LOCATION
PROV.                 Colorado: PROVINCE
CNTY.               Las Animas: COUNTRY
SRVC.                Patterson: SERVICE COMPANY
DATE.          Mon Sep 26 08:30:48 2005: LOG DATE
UWI.                          : UNIQUE WELL ID
~Curve Information Block
DEPT.FT            0 000 00 00: Depth
DCAL.in                       : CDL Caliper
RHOB.g/cc                     : CDL Bulk Density
RHOC.g/cc                     : CDL Density Correction
DPOR.pu                       : CDL Density Porosity
GR.GAPI                       : Gamma Ray
NPOR.pu                       : Neutron Porosity
~Parameter Information Block
~A  Depth       DCAL        RHOB        RHOC        DPOR         GR         NPOR    
# ...
  1377.6000      8.0631      2.5692     -0.0093      4.8990    147.7049     23.9745
  1377.7000      8.0631      2.5643      0.0005      5.1948    142.7624     23.9768
  1377.8000      8.0627      2.5639      0.0391      5.2165    143.8023     23.6249
  1377.9000      8.0627      2.5609     -0.0038      5.3993    148.2751     23.4779
  1378.0000      8.0707      2.5745      0.0043      4.5782    151.5289     23.8879
  1378.1000      8.0707      2.6087      0.0428      2.5022    152.8268     24.4302
  1378.2000      8.0707      2.6403      0.0564      0.5888    151.8315     24.9569
  1378.3000      8.0797      2.6533      0.0455     -0.1996    149.4570     25.5328
  1378.4000      8.0797      2.6511      0.0391     -0.0641    146.9999     25.9290
  1378.5000      8.0882      2.6411      0.0286      0.5385    141.6697     25.9955
  1378.6000      8.0882      2.6307      0.0226      1.1705    133.3355     25.7768
  1378.7000      8.0882      2.6272      0.0236      1.3845    129.2548     25.2940
  1378.8000      8.0986      2.6312      0.0223      1.1369    133.1307     24.8408
  1378.9000      8.0986      2.6353      0.0354      0.8905    138.1246     24.8396
  1379.0000      8.1024      2.6283      0.0531      1.3136    138.9636     25.1707
  1379.1000      8.1024      2.6085     -0.0148      2.5157    139.0452     25.3414
  1379.2000      8.1024      2.5920     -0.0369      3.5170    140.9647     25.2753
  1379.3000      8.1067      2.5900      0.0142      3.6356    141.7667     25.1998
  1379.4000      8.1067      2.5969      0.0216      3.2211    139.4397     25.1843
  1379.5000      8.1138      2.6013      0.0473      2.9491    137.4347     25.1309
  1379.6000      8.1138      2.5939      0.0644      3.3978    137.9130     24.7946
  1379.7000      8.1138      2.5778      0.0408      4.3778    137.3147     24.2225
  1379.8000      8.1112      2.5694      0.0098      4.8851    135.6694     23.9634
  1379.9000      8.1112      2.5805      0.0373      4.2120    137.0959     24.3737
  1380.0000      8.1141      2.5996      0.0758      3.0517    138.9750     25.0554
  1380.1000      8.1141      2.6065      0.0712      2.6382    137.0123     25.3952
  1380.2000      8.1141      2.5962      0.0585      3.2616    134.6880     25.3372
  1380.3000      8.1105      2.5812      0.0388      4.1699    134.3597     25.1848
  1380.4000      8.1105      2.5750      0.0539      4.5425    133.6485     25.1024
  1380.5000      8.1169      2.5784      0.0230      4.3364    133.0235     25.0599
  1380.6000      8.1169      2.5862      0.0491      3.8659    133.0939     24.9948
  1380.7000      8.1169      2.5979      0.0083      3.1575    132.5352     24.9483
  1380.8000      8.1165      2.6125      0.0352      2.2746    131.3349     24.8747
  1380.9000      8.1165      2.6204      0.0573      1.7949    129.6092     24.4733
  1381.0000      8.1164      2.6143      0.0268      2.1656    128.1737     23.8329
  1381.1000      8.1164      2.5941      0.0017      3.3864    128.3832     23.5775
  1381.2000      8.1164      2.5689     -0.0068      4.9160    129.2087     24.0205
  1381.3000      8.1315      2.5563     -0.0154      5.6809    130.7046     24.8882
  1381.4000      8.1315      2.5592     -0.0102      5.5010    134.1424     25.4487
  1381.5000      8.1336      2.5653     -0.0136      5.1339    138.2840     25.2754
  1381.6000      8.1336      2.5702      0.0090      4.8355    142.0323     24.8008
  1381.7000      8.1336      2.5728      0.0181      4.6787    144.6909     24.4774
  1381.8000      8.1406      2.5709      0.0111      4.7963    144.4764     24.4756
  1381.9000      8.1406      2.5699      0.0059      4.8545    140.1004     24.7690
  1382.0000      8.1413      2.5747      0.0259      4.5619    135.3561     25.0534
  1382.1000      8.1413      2.5767      0.0416      4.4438    135.4557     25.2400
  1382.2000      8.1413      2.5738      0.0262      4.6171    138.9330     25.5907
  1382.3000      8.1477      2.5839      0.0283      4.0080    141.2150     26.1064
  1382.4000      8.1477      2.6063      0.0611      2.6502    139.4577     26.2515
  1382.5000      8.1513      2.6164      0.0563      2.0391    133.4969     25.7681
  1382.6000      8.1513      2.6095      0.0022      2.4532    126.7932     25.2076
  1382.7000      8.1513      2.5992      0.0275      3.0772    123.2436     24.9463
  1382.8000      8.1566      2.5899     -0.0025      3.6451    123.1699     24.9471
  1382.9000      8.1566      2.5852      0.0112      3.9265    124.5635     25.1823
  1383.0000      8.1560      2.5850      0.0775      3.9422    127.1106     25.3295
  1383.1000      8.1560      2.5794      0.0121      4.2767    129.4410     25.1850
  1383.2000      8.1560      2.5718     -0.0230      4.7423    129.8561     25.0497
  1383.3000      8.1548      2.5708      0.0500      4.7991    131.3633     25.1002
  1383.4000      8.1548      2.5712      0.0285      4.7783    136.4112     25.3166
  1383.5000      8.1617      2.5638      0.0385      5.2254    141.7806     25.6839
  1383.6000      8.1617      2.5480      0.0136      6.1824    144.3660     25.9146
  1383.7000      8.1617      2.5357     -0.0182      6.9275    144.7803     25.8189
  1383.8000      8.1634      2.5407      0.0264      6.6239    143.0199     25.7577
  1383.9000      8.1634      2.5566      0.0230      5.6586    139.7721     25.9409
  1384.0000      8.1699      2.5650      0.0371      5.1522    138.1449     26.0637
  1384.1000      8.1699      2.5621     -0.0044      5.3270    138.8396     25.8637
  1384.2000      8.1699      2.5588      0.0373      5.5270    138.6125     25.5858
  1384.3000      8.1796      2.5564      0.0298      5.6726    134.8806     25.6696
  1384.4000      8.1796      2.5491     -0.0352      6.1144    129.3141     26.0931
  1384.5000      8.1789      2.5374      0.0244      6.8255    126.1246     26.4904
  1384.6000      8.1789      2.5309     -0.0524      7.2204    128.9473     26.6512
  1384.7000      8.1789      2.5409      0.0098      6.6095    135.1738     26.4685
  1384.8000      8.1805      2.5616      0.0093      5.3547    139.5063     25.9647
  1384.9000      8.1805      2.5773      0.0097      4.4088    141.7620     25.4894
  1385.0000      8.1884      2.5794      0.0439      4.2817    142.6946     25.4396
  1385.1000      8.1884      2.5716      0.0420      4.7544    141.8292     25.9434
  1385.2000      8.1884      2.5554      0.0567      5.7320    140.2656     26.7649
  1385.3000      8.2012      2.5266      0.0400      7.4788    140.5916     27.2907
  1385.4000      8.2012      2.4993     -0.0210      9.1348    145.9224     27.2447
  1385.5000      8.2077      2.4930      0.0112      9.5126    156.1189     27.0298
  1385.6000      8.2077      2.4984      0.0529      9.1879    165.6798     26.8815
  1385.7000      8.2077      2.4951      0.0257      9.3888    170.8044     26.8034
  1385.8000      8.2149      2.4779      0.0287     10.4278    174.2729     26.9031
  1385.9000      8.2149      2.4527     -0.0055     11.9552    177.4197     27.2705
  1386.0000      8.2191      2.4293     -0.0356     13.3780    177.4075     27.7748
  1386.1000      8.2191      2.4070     -0.0020     14.7249    174.3042     28.1108
  1386.2000      8.2191      2.3867     -0.0516     15.9570    173.5698     28.1801
  1386.3000      8.2257      2.3841     -0.0124     16.1139    176.4717     28.3500
  1386.4000      8.2257      2.3982      0.0462     15.2633    176.6048     28.9887
  1386.5000      8.2561      2.4045      0.0781     14.8807    170.6236     29.8621
  1386.6000      8.2561      2.3974      0.0267     15.3116    162.4818     30.3957
  1386.7000      8.2561      2.3921      0.0545     15.6332    155.6932     30.4522
  1386.8000      8.2571      2.3989      0.0599     15.2207    151.4358     30.4063
  1386.9000      8.2571      2.4246      0.0714     13.6580    148.8609     30.4424
  1387.0000      8.2274      2.4640      0.1118     11.2722    143.3791     30.4523
  1387.1000      8.2274      2.4962      0.1189      9.3220    134.8411     30.4390
