~Version Information
VERS.                      2.0: CWLS Log ASCII Standard - VERSION 2.0
WRAP.                       NO: One line per depth step
~Well Information Block
STRT.FT               298.0000: 
STOP.FT              1325.5000: 
STEP.FT                 0.2500: 
NULL.                -999.2500: 
COMP.          Pioneer Natural Resources: COMPANY
WELL.          Santa Fe 43-27 Tr: WELL
FLD.           Purgatoire River: FIELD
LOC.           2018' FSL & 534' FEL: LOCATION
PROV.                 Colorado: PROVINCE
CNTY.               Las Animas: COUNTRY
SRVC.                Patterson: SERVICE COMPANY
DATE.          Tue Mar 08 10:44:11 2005: LOG DATE
UWI.           05 071 08303 00: UNIQUE WELL ID
~Curve Information Block
DEPT.FT            0 000 00 00: Depth
SN.Ohm-m                      : IEL Short Normal
SP.mV                         : IEL Spontaneous Potential
DIR.Ohm-m                     : IEL Induction Resistivity
GR.GAPI                       : Gamma Ray
~Parameter Information Block
~A  Depth        SN          SP         DIR          GR     
   298.0000   2000.0000   2000.0000     75.9888    114.3753
   298.2500   2000.0000   2000.0000     75.7233    114.0709
   298.5000   2000.0000   2000.0000     75.7891    113.1471
   298.7500   2000.0000   2000.0000     76.3248    112.2580
   299.0000   2000.0000   2000.0000     77.1892    110.9272
   299.2500   2000.0000   2000.0000     78.0115    110.2901
   299.5000   2000.0000   2000.0000     78.3870    109.8790
   299.7500   2000.0000   2000.0000     78.1262    109.7620
   300.0000   2000.0000   2000.0000     77.3602    109.0267
   300.2500   2000.0000   2000.0000     76.4173    107.8899
   300.5000   2000.0000   2000.0000     75.6057    105.9189
   300.7500   2000.0000   2000.0000     75.0854    105.3888
   301.0000   2000.0000   2000.0000     74.8885    107.1756
   301.2500   2000.0000   2000.0000     75.0009    110.2903
   301.5000   2000.0000   2000.0000     75.4081    117.0651
   301.7500   2000.0000   2000.0000     76.0625    122.0341
   302.0000   2000.0000   2000.0000     76.7953    128.2004
   302.2500   2000.0000   2000.0000     77.2899    130.5437
   302.5000   2000.0000   2000.0000     77.1673    131.0680
   302.7500   2000.0000   2000.0000     76.1473    130.1311
   303.0000   2000.0000   2000.0000     74.1927    129.0194
   303.2500   2000.0000   2000.0000     71.5760    129.4568
   303.5000   2000.0000   2000.0000     68.8450    131.2974
   303.7500   2000.0000   2000.0000     66.6550    131.8123
   304.0000   2000.0000   2000.0000     65.5188    129.2189
   304.2500   2000.0000   2000.0000     65.6080    124.9840
   304.5000   2000.0000   2000.0000     66.6988    115.8579
   304.7500   2000.0000   2000.0000     68.2796    108.7455
   305.0000   2000.0000   2000.0000     69.8136     98.1178
   305.2500   2000.0000   2000.0000     71.0255     92.0962
   305.5000   2000.0000   2000.0000     71.9863     86.0589
   305.7500   2000.0000   2000.0000     72.9163     84.1763
   306.0000   2000.0000   2000.0000     73.8976     83.4436
   306.2500   2000.0000   2000.0000     74.7306     83.3278
   306.5000   2000.0000   2000.0000     75.0646     82.6267
   306.7500   2000.0000   2000.0000     74.7271     81.9093
   307.0000   2000.0000   2000.0000     73.9370     81.2267
   307.2500   2000.0000   2000.0000     73.1782     81.2101
   307.5000   2000.0000   2000.0000     72.8695     81.3347
   307.7500   2000.0000   2000.0000     73.1636     81.0705
   308.0000   2000.0000   2000.0000     73.9584     79.9743
   308.2500   2000.0000   2000.0000     75.0204     79.1495
   308.5000   2000.0000   2000.0000     76.1137     78.5706
   308.7500   2000.0000   2000.0000     77.0671     78.7355
   309.0000   2000.0000   2000.0000     77.7721     79.4747
   309.2500   2000.0000   2000.0000     78.1542     80.1622
   309.5000   2000.0000   2000.0000     78.1638     81.3477
   309.7500   2000.0000   2000.0000     77.8026     81.8713
   310.0000   2000.0000   2000.0000     77.1583     81.2305
   310.2500   2000.0000   2000.0000     76.3952     79.6377
   310.5000   2000.0000   2000.0000     75.6829     76.5857
   310.7500   2000.0000   2000.0000     75.1100     75.1722
   311.0000   2000.0000   2000.0000     74.6206     74.9276
   311.2500   2000.0000   2000.0000     74.0064     75.6368
   311.5000   2000.0000   2000.0000     73.0005     76.4231
   311.7500   2000.0000   2000.0000     71.4659     75.9398
   312.0000   2000.0000   2000.0000     69.5544     73.2912
   312.2500   2000.0000   2000.0000     67.6411     70.6751
   312.5000   2000.0000   2000.0000     66.0178     66.8516
   312.7500   2000.0000   2000.0000     64.5937     65.0139
   313.0000   2000.0000   2000.0000     62.8656     63.3141
   313.2500   2000.0000   2000.0000     60.2368     62.2010
   313.5000   2000.0000   2000.0000     56.4931     59.1970
   313.7500   2000.0000   2000.0000     52.0168     56.0802
   314.0000   2000.0000   2000.0000     47.6316     50.7458
   314.2500   2000.0000   2000.0000     44.3430     47.7634
   314.5000   2000.0000   2000.0000     43.2356     45.5350
   314.7500   2000.0000   2000.0000     45.7229     45.7753
   315.0000   2000.0000   2000.0000     54.5594     48.1257
   315.2500   2000.0000   2000.0000     77.2637     50.4856
   315.5000   2000.0000   2000.0000    142.0475     54.8229
   315.7500   2000.0000   2000.0000    452.4478     58.3079
   316.0000   2000.0000   2000.0000 100000.0000     64.2870
   316.2500   2000.0000   2000.0000 100000.0000     68.3456
   316.5000   2000.0000   2000.0000 100000.0000     73.5619
   316.7500   2000.0000   2000.0000    869.2181     76.0557
   317.0000   2000.0000   2000.0000    453.4419     78.3814
   317.2500   2000.0000   2000.0000    413.3755     79.4789
   317.5000   2000.0000   2000.0000    735.1194     81.4787
   317.7500   2000.0000   2000.0000 100000.0000     77.8110
   318.0000   2000.0000   2000.0000 100000.0000     81.1398
   318.2500   2000.0000   2000.0000 100000.0000     83.5464
   318.5000   2000.0000   2000.0000 100000.0000     86.9439
   318.7500   2000.0000   2000.0000 100000.0000     82.5617
   319.0000   2000.0000   2000.0000 100000.0000     84.9823
   319.2500   2000.0000   2000.0000 100000.0000     86.6475
   319.5000   2000.0000   2000.0000 100000.0000     90.1365
   319.7500   2000.0000   2000.0000 100000.0000     86.6465
   320.0000   2000.0000   2000.0000 100000.0000     94.6200
   320.2500   2000.0000   2000.0000 100000.0000    101.6526
   320.5000   2000.0000   2000.0000 100000.0000    113.1504
   320.7500   2000.0000   2000.0000 100000.0000    110.0918
   321.0000   2000.0000   2000.0000 100000.0000    116.9966
   321.2500   2000.0000   2000.0000 100000.0000    119.5189
   321.5000   2000.0000   2000.0000 100000.0000    120.7402
   321.7500   2000.0000   2000.0000    109.1679    109.5390
   322.0000   2000.0000   2000.0000      8.7270    108.6449
   322.2500   2000.0000   2000.0000      4.7445    108.0001
   322.5000   2000.0000   2000.0000      3.7356    107.3966
   322.7500   2000.0000   2000.0000      3.6061    107.5331
   323.0000   2000.0000   2000.0000      3.9703    108.9634
   323.2500   2000.0000   2000.0000      4.7710    110.8850
   323.5000   2000.0000   2000.0000      6.1346    115.5490
   323.7500   2000.0000   2000.0000      8.5234    120.0667
   324.0000   2000.0000   2000.0000     13.2887    128.9460
   324.2500   2000.0000   2000.0000     24.3893    135.8871
   324.5000   2000.0000   2000.0000     50.2184    146.6965
   324.7500   2000.0000   2000.0000     66.0456    153.3786
   325.0000   2000.0000   2000.0000     39.4026    161.2619
   325.2500   2000.0000   2000.0000     22.2446    164.3932
   325.5000   2000.0000   2000.0000     15.1380    165.2529
   325.7500   2000.0000   2000.0000     12.1240    163.5710
   326.0000   2000.0000   2000.0000     10.8811    159.5148
   326.2500   2000.0000   2000.0000     10.4907    157.0712
   326.5000   2000.0000   2000.0000     10.5235    155.0548
   326.7500   2000.0000   2000.0000     10.7527    154.8315
   327.0000   2000.0000   2000.0000     11.0593    155.3561
   327.2500   2000.0000   2000.0000     11.3981    155.4270
   327.5000   2000.0000   2000.0000     11.7924    153.6569
   327.7500   2000.0000   2000.0000     12.3268    151.0656
   328.0000   2000.0000   2000.0000     13.1165    146.4050
   328.2500   2000.0000   2000.0000     14.2460    143.8304
   328.5000   2000.0000   2000.0000     15.6838    141.5854
   328.7500   2000.0000   2000.0000     17.2213    141.1025
   329.0000   2000.0000   2000.0000     18.5345    141.6887
   329.2500   2000.0000   2000.0000     19.3997    142.7508
   329.5000   2000.0000   2000.0000     19.8412    144.0933
   329.7500   2000.0000   2000.0000     20.0240    143.5578
   330.0000   2000.0000   2000.0000     20.0739    138.8894
   330.2500   2000.0000   2000.0000     20.0360    133.3567
   330.5000   2000.0000   2000.0000     19.9505    124.1326
   330.7500   2000.0000   2000.0000     19.9168    119.5924
   331.0000   2000.0000   2000.0000     20.0787    117.6599
   331.2500   2000.0000   2000.0000     20.5594    119.4389
