~Version Information
 VERS.                                  2.0 : CWLS LAS VERSION
 WRAP.                                   NO : WRAPING MODE
 SWARE .                 MController 2.5.0E : SOFTWARE VERSION
~Well Information
 WELL.                        Rimrock 14-29 : WELL
 COMP.             Evergreen Operating Corp : COMPANY
 FLD.                      Purgatorie River : FIELD
 LOC.                SW SW Sec 29 T32S R65W : LOCATION
 DATE.                              9/20/04 : DATE(S) LOGGED
 SRVC.       Blanco Geological Services LLC : SERVICE COMPANY
 STAT.                                   CO : STATE
 CNTY.                           Las Animas : COUNTY
 CTRY.                                  USA : COUNTRY
 API.                       05-071-08136-00 : API NUMBER
 STRT.FT                             517.00 : START DEPTH
 STOP.FT                            1705.00 : STOP DEPTH
 STEP.FT                               1.00 : DEPTH INCREMENT
 NULL.                                -9999 : NULL VALUE
~Curve information
 DEPTH.FT                                   :
 ROP.MIN/FT                                 :
 GAS.UNITS                                  :
~ASCII Log data
      517.00    -9999.000          1.6 
      518.00        0.133          1.8 
      519.00        0.100          1.6 
      520.00        0.067          1.6 
      521.00        0.100          1.8 
      522.00        0.100          1.9 
      523.00        0.067          1.6 
      524.00        0.117          1.7 
      525.00        0.067          1.8 
      526.00        0.100          1.7 
      527.00        0.100          1.9 
      528.00        0.067          1.6 
      529.00        0.100          1.8 
      530.00        0.100          1.4 
      531.00        0.100          1.5 
      532.00        0.067          1.8 
      533.00        0.100          1.7 
      534.00        0.100          1.6 
      535.00        0.167          1.7 
      536.00        0.067          1.7 
      537.00        0.100          1.6 
      538.00        0.067          1.5 
      539.00        0.100          1.7 
      540.00        0.067          1.7 
      541.00        1.533          2.1 
      542.00        0.133          1.8 
      543.00        0.067          1.7 
      544.00        0.217          1.8 
      545.00        0.067          1.8 
      546.00        0.100          1.8 
      547.00        0.067          1.8 
      548.00        0.100          1.8 
      549.00        0.133          1.7 
      550.00        0.100          1.7 
      551.00        0.100          1.9 
      552.00        0.233          1.8 
      553.00        0.400          2.1 
      554.00        0.167          1.8 
      555.00        0.167          1.8 
      556.00        0.167          1.9 
      557.00        0.167          2.1 
      558.00        0.167          1.8 
      559.00        0.133          2.1 
      560.00        0.133          1.8 
      561.00        0.067          1.9 
      562.00        0.167          1.9 
      563.00        0.133          1.8 
      564.00        0.200          2.0 
      565.00        0.233          2.0 
      566.00        1.617          2.0 
      567.00        0.200          1.7 
      568.00        0.267          1.7 
      569.00        0.167          1.6 
      570.00        0.167          1.5 
      571.00        0.100          1.6 
      572.00        0.100          1.5 
      573.00        0.100          1.7 
      574.00        0.067          1.4 
      575.00        0.133          1.8 
      576.00        0.100          1.6 
      577.00        0.133          1.9 
      578.00        0.067          1.6 
      579.00        0.100          1.7 
      580.00        0.117          1.5 
      581.00        0.100          1.8 
      582.00        0.133          1.6 
      583.00        0.133          1.5 
      584.00        0.100          1.7 
      585.00        0.100          1.6 
      586.00        0.100          1.4 
      587.00        0.133          1.5 
      588.00        0.133          1.6 
      589.00        0.133          1.6 
      590.00        0.133          1.5 
      591.00        0.100          1.3 
      592.00        0.100          1.5 
      593.00        0.133          1.7 
      594.00        0.133          1.7 
      595.00        0.133          1.6 
      596.00        2.017          1.9 
      597.00        0.233          1.8 
      598.00        0.167          1.6 
      599.00        0.233          1.7 
      600.00        0.167          1.7 
      601.00        0.200          1.7 
      602.00        0.167          1.7 
      603.00        0.133          1.8 
      604.00        0.133          2.0 
      605.00        0.167          1.8 
      606.00        0.200          2.0 
      607.00        0.167          1.9 
      608.00        0.200          1.6 
      609.00        0.167          1.6 
      610.00        0.133          1.8 
      611.00        0.133          1.8 
      612.00        0.167          2.1 
      613.00        0.183          1.8 
      614.00        0.100          1.5 
      615.00        0.133          1.2 
      616.00        0.167          0.8 
      617.00        0.167          0.9 
      618.00        0.167          0.8 
      619.00        0.200          0.5 
      620.00        0.133          0.5 
      621.00        0.100          0.3 
      622.00        0.133          0.0 
      623.00        0.167         -0.2 
      624.00        0.133         -0.4 
      625.00        0.233         -0.3 
      626.00        1.400          0.1 
      627.00        0.117          0.1 
      628.00        0.133          0.2 
      629.00        0.100          0.2 
      630.00        0.200          0.2 
      631.00        0.133          0.1 
      632.00        0.200          0.1 
      633.00        0.167         -0.2 
      634.00        0.133         -0.3 
      635.00        0.100         -0.4 
      636.00        0.133         -0.3 
      637.00        0.100         -0.3 
      638.00        0.167         -0.1 
      639.00        0.100         -0.2 
      640.00        0.100         -0.3 
      641.00        0.100         -0.1 
      642.00        0.100         -0.4 
      643.00        0.133         -0.3 
      644.00        0.133         -0.5 
      645.00        0.133         -0.3 
      646.00        0.100         -0.5 
      647.00        0.100          2.9 
      648.00        0.133          2.9 
      649.00        0.133          3.0 
      650.00        0.167          3.1 
      651.00        0.100          2.9 
      652.00        0.133          2.7 
      653.00        0.217          2.8 
      654.00        0.167          2.9 
      655.00        0.133          2.8 
      656.00        1.133          2.8 
      657.00        0.233          2.8 
      658.00        0.267          3.1 
      659.00        0.300          3.2 
      660.00        0.367          3.1 
      661.00        0.133          3.0 
      662.00        0.133          2.9 
      663.00        0.133          2.7 
      664.00        0.183          2.4 
      665.00        0.167          2.3 
      666.00        0.133          2.4 
      667.00        0.133          2.4 
      668.00        0.133          2.6 
      669.00        0.133          2.5 
      670.00        0.133          2.5 
      671.00        0.100          2.5 
      672.00        0.133          2.6 
      673.00        0.133          2.6 
      674.00        0.167          2.5 
      675.00        0.133          2.6 
      676.00        0.167          2.6 
      677.00        0.133          2.7 
      678.00        0.133          2.6 
      679.00        0.100          2.6 
      680.00        0.100          3.0 
      681.00        0.100          2.8 
      682.00        0.133          2.7 
      683.00        0.167          2.7 
      684.00        0.167          2.6 
      685.00        0.167          2.7 
      686.00        1.617          2.6 
      687.00        0.267          2.6 
      688.00        0.300          2.5 
      689.00        0.267          2.7 
      690.00        0.200          2.6 
      691.00        0.233          2.7 
      692.00        0.200          2.6 
      693.00        0.167          2.8 
      694.00        0.133          2.8 
      695.00        0.100          2.9 
      696.00        0.167          3.1 
      697.00        0.150          3.0 
      698.00        0.100          3.1 
      699.00        0.100          2.9 
      700.00        0.133          3.2 
      701.00        0.167          3.2 
      702.00        0.167          3.2 
      703.00        0.100          3.0 
      704.00        0.100          2.9 
      705.00        0.100          3.1 
      706.00        0.100          3.0 
      707.00        0.133          2.9 
      708.00        0.100          2.9 
      709.00        0.100          2.9 
      710.00        0.133          2.8 
      711.00        0.167          2.8 
      712.00        0.133          2.8 
      713.00        0.133          2.8 
      714.00        0.133          2.9 
      715.00        0.167          2.8 
      716.00        0.983          3.2 
