~Version Information
VERS.                      2.0: CWLS Log ASCII Standard - VERSION 2.0
WRAP.                       NO: One line per depth step
~Well Information Block
STRT.FT               250.0000: 
STOP.FT              1573.7000: 
STEP.FT                 0.1000: 
NULL.                -999.2500: 
COMP.          Pioneer Natural Resources: COMPANY
WELL.          Big Cat Federal 44-1: WELL
FLD.           Purgatoire River: FIELD
LOC.           197' FSL & 973' FEL--: LOCATION
CNTY.               Las Animas: COUNTY
SRVC.                Patterson: SERVICE COMPANY
DATE.          Mon Apr 24 08:33:37 2006: LOG DATE
UWI.           05 071 08042 00: UNIQUE WELL ID
STAT.                 Colorado: STATE
~Curve Information Block
DEPT.FT            0 000 00 00: Depth
DCAL.in                       : CDL Caliper
RHOB.g/cc                     : CDL Bulk Density
RHOC.g/cc                     : CDL Density Correction
DPOR.pu                       : CDL Density Porosity
NPOR.pu                       : Neutron Porosity
GR.GAPI                       : Gamma Ray
~Parameter Information Block
~A  Depth       DCAL        RHOB        RHOC        DPOR        NPOR         GR     
# ...
   422.8000      8.3413      1.3929      0.0634     76.1867      6.1607    111.4436
   422.9000      8.3413      1.5384      0.2047     67.3716      5.5862    103.1997
   423.0000      8.4183      1.7153      0.3249     56.6484      5.3615     98.4148
   423.1000      8.4183      1.8922      0.3920     45.9296      5.5638     99.3082
   423.2000      8.4183      2.0582      0.4696     35.8676      6.0997    101.3434
   423.3000      8.5370      2.2072      0.5548     26.8353      6.9412    101.8618
   423.4000      8.5370      2.3313      0.5433     19.3132      8.2738    102.7989
   423.5000      8.6585      2.4278      0.5028     13.4661     10.2123    105.7678
   423.6000      8.6585      2.4934      0.4211      9.4939     12.4168    112.3680
   423.7000      8.6585      2.5214      0.3416      7.7939     14.2344    122.4091
   423.8000      8.6052      2.5158      0.2410      8.1317     15.4860    130.1369
   423.9000      8.6052      2.4897      0.2161      9.7162     16.4740    131.6389
   424.0000      8.3684      2.4518      0.1385     12.0128     17.2028    131.7455
   424.1000      8.3684      2.4076      0.1029     14.6939     17.2037    133.2175
   424.2000      8.3684      2.3625      0.0595     17.4247     16.4350    130.4886
   424.3000      8.1895      2.3299      0.0330     19.3984     15.5418    123.5704
   424.4000      8.1895      2.3282      0.0212     19.5034     14.7070    120.1972
   424.5000      8.1343      2.3464      0.1314     18.3998     13.8383    120.9442
   424.6000      8.1343      2.3443      0.0897     18.5266     13.2689    121.5906
   424.7000      8.1343      2.3065      0.0385     20.8153     13.1632    122.4154
   424.8000      8.1227      2.2535      0.0383     24.0280     13.3049    124.7598
   424.9000      8.1227      2.2213      0.0188     25.9821     13.5101    126.8537
   425.0000      8.1181      2.2497      0.0944     24.2617     13.8744    125.2798
   425.1000      8.1181      2.3498      0.1685     18.1968     14.7042    119.8001
   425.2000      8.1181      2.4830      0.3269     10.1191     16.2001    117.6884
   425.3000      8.1130      2.5898      0.3932      3.6468     18.0380    123.0320
   425.4000      8.1130      2.6408      0.4047      0.5600     19.6262    128.5457
   425.5000      8.1074      2.6457      0.3488      0.2598     20.6095    127.9504
   425.6000      8.1074      2.6341      0.2189      0.9653     21.1036    124.6084
   425.7000      8.1074      2.6349      0.2235      0.9135     21.5181    122.4895
   425.8000      8.1109      2.6480      0.2354      0.1211     21.7636    121.8288
   425.9000      8.1109      2.6536      0.2124     -0.2155     21.5679    124.4667
   426.0000      8.1226      2.6454      0.1918      0.2771     21.1430    131.1904
   426.1000      8.1226      2.6225      0.1744      1.6654     20.5423    135.5536
   426.2000      8.1226      2.5819      0.0824      4.1278     19.5613    133.5646
   426.3000      8.1307      2.5413      0.0360      6.5884     18.6365    130.7030
   426.4000      8.1307      2.5269      0.0540      7.4609     18.1917    129.3249
   426.5000      8.1330      2.5431      0.0888      6.4768     17.8854    126.9005
   426.6000      8.1330      2.5701      0.0953      4.8401     17.4876    124.0960
   426.7000      8.1330      2.5824      0.0553      4.0974     17.2224    122.9714
   426.8000      8.1332      2.5703      0.0687      4.8296     17.1879    123.7368
   426.9000      8.1332      2.5493      0.0047      6.1056     17.1771    125.2486
   427.0000      8.1317      2.5451      0.0313      6.3591     17.1019    124.6431
   427.1000      8.1317      2.5564      0.0290      5.6755     17.1683    118.4444
   427.2000      8.1317      2.5635      0.0484      5.2435     17.5643    107.5869
   427.3000      8.1300      2.5756     -0.0078      4.5080     18.3371    100.6060
   427.4000      8.1300      2.6216      0.0253      1.7194     19.3681    101.1422
   427.5000      8.1306      2.6972      0.0904     -2.8629     20.1294    102.4571
   427.6000      8.1306      2.7693      0.1239     -7.2301     20.3778    102.5913
   427.7000      8.1306      2.8169      0.1276    -10.1135     20.8012    104.0329
   427.8000      8.1325      2.8434      0.1127    -11.7201     21.8139    104.1154
   427.9000      8.1325      2.8567      0.1247    -12.5256     23.0238    103.1136
   428.0000      8.1339      2.8566      0.0874    -12.5204     24.1364    105.9974
   428.1000      8.1339      2.8361      0.1543    -11.2773     25.1545    109.1925
   428.2000      8.1339      2.7953     -0.0050     -8.8063     26.2224    108.0661
   428.3000      8.1340      2.7554     -0.0252     -6.3868     27.5027    107.2089
   428.4000      8.1340      2.7235     -0.0206     -4.4560     28.7941    108.1756
   428.5000      8.1334      2.6808     -0.0998     -1.8685     29.6267    108.9606
   428.6000      8.1334      2.6238     -0.1234      1.5890     29.6745    111.2066
   428.7000      8.1334      2.5713     -0.0888      4.7701     28.9276    116.5592
   428.8000      8.1336      2.5304     -0.0889      7.2511     27.6758    122.5633
   428.9000      8.1336      2.5010     -0.0339      9.0282     26.0635    125.3664
   429.0000      8.1343      2.4875      0.0193      9.8506     24.1426    124.4322
   429.1000      8.1343      2.4868     -0.0057      9.8894     22.3863    123.4003
   429.2000      8.1343      2.4894      0.0241      9.7307     21.1317    124.1053
   429.3000      8.1335      2.4847      0.0378     10.0166     20.4029    123.6394
   429.4000      8.1335      2.4792      0.0210     10.3539     20.1416    123.1311
   429.5000      8.1320      2.4937      0.0059      9.4701     19.9511    126.7768
   429.6000      8.1320      2.5287      0.0629      7.3495     19.6645    131.4623
   429.7000      8.1320      2.5524      0.0948      5.9178     19.5343    132.4829
   429.8000      8.1321      2.5383      0.0982      6.7690     19.4558    131.4647
   429.9000      8.1321      2.5014      0.0316      9.0085     19.2400    131.4386
   430.0000      8.1370      2.4710      0.0489     10.8499     19.0786    129.4501
   430.1000      8.1370      2.4540      0.0365     11.8810     18.9945    123.9227
   430.2000      8.1370      2.4460      0.0320     12.3666     18.6910    123.0259
   430.3000      8.1469      2.4414     -0.0002     12.6431     17.9887    129.4069
   430.4000      8.1469      2.4403      0.0032     12.7103     17.0800    133.4230
   430.5000      8.1511      2.4481      0.0132     12.2393     16.3936    130.7791
   430.6000      8.1511      2.4553      0.1057     11.7974     16.2500    126.5827
   430.7000      8.1511      2.4462      0.0410     12.3529     16.6350    126.4679
   430.8000      8.1434      2.4294      0.0410     13.3684     17.1845    127.4459
   430.9000      8.1434      2.4297      0.0401     13.3516     17.4885    124.0708
   431.0000      8.1133      2.4598      0.0728     11.5245     17.5535    117.7587
   431.1000      8.1133      2.4990      0.1725      9.1494     17.4774    110.9360
   431.2000      8.1133      2.5042      0.1859      8.8388     17.1581    104.5055
   431.3000      8.0621      2.4738      0.0886     10.6817     16.6082    101.0338
   431.4000      8.0621      2.4611      0.0413     11.4502     16.1905    100.7761
   431.5000      8.0191      2.4885      0.1468      9.7902     16.3537    100.1245
   431.6000      8.0191      2.5263      0.1035      7.4940     16.7253     98.9419
   431.7000      8.0191      2.5592      0.1324      5.5039     16.7375     97.3570
   431.8000      7.9964      2.5828      0.1529      4.0721     16.8752     92.3468
   431.9000      7.9964      2.5873      0.1458      3.8030     17.6172     84.0763
   432.0000      7.9874      2.5791      0.1176      4.2969     18.3896     75.1770
   432.1000      7.9874      2.5778      0.1499      4.3776     18.3834     66.7526
   432.2000      7.9874      2.5996      0.1254      3.0553     17.8341     60.3311
   432.3000      7.9849      2.6515      0.1843     -0.0890     17.5181     56.8416
