~Version Information
VERS.                      2.0: CWLS Log ASCII Standard - VERSION 2.0
WRAP.                       NO: One line per depth step
~Well Information Block
STRT.FT               -12.5000: 
STOP.FT              1647.5000: 
STEP.FT                 0.2500: 
NULL.                -999.2500: 
COMP.          Pioneer Natural Resources: COMPANY
WELL.            Harlee L 34-9: WELL
FLD.           Purgatorie River`: FIELD
LOC.           600' FSL & 2125' FEL----: LOCATION
PROV.                       CO: PROVINCE
CNTY.               Las Animas: COUNTRY
SRVC.                Patterson: SERVICE COMPANY
DATE.          Sat Feb 12 09:31:33 2005: LOG DATE
UWI.           05 071 08009 00: UNIQUE WELL ID
~Curve Information Block
DEPT.FT            0 000 00 00: Depth
CCL.                          : Casing Collar Locator
TT3.usec                      : CBL 3' Travel Time
AMP3.mV                       : CBL 3' Amplitude
AMP5.mV                       : CBL 5' Amplitude
GR.GAPI                       : Gamma Ray
~Parameter Information Block
~A  Depth       CCL         TT3         AMP3        AMP5         GR     
# ...
   211.5000      0.0000    286.0773     77.4710     71.2694     75.1327
   211.7500      0.0000    286.0707     77.4018     71.7658     70.7551
   212.0000      0.0000    286.0700     77.2916     71.3458     66.1210
   212.2500      0.0000    286.0856     77.0689     71.8804     62.9419
   212.5000      0.0000    286.1413     76.5071     62.7538     61.4583
   212.7500      0.0000    286.2873     75.1763     36.2525     61.0592
   213.0000      0.0000    286.6011     72.6529     73.7515     61.2237
   213.2500      0.0000    287.1641     68.9945     46.9447     61.7626
   213.5000      0.0000    288.0159     64.9636     46.2574     62.5196
   213.7500      0.0000    289.1112     61.4960     45.1118     63.2857
   214.0000      0.0000    290.3116     58.9270     46.3719     64.0750
   214.2500      0.0000    291.4313     56.9773     46.2574     65.1021
   214.5000      0.0000    292.3181     55.3829     45.5318     66.2351
   214.7500      0.0000    292.9137     54.1774     47.2120     66.7840
   215.0000      2.2446    293.2489     53.4112     45.8373     66.2111
   215.2500     -3.7643    293.3860     52.9572     45.4936     64.8356
   215.5000      0.0000    293.3559     52.6918     43.8898     63.5052
   215.7500      0.0000    293.1319     52.7503     45.1500     62.7484
   216.0000      0.0000    292.6495     53.5265     46.2192     62.5262
   216.2500      0.0000    291.8503     55.3764     45.6082     62.6351
   216.5000      0.0000    290.7349     58.2735     46.5629     63.0791
   216.7500      0.0000    289.4173     61.7984     46.3337     64.0831
   217.0000      0.0000    288.1325     65.4985     45.3027     65.8755
   217.2500      0.0000    287.1319     69.1102     41.1404     68.4466
   217.5000      0.0000    286.5320     72.3915     60.2717     71.4628
   217.7500      0.0000    286.2693     74.9972     77.6083     74.3746
   218.0000      0.0000    286.1951     76.6974     57.4459     76.6006
   218.2500      0.0000    286.1897     77.5818     67.9090     77.6503
   218.5000      0.0000    286.1995     77.9495     70.8111     77.1790
   218.7500      0.0000    286.2132     78.0795     70.3147     75.0760
   219.0000      0.0000    286.2311     78.1263     71.1166     71.6291
   219.2500      0.0000    286.2520     78.1472     71.0021     67.5755
   219.5000      0.0000    286.2717     78.1598     70.6966     63.9178
   219.7500      0.0000    286.2869     78.1807     70.2765     61.6674
   220.0000      0.0000    286.2969     78.2225     70.3529     61.6285
   220.2500      0.0000    286.3036     78.2770     69.9329     64.0602
   220.5000      0.0000    286.3098     78.3198     71.2312     68.3238
   220.7500      0.0000    286.3163     78.3320     70.2002     73.0192
   221.0000      0.0000    286.3220     78.3132     71.1548     76.7137
   221.2500      0.0000    286.3248     78.2740     71.0403     78.7191
   221.5000      0.0000    286.3243     78.2271     70.7348     79.2901
   221.7500      0.0000    286.3224     78.1858     70.5820     79.1118
   222.0000      0.0000    286.3216     78.1620     70.9639     78.6799
   222.2500      0.0000    286.3226     78.1561     69.8565     78.2105
   222.5000      0.0000    286.3240     78.1517     69.7419     77.9178
   222.7500      0.0000    286.3247     78.1247     70.0474     78.0168
   223.0000      0.0000    286.3261     78.0648     71.2312     78.4516
   223.2500      0.0000    286.3304     77.9889     69.6656     78.7366
   223.5000      0.0000    286.3373     77.9314     71.2694     78.0479
   223.7500      0.0000    286.3430     77.9184     69.8947     75.6149
   224.0000      0.0000    286.3437     77.9524     70.5820     71.3278
   224.2500      0.0000    286.3391     78.0190     70.9257     65.8710
   224.5000      0.0000    286.3323     78.1035     69.3983     60.1019
   224.7500      0.0000    286.3271     78.1972     69.9329     54.4931
   225.0000      0.0000    286.3248     78.2889     70.6966     49.3846
   225.2500      0.0000    286.3247     78.3569     70.4293     45.5152
   225.5000      0.0000    286.3262     78.3780     70.2384     43.8908
   225.7500      0.0000    286.3281     78.3466     69.6274     45.0858
   226.0000      0.0000    286.3278     78.2811     71.1930     48.8631
   226.2500      0.0000    286.3233     78.2139     70.0474     54.3588
   226.5000      0.0000    286.3160     78.1787     70.8493     60.3106
   226.7500      0.0000    286.3098     78.1986     70.0092     65.2625
   227.0000      0.0000    286.3083     78.2713     71.1548     68.1266
   227.2500      0.0000    286.3126     78.3658     70.4675     68.8577
   227.5000      0.0000    286.3201     78.4429     70.4293     68.5057
   227.7500      0.0000    286.3271     78.4824     70.9257     68.4485
   228.0000      0.0000    286.3318     78.4903     71.4603     69.4589
   228.2500      0.0000    286.3345     78.4856     70.7348     71.2780
   228.5000      0.0000    286.3365     78.4815     70.6584     72.9194
   228.7500      0.0000    286.3387     78.4713     70.8493     73.5468
   229.0000      0.0000    286.3419     78.4359     69.9329     73.3376
   229.2500      0.0000    286.3471     78.3690     70.5820     73.3820
   229.5000      0.0000    286.3529     78.2922     69.8947     74.5193
   229.7500      0.0000    286.3567     78.2404     70.3529     76.5117
   230.0000      0.0000    286.3565     78.2350     71.4985     78.6273
   230.2500      0.0000    286.3533     78.2705     69.6656     80.5900
   230.5000      0.0000    286.3493     78.3229     70.1620     82.4312
   230.7500      0.0000    286.3464     78.3688     71.1548     83.7337
   231.0000      0.0000    286.3450     78.3982     70.5820     83.6702
   231.2500      0.0000    286.3447     78.4162     70.4293     81.8477
   231.5000      0.0000    286.3441     78.4358     71.0785     78.8459
   231.7500      0.0000    286.3410     78.4701     70.2002     75.9672
   232.0000      0.0000    286.3348     78.5255     71.3839     74.5597
   232.2500      0.0000    286.3275     78.5965     71.1548     75.2155
   232.5000      0.0000    286.3237     78.6650     71.3458     77.2449
   232.7500      0.0000    286.3260     78.7093     71.0785     79.0853
   233.0000      0.0000    286.3320     78.7167     70.3911     79.5324
   233.2500      0.0000    286.3361     78.6896     71.1930     78.4795
   233.5000      0.0000    286.3344     78.6387     70.5057     76.4505
   233.7500      0.0000    286.3275     78.5745     71.0785     73.9698
   234.0000      0.0000    286.3187     78.5064     69.7419     71.6346
   234.2500      0.0000    286.3113     78.4448     71.3839     70.1744
   234.5000      0.0000    286.3065     78.3983     69.7038     69.9216
   234.7500      0.0000    286.3044     78.3663     70.2765     70.3774
   235.0000      0.0000    286.3049     78.3396     70.5438     70.5356
   235.2500      0.0000    286.3077     78.3111     70.2384     69.6893
   235.5000      0.0000    286.3117     78.2873     71.9949     68.1132
   235.7500      0.0000    286.3148     78.2844     70.2002     67.0091
   236.0000      0.0000    286.3153     78.3087     70.5057     67.4720
   236.2500      0.0000    286.3140     78.3421     71.2694     69.4598
   236.5000      0.0000    286.3138     78.3529     70.3529     71.9568
   236.7500      0.0000    286.3167     78.3238     70.8875     73.8274
   237.0000      0.0000    286.3214     78.2672     71.0021     74.2079
   237.2500      0.0000    286.3239     78.2146     71.2694     72.6084
   237.5000      0.0000    286.3210     78.1891     70.4675     69.3927
   237.7500      0.0000    286.3127     78.1839     70.8493     66.0294
   238.0000      0.0000    286.3022     78.1727     71.2312     64.2940
   238.2500      0.0000    286.2928     78.1426     69.8947     64.9896
   238.5000      0.0000    286.2861     78.1099     71.0403     67.3904
   238.7500      0.0000    286.2824     78.1024     71.2312     69.8816
   239.0000      0.0000    286.2811     78.1334     71.3839     71.3439
   239.2500      0.0000    286.2812     78.1950     70.5820     72.0865
