~Version Information
VERS.                      2.0: CWLS Log ASCII Standard - VERSION 2.0
WRAP.                       NO: One line per depth step
~Well Information Block
STRT.FT                -4.2500: 
STOP.FT              2218.5000: 
STEP.FT                 0.2500: 
NULL.                -999.2500: 
COMP.          Pioneer Natural Resources: COMPANY
WELL.             Warrior 32-1: WELL
FLD.           Purgatorie River: FIELD
LOC.           2624' FNL & 2392' FEL--: LOCATION
PROV.                       CO: PROVINCE
CNTY.               Las Animas: COUNTRY
SRVC.                         : SERVICE COMPANY
DATE.          Tue Oct 12 10:54:12 2004: LOG DATE
UWI.           005 071 08176 : UNIQUE WELL ID
~Curve Information Block
DEPT.FT            0 000 00 00: Depth
GR.GAPI                       : Gamma Ray
CCL.                          : Casing Collar Locator
TT3.usec                      : CBL 3' Travel Time
AMP3.mV                       : CBL 3' Amplitude
~Parameter Information Block
~A  Depth        GR         CCL         TT3         AMP3    
# ...
   129.7500    115.9424      0.0000    842.6952      6.4952
   130.0000    112.8609      0.0000    840.5797      6.5373
   130.2500    110.1765      0.0000    826.1819      6.7075
   130.5000    107.9921      2.0000    807.7363      6.8651
   130.7500    105.9846      0.0000    794.0018      6.9159
   131.0000    103.6096      0.0000    787.6674      6.8629
   131.2500    100.1095      0.0000    785.4205      6.7728
   131.5000     95.1245      0.0000    783.0643      6.7098
   131.7500     89.4337      0.0000    778.9103      6.6916
   132.0000     84.6264      0.0000    773.5510      6.7093
   132.2500     81.8634      0.0000    768.8615      6.7891
   132.5000     81.1423      0.0000    766.9135      6.9892
   132.7500     81.7366      0.0000    768.2481      7.3080
   133.0000     83.0010      0.0000    771.3476      7.6412
   133.2500     84.5239      0.0000    774.1993      7.8684
   133.5000     85.9039      0.0000    775.8745      7.9510
   133.7500     87.0189      0.0000    776.5120      7.9290
   134.0000     88.6538      0.0000    776.5922      7.8563
   134.2500     92.2965      0.0000    776.4538      7.7672
   134.5000     98.6269      0.0000    776.2611      7.6811
   134.7500    106.1124      0.0000    776.0776      7.6079
   135.0000    111.4752      0.0000    775.9579      7.5479
   135.2500    112.0163      0.0000    775.9295      7.4989
   135.5000    107.8322      0.0000    775.9741      7.4665
   135.7500    101.9293      0.0000    776.0380      7.4617
   136.0000     98.0417      0.0000    776.0789      7.4887
   136.2500     97.9993      0.0000    776.1121      7.5368
   136.5000    100.8226      0.0000    776.2775      7.5780
   136.7500    104.0178      0.0000    776.9837      7.5730
   137.0000    105.5063      0.0000    779.1036      7.4933
   137.2500    104.6965      0.0000    783.8604      7.3462
   137.5000    102.5215      0.0000    791.9199      7.1744
   137.7500    100.7038      0.0000    802.0471      7.0271
   138.0000    100.6121      0.0000    811.2053      6.9324
   138.2500    102.3887      0.0000    817.0538      6.8945
   138.5000    104.7027      0.0000    820.1747      6.9024
   138.7500    105.1722      0.0000    823.1294      6.9351
   139.0000    101.6804      0.0000    828.2585      6.9640
   139.2500     94.0496      0.0000    837.1945      6.9595
   139.5000     84.3639      0.0000    850.2103      6.9012
   139.7500     75.3955      0.0000    863.7583      6.7898
   140.0000     68.7749      0.0000    870.4174      6.6545
   140.2500     64.6343      0.0000    864.0982      6.5413
   140.5000     62.5202      0.0000    845.5121      6.4856
   140.7500     62.0575      0.0000    821.7751      6.4934
   141.0000     62.7426      0.0000    800.9383      6.5486
   141.2500     63.7746      0.0000    787.1323      6.6266
   141.5000     64.5376      0.0000    779.9747      6.7037
   141.7500     64.9212      0.0000    777.0020      6.7656
   142.0000     64.8261      0.0000    775.9938      6.8133
   142.2500     63.7187      0.0000    775.7164      6.8487
   142.5000     61.1767      0.0000    775.6542      6.8579
   142.7500     57.7417      0.0000    775.6335      6.8209
   143.0000     54.7307      0.0000    775.6141      6.7391
   143.2500     52.9844      0.0000    775.5880      6.6432
   143.5000     51.9449      0.0000    775.5355      6.5707
   143.7500     50.1203      0.0000    775.4415      6.5418
   144.0000     46.5622      0.0000    775.3366      6.5529
   144.2500     42.0238      0.0000    775.2879      6.5832
   144.5000     38.6093      0.0000    775.3369      6.6103
   144.7500     38.0789      0.0000    775.4536      6.6249
   145.0000     40.3701      0.0000    775.5557      6.6338
   145.2500     43.6869      0.0000    775.5660      6.6470
   145.5000     46.0010      0.0000    775.4579      6.6650
   145.7500     46.5529      0.0000    775.2639      6.6781
   146.0000     46.0215      0.0000    775.0536      6.6739
   146.2500     45.3395      0.0000    774.8975      6.6461
   146.5000     44.6283      0.0000    774.8376      6.6008
   146.7500     43.5149      0.0000    774.8779      6.5549
   147.0000     42.2482      0.0000    774.9926      6.5253
   147.2500     41.9686      0.0000    775.1431      6.5153
   147.5000     43.7535      0.0000    775.3007      6.5208
   147.7500     47.6703      0.0000    775.4686      6.5458
   148.0000     52.8803      0.0000    775.7525      6.6017
   148.2500     58.4146      0.0000    776.4711      6.6870
   148.5000     63.7259      0.0000    778.3520      6.7785
   148.7500     68.7236      0.0000    782.6416      6.8497
   149.0000     73.5065      0.0000    790.8627      6.8924
   149.2500     78.0418      0.0000    804.1468      6.9184
   149.5000     82.0290      0.0000    822.4067      6.9460
   149.7500     85.2371      0.0000    843.4517      6.9848
   150.0000     87.9636      0.0000    862.4872      7.0309
   150.2500     90.8486      0.0000    873.2942      7.0689
   150.5000     94.2123      0.0000    871.3742      7.0805
   150.7500     97.8037      0.0000    856.6928      7.0587
   151.0000    100.9054      0.0000    833.7323      7.0255
   151.2500    102.2788      0.0000    809.3422      7.0276
   151.5000    100.6484      0.0000    789.9817      7.0986
   151.7500     96.2256      0.0000    779.1731      7.2205
   152.0000     91.4377      0.0000    776.1494      7.3318
   152.2500     89.0818      0.0000    777.0330      7.3772
   152.5000     89.7237      0.0000    778.0485      7.3443
   152.7500     91.6647      0.0000    777.9563      7.2567
   153.0000     93.2341      0.0000    777.9241      7.1470
   153.2500     94.1441      0.0000    779.9990      7.0430
   153.5000     94.6241      0.0000    785.7840      6.9707
   153.7500     94.3634      0.0000    795.1403      6.9534
   154.0000     92.9243      0.0000    805.0135      7.0006
   154.2500     90.7945      0.0000    810.3833      7.0984
   154.5000     89.3233      0.0000    808.0418      7.2132
   154.7500     89.3811      0.0000    799.5171      7.3096
   155.0000     90.3029      0.0000    789.5055      7.3732
   155.2500     90.4885      0.0000    781.8068      7.4185
   155.5000     89.2450      0.0000    777.2988      7.4702
   155.7500     87.8116      0.0000    774.8909      7.5337
   156.0000     88.2012      0.0000    773.1364      7.5886
   156.2500     91.2458      0.0000    771.0309      7.6140
   156.5000     96.1068      0.0000    768.3287      7.6176
   156.7500    101.2081      0.0000    765.7333      7.6307
   157.0000    104.9999      0.0000    764.4769      7.6686
   157.2500    106.2527      0.0000    765.2308      7.7045
   157.5000    104.5401      0.0000    767.4319      7.6919
   157.7500    100.5315      0.0000    769.8895      7.6120
   158.0000     95.2234      0.0000    771.8947      7.4892
   158.2500     89.0095      0.0000    773.6298      7.3631
   158.5000     82.0555      0.0000    775.7194      7.2561
   158.7500     75.2143      0.0000    778.4464      7.1661
   159.0000     69.5717      0.0000    781.2191      7.0792
   159.2500     65.0659      0.0000    782.8670      6.9855
   159.5000     60.3674      0.0000    782.6843      6.8879
   159.7500     54.4050      0.0000    781.1024      6.7958
   160.0000     47.6382      0.0000    779.1961      6.7142
   160.2500     41.6749      0.0000    777.7565      6.6439
   160.5000     38.0317      0.0000    776.9608      6.5918
   160.7500     37.4566      0.0000    776.6379      6.5712
   161.0000     39.9925      0.0000    776.5740      6.5891
   161.2500     45.1832      0.0000    776.6193      6.6434
   161.5000     52.2238      0.0000    776.6727      6.7284
   161.7500     60.1290      0.0000    776.6626      6.8337
   162.0000     68.0059      0.0000    776.5601      6.9380
   162.2500     75.4251      0.0000    776.3902      7.0186
   162.5000     82.4087      0.0000    776.2141      7.0670
   162.7500     88.8506      0.0000    776.1132      7.0872
   163.0000     94.2131      0.0000    776.2767      7.0849
