~Version Information
VERS.                      2.0: CWLS Log ASCII Standard - VERSION 2.0
WRAP.                       NO: One line per depth step
~Well Information Block
STRT.FT               425.0000: 
STOP.FT              2461.0000: 
STEP.FT                 0.1000: 
NULL.                -999.2500: 
COMP.          Evergreen Operating Corporation: COMPANY
WELL.              Nomad 32-10: WELL
FLD.           Purgatorie River: FIELD
LOC.           2281' FNL & 1585' FEL: LOCATION
PROV.                 Colorado: PROVINCE
CNTY.               Las Animas: COUNTRY
SRVC.                Patterson: SERVICE COMPANY
DATE.          Thu Aug 12 11:13:52 2004: LOG DATE
UWI.           05 071 08127 00: UNIQUE WELL ID
~Curve Information Block
DEPT.FT            0 000 00 00: Depth
DCAL.in                       : CDL Caliper
RHOB.g/cc                     : CDL Bulk Density
RHOC.g/cc                     : CDL Density Correction
DPOR.pu                       : CDL Density Porosity
NPOR.pu                       : Neutron Porosity
GR.GAPI                       : Gamma Ray
~Parameter Information Block
~A  Depth       DCAL        RHOB        RHOC        DPOR        NPOR         GR     
# ...
  2018.6000      8.1336      2.3534      0.0072     17.9778     13.9739     63.4120
  2018.7000      8.1336      2.3429      0.0436     18.6105     13.2146     57.3330
  2018.8000      8.1313      2.3428      0.0410     18.6169     12.3706     55.4904
  2018.9000      8.1313      2.3469      0.0349     18.3710     12.1552     57.8419
  2019.0000      8.1304      2.3553      0.0492     17.8582     12.1320     62.5268
  2019.1000      8.1304      2.3644      0.0658     17.3080     12.0134     67.2721
  2019.2000      8.1304      2.3669      0.0542     17.1563     12.4578     73.1407
  2019.3000      8.1273      2.3642      0.0724     17.3189     13.7557     80.2090
  2019.4000      8.1273      2.3612      0.0238     17.5036     15.2713     83.1096
  2019.5000      8.1312      2.3619      0.0271     17.4635     15.9465     79.4408
  2019.6000      8.1312      2.3657      0.0253     17.2288     15.3979     75.3623
  2019.7000      8.1312      2.3675      0.0369     17.1207     14.4186     74.8918
  2019.8000      8.1305      2.3654      0.0577     17.2503     13.6732     75.9402
  2019.9000      8.1305      2.3629      0.0445     17.3986     13.1893     74.5128
  2020.0000      8.1342      2.3641      0.0059     17.3259     13.0108     71.3512
  2020.1000      8.1342      2.3687      0.0514     17.0456     13.2479     70.4328
  2020.2000      8.1342      2.3722      0.0671     16.8393     13.7888     69.4820
  2020.3000      8.1370      2.3745      0.0504     16.6963     14.3570     66.1980
  2020.4000      8.1370      2.3803      0.0806     16.3481     14.5244     63.2257
  2020.5000      8.1384      2.3910      0.0412     15.6950     14.0644     61.5005
  2020.6000      8.1384      2.4016      0.0763     15.0553     13.3823     60.8408
  2020.7000      8.1384      2.3992      0.0811     15.1973     13.1071     59.9297
  2020.8000      8.1276      2.3894      0.0487     15.7955     13.2361     57.8913
  2020.9000      8.1276      2.3929      0.0434     15.5792     13.1557     56.3839
  2021.0000      8.1336      2.4076      0.0914     14.6899     12.8063     56.9754
  2021.1000      8.1336      2.4109      0.0768     14.4911     12.5886     59.8423
  2021.2000      8.1336      2.3954      0.0581     15.4305     12.3229     62.7148
  2021.3000      8.1359      2.3695      0.0460     17.0015     11.6203     63.5147
  2021.4000      8.1359      2.3401      0.0193     18.7809     10.7365     65.0024
  2021.5000      8.1379      2.3147      0.0413     20.3199     10.1640     67.3018
  2021.6000      8.1379      2.3063     -0.0053     20.8308     10.4329     67.0897
  2021.7000      8.1379      2.3291      0.0100     19.4490     11.8798     67.5175
  2021.8000      8.1306      2.3785      0.0556     16.4526     13.7920     69.9276
  2021.9000      8.1306      2.4198      0.1155     13.9490     15.1252     72.2525
  2022.0000      8.1289      2.4232      0.1097     13.7428     15.8430     75.6991
  2022.1000      8.1289      2.4033      0.0576     14.9515     15.9728     77.6301
  2022.2000      8.1289      2.3984     -0.0115     15.2462     15.5913     76.6978
  2022.3000      8.1308      2.4224      0.0633     13.7940     15.3160     82.2786
  2022.4000      8.1308      2.4550      0.0794     11.8191     15.5931     95.0947
  2022.5000      8.1320      2.4800      0.0804     10.3049     16.5752    106.3249
  2022.6000      8.1320      2.5016      0.0831      8.9946     18.1214    116.1691
  2022.7000      8.1320      2.5252      0.0952      7.5628     19.5871    124.9473
  2022.8000      8.1326      2.5440      0.1142      6.4235     20.4931    125.9250
  2022.9000      8.1326      2.5468      0.1120      6.2550     20.7744    122.1232
  2023.0000      8.1360      2.5389      0.0746      6.7305     20.5216    129.2244
  2023.1000      8.1360      2.5414      0.0326      6.5824     19.9877    152.4681
  2023.2000      8.1360      2.5572      0.1147      5.6255     19.7111    175.5267
  2023.3000      8.1327      2.5681      0.0974      4.9652     19.9726    183.0365
  2023.4000      8.1327      2.5668      0.0626      5.0450     20.1488    180.6885
  2023.5000      8.1250      2.5559      0.0612      5.7031     19.9797    180.4583
  2023.6000      8.1250      2.5389      0.0418      6.7360     19.8177    179.3835
  2023.7000      8.1250      2.5320     -0.0139      7.1488     19.4955    172.1524
  2023.8000      8.1255      2.5488      0.0337      6.1358     18.8201    163.2723
  2023.9000      8.1255      2.5738      0.0735      4.6169     18.2315    155.5884
  2024.0000      8.1232      2.5857      0.0567      3.8959     18.1924    149.3449
  2024.1000      8.1232      2.5827      0.0509      4.0817     18.6956    148.6520
  2024.2000      8.1232      2.5753      0.0397      4.5259     19.1401    155.2641
  2024.3000      8.1240      2.5709      0.0543      4.7946     18.7114    161.5356
  2024.4000      8.1240      2.5638      0.0440      5.2228     17.5098    158.3003
  2024.5000      8.1191      2.5523      0.0067      5.9209     16.6398    147.6895
  2024.6000      8.1191      2.5496      0.0002      6.0841     16.7112    140.2540
  2024.7000      8.1191      2.5571      0.0498      5.6281     17.3090    140.1350
  2024.8000      8.1158      2.5577      0.0484      5.5925     17.6731    143.4080
  2024.9000      8.1158      2.5481      0.0352      6.1743     17.5530    147.0478
  2025.0000      8.1231      2.5395      0.0559      6.6946     17.3078    148.1721
  2025.1000      8.1231      2.5339      0.0199      7.0386     17.2372    144.3740
  2025.2000      8.1231      2.5274      0.0511      7.4327     17.4753    137.4737
  2025.3000      8.1202      2.5214      0.0461      7.7910     17.9161    132.9605
  2025.4000      8.1202      2.5156      0.0414      8.1465     18.2277    132.3553
  2025.5000      8.1244      2.5018      0.0420      8.9789     18.1228    130.1005
  2025.6000      8.1244      2.4832      0.0111     10.1096     17.4772    123.1149
  2025.7000      8.1244      2.4706      0.0366     10.8732     16.7307    114.5002
  2025.8000      8.1261      2.4641      0.0029     11.2686     16.4080    105.4711
  2025.9000      8.1261      2.4606      0.0065     11.4806     16.0466     98.7981
  2026.0000      8.1266      2.4580      0.0678     11.6373     15.2337     96.7231
  2026.1000      8.1266      2.4551      0.0501     11.8115     14.4488     95.2352
  2026.2000      8.1266      2.4512      0.0855     12.0512     14.1505     90.3459
  2026.3000      8.1222      2.4469      0.0414     12.3106     14.2985     86.4335
  2026.4000      8.1222      2.4458      0.0796     12.3783     14.5856     87.2149
  2026.5000      8.1239      2.4462      0.0358     12.3523     14.6439     88.1227
  2026.6000      8.1239      2.4479      0.0101     12.2462     14.2625     87.4521
  2026.7000      8.1239      2.4457      0.0529     12.3788     13.7100     86.5452
  2026.8000      8.1267      2.4327      0.0183     13.1718     13.2862     81.2933
  2026.9000      8.1267      2.4216      0.0091     13.8450     12.8673     70.3485
  2027.0000      8.1248      2.4243      0.0364     13.6796     12.6061     60.8180
  2027.1000      8.1248      2.4289      0.0779     13.4010     13.0551     57.5377
  2027.2000      8.1248      2.4224      0.0614     13.7959     13.8938     58.2965
  2027.3000      8.1230      2.4096      0.0463     14.5710     14.0973     59.9416
  2027.4000      8.1230      2.3991      0.0620     15.2039     13.4149     60.5183
  2027.5000      8.1296      2.3944      0.0508     15.4912     12.6286     61.2464
  2027.6000      8.1296      2.3942      0.0263     15.5019     12.5153     63.0282
  2027.7000      8.1296      2.3928      0.0532     15.5888     12.8883     62.6343
  2027.8000      8.1135      2.3910      0.0350     15.6969     13.1309     58.9408
  2027.9000      8.1135      2.3957      0.0360     15.4094     13.2329     53.5928
  2028.0000      8.1164      2.4035      0.0569     14.9383     13.3846     49.9270
  2028.1000      8.1164      2.4033      0.0782     14.9509     13.6451     50.5447
