~Version Information
VERS.                      2.0: CWLS Log ASCII Standard - VERSION 2.0
WRAP.                       NO: One line per depth step
~Well Information Block
STRT.FT               390.0000: 
STOP.FT               902.2000: 
STEP.FT                 0.1000: 
NULL.                -999.2500: 
COMP.          Pioneer Natural Resources: COMPANY
WELL.              Venom 32-22: WELL
FLD.           Purgatoire River: FIELD
LOC.           2307' FNL & 2024' FEL----: LOCATION
PROV.                 Colorado: PROVINCE
CNTY.               Las Animas: COUNTRY
SRVC.                Patterson: SERVICE COMPANY
DATE.          Wed May 11 08:31:39 2005: LOG DATE
UWI.           05 071 08361 00: UNIQUE WELL ID
~Curve Information Block
DEPT.FT            0 000 00 00: Depth
DCAL.in                       : CDL Caliper
RHOB.g/cc                     : CDL Bulk Density
RHOC.g/cc                     : CDL Density Correction
DPOR.pu                       : CDL Density Porosity
NPOR.pu                       : Neutron Porosity
GR.GAPI                       : Gamma Ray
~Parameter Information Block
~A  Depth       DCAL        RHOB        RHOC        DPOR        NPOR         GR     
# ...
   553.2000      8.0153      2.6221      0.0649      1.6937     18.2220     74.6330
   553.3000      8.0079      2.6514      0.1587     -0.0823     16.3552     70.6620
   553.4000      8.0079      2.6451      0.1080      0.2942     15.4506     67.6580
   553.5000      8.0054      2.6210      0.0300      1.7553     16.7771     66.2889
   553.6000      8.0054      2.6023      0.0429      2.8909     19.1105     67.9371
   553.7000      8.0054      2.5935      0.0377      3.4237     18.7325     74.2934
   553.8000      8.0164      2.5986      0.0323      3.1166     15.8034     80.8010
   553.9000      8.0164      2.6128      0.0871      2.2536     14.5555     80.3826
   554.0000      8.0488      2.6176      0.0579      1.9646     16.1702     73.2324
   554.1000      8.0488      2.6027      0.0642      2.8650     18.2562     66.7091
   554.2000      8.0488      2.5808     -0.0062      4.1916     18.1052     63.8856
   554.3000      8.0914      2.5763      0.0385      4.4650     17.9319     60.0720
   554.4000      8.0914      2.5881      0.0771      3.7501     18.9406     53.7879
   554.5000      8.1056      2.5867      0.0605      3.8387     18.2232     48.8166
   554.6000      8.1056      2.5554      0.0544      5.7323     15.2163     47.7170
   554.7000      8.1056      2.5164     -0.0360      8.0971     13.5518     51.0428
   554.8000      8.0890      2.4995      0.0324      9.1194     15.0334     53.7470
   554.9000      8.0890      2.5038      0.0058      8.8577     19.4028     52.4631
   555.0000      8.0753      2.5142      0.0146      8.2326     21.9679     53.3711
   555.1000      8.0753      2.5155      0.0444      8.1537     20.0241     56.4858
   555.2000      8.0753      2.5001      0.0244      9.0858     18.1727     55.9808
   555.3000      8.0729      2.4809      0.0089     10.2479     19.3388     54.6004
   555.4000      8.0729      2.4733      0.0087     10.7067     21.9739     57.5616
   555.5000      8.0748      2.4730      0.0681     10.7285     21.7350     63.2259
   555.6000      8.0748      2.4732      0.0416     10.7134     19.5903     65.5098
   555.7000      8.0748      2.4778      0.0514     10.4355     20.1634     62.5796
   555.8000      8.0755      2.4815      0.0494     10.2127     22.7889     58.7189
   555.9000      8.0755      2.4790      0.0298     10.3619     22.3093     56.0683
   556.0000      8.0740      2.4728      0.0343     10.7373     18.9744     54.4815
   556.1000      8.0740      2.4627      0.0436     11.3538     17.5305     56.1665
   556.2000      8.0740      2.4562      0.0162     11.7432     19.1049     58.8148
   556.3000      8.0682      2.4579      0.0481     11.6394     22.3134     58.8659
   556.4000      8.0682      2.4575      0.0323     11.6660     23.0735     56.9229
   556.5000      8.0582      2.4560      0.0472     11.7569     19.7910     54.0728
   556.6000      8.0582      2.4621      0.0417     11.3907     17.4404     54.5909
   556.7000      8.0582      2.4712      0.0420     10.8384     18.4817     60.5541
   556.8000      8.0552      2.4745      0.0347     10.6342     21.4363     65.8541
   556.9000      8.0552      2.4761      0.0128     10.5387     22.7996     66.1240
   557.0000      8.0625      2.4801      0.0479     10.2992     21.1643     65.2792
   557.1000      8.0625      2.4758      0.0360     10.5554     19.3997     68.6539
   557.2000      8.0625      2.4595      0.0397     11.5424     19.4314     74.3540
   557.3000      8.0693      2.4463      0.0291     12.3474     19.7423     75.3504
   557.4000      8.0693      2.4560     -0.0139     11.7572     17.8517     71.2985
   557.5000      8.0695      2.4861      0.0723      9.9326     16.2032     68.1533
   557.6000      8.0695      2.5050      0.1093      8.7882     18.0604     66.8676
   557.7000      8.0695      2.4935      0.0611      9.4859     22.5388     65.2377
   557.8000      8.0647      2.4619      0.0226     11.3982     25.2145     65.7988
   557.9000      8.0647      2.4221      0.0214     13.8135     24.8023     69.0479
   558.0000      8.0607      2.3693      0.0410     17.0103     23.8578     70.2116
   558.1000      8.0607      2.2915      0.0094     21.7290     25.3535     70.0877
   558.2000      8.0607      2.1839     -0.0284     28.2470     30.1293     73.6943
   558.3000      8.0651      2.0506     -0.0324     36.3256     33.8521     78.1709
   558.4000      8.0651      1.9094     -0.1543     44.8819     31.4745     76.8159
   558.5000      8.0795      1.7885     -0.1645     52.2102     26.8251     71.9176
   558.6000      8.0795      1.7002     -0.2146     57.5654     27.1319     71.0847
   558.7000      8.0795      1.6426     -0.1490     61.0523     32.3104     75.5399
   558.8000      8.1060      1.6175     -0.1389     62.5744     35.2245     79.1759
   558.9000      8.1060      1.6291     -0.0494     61.8726     31.8007     77.2544
   559.0000      8.1327      1.6786      0.0471     58.8755     26.9855     73.0447
   559.1000      8.1327      1.7650      0.1646     53.6380     26.1172     73.9786
   559.2000      8.1327      1.8779      0.2602     46.7939     28.5850     83.5366
   559.3000      8.1248      1.9965      0.3000     39.6071     29.1983     99.4924
   559.4000      8.1248      2.1038      0.3066     33.1000     24.9156    112.4220
   559.5000      8.0790      2.1944      0.2661     27.6134     21.5210    120.1512
   559.6000      8.0790      2.2700      0.2270     23.0275     23.7503    128.1489
   559.7000      8.0790      2.3336      0.1925     19.1761     28.3949    131.1416
   559.8000      8.0435      2.3831      0.2147     16.1738     27.1489    129.6528
   559.9000      8.0435      2.4137      0.2033     14.3191     20.7212    135.8647
   560.0000      8.0365      2.4318      0.1293     13.2243     17.7402    148.1157
   560.1000      8.0365      2.4541      0.1201     11.8727     20.7352    154.4824
   560.2000      8.0365      2.4832      0.1294     10.1071     26.7826    152.0701
   560.3000      8.0425      2.5044      0.1363      8.8269     28.9056    148.3638
   560.4000      8.0425      2.5093      0.0857      8.5300     27.8855    150.1340
   560.5000      8.0443      2.5016      0.0955      8.9926     29.4917    157.6899
   560.6000      8.0443      2.4911      0.0651      9.6315     33.2633    163.7671
   560.7000      8.0443      2.4933      0.0314      9.4940     34.4250    162.4013
   560.8000      8.0388      2.5077      0.0597      8.6245     32.1080    156.3299
   560.9000      8.0388      2.5168      0.0723      8.0724     30.1544    147.9812
   561.0000      8.0265      2.5193      0.0725      7.9202     30.8001    144.2032
   561.1000      8.0265      2.5302      0.0911      7.2625     32.9454    149.0636
   561.2000      8.0265      2.5540      0.0841      5.8184     33.5372    151.8637
   561.3000      8.0165      2.5725      0.1286      4.6977     30.1010    146.6185
   561.4000      8.0165      2.5712      0.0533      4.7779     25.6195    138.3879
   561.5000      8.0146      2.5616      0.0851      5.3604     25.2004    131.2793
   561.6000      8.0146      2.5501      0.0887      6.0556     28.3573    128.7181
   561.7000      8.0146      2.5363      0.0278      6.8921     29.3510    132.0243
   561.8000      8.0161      2.5308      0.0834      7.2248     26.0720    140.1361
   561.9000      8.0161      2.5347      0.0965      6.9908     23.0301    149.2576
   562.0000      8.0180      2.5398      0.0575      6.6764     23.6160    152.9612
   562.1000      8.0180      2.5364      0.1403      6.8859     28.3782    151.0742
   562.2000      8.0180      2.5061      0.1016      8.7237     34.1672    148.0639
   562.3000      8.0281      2.4506      0.0174     12.0853     34.8239    145.4709
   562.4000      8.0281      2.4008     -0.0264     15.1044     30.2427    144.1390
   562.5000      8.0583      2.3749      0.0279     16.6733     27.0155    144.2684
   562.6000      8.0583      2.3633      0.0164     17.3751     28.5862    144.8654
   562.7000      8.0583      2.3542     -0.0048     17.9297     31.6190    145.2906
