~Version Information
VERS.                      2.0: CWLS Log ASCII Standard - VERSION 2.0
WRAP.                       NO: One line per depth step
~Well Information Block
STRT.FT               964.0000: 
STOP.FT              2440.0000: 
STEP.FT                 0.2500: 
NULL.                -999.2500: 
COMP.          Petrogulf Corporation: COMPANY
WELL.              Hand 8-44 V: WELL
FLD.           Purgatorie River: FIELD
LOC.           1076' FEL & 820' FSL: LOCATION
CNTY.               Las Animas: COUNTY
SRVC.                         : SERVICE COMPANY
DATE.          Fri Nov 21 11:54:17 2003: LOG DATE
UWI.                          : UNIQUE WELL ID
STAT.                 Colorado: STATE
~Curve Information Block
DEPT.FT            0 000 00 00: Depth
SP.mV                         : IEL Spontaneous Potential
DIR.Ohm-m                     : IEL Induction Resistivity
GR.GAPI                       : Gamma Ray
~Parameter Information Block
~A  Depth        SP         DIR          GR     
   964.0000   -999.2500   -999.2500   -999.2500
   964.2500   -999.2500   -999.2500     92.8221
   964.5000   -999.2500   -999.2500     91.6716
   964.7500   -999.2500   -999.2500     90.4852
   965.0000   -999.2500   -999.2500     89.2316
   965.2500   -999.2500   -999.2500     89.0544
   965.5000   -999.2500   -999.2500     89.4153
   965.7500   -999.2500   -999.2500     89.7378
   966.0000   -999.2500   -999.2500     90.0021
   966.2500   -999.2500   -999.2500     89.7916
   966.5000   -999.2500   -999.2500     88.4453
   966.7500   -999.2500   -999.2500     87.0174
   967.0000   -999.2500   -999.2500     85.1323
   967.2500   -999.2500   -999.2500     84.3691
   967.5000   -999.2500   -999.2500     83.0818
   967.7500   -999.2500   -999.2500     81.2991
   968.0000   -999.2500   -999.2500     76.8070
   968.2500   -999.2500   -999.2500     73.0943
   968.5000   -999.2500   -999.2500     67.7993
   968.7500   -999.2500   -999.2500     65.1106
   969.0000   -999.2500   -999.2500     62.9059
   969.2500   -999.2500   -999.2500     62.6230
   969.5000   -999.2500   -999.2500     63.4720
   969.7500   -999.2500   -999.2500     64.5141
   970.0000   -999.2500   -999.2500     66.3137
   970.2500   -999.2500   -999.2500     67.5401
   970.5000   -999.2500   -999.2500     69.5464
   970.7500   -999.2500   -999.2500     71.3662
   971.0000   -999.2500   -999.2500     75.7348
   971.2500   -999.2500   -999.2500     79.9612
   971.5000   -999.2500   -999.2500     87.4507
   971.7500   -999.2500   -999.2500     92.1656
   972.0000   -999.2500   -999.2500     96.8176
   972.2500   -999.2500   -999.2500     97.3690
   972.5000   -999.2500   -999.2500     93.8564
   972.7500   -999.2500   -999.2500     89.2417
   973.0000   -999.2500   -999.2500     81.0815
   973.2500   -999.2500   -999.2500     76.0292
   973.5000   -999.2500   -999.2500     70.1359
   973.7500   -999.2500   -999.2500     67.3861
   974.0000   -999.2500   -999.2500     64.3922
   974.2500   -999.2500   -999.2500     62.5982
   974.5000   -999.2500   -999.2500     59.6654
   974.7500   -999.2500   -999.2500     57.7051
   975.0000   -999.2500   -999.2500     55.5181
   975.2500   -999.2500   -999.2500     54.9172
   975.5000   -999.2500   -999.2500     55.5301
   975.7500   -999.2500   -999.2500     57.0355
   976.0000   -999.2500   -999.2500     61.0684
   976.2500   -999.2500   -999.2500     64.7413
   976.5000   -999.2500   -999.2500     70.6677
   976.7500   -999.2500   -999.2500     74.1776
   977.0000   -999.2500   -999.2500     78.2011
   977.2500   -999.2500   -999.2500     80.2670
   977.5000   -999.2500   -999.2500     83.2888
   977.7500   -999.2500   -999.2500     85.5122
   978.0000   -999.2500   -999.2500     88.5259
   978.2500   -999.2500   -999.2500     89.5126
   978.5000   -999.2500   -999.2500     88.4396
   978.7500   -999.2500   -999.2500     86.0336
   979.0000   -999.2500   -999.2500     80.6889
   979.2500   -999.2500   -999.2500     76.5151
   979.5000     -0.6257   -999.2500     70.0265
   979.7500     -0.8540   -999.2500     65.8440
   980.0000     -1.1609   -999.2500     60.3187
   980.2500     -1.5607   -999.2500     57.4541
   980.5000     -2.0656   -999.2500     54.6664
   980.7500     -2.6709   -999.2500     53.7514
   981.0000     -3.3452      6.4524     53.6167
   981.2500     -4.0362      6.4748     54.3701
   981.5000     -4.6885      6.4987     56.8194
   981.7500     -5.2627      6.5279     59.1785
   982.0000     -5.7449      6.5659     63.2402
   982.2500     -6.1411      6.6151     65.9414
   982.5000     -6.4626      6.6770     69.3515
   982.7500     -6.7155      6.7497     70.7037
   983.0000     -6.9022      6.8265     70.5404
   983.2500     -7.0290      6.8954     68.8951
   983.5000     -7.1117      6.9434     64.8784
   983.7500     -7.1699      6.9624     61.7168
   984.0000     -7.2151      6.9549     56.5984
   984.2500     -7.2422      6.9332     52.9179
   984.5000     -7.2335      6.9133     47.4561
   984.7500     -7.1745      6.9071     44.5967
   985.0000     -7.0717      6.9182     42.9580
   985.2500     -6.9557      6.9415     44.1652
   985.5000     -6.8651      6.9674     49.4308
   985.7500     -6.8199      6.9847     54.7076
   986.0000     -6.8046      6.9837     63.4912
   986.2500     -6.7762      6.9589     68.6584
   986.5000     -6.6919      6.9117     73.8755
   986.7500     -6.5352      6.8517     75.5469
   987.0000     -6.3255      6.7929     76.1120
   987.2500     -6.1077      6.7462     75.8464
   987.5000     -5.9339      6.7147     75.4366
   987.7500     -5.8420      6.6946     75.3913
   988.0000     -5.8389      6.6812     75.5093
   988.2500     -5.8945      6.6735     75.5972
   988.5000     -5.9527      6.6740     75.8431
   988.7500     -5.9529      6.6836     76.1575
   989.0000     -5.8554      6.6978     76.7790
   989.2500     -5.6568      6.7067     77.2091
   989.5000     -5.3942      6.7023     77.6665
   989.7500     -5.1329      6.6842     77.5810
   990.0000     -4.9415      6.6612     76.2402
   990.2500     -4.8613      6.6453     74.2897
   990.5000     -4.8875      6.6451     69.8933
   990.7500     -4.9768      6.6613     66.4272
   991.0000     -5.0724      6.6885     61.6215
   991.2500     -5.1264      6.7186     59.2893
   991.5000     -5.1053      6.7440     57.4698
   991.7500     -4.9876      6.7588     57.3168
   992.0000     -4.7665      6.7595     58.5857
   992.2500     -4.4592      6.7456     60.2545
   992.5000     -4.1116      6.7204     62.9195
   992.7500     -3.7918      6.6918     63.8743
   993.0000     -3.5714      6.6705     63.0125
   993.2500     -3.4983      6.6668     60.9547
   993.5000     -3.5740      6.6858     56.5651
   993.7500     -3.7503      6.7239     53.4026
   994.0000     -3.9485      6.7684     49.1522
   994.2500     -4.0893      6.7998     47.0685
   994.5000     -4.1212      6.7998     45.7640
   994.7500     -4.0364      6.7599     46.3230
   995.0000     -3.8671      6.6879     48.8617
   995.2500     -3.6638      6.6071     50.9718
   995.5000     -3.4719      6.5479     53.4043
   995.7500     -3.3178      6.5344     54.0320
   996.0000     -3.2042      6.5738     53.2564
   996.2500     -3.1105      6.6522     51.7251
   996.5000     -3.0016      6.7404     48.5478
   996.7500     -2.8490      6.8065     46.4874
   997.0000     -2.6482      6.8302     44.6600
   997.2500     -2.4124      6.8101     44.6103
   997.5000     -2.1487      6.7637     45.9510
   997.7500     -1.8509      6.7241     47.2750
   998.0000     -1.5185      6.7325     48.9120
   998.2500     -1.1770      6.8236     49.2326
   998.5000     -0.8688      7.0053     48.1381
   998.7500     -0.6255      7.2355     46.7212
   999.0000     -0.4504      7.4178     45.1318
   999.2500     -0.3238      7.4450     45.3852
   999.5000     -0.2196      7.2806     48.5207
   999.7500     -0.1181      6.9923     52.2718
  1000.0000     -0.0103      6.6941     59.2173
  1000.2500      0.1026      6.4788     63.7856
  1000.5000      0.2123      6.4043     69.2486
  1000.7500      0.3061      6.5205     71.7485
  1001.0000      0.3710      6.9015     74.3063
  1001.2500      0.3976      7.6529     75.7145
  1001.5000      0.3830      8.8405     78.1160
  1001.7500      0.3313     10.2047     80.1426
  1002.0000      0.2487     10.7706     83.5729
  1002.2500      0.1369      9.6968     85.5202
  1002.5000     -0.0131      7.7976     86.6752
  1002.7500     -0.2266      6.2440     85.9662
  1003.0000     -0.5470      5.3617     83.5167
  1003.2500     -1.0299      5.0742     81.9972
  1003.5000     -1.7190      5.2961     81.4242
  1003.7500     -2.6097      6.0104     82.4372
  1004.0000     -3.6241      7.1700     85.6121
  1004.2500     -4.6289      8.3166     88.5814
  1004.5000     -5.4956      8.2645     94.3941
  1004.7500     -6.1567      6.6311     99.3386
  1005.0000     -6.6160      4.7648    108.3181
  1005.2500     -6.9177      3.5233    115.0642
  1005.5000     -7.1114      2.8986    125.4176
