~Version Information
VERS.                      2.0: CWLS Log ASCII Standard - VERSION 2.0
WRAP.                       NO: One line per depth step
~Well Information Block
STRT.FT                -8.2500: 
STOP.FT              1795.0000: 
STEP.FT                 0.2500: 
NULL.                -999.2500: 
COMP.          Petrogulf Corporation: COMPANY
WELL.           Montoya 7-21 R: WELL
FLD.           Purgatoire River: FIELD
LOC.           445' FNL & 1942' FWL----: LOCATION
PROV.                 Colorado: PROVINCE
CNTY.               Las Animas: COUNTRY
SRVC.                         : SERVICE COMPANY
DATE.          Fri Sep 30 15:33:54 2005: LOG DATE
UWI.                          : UNIQUE WELL ID
~Curve Information Block
DEPT.FT            0 000 00 00: Depth
GR.GAPI                       : Gamma Ray
CCL.                          : Casing Collar Locator
TT3.usec                      : CBL 3' Travel Time
AMP3.mV                       : CBL 3' Amplitude
~Parameter Information Block
~A  Depth        GR         CCL         TT3         AMP3    
# ...
   226.2500     89.6267      0.0000    396.1825      7.5434
   226.5000     87.8359      0.0000    396.8701      7.6539
   226.7500     87.6299      0.0000    396.2533      7.7749
   227.0000     88.7713      0.0000    394.1329      7.9038
   227.2500     90.6929      0.0000    390.3177      8.0292
   227.5000     92.3058      0.0000    384.9563      8.1403
   227.7500     92.2426      0.0000    378.5968      8.2339
   228.0000     89.9825      0.0000    371.9527      8.3103
   228.2500     86.7241      0.0000    365.7779      8.3697
   228.5000     84.7055      0.0000    360.9711      8.4216
   228.7500     85.4823      0.0000    358.5393      8.4899
   229.0000     88.9323      0.0000    359.4472      8.5981
   229.2500     93.7583      0.0000    364.2961      8.7452
   229.5000     98.5620      0.0000    372.3257      8.9023
   229.7500    102.4112      0.0000    380.3600      9.0351
   230.0000    104.8037      0.0000    383.9038      9.1302
   230.2500    105.5468      0.0000    380.5788      9.1997
   230.5000    104.8285      0.0000    372.0721      9.2685
   230.7500    103.1994      0.0000    361.9652      9.3569
   231.0000    101.3249      0.0000    352.4216      9.4687
   231.2500     99.7661      0.0000    343.6695      9.5890
   231.5000     98.8165      0.0000    335.6685      9.6921
   231.7500     98.3207      0.0000    329.0059      9.7567
   232.0000     97.8201      0.0000    324.2893      9.7755
   232.2500     97.1390      0.0000    321.4678      9.7534
   232.5000     96.6788      0.0000    319.9629      9.7006
   232.7500     97.0374      0.0000    319.1572      9.6313
   233.0000     98.5052      0.0000    318.6757      9.5639
   233.2500    100.8726      0.0000    318.3640      9.5140
   233.5000    103.3573      0.0000    318.1730      9.4855
   233.7500    104.8765      0.0000    318.0748      9.4704
   234.0000    104.8926      0.0000    318.0351      9.4570
   234.2500    103.9391      0.0000    318.0303      9.4394
   234.5000    103.0657      0.0000    318.0647      9.4233
   234.7500    102.9123      0.0000    318.1731      9.4233
   235.0000    103.4114      0.0000    318.4061      9.4513
   235.2500    104.0402      0.0000    318.8030      9.5059
   235.5000    104.1084      0.0000    319.3635      9.5699
   235.7500    102.8763      0.0000    320.0337      9.6216
   236.0000     99.7722      0.0000    320.7158      9.6532
   236.2500     94.8718      0.0000    321.3013      9.6788
   236.5000     89.0840      0.0000    321.7164      9.7189
   236.7500     83.6458      0.0000    321.9515      9.7774
   237.0000     79.4780      0.0000    322.0506      9.8408
   237.2500     76.9001      0.0000    322.0674      9.8937
   237.5000     75.4792      0.0000    322.0278      9.9273
   237.7500     74.1716      0.0000    321.9212      9.9352
   238.0000     72.0696      0.0000    321.7160      9.9111
   238.2500     69.0048      0.0000    321.3872      9.8532
   238.5000     65.2654      0.0000    320.9460      9.7706
   238.7500     61.1766      0.0000    320.4515      9.6828
   239.0000     57.2783      0.0000    319.9905      9.6114
   239.2500     54.4969      0.0000    319.6378      9.5660
   239.5000     53.7298      0.0000    319.4252      9.5403
   239.7500     55.2380      0.0000    319.3383      9.5252
   240.0000     58.4689      0.0000    319.3345      9.5224
   240.2500     62.3853      0.0000    319.3657      9.5418
   240.5000     65.8259      0.0000    319.4019      9.5902
   240.7500     67.7040      0.0000    319.4526      9.6670
   241.0000     67.3914      0.0000    319.5704      9.7673
   241.2500     65.2617      0.0000    319.8147      9.8783
   241.5000     62.6411      0.0000    320.1887      9.9740
   241.7500     60.7936      0.0000    320.6089     10.0234
   242.0000     59.8179      0.0000    320.9499     10.0173
   242.2500     58.7261      0.0000    321.1276      9.9823
   242.5000     56.6616      0.0000    321.1520      9.9579
   242.7500     53.8171      0.0000    321.1096      9.9616
   243.0000     51.1121      0.0000    321.1001      9.9809
   243.2500     49.3542      0.0000    321.1801      9.9994
   243.5000     48.9200      0.0000    321.3456     10.0177
   243.7500     49.8334      0.0000    321.5467     10.0485
   244.0000     51.6965      0.0000    321.7013     10.0954
   244.2500     53.7598      0.0000    321.7134     10.1434
   244.5000     55.5334      0.0000    321.5174     10.1694
   244.7500     57.2848      0.0000    321.1361     10.1593
   245.0000     59.5988      0.0000    320.6907     10.1166
   245.2500     62.4605      0.0000    320.3321     10.0590
   245.5000     64.9402      0.0000    320.1451     10.0047
   245.7500     65.8446      0.0000    320.1088      9.9645
   246.0000     64.7442      0.0000    320.1360      9.9433
   246.2500     62.4786      0.0000    320.1474      9.9470
   246.5000     60.5679      0.0000    320.1182      9.9834
   246.7500     59.9159      0.0000    320.0729     10.0559
   247.0000     60.0729      0.0000    320.0512     10.1577
   247.2500     59.8549      0.0000    320.0770     10.2691
   247.5000     58.5712      0.0000    320.1457     10.3643
   247.7500     56.6201      0.0000    320.2319     10.4220
   248.0000     55.1462      0.0000    320.3092     10.4361
   248.2500     55.1867      0.0000    320.3682     10.4229
   248.5000     56.7836      0.0000    320.4175     10.4172
   248.7500     58.7051      0.0000    320.4723     10.4504
   249.0000     59.3147      0.0000    320.5436     10.5225
   249.2500     58.0113      0.0000    320.6387     10.5993
   249.5000     55.6882      0.0000    320.7677     10.6436
   249.7500     53.6393      0.0000    320.9418     10.6450
   250.0000     52.2927      0.0000    321.1604     10.6198
   250.2500     51.3191      0.0000    321.4005     10.5895
   250.5000     50.7769      0.0000    321.6234     10.5638
   250.7500     51.6891      0.0000    321.7993     10.5364
   251.0000     55.2848      0.0000    321.9257     10.4903
   251.2500     61.8614      0.0000    322.0254     10.4119
   251.5000     70.6584      0.0000    322.1297     10.3057
   251.7500     80.6345      0.0000    322.2671     10.1975
   252.0000     90.8130      0.0000    322.4582     10.1210
   252.2500     99.8581      0.0000    322.7094     10.0953
   252.5000    106.0225      0.0000    323.0009     10.1100
   252.7500    108.0747      0.0000    323.2806     10.1328
   253.0000    106.2511      0.0000    323.4799     10.1339
   253.2500    102.0928      0.0000    323.5511     10.1006
   253.5000     97.4144      0.0000    323.5021     10.0312
   253.7500     93.6086      0.0000    323.3968      9.9285
   254.0000     91.6961      0.0000    323.3178      9.8035
   254.2500     92.3144      0.0000    323.3278      9.6750
   254.5000     95.1637      0.0000    323.4940      9.5539
   254.7500     98.6687      0.0000    323.9866      9.4286
   255.0000    100.7500      0.0000    325.2546      9.2754
   255.2500    100.3648      0.0000    328.1730      9.0802
   255.5000     98.4518      0.0000    334.0121      8.8511
   255.7500     97.1999      0.0000    344.0816      8.6140
   256.0000     98.2202      0.0000    358.9885      8.3996
   256.2500    101.4005      0.0000    377.7837      8.2321
   256.5000    105.3201      0.0000    398.0218      8.1237
   256.7500    108.3185      0.0000    417.3870      8.0755
   257.0000    109.2123      0.0000    434.7719      8.0784
   257.2500    107.6524      0.0000    448.5853      8.1163
   257.5000    104.2242      0.0000    455.2226      8.1768
   257.7500     99.9517      0.0000    452.5709      8.2710
   258.0000     95.4861      0.0000    444.9588      8.4412
   258.2500     91.0275      0.0000    440.6935      8.7311
   258.5000     87.0416      0.0000    443.8832      9.1244
   258.7500     84.5658      0.0000    452.4877      9.5111
   259.0000     84.5220      0.0000    464.4347      9.7467
   259.2500     86.8074      0.0000    479.0639      9.7806
   259.5000     90.0539      0.0000    490.3960      9.7292
