~Version Information
VERS.                      2.0: CWLS Log ASCII Standard - VERSION 2.0
WRAP.                       NO: One line per depth step
~Well Information Block
STRT.FT                -8.2500: 
STOP.FT              1119.7500: 
STEP.FT                 0.2500: 
NULL.                -999.2500: 
COMP.          Pioneer Natural Resources: COMPANY
WELL.             Linda T 32-3: WELL
FLD.           Purgatorie River: FIELD
LOC.           1350' FNL & 2290' FEL------: LOCATION
PROV.                       CO: PROVINCE
CNTY.               Las Animas: COUNTRY
SRVC.                         : SERVICE COMPANY
DATE.          Thu Feb 10 08:20:40 2005: LOG DATE
UWI.          005 071 08215   : UNIQUE WELL ID
~Curve Information Block
DEPT.FT            0 000 00 00: Depth
CCL.                          : Casing Collar Locator
TT3.usec                      : CBL 3' Travel Time
AMP3.mV                       : CBL 3' Amplitude
GR.GAPI                       : Gamma Ray
~Parameter Information Block
~A  Depth       CCL         TT3         AMP3         GR     
# ...
   661.7500      0.0000    740.2433      6.6984     40.7239
   662.0000      0.0000    750.5761      6.9280     43.6846
   662.2500      0.0000    756.9503      7.1194     47.5154
   662.5000      0.0000    757.6415      7.2685     50.5571
   662.7500      0.0000    754.4065      7.3841     51.6797
   663.0000      0.0000    750.8911      7.4710     50.8954
   663.2500      0.0000    748.9482      7.5022     48.8246
   663.5000      0.0000    747.2708      7.4298     45.9694
   663.7500      0.0000    743.8966      7.2365     42.7871
   664.0000      0.0000    738.7017      6.9625     40.1060
   664.2500      0.0000    732.8527      6.6762     38.8761
   664.5000      0.0000    727.1708      6.4290     39.3611
   664.7500      0.0000    721.9163      6.2336     40.7942
   665.0000      0.0000    717.1814      6.0677     41.9777
   665.2500      0.0000    712.8414      5.9004     42.1965
   665.5000      0.0000    708.7397      5.7283     41.6352
   665.7500      0.0000    705.2000      5.5866     41.1848
   666.0000      0.0000    702.9050      5.5136     41.8687
   666.2500      0.0000    702.3284      5.5093     44.1630
   666.5000      0.0000    703.6055      5.5378     47.8718
   666.7500      0.0000    706.7192      5.5686     52.9582
   667.0000      0.0000    711.4294      5.6041     60.3160
   667.2500      0.0000    717.1631      5.6707     71.0413
   667.5000      0.0000    723.1974      5.7924     84.5857
   667.7500      0.0000    728.8281      5.9682     97.9863
   668.0000      0.0000    733.3876      6.1697    107.7456
   668.2500      0.0000    736.4335      6.3656    112.8522
   668.5000      0.0000    737.9816      6.5506    115.4419
   668.7500      0.0000    738.3193      6.7401    118.2083
   669.0000      0.0000    737.6156      6.9364    121.8184
   669.2500      0.0000    736.0020      7.1145    125.1322
   669.5000      0.0000    734.0729      7.2461    126.9149
   669.7500      0.0000    732.8994      7.3253    126.7044
   670.0000      0.0000    733.1547      7.3683    124.8664
   670.2500      0.0000    734.3516      7.3908    122.5278
   670.5000      0.0000    735.1202      7.3856    121.0360
   670.7500      0.0000    734.0739      7.3263    121.0541
   671.0000      0.0000    730.4620      7.2040    122.2895
   671.2500      0.0000    724.6036      7.0540    124.2176
   671.5000      0.0000    718.0961      6.9324    126.8214
   671.7500      0.0000    713.2190      6.8671    130.2722
   672.0000      0.0000    711.5284      6.8480    134.0276
   672.2500      0.0000    712.7591      6.8558    136.6687
   672.5000      0.0000    715.0491      6.8820    136.7755
   672.7500      0.0000    716.2391      6.9205    133.9170
   673.0000      0.0000    715.1711      6.9589    129.0444
   673.2500      0.0000    712.2037      6.9860    124.2265
   673.5000      0.0000    708.8289      7.0029    121.6725
   673.7500      0.0000    706.7584      7.0307    122.5320
   674.0000      0.0000    707.1157      7.1055    126.5908
   674.2500      0.0000    710.1955      7.2550    132.8164
   674.5000      0.0000    715.7006      7.4714    139.5737
   674.7500      0.0000    723.0466      7.7132    144.6015
   675.0000      0.0000    731.3367      7.9339    145.8918
   675.2500      0.0000    739.0527      8.1096    143.1450
   675.5000      0.0000    744.3229      8.2485    138.3016
   675.7500      0.0000    746.1487      8.3738    134.4901
   676.0000      0.0000    745.2757      8.4932    134.0240
   676.2500      0.0000    743.4966      8.5903    136.9051
   676.5000      0.0000    742.3011      8.6545    141.2526
   676.7500      0.0000    742.3742      8.7107    145.2337
   677.0000      0.0000    743.8513      8.7988    148.3896
   677.2500      0.0000    746.3782      8.9287    151.2695
   677.5000      0.0000    748.6027      9.0776    154.3105
   677.7500      0.0000    747.4781      9.2285    157.3713
   678.0000      0.0000    737.3978      9.3901    160.1612
   678.2500      0.0000    709.9586      9.5792    162.6145
   678.5000      0.0000    657.3343      9.8025    164.5124
   678.7500      0.0000    580.1278     10.0558    164.9160
   679.0000      0.0000    492.3412     10.3200    162.3399
   679.2500      0.0000    414.7951     10.5633    155.8462
   679.5000      0.0000    361.4964     10.7622    146.2500
   679.7500      0.0000    332.9149     10.9191    136.2260
   680.0000      0.0000    320.9095     11.0489    128.9217
   680.2500      0.0000    317.0657     11.1535    126.2849
   680.5000      0.0000    316.9046     11.2184    128.4546
   680.7500      0.0000    320.2644     11.2273    134.0409
   681.0000      0.0000    330.8897     11.1754    140.5997
   681.2500      0.0000    355.3182     11.0671    145.4057
   681.5000      0.0000    398.3689     10.9030    146.6012
   681.7500      0.0000    456.5094     10.6818    144.1215
   682.0000      0.0000    517.2654     10.4243    139.6232
   682.2500      0.0000    569.1084     10.1829    135.2237
   682.5000      0.0000    610.8527      9.9991    131.9471
   682.7500      0.0000    648.0187      9.8550    129.3013
   683.0000      0.0000    682.7609      9.6917    126.3252
   683.2500      0.0000    712.0343      9.4814    122.9433
   683.5000      0.0000    733.4816      9.2595    120.1326
   683.7500      0.0000    748.4917      9.0780    118.7412
   684.0000      0.0000    759.2385      8.9506    118.4012
   684.2500      0.0000    764.5428      8.8591    117.9449
   684.5000      0.0000    758.8461      8.7956    116.7183
   684.7500      0.0000    735.3348      8.7754    114.9729
   685.0000      0.0000    692.7671      8.8059    112.9606
   685.2500      0.0000    642.3246      8.8521    110.4397
   685.5000      0.0000    606.0068      8.8415    107.4236
   685.7500      0.0000    602.2767      8.7128    104.8806
   686.0000      0.0000    630.5687      8.4684    104.4012
   686.2500      0.0000    672.4316      8.1818    107.2844
   686.5000      0.0000    708.1185      7.9495    113.5957
   686.7500      0.0000    729.6279      7.8261    121.6996
   687.0000      0.0000    739.6501      7.7908    129.0655
   687.2500      0.0000    743.5701      7.7711    134.0018
   687.5000      0.0000    744.5138      7.7060    136.6232
   687.7500      0.0000    743.5240      7.5812    138.0997
   688.0000      0.0000    741.4555      7.4084    139.2122
   688.2500      0.0000    739.4817      7.1913    139.6871
   688.5000      0.0000    738.1022      6.9348    138.7686
   688.7500      0.0000    736.6439      6.6767    136.3648
   689.0000      0.0000    734.1243      6.4822    133.5720
   689.2500      0.0000    730.2859      6.3950    131.8567
   689.5000      0.0000    725.7277      6.4033    131.7676
   689.7500      0.0000    721.3156      6.4625    132.6074
   690.0000      0.0000    717.5988      6.5420    132.9793
   690.2500      0.0000    714.5526      6.6351    131.6185
   690.5000      0.0000    711.7336      6.7294    128.5933
   690.7500      0.0000    708.9142      6.7890    126.0323
   691.0000      0.0000    706.6538      6.7834    126.6811
   691.2500      0.0000    706.0392      6.7242    131.1950
   691.5000      0.0000    707.8027      6.6568    137.3934
   691.7500      0.0000    711.7794      6.6241    142.1916
   692.0000      0.0000    717.1489      6.6483    143.8087
   692.2500      0.0000    723.0259      6.7295    142.4549
   692.5000      0.0000    728.7073      6.8412    139.6375
   692.7500      0.0000    733.5640      6.9357    136.9267
   693.0000      0.0000    737.0762      6.9767    135.2612
   693.2500      0.0000    739.0759      6.9695    135.3486
   693.5000      0.0000    739.8151      6.9456    138.1109
   693.7500      0.0000    739.7568      6.9199    143.9914
   694.0000      0.0000    739.3285      6.8828    151.9341
   694.2500      0.0000    738.8010      6.8350    159.5164
   694.5000      0.0000    738.2784      6.8010    164.1199
   694.7500      0.0000    737.7220      6.7986    164.1870
   695.0000      0.0000    736.9124      6.8191    160.0575
