~Version Information
VERS.                      2.0: CWLS Log ASCII Standard - VERSION 2.0
WRAP.                       NO: One line per depth step
~Well Information Block
STRT.FT                 0.6000: 
STOP.FT              2735.2000: 
STEP.FT                 0.1000: 
NULL.                -999.2500: 
COMP.          Pioneer Natural Resources: COMPANY
WELL.              Cluck 21-25: WELL
FLD.           Purgatoire River: FIELD
LOC.           91' FNL & 1834' FWL--: LOCATION
PROV.                 Colorado: PROVINCE
CNTY.               Las Animas: COUNTRY
SRVC.                Patterson: SERVICE COMPANY
DATE.          Mon Jun 06 19:08:34 2005: LOG DATE
UWI.           05 071 08397 00: UNIQUE WELL ID
~Curve Information Block
DEPT.FT            0 000 00 00: Depth
SN.Ohm-m                      : IEL Short Normal
SP.mV                         : IEL Spontaneous Potential
DIR.Ohm-m                     : IEL Induction Resistivity
GR.GAPI                       : Gamma Ray
~Parameter Information Block
~A  Depth        SN          SP         DIR          GR     
# ...
   563.4000   2000.0000   1981.0000     20.2207     91.2157
   563.5000   2000.0000   1981.0000     21.1567     89.4671
   563.6000   2000.0000   1981.0000     21.1567     87.7566
   563.7000   2000.0000   1981.0000     21.1567     86.1128
   563.8000   2000.0000   1981.0000     22.1557     84.5639
   563.9000   2000.0000   1981.0000     22.1557     83.1347
   564.0000   2000.0000   1981.0000     23.1975     81.8435
   564.1000   2000.0000   1981.0000     23.1975     80.6999
   564.2000   2000.0000   1981.0000     23.1975     79.7055
   564.3000   2000.0000   1981.0000     24.2348     78.8542
   564.4000   2000.0000   1981.0000     24.2348     78.1340
   564.5000   2000.0000   1981.0000     25.2036     77.5243
   564.6000   2000.0000   1981.0000     25.2036     77.0006
   564.7000   2000.0000   1981.0000     25.2036     76.5326
   564.8000   2000.0000   1981.0000     26.0449     76.0890
   564.9000   2000.0000   1981.0000     26.0449     75.6398
   565.0000   2000.0000   1981.0000     26.7217     75.1621
   565.1000   2000.0000   1981.0000     26.7217     74.6442
   565.2000   2000.0000   1981.0000     26.7217     74.0886
   565.3000   2000.0000   1981.0000     27.2215     73.5132
   565.4000   2000.0000   1981.0000     27.2215     72.9507
   565.5000   2000.0000   1981.0000     27.5521     72.4446
   565.6000   2000.0000   1981.0000     27.5521     72.0420
   565.7000   2000.0000   1981.0000     27.5521     71.7881
   565.8000   2000.0000   1981.0000     27.7410     71.7213
   565.9000   2000.0000   1981.0000     27.7410     71.8647
   566.0000   2000.0000   1981.0000     27.8394     72.2246
   566.1000   2000.0000   1981.0000     27.8394     72.7864
   566.2000   2000.0000   1981.0000     27.8394     73.5187
   566.3000   2000.0000   1981.0000     27.9164     74.3718
   566.4000   2000.0000   1981.0000     27.9164     75.2833
   566.5000   2000.0000   1981.0000     28.0377     76.1825
   566.6000   2000.0000   1981.0000     28.0377     76.9975
   566.7000   2000.0000   1981.0000     28.0377     77.6625
   566.8000   2000.0000   1981.0000     28.2389     78.1233
   566.9000   2000.0000   1981.0000     28.2389     78.3444
   567.0000   2000.0000   1981.0000     28.5153     78.3091
   567.1000   2000.0000   1981.0000     28.5153     78.0233
   567.2000   2000.0000   1981.0000     28.5153     77.5115
   567.3000   2000.0000   1981.0000     28.8338     76.8094
   567.4000   2000.0000   1981.0000     28.8338     75.9611
   567.5000   2000.0000   1981.0000     29.1568     75.0099
   567.6000   2000.0000   1981.0000     29.1568     73.9970
   567.7000   2000.0000   1981.0000     29.1568     72.9590
   567.8000   2000.0000   1981.0000     29.4583     71.9270
   567.9000   2000.0000   1981.0000     29.4583     70.9309
   568.0000   2000.0000   1981.0000     29.7211     70.0002
   568.1000   2000.0000   1981.0000     29.7211     69.1645
   568.2000   2000.0000   1981.0000     29.7211     68.4567
   568.3000   2000.0000   1981.0000     29.9238     67.9112
   568.4000   2000.0000   1981.0000     29.9238     67.5660
   568.5000   2000.0000   1981.0000     30.0390     67.4612
   568.6000   2000.0000   1981.0000     30.0390     67.6397
   568.7000   2000.0000   1981.0000     30.0390     68.1451
   568.8000   2000.0000   1981.0000     30.0511     69.0193
   568.9000   2000.0000   1981.0000     30.0511     70.2960
   569.0000   2000.0000   1981.0000     29.9775     71.9927
   569.1000   2000.0000   1981.0000     29.9775     74.1045
   569.2000   2000.0000   1981.0000     29.9775     76.5948
   569.3000   2000.0000   1981.0000     29.8683     79.3913
   569.4000   2000.0000   1981.0000     29.8683     82.3865
   569.5000   2000.0000   1981.0000     29.7774     85.4434
   569.6000   2000.0000   1981.0000     29.7774     88.4043
   569.7000   2000.0000   1981.0000     29.7774     91.1052
   569.8000   2000.0000   1981.0000     29.7326     93.3918
   569.9000   2000.0000   1981.0000     29.7326     95.1302
   570.0000   2000.0000   1981.0000     29.7285     96.2245
   570.1000   2000.0000   1981.0000     29.7285     96.6203
   570.2000   2000.0000   1981.0000     29.7285     96.3112
   570.3000   2000.0000   1981.0000     29.7471     95.3344
   570.4000   2000.0000   1981.0000     29.7471     93.7654
   570.5000   2000.0000   1981.0000     29.7872     91.7088
   570.6000   2000.0000   1981.0000     29.7872     89.2822
   570.7000   2000.0000   1981.0000     29.7872     86.6077
   570.8000   2000.0000   1981.0000     29.8770     83.7986
   570.9000   2000.0000   1981.0000     29.8770     80.9540
   571.0000   2000.0000   1981.0000     30.0646     78.1551
   571.1000   2000.0000   1981.0000     30.0646     75.4664
   571.2000   2000.0000   1981.0000     30.0646     72.9372
   571.3000   2000.0000   1981.0000     30.4002     70.6065
   571.4000   2000.0000   1981.0000     30.4002     68.5074
   571.5000   2000.0000   1981.0000     30.9245     66.6680
   571.6000   2000.0000   1981.0000     30.9245     65.1133
   571.7000   2000.0000   1981.0000     30.9245     63.8618
   571.8000   2000.0000   1981.0000     31.6618     62.9226
   571.9000   2000.0000   1981.0000     31.6618     62.2921
   572.0000   2000.0000   1981.0000     32.6043     61.9513
   572.1000   2000.0000   1981.0000     32.6043     61.8655
   572.2000   2000.0000   1981.0000     32.6043     61.9868
   572.3000   2000.0000   1981.0000     33.6881     62.2567
   572.4000   2000.0000   1981.0000     33.6881     62.6161
   572.5000   2000.0000   1981.0000     34.7809     63.0081
   572.6000   2000.0000   1981.0000     34.7809     63.3885
   572.7000   2000.0000   1981.0000     34.7809     63.7271
   572.8000   2000.0000   1981.0000     35.7139     64.0098
   572.9000   2000.0000   1981.0000     35.7139     64.2363
   573.0000   2000.0000   1981.0000     36.3578     64.4164
   573.1000   2000.0000   1981.0000     36.3578     64.5629
   573.2000   2000.0000   1981.0000     36.3578     64.6895
   573.3000   2000.0000   1981.0000     36.6862     64.8045
   573.4000   2000.0000   1981.0000     36.6862     64.9112
   573.5000   2000.0000   1981.0000     36.7695     65.0080
   573.6000   2000.0000   1981.0000     36.7695     65.0886
   573.7000   2000.0000   1981.0000     36.7695     65.1438
   573.8000   2000.0000   1981.0000     36.7115     65.1678
   573.9000   2000.0000   1981.0000     36.7115     65.1549
   574.0000   2000.0000   1981.0000     36.5947     65.1057
   574.1000   2000.0000   1981.0000     36.5947     65.0256
   574.2000   2000.0000   1981.0000     36.5947     64.9258
   574.3000   2000.0000   1981.0000     36.4713     64.8223
   574.4000   2000.0000   1981.0000     36.4713     64.7337
   574.5000   2000.0000   1981.0000     36.3829     64.6795
   574.6000   2000.0000   1981.0000     36.3829     64.6755
   574.7000   2000.0000   1981.0000     36.3829     64.7328
   574.8000   2000.0000   1981.0000     36.3723     64.8543
   574.9000   2000.0000   1981.0000     36.3723     65.0349
   575.0000   2000.0000   1981.0000     36.4712     65.2605
   575.1000   2000.0000   1981.0000     36.4712     65.5107
   575.2000   2000.0000   1981.0000     36.4712     65.7627
   575.3000   2000.0000   1981.0000     36.6749     65.9928
   575.4000   2000.0000   1981.0000     36.6749     66.1797
   575.5000   2000.0000   1981.0000     36.9347     66.3060
   575.6000   2000.0000   1981.0000     36.9347     66.3571
   575.7000   2000.0000   1981.0000     36.9347     66.3209
   575.8000   2000.0000   1981.0000     37.1812     66.1860
   575.9000   2000.0000   1981.0000     37.1812     65.9406
   576.0000   2000.0000   1981.0000     37.3663     65.5705
   576.1000   2000.0000   1981.0000     37.3663     65.0605
   576.2000   2000.0000   1981.0000     37.3663     64.3990
   576.3000   2000.0000   1981.0000     37.4908     63.5792
   576.4000   2000.0000   1981.0000     37.4908     62.6065
   576.5000   2000.0000   1981.0000     37.5970     61.5010
   576.6000   2000.0000   1981.0000     37.5970     60.3001
   576.7000   2000.0000   1981.0000     37.5970     59.0569
