~Version Information
VERS.                      2.0: CWLS Log ASCII Standard - VERSION 2.0
WRAP.                       NO: One line per depth step
~Well Information Block
STRT.FT                -3.2500: 
STOP.FT              2202.2500: 
STEP.FT                 0.2500: 
NULL.                -999.2500: 
COMP.          Pioneer Natural Resources: COMPANY
WELL.           Parklane 43-34: WELL
FLD.           Purgatorie River: FIELD
LOC.           1704' FSL & 1119' FEL--: LOCATION
PROV.                       CO: PROVINCE
CNTY.               Las Animas: COUNTRY
SRVC.                         : SERVICE COMPANY
DATE.          Thu Oct 14 14:49:09 2004: LOG DATE
UWI.           005 071 08162  : UNIQUE WELL ID
~Curve Information Block
DEPT.FT            0 000 00 00: Depth
GR.GAPI                       : Gamma Ray
CCL.                          : Casing Collar Locator
TT3.usec                      : CBL 3' Travel Time
AMP3.mV                       : CBL 3' Amplitude
~Parameter Information Block
~A  Depth        GR         CCL         TT3         AMP3    
# ...
  1001.7500     80.0393      0.0000    662.1417      2.9410
  1002.0000     79.2906      0.0000    653.5773      2.8180
  1002.2500     77.9208      0.0000    647.1038      2.7122
  1002.5000     77.3624      0.0000    643.3427      2.6191
  1002.7500     79.1401      0.0000    643.6946      2.5322
  1003.0000     83.3786      0.0000    650.9227      2.4576
  1003.2500     88.3201      0.0000    669.2370      2.4132
  1003.5000     91.3137      0.0000    701.6107      2.4179
  1003.7500     90.4214      0.0000    745.8879      2.4777
  1004.0000     85.6407      0.0000    793.8950      2.5752
  1004.2500     78.9272      0.0000    835.0901      2.6787
  1004.5000     72.7576      0.0000    861.6807      2.7673
  1004.7500     68.3849      0.0000    871.1245      2.8517
  1005.0000     65.3408      0.0000    865.1057      2.9703
  1005.2500     62.3168      0.0000    847.4727      3.1588
  1005.5000     58.3316      0.0000    823.1899      3.4143
  1005.7500     53.4273      0.0000    797.3882      3.6883
  1006.0000     48.7544      0.0000    773.6998      3.9107
  1006.2500     45.9213      0.0000    753.7028      4.0208
  1006.5000     45.7876      0.0000    738.3111      3.9893
  1006.7500     47.5657      0.0000    728.8234      3.8363
  1007.0000     49.3011      0.0000    726.0582      3.6394
  1007.2500     49.6862      0.0000    729.0457      3.5085
  1007.5000     49.5574      0.0000    735.0523      3.5230
  1007.7500     51.3352      0.0000    740.8985      3.6729
  1008.0000     56.9191      0.0000    744.2205      3.8639
  1008.2500     66.3472      0.0000    743.7783      3.9849
  1008.5000     78.1158      0.0000    739.1705      3.9780
  1008.7500     90.1396      0.0000    730.9055      3.8605
  1009.0000    100.5736      0.0000    720.8109      3.7012
  1009.2500    108.4444      0.0000    711.7229      3.5771
  1009.5000    113.8991      0.0000    705.9944      3.5351
  1009.7500    118.0623      0.0000    703.9178      3.5716
  1010.0000    122.6393      0.0000    703.7430      3.6403
  1010.2500    128.8805      0.0000    703.4852      3.6848
  1010.5000    136.2927      0.0000    702.7064      3.6729
  1010.7500    142.9194      0.0000    702.4319      3.6072
  1011.0000    147.3903      0.0000    703.5549      3.5128
  1011.2500    150.2444      0.0000    705.7579      3.4213
  1011.5000    152.9930      0.0000    708.0415      3.3621
  1011.7500    156.3398      0.0000    709.8415      3.3555
  1012.0000    159.5397      0.0000    711.3948      3.4033
  1012.2500    161.2805      0.0000    713.2645      3.4832
  1012.5000    160.8969      0.0000    715.6133      3.5593
  1012.7500    158.7154      0.0000    717.7833      3.6013
  1013.0000    155.5925      0.0000    718.6623      3.6000
  1013.2500    152.5170      0.0000    717.7145      3.5633
  1013.5000    150.4007      0.0000    715.5781      3.4995
  1013.7500    149.6067      0.0000    713.5021      3.4070
  1014.0000    149.5587      0.0000    712.4083      3.2821
  1014.2500    149.1766      0.0000    712.6595      3.1356
  1014.5000    147.8295      0.0000    714.3830      2.9986
  1014.7500    145.7661      0.0000    717.5306      2.9086
  1015.0000    143.7708      0.0000    721.5361      2.8884
  1015.2500    142.6000      0.0000    725.2751      2.9394
  1015.5000    142.5435      0.0000    727.8066      3.0504
  1015.7500    143.3964      0.0000    729.3008      3.2037
  1016.0000    145.0600      0.0000    731.0831      3.3707
  1016.2500    148.0092      0.0000    734.4391      3.5136
  1016.5000    152.5619      0.0000    739.2142      3.6035
  1016.7500    157.7110      0.0000    743.6862      3.6410
  1017.0000    161.3075      0.0000    745.8870      3.6522
  1017.2500    161.6899      0.0000    744.9968      3.6604
  1017.5000    159.0459      0.0000    741.6796      3.6683
  1017.7500    155.1825      0.0000    737.5418      3.6684
  1018.0000    151.9234      0.0000    734.4488      3.6615
  1018.2500    149.4464      0.0000    734.0652      3.6558
  1018.5000    146.0238      0.0000    737.2517      3.6517
  1018.7500    139.3723      0.0000    743.2325      3.6380
  1019.0000    128.3918      0.0000    749.5576      3.6050
  1019.2500    114.1966      0.0000    753.6622      3.5559
  1019.5000     99.8973      0.0000    754.9018      3.5031
  1019.7500     88.8295      0.0000    754.9117      3.4531
  1020.0000     82.3482      0.0000    755.8455      3.3986
  1020.2500     79.5213      0.0000    758.3593      3.3288
  1020.5000     79.0426      0.0000    761.2413      3.2470
  1020.7500     80.8125      0.0000    762.6113      3.1683
  1021.0000     85.1826      0.0000    761.2844      3.0994
  1021.2500     91.1974      0.0000    757.4046      3.0310
  1021.5000     96.7322      0.0000    752.4479      2.9540
  1021.7500    100.8363      0.0000    748.7624      2.8743
  1022.0000    105.1349      0.0000    748.5077      2.8073
  1022.2500    112.0306      0.0000    752.1562      2.7609
  1022.5000    121.8319      0.0000    757.7073      2.7295
  1022.7500    132.3380      0.0000    762.0393      2.7042
  1023.0000    140.9209      0.0000    763.8254      2.6908
  1023.2500    146.1899      0.0000    764.9124      2.7108
  1023.5000    147.7411      0.0000    768.2876      2.7802
  1023.7500    145.3865      0.0000    775.0814      2.8897
  1024.0000    139.4797      0.0000    784.4120      3.0093
  1024.2500    131.6663      0.0000    795.5452      3.1079
  1024.5000    124.2310      0.0000    808.6122      3.1699
  1024.7500    118.2234      0.0000    822.9426      3.2018
  1025.0000    112.6007      0.0000    835.6356      3.2238
  1025.2500    105.5827      0.0000    842.4035      3.2488
  1025.5000     96.7139      0.0000    839.9565      3.2589
  1025.7500     87.5751      0.0000    828.2733      3.2061
  1026.0000     80.7276      0.0000    811.2773      3.0506
  1026.2500     77.9009      0.0000    794.7869      2.8049
  1026.5000     78.7709      0.0000    783.2316      2.5341
  1026.7500     81.3279      0.0000    777.9796      2.3054
  1027.0000     83.4471      0.0000    777.9740      2.1426
  1027.2500     84.1245     -2.0000    781.1198      2.0266
  1027.5000     83.4808      0.0000    784.4727      1.9315
  1027.7500     82.1821      0.0000    783.5065      1.8539
  1028.0000     81.0757      0.0000    773.2719      1.8015
  1028.2500     80.7837      0.0000    752.1453      1.7591
  1028.5000     81.0166      0.0000    724.4336      1.6904
  1028.7500     80.4891      0.0000    698.1246      1.5846
  1029.0000     77.9651      0.0000    679.3873      1.4799
  1029.2500     73.3659      0.0000    669.3396      1.4250
  1029.5000     67.8306      0.0000    665.3799      1.4315
  1029.7500     62.9749      0.0000    664.3229      1.4758
  1030.0000     59.9937      0.0000    664.2073      1.5281
  1030.2500     59.1301      0.0000    664.2829      1.5720
  1030.5000     59.8498      0.0000    664.3689      1.6063
  1030.7500     61.3008      0.0000    664.3845      1.6371
  1031.0000     62.3940      0.0000    664.2235      1.6670
  1031.2500     62.0292      0.0000    663.8333      1.6907
  1031.5000     60.0129      0.0000    663.2802      1.7025
  1031.7500     57.5675      0.0000    662.8271      1.7068
  1032.0000     56.2572      0.0000    663.1010      1.7181
  1032.2500     56.4485      0.0000    665.3831      1.7500
  1032.5000     57.2128      0.0000    671.7018      1.8042
  1032.7500     57.6417      0.0000    684.0895      1.8731
  1033.0000     57.8988      0.0000    702.9139      1.9490
  1033.2500     58.8510      0.0000    725.6642      2.0295
  1033.5000     60.8377      0.0000    747.8570      2.1145
  1033.7500     63.0989      0.0000    765.5842      2.2024
  1034.0000     64.4524      0.0000    777.3757      2.2896
  1034.2500     64.3231      0.0000    784.0573      2.3760
  1034.5000     63.1068      0.0000    787.2917      2.4646
  1034.7500     61.7878      0.0000    788.0647      2.5574
  1035.0000     61.1213      0.0000    785.7643      2.6559
