~Version Information
VERS.                      2.0: CWLS Log ASCII Standard - VERSION 2.0
WRAP.                       NO: One line per depth step
~Well Information Block
STRT.FT               521.6000: 
STOP.FT              1490.2000: 
STEP.FT                 0.1000: 
NULL.                -999.2500: 
COMP.          Petrogulf Corporation: COMPANY
WELL.          Robinson 15-11R: WELL
FLD.           Purgatorie River: FIELD
LOC.           324' FNL & 570' FWL: LOCATION
CNTY.               Las Animas: COUNTY
SRVC.                         : SERVICE COMPANY
DATE.          Sat Nov 06 22:43:15 2004: LOG DATE
UWI.           05 071 08029 00: UNIQUE WELL ID
STAT.                 Colorado: STATE
~Curve Information Block
DEPT.FT            0 000 00 00: Depth
DCAL.in                       : CDL Caliper
RHOB.g/cc                     : CDL Bulk Density
RHOC.g/cc                     : CDL Density Correction
DPOR.pu                       : CDL Density Porosity
GR.GAPI                       : Gamma Ray
NPOR.pu                       : Neutron Porosity
~Parameter Information Block
~A  Depth       DCAL        RHOB        RHOC        DPOR         GR         NPOR    
# ...
  1164.8000      7.9816      2.0086      0.0538     38.8738    142.9848     18.8506
  1164.9000      7.9816      2.0157      0.0577     38.4437    137.6153     20.5026
  1165.0000      7.9640      2.0447      0.0582     36.6874    131.5677     22.0453
  1165.1000      7.9640      2.0975      0.1279     33.4851    125.1364     23.2197
  1165.2000      7.9640      2.1709      0.2058     29.0375    119.1392     24.2122
  1165.3000      7.9450      2.2650      0.2614     23.3324    116.2257     24.8739
  1165.4000      7.9450      2.3722      0.2933     16.8391    115.2248     25.1312
  1165.5000      7.9390      2.4562      0.3856     11.7472    113.5595     25.5759
  1165.6000      7.9390      2.4942      0.1801      9.4411    111.0718     26.1155
  1165.7000      7.9390      2.5127      0.1145      8.3224    108.6497     25.9685
  1165.8000      7.8812      2.5248      0.1160      7.5852    106.8830     25.4706
  1165.9000      7.8812      2.5205      0.0648      7.8511    106.1835     25.4782
  1166.0000      7.9029      2.5132      0.0413      8.2903    108.3141     25.9188
  1166.1000      7.9029      2.5203      0.0699      7.8590    112.9121     26.0683
  1166.2000      7.9029      2.5375      0.0475      6.8172    115.1861     25.6779
  1166.3000      7.8922      2.5634      0.0972      5.2481    114.6097     25.3062
  1166.4000      7.8922      2.5950      0.1730      3.3310    116.1426     25.0268
  1166.5000      7.8784      2.6094      0.1914      2.4610    119.0644     24.5293
  1166.6000      7.8784      2.5897      0.1396      3.6547    119.8415     24.2330
  1166.7000      7.8784      2.5530      0.1022      5.8770    120.2846     24.2025
  1166.8000      7.8467      2.5325      0.0798      7.1201    122.1865     23.8190
  1166.9000      7.8467      2.5401      0.0826      6.6633    123.3266     22.9430
  1167.0000      7.8330      2.5576      0.0909      5.5990    123.6161     22.1629
  1167.1000      7.8330      2.5687      0.1036      4.9273    124.9072     21.9836
  1167.2000      7.8330      2.5791      0.0809      4.2984    126.3645     22.0848
  1167.3000      7.8756      2.5881      0.1256      3.7530    128.2358     22.0125
  1167.4000      7.8756      2.5825      0.1121      4.0928    129.2993     22.0005
  1167.5000      7.8663      2.5728      0.0703      4.6771    128.2068     22.3533
  1167.6000      7.8663      2.5797      0.0709      4.2608    128.3780     22.8492
  1167.7000      7.8663      2.5897      0.1142      3.6546    131.3764     23.1889
  1167.8000      7.8624      2.5825      0.0299      4.0927    131.1536     23.3602
  1167.9000      7.8624      2.5716      0.0228      4.7542    123.3392     23.5382
  1168.0000      7.8365      2.5627      0.1502      5.2915    114.5312     23.7327
  1168.1000      7.8365      2.5358      0.0415      6.9226    110.8356     23.7273
  1168.2000      7.8365      2.4971      0.0029      9.2637    108.8246     23.4846
  1168.3000      7.8208      2.4774      0.0054     10.4636    104.4534     23.0763
  1168.4000      7.8208      2.4940      0.0106      9.4565     99.0304     22.7208
  1168.5000      7.8402      2.5375      0.0665      6.8191     96.4288     22.8405
  1168.6000      7.8402      2.5782      0.0651      4.3533     98.5926     23.1568
  1168.7000      7.8402      2.5965      0.0928      3.2405    104.2422     23.1919
  1168.8000      7.8414      2.5983      0.0943      3.1318    110.9645     23.2486
  1168.9000      7.8414      2.5989      0.1025      3.0969    114.2260     23.5769
  1169.0000      7.8046      2.6058      0.1315      2.6765    110.5519     23.7346
  1169.1000      7.8046      2.6154      0.1557      2.0955    103.9645     23.4353
  1169.2000      7.8046      2.6214      0.1345      1.7308    102.2219     22.9960
  1169.3000      7.8029      2.6211      0.1179      1.7526    104.7691     22.8484
  1169.4000      7.8029      2.6123      0.0748      2.2877    103.8698     23.2487
  1169.5000      7.8228      2.5953      0.0702      3.3126     98.7589     23.7420
  1169.6000      7.8228      2.5801      0.0800      4.2378     96.5870     23.7663
  1169.7000      7.8228      2.5822      0.0801      4.1105    100.0352     23.6299
  1169.8000      7.8586      2.6044      0.0731      2.7658    104.3459     23.5156
  1169.9000      7.8586      2.6307      0.1212      1.1685    104.2670     23.1629
  1170.0000      7.8050      2.6479      0.0991      0.1248     99.1430     22.7325
  1170.1000      7.8050      2.6537      0.1292     -0.2264     93.1220     22.6093
  1170.2000      7.8050      2.6437      0.1370      0.3844     90.9947     22.7556
  1170.3000      7.8331      2.6195      0.1156      1.8500     93.0449     22.7568
  1170.4000      7.8331      2.5957      0.0751      3.2882     97.6863     22.4793
  1170.5000      7.8233      2.5872      0.0758      3.8035    103.4886     22.4697
  1170.6000      7.8233      2.5987      0.0817      3.1069    105.4463     23.1117
  1170.7000      7.8233      2.6160      0.1419      2.0626    101.3931     24.0232
  1170.8000      7.8665      2.6245      0.0937      1.5472     99.6139     24.8819
  1170.9000      7.8665      2.6276      0.0908      1.3598    106.4674     25.5334
  1171.0000      7.8664      2.6250      0.0733      1.5163    116.3280     25.6181
  1171.1000      7.8664      2.6092      0.0872      2.4721    121.5611     25.4351
  1171.2000      7.8664      2.5902      0.0323      3.6221    119.0355     25.6495
  1171.3000      7.8920      2.5828      0.0505      4.0735    112.4439     25.9857
  1171.4000      7.8920      2.5757      0.0720      4.5059    108.2106     25.9574
  1171.5000      7.8761      2.5555      0.0501      5.7283    106.0510     25.7771
  1171.6000      7.8761      2.5313     -0.0216      7.1944    101.4053     25.6598
  1171.7000      7.8761      2.5083      0.0203      8.5907     96.9429     25.4978
  1171.8000      7.8753      2.4813     -0.0364     10.2238     98.7628     25.4092
  1171.9000      7.8753      2.4609     -0.0050     11.4595    104.7342     25.4134
  1172.0000      7.8440      2.4604      0.0203     11.4934    106.1531     25.1565
  1172.1000      7.8440      2.4835      0.0424     10.0910     98.5574     24.4113
  1172.2000      7.8440      2.5272      0.1040      7.4442     88.3092     23.2980
  1172.3000      7.8042      2.5794      0.1316      4.2758     83.6427     22.4817
  1172.4000      7.8042      2.6345      0.1858      0.9367     83.6019     22.4570
  1172.5000      7.7655      2.6907      0.2342     -2.4677     82.6177     22.7720
  1172.6000      7.7655      2.7306      0.2562     -4.8871     80.9532     23.0043
  1172.7000      7.7655      2.7356      0.2714     -5.1864     83.9146     23.1536
  1172.8000      7.7475      2.7181      0.1815     -4.1295     92.3718     22.9563
  1172.9000      7.7475      2.7040      0.2382     -3.2698    101.7116     22.4713
  1173.0000      7.7665      2.6924      0.1754     -2.5674    107.9344     22.4501
  1173.1000      7.7665      2.6662      0.1812     -0.9796    110.5481     23.0373
  1173.2000      7.7665      2.6284      0.0511      1.3112    112.2465     23.3512
  1173.3000      7.7871      2.6138      0.0730      2.1952    116.0643     23.1513
  1173.4000      7.7871      2.6350      0.1301      0.9070    120.0260     23.2192
  1173.5000      7.8357      2.6611      0.1100     -0.6712    119.6973     23.5344
  1173.6000      7.8357      2.6626      0.1118     -0.7656    113.7624     23.3267
  1173.7000      7.8357      2.6313      0.1560      1.1337    106.3045     22.5276
  1173.8000      7.8435      2.5812      0.0457      4.1700    102.9174     21.6955
  1173.9000      7.8435      2.5408      0.0898      6.6183    105.1215     21.3404
  1174.0000      7.8545      2.5287     -0.0009      7.3541    112.9316     21.4907
  1174.1000      7.8545      2.5435      0.0538      6.4545    121.2731     21.7771
  1174.2000      7.8545      2.5588      0.0605      5.5253    123.1648     21.6865
  1174.3000      7.8563      2.5532      0.0397      5.8673    124.2002     21.1772
