~Version Information
VERS.                      2.0: CWLS Log ASCII Standard - VERSION 2.0
WRAP.                       NO: One line per depth step
~Well Information Block
STRT.FT               580.0000: 
STOP.FT              2729.7000: 
STEP.FT                 0.1000: 
NULL.                -999.2500: 
COMP.          Pioneer Natural Resources: COMPANY
WELL.          Sand Pebbles 13-33: WELL
FLD.           Purgatoire River: FIELD
LOC.           1883' FSL & 63' FWL----: LOCATION
PROV.                 Colorado: PROVINCE
CNTY.               Las Animas: COUNTRY
SRVC.                Patterson: SERVICE COMPANY
DATE.          Mon Mar 14 07:33:33 2005: LOG DATE
UWI.           05 071 08224 00: UNIQUE WELL ID
~Curve Information Block
DEPT.FT            0 000 00 00: Depth
DCAL.in                       : CDL Caliper
RHOB.g/cc                     : CDL Bulk Density
RHOC.g/cc                     : CDL Density Correction
DPOR.pu                       : CDL Density Porosity
NPOR.pu                       : Neutron Porosity
GR.GAPI                       : Gamma Ray
~Parameter Information Block
~A  Depth       DCAL        RHOB        RHOC        DPOR        NPOR         GR     
# ...
  1991.2000      9.0094      2.1225      0.2810     31.9699     33.7450    137.4545
  1991.3000      9.6398      2.1123      0.3143     32.5857     33.5540    140.7297
  1991.4000      9.6398      2.0882      0.2212     34.0467     33.6416    138.2306
  1991.5000     10.1078      2.0506      0.1532     36.3274     34.0324    131.1597
  1991.6000     10.1078      2.0014      0.1357     39.3112     34.3831    126.7580
  1991.7000     10.1078      1.9382      0.1253     43.1386     34.4213    127.5938
  1991.8000     10.1016      1.8554      0.1107     48.1594     34.2933    131.3952
  1991.9000     10.1016      1.7521      0.1064     54.4152     34.2510    135.3153
  1992.0000      9.7884      1.6652      0.0433     59.6840     34.2511    134.5708
  1992.1000      9.7884      1.6554      0.0887     60.2795     33.9763    127.4359
  1992.2000      9.7884      1.7321      0.2271     55.6290     33.3496    118.7680
  1992.3000      9.5682      1.8489      0.2634     48.5535     32.9861    113.4888
  1992.4000      9.5682      1.9710      0.3093     41.1525     33.1760    114.6863
  1992.5000      9.4936      2.0912      0.3508     33.8683     33.3264    123.9501
  1992.6000      9.4936      2.2018      0.3854     27.1635     33.0596    137.2437
  1992.7000      9.4936      2.2884      0.4402     21.9169     32.5618    145.6029
  1992.8000      9.2326      2.3467      0.3567     18.3798     32.3194    147.2012
  1992.9000      9.2326      2.3873      0.3779     15.9192     32.5261    146.9559
  1993.0000      8.7029      2.4142      0.3419     14.2892     32.8212    145.5322
  1993.1000      8.7029      2.4206      0.3320     13.9005     32.9171    143.4953
  1993.2000      8.7029      2.4005      0.2670     15.1220     32.8538    143.9328
  1993.3000      8.3283      2.3583      0.2129     17.6794     32.9238    144.4927
  1993.4000      8.3283      2.3135      0.1396     20.3913     33.3354    139.7809
  1993.5000      8.1946      2.2896      0.1374     21.8418     33.7588    133.0161
  1993.6000      8.1946      2.2895      0.1347     21.8455     33.7842    133.0139
  1993.7000      8.1946      2.2945      0.1367     21.5437     33.2821    138.0753
  1993.8000      8.1473      2.2870      0.0952     22.0030     32.5788    140.3176
  1993.9000      8.1473      2.2743      0.0248     22.7726     32.2071    140.0753
  1994.0000      8.1320      2.2736      0.0409     22.8131     32.4951    138.4950
  1994.1000      8.1320      2.2760      0.0622     22.6689     33.1592    132.8719
  1994.2000      8.1320      2.2651      0.0492     23.3250     33.5986    124.7561
  1994.3000      8.1279      2.2458      0.0450     24.4970     33.5648    120.3419
  1994.4000      8.1279      2.2348      0.0324     25.1641     33.0518    123.7770
  1994.5000      8.1253      2.2454      0.0544     24.5225     32.3695    131.4799
  1994.6000      8.1253      2.2717      0.0954     22.9272     32.0364    136.5335
  1994.7000      8.1253      2.2916      0.1179     21.7208     32.3054    139.2537
  1994.8000      8.1254      2.2930      0.0900     21.6361     32.7188    144.5365
  1994.9000      8.1254      2.2806      0.0662     22.3883     32.6764    150.4312
  1995.0000      8.1272      2.2599      0.0773     23.6439     32.2578    151.2651
  1995.1000      8.1272      2.2400      0.0632     24.8490     31.5499    145.2807
  1995.2000      8.1272      2.2385      0.0192     24.9419     30.5296    136.7469
  1995.3000      8.1269      2.2593      0.0571     23.6817     29.4956    134.6320
  1995.4000      8.1269      2.2878      0.0593     21.9528     28.6924    141.1166
  1995.5000      8.1210      2.3242      0.0121     19.7483     28.1491    145.5261
  1995.6000      8.1210      2.3765      0.0804     16.5732     27.6926    143.2338
  1995.7000      8.1210      2.4294      0.1099     13.3672     27.2182    142.2937
  1995.8000      8.1114      2.4679      0.1160     11.0375     26.8700    144.5791
  1995.9000      8.1114      2.5024      0.1136      8.9459     26.4717    142.6259
  1996.0000      8.1053      2.5445      0.0977      6.3968     25.7792    139.3518
  1996.1000      8.1053      2.5782      0.1396      4.3540     25.5332    143.9831
  1996.2000      8.1053      2.5848      0.0931      3.9499     26.5862    150.9833
  1996.3000      8.1025      2.5773      0.0651      4.4064     27.8853    152.9593
  1996.4000      8.1025      2.5767      0.0515      4.4400     27.9991    153.9636
  1996.5000      8.1007      2.5863      0.0439      3.8595     27.4139    158.7037
  1996.6000      8.1007      2.5938      0.0819      3.4054     26.9433    164.2759
  1996.7000      8.1007      2.5917      0.0347      3.5334     26.6656    166.3485
  1996.8000      8.0992      2.5881      0.0740      3.7488     26.3594    164.5855
  1996.9000      8.0992      2.5951      0.0421      3.3279     25.7801    157.9959
  1997.0000      8.0990      2.6179      0.0531      1.9470     25.2034    150.9374
  1997.1000      8.0990      2.6451      0.0825      0.2951     25.0690    150.3615
  1997.2000      8.0990      2.6633      0.0478     -0.8056     25.4329    153.5159
  1997.3000      8.1002      2.6738      0.0727     -1.4415     25.9104    155.9989
  1997.4000      8.1002      2.6733      0.0901     -1.4105     26.1353    157.6857
  1997.5000      8.1002      2.6523      0.0586     -0.1408     26.0910    158.7725
  1997.6000      8.1002      2.6185      0.0296      1.9071     25.9410    158.1742
  1997.7000      8.1002      2.5913      0.0027      3.5585     26.0304    154.6093
  1997.8000      8.0989      2.5834      0.0136      4.0334     26.3758    150.7947
  1997.9000      8.0989      2.6009      0.0156      2.9766     26.5307    151.2139
  1998.0000      8.0992      2.6304      0.1138      1.1903     26.2297    154.6307
  1998.1000      8.0992      2.6411      0.0643      0.5409     25.4516    154.5061
  1998.2000      8.0992      2.6292      0.0503      1.2599     24.5553    149.1250
  1998.3000      8.1008      2.6168      0.0208      2.0099     24.1192    141.8260
  1998.4000      8.1008      2.6151      0.0694      2.1163     24.1272    135.6846
  1998.5000      8.1010      2.6188      0.0661      1.8885     23.9124    131.7912
  1998.6000      8.1010      2.6174      0.0825      1.9769     23.0430    131.4770
  1998.7000      8.1010      2.6041      0.0368      2.7847     21.9654    133.7261
  1998.8000      8.1009      2.5890      0.0249      3.6987     21.0977    133.3291
  1998.9000      8.1009      2.5790      0.0754      4.3040     20.3628    128.3696
  1999.0000      8.1002      2.5693      0.0190      4.8923     20.1048    123.2789
  1999.1000      8.1002      2.5655      0.0033      5.1209     20.4362    122.9669
  1999.2000      8.1002      2.5720      0.0331      4.7265     20.9632    125.6505
  1999.3000      8.0985      2.5749      0.0082      4.5489     21.2903    126.2232
  1999.4000      8.0985      2.5620      0.0415      5.3360     20.9224    124.3199
  1999.5000      8.0984      2.5366     -0.0019      6.8705     20.3302    121.8702
  1999.6000      8.0984      2.5138     -0.0169      8.2539     20.5433    120.4086
  1999.7000      8.0984      2.5014     -0.0504      9.0033     21.1211    122.9336
  1999.8000      8.1000      2.5019     -0.0451      8.9768     20.9575    128.6758
  1999.9000      8.1000      2.5225      0.0073      7.7287     20.4782    128.8842
  2000.0000      8.1012      2.5606      0.0190      5.4154     20.6456    117.9296
  2000.1000      8.1012      2.6022      0.0611      2.8998     21.2732    102.8005
  2000.2000      8.1012      2.6317      0.1135      1.1062     21.4253     93.8977
  2000.3000      8.1021      2.6412      0.1127      0.5317     20.7903     94.9384
  2000.4000      8.1021      2.6365      0.0841      0.8152     20.1016    101.1249
  2000.5000      8.1021      2.6255      0.0948      1.4839     19.7861    104.5436
  2000.6000      8.1021      2.6117      0.0441      2.3187     19.3852    103.9871
  2000.7000      8.1021      2.6012      0.0656      2.9585     18.5686     99.8619
