~Version Information
VERS.                      2.0: CWLS Log ASCII Standard - VERSION 2.0
WRAP.                       NO: One line per depth step
~Well Information Block
STRT.FT               595.0000: 
STOP.FT              1508.7500: 
STEP.FT                 0.2500: 
NULL.                -999.2500: 
COMP.          Pioneer Natural Resources: COMPANY
WELL.          Sumatra 34-22 Tr: WELL
FLD.           Purgatoire River: FIELD
LOC.           443' FSL & 2424' FEL--: LOCATION
PROV.                 Colorado: PROVINCE
CNTY.               Las Animas: COUNTRY
SRVC.                Patterson: SERVICE COMPANY
DATE.          Wed Jun 08 23:53:01 2005: LOG DATE
UWI.           05 071 08383 00: UNIQUE WELL ID
~Curve Information Block
DEPT.FT            0 000 00 00: Depth
SN.Ohm-m                      : IEL Short Normal
SP.mV                         : IEL Spontaneous Potential
DIR.Ohm-m                     : IEL Induction Resistivity
GR.GAPI                       : Gamma Ray
~Parameter Information Block
~A  Depth        SN          SP         DIR          GR     
# ...
  1466.0000     17.9222    -15.8413     13.1153    143.9506
  1466.2500     18.8147    -15.4444     13.3860    145.9305
  1466.5000     19.6370    -14.9452     13.6376    148.7542
  1466.7500     20.3115    -14.3620     13.8872    149.9329
  1467.0000     20.8131    -13.7190     14.1458    149.7894
  1467.2500     21.1684    -13.0442     14.4184    147.9469
  1467.5000     21.4394    -12.3664     14.7084    141.9920
  1467.7500     21.7026    -11.7119     15.0248    136.0761
  1468.0000     22.0325    -11.1025     15.3868    125.9062
  1468.2500     22.4899    -10.5539     15.8249    119.6208
  1468.5000     23.1123    -10.0755     16.3744    112.6870
  1468.7500     23.9029     -9.6709     17.0679    109.9735
  1469.0000     24.8295     -9.3389     17.9246    108.0301
  1469.2500     25.8442     -9.0740     18.9416    107.5519
  1469.5000     26.9137     -8.8677     20.0878    107.5667
  1469.7500     28.0297     -8.7083     21.3075    108.0219
  1470.0000     29.1947     -8.5826     22.5336    108.9726
  1470.2500     30.4056     -8.4776     23.7082    109.2034
  1470.5000     31.6479     -8.3826     24.8006    107.7437
  1470.7500     32.8975     -8.2921     25.8134    105.0033
  1471.0000     34.1263     -8.2070     26.7742     97.8901
  1471.2500     35.3149     -8.1347     27.7173     91.4763
  1471.5000     36.4715     -8.0866     28.6632     80.8297
  1471.7500     37.6380     -8.0745     29.6056     74.1922
  1472.0000     38.8750     -8.1078     30.5160     66.6958
  1472.2500     40.2267     -8.1912     31.3615     63.9221
  1472.5000     41.6855     -8.3261     32.1255     63.0826
  1472.7500     43.1846     -8.5127     32.8111     64.2213
  1473.0000     44.6252     -8.7532     33.4210     67.1202
  1473.2500     45.9141     -9.0530     33.9345     69.0363
  1473.5000     46.9728     -9.4200     34.3075     71.0169
  1473.7500     47.7154     -9.8600     34.5016     71.6400
  1474.0000     48.0254    -10.3724     34.5072     71.4372
  1474.2500     47.7612    -10.9456     34.3277     70.1538
  1474.5000     46.7946    -11.5570     33.9368     65.7877
  1474.7500     45.0726    -12.1748     33.2586     61.5840
  1475.0000     42.6732    -12.7649     32.2001     55.7018
  1475.2500     39.8144    -13.2967     30.7213     53.7314
  1475.5000     36.7938    -13.7487     28.8837     55.0234
  1475.7500     33.8900    -14.1114     26.8382     57.8707
  1476.0000     31.2818    -14.3855     24.7613     60.8672
  1476.2500     29.0257    -14.5794     22.7937     58.9396
  1476.5000     27.0860    -14.7046     21.0159     47.6287
  1476.7500     25.3964    -14.7722     19.4560     36.0501
  1477.0000     23.9116    -14.7910     18.1107     18.7681
  1477.2500     22.6245    -14.7681     16.9638     10.2655
  1477.5000     21.5483    -14.7104     15.9979      3.1833
  1477.7500     20.6931    -14.6272     15.2008      1.2150
  1478.0000     20.0559    -14.5308     14.5682      0.2156
  1478.2500     19.6243    -14.4370     14.1023      0.0554
  1478.5000     19.3850    -14.3626     13.8107      0.0037
  1478.7500     19.3278    -14.3235     13.7029   -999.2500
  1479.0000     19.4467    -14.3316     13.7863   -999.2500
  1479.2500     19.7376    -14.3940     14.0621   -999.2500
  1479.5000     20.1922    -14.5129     14.5223   -999.2500
  1479.7500     20.7899    -14.6860     15.1497   -999.2500
  1480.0000     21.4982    -14.9086     15.9202   -999.2500
  1480.2500     22.2898    -15.1745     16.8045   -999.2500
  1480.5000     23.1693    -15.4763     17.7692   -999.2500
  1480.7500     24.1862    -15.8064     18.7802   -999.2500
  1481.0000     25.4099    -16.1566     19.8086   -999.2500
  1481.2500     26.8650    -16.5176     20.8349   -999.2500
  1481.5000     28.4670    -16.8794     21.8447   -999.2500
  1481.7500     30.0137    -17.2310     22.8174   -999.2500
  1482.0000     31.2583    -17.5607     23.7168   -999.2500
  1482.2500     32.0199    -17.8566     24.4904   -999.2500
  1482.5000     32.2553    -18.1085     25.0775   -999.2500
  1482.7500     32.0506    -18.3098     25.4254   -999.2500
  1483.0000     31.5567    -18.4634     25.5137   -999.2500
  1483.2500     30.9187    -18.5812     25.3708   -999.2500
  1483.5000     30.2354    -18.6999     25.0673   -999.2500
  1483.7500     29.5564    -18.8954     24.6874   -999.2500
  1484.0000     28.9028    -19.3055     24.2977   -999.2500
  1484.2500     28.2864    -20.1580     23.9331   -999.2500
  1484.5000     27.7145    -21.8002     23.5979   -999.2500
  1484.7500     27.1875    -24.7180     23.2750   -999.2500
  1485.0000     26.6997    -29.5291     22.9393   -999.2500
  1485.2500     26.2440    -36.9332     22.5729   -999.2500
  1485.5000     25.8119    -47.6081     22.1751   -999.2500
  1485.7500     25.3911    -62.0598     21.7614   -999.2500
  1486.0000     24.9663    -80.4540     21.3490   -999.2500
  1486.2500     24.5193   -102.4776     20.9433   -999.2500
  1486.5000     24.0326   -127.2855     20.5330   -999.2500
  1486.7500     23.4922   -153.5683     20.0982   -999.2500
  1487.0000     22.8902   -179.7417     19.6193   -999.2500
  1487.2500     22.2239   -204.2123     19.0827   -999.2500
  1487.5000     21.4940   -225.6467     18.4807   -999.2500
  1487.7500     20.7053   -243.1698     17.8127   -999.2500
  1488.0000     19.8685   -256.4411     17.0869   -999.2500
  1488.2500     19.0051   -265.6079     16.3213   -999.2500
  1488.5000     18.1500   -271.1676     15.5423   -999.2500
  1488.7500     17.3458   -273.7960     14.7811   -999.2500
  1489.0000     16.6275   -274.1914     14.0693   -999.2500
  1489.2500     16.0099   -272.9677     13.4327   -999.2500
  1489.5000     15.4860   -270.6021     12.8854   -999.2500
  1489.7500     15.0371   -267.4283     12.4279   -999.2500
  1490.0000     14.6441   -263.6566     12.0492   -999.2500
  1490.2500     14.2918   -259.4029     11.7320   -999.2500
  1490.5000     13.9685   -254.7174     11.4591   -999.2500
  1490.7500     13.6655   -249.6051     11.2182   -999.2500
  1491.0000     13.3785   -244.0414     11.0019   -999.2500
  1491.2500     13.1091   -237.9796     10.8060   -999.2500
  1491.5000     12.8634   -231.3623     10.6264   -999.2500
  1491.7500     12.6489   -224.1194     10.4585   -999.2500
  1492.0000     12.4725   -216.1795     10.2973   -999.2500
  1492.2500     12.3380   -207.4760     10.1390   -999.2500
  1492.5000     12.2443   -197.9608      9.9827   -999.2500
  1492.7500     12.1818   -187.6180      9.8310   -999.2500
  1493.0000     12.1328   -176.4799      9.6905   -999.2500
  1493.2500     12.0780   -164.6419      9.5693   -999.2500
  1493.5000     12.0052   -152.2702      9.4739   -999.2500
  1493.7500     11.9130   -139.5989      9.4083   -999.2500
  1494.0000     11.8110   -126.9136      9.3758   -999.2500
  1494.2500     11.7156   -114.5228      9.3809   -999.2500
  1494.5000     11.6478   -102.7213      9.4300   -999.2500
  1494.7500     11.6300    -91.7531      9.5298   -999.2500
  1495.0000     11.6811    -81.7818      9.6847   -999.2500
  1495.2500     11.8122    -72.8758      9.8959   -999.2500
  1495.5000     12.0260    -65.0126     10.1624   -999.2500
  1495.7500     12.3218    -58.0995     10.5490   -999.2500
  1496.0000     12.6985    -52.0072     10.9192   -999.2500
  1496.2500     13.1491    -46.6067     11.3310   -999.2500
  1496.5000     13.6513    -41.7986     11.7774   -999.2500
  1496.7500     14.1680    -37.5280     12.2530   -999.2500
  1497.0000     14.6633    -33.7820     12.7558   -999.2500
  1497.2500     15.1234    -30.5723     13.2892   -999.2500
  1497.5000     15.5630    -27.9125     13.8613   -999.2500
  1497.7500     16.0133    -25.7990     14.4850   -999.2500
  1498.0000     16.4996    -24.2001     15.1849   -999.2500
  1498.2500     17.0223    -23.0578     16.0213   -999.2500
  1498.5000     17.5525    -22.2965     17.1390   -999.2500
  1498.7500     18.0457    -21.8343     18.8461   -999.2500
  1499.0000     18.4652    -21.5972     21.7588   -999.2500
  1499.2500     18.8007    -21.5232     26.6651   -999.2500
