~Version Information
VERS.                      2.0: CWLS Log ASCII Standard - VERSION 2.0
WRAP.                       NO: One line per depth step
~Well Information Block
STRT.FT               250.0000: 
STOP.FT              1573.7000: 
STEP.FT                 0.1000: 
NULL.                -999.2500: 
COMP.          Pioneer Natural Resources: COMPANY
WELL.          Big Cat Federal 44-1: WELL
FLD.           Purgatoire River: FIELD
LOC.           197' FSL & 973' FEL--: LOCATION
CNTY.               Las Animas: COUNTY
SRVC.                Patterson: SERVICE COMPANY
DATE.          Mon Apr 24 08:33:37 2006: LOG DATE
UWI.           05 071 08042 00: UNIQUE WELL ID
STAT.                 Colorado: STATE
~Curve Information Block
DEPT.FT            0 000 00 00: Depth
DCAL.in                       : CDL Caliper
RHOB.g/cc                     : CDL Bulk Density
RHOC.g/cc                     : CDL Density Correction
DPOR.pu                       : CDL Density Porosity
NPOR.pu                       : Neutron Porosity
GR.GAPI                       : Gamma Ray
~Parameter Information Block
~A  Depth       DCAL        RHOB        RHOC        DPOR        NPOR         GR     
# ...
   682.0000      8.0379      2.3417      0.1875     18.6866      9.4544    110.0069
   682.1000      8.0379      2.3699      0.1489     16.9786     10.6143    116.0537
   682.2000      8.0379      2.3992      0.0981     15.2000     11.3950    124.6849
   682.3000      7.9860      2.4340      0.1121     13.0921     12.0544    128.5236
   682.4000      7.9860      2.4628      0.1318     11.3472     13.1038    129.0800
   682.5000      7.9386      2.4779      0.0914     10.4275     14.3537    133.5701
   682.6000      7.9386      2.4876      0.0892      9.8438     15.1711    140.7362
   682.7000      7.9386      2.4987      0.0804      9.1695     15.5191    144.0435
   682.8000      7.9048      2.5033      0.1229      8.8906     15.7097    141.7379
   682.9000      7.9048      2.4914      0.0965      9.6119     15.8367    136.8707
   683.0000      7.8895      2.4759      0.0731     10.5499     15.8736    132.9942
   683.1000      7.8895      2.4796      0.0348     10.3275     15.6177    131.0982
   683.2000      7.8895      2.5024      0.0982      8.9442     15.1052    127.8838
   683.3000      7.8861      2.5236      0.0947      7.6629     14.8770    122.7875
   683.4000      7.8861      2.5349      0.0719      6.9737     15.2125    118.8481
   683.5000      7.8876      2.5402      0.0814      6.6571     15.9632    119.1806
   683.6000      7.8876      2.5382      0.0538      6.7784     17.0391    125.2652
   683.7000      7.8876      2.5316      0.0560      7.1758     18.1086    132.4491
   683.8000      7.8869      2.5258      0.0325      7.5244     18.5360    134.6795
   683.9000      7.8869      2.5234      0.0502      7.6727     18.4599    130.8914
   684.0000      7.8839      2.5263      0.0596      7.4960     18.4878    125.1330
   684.1000      7.8839      2.5421      0.0499      6.5370     18.5026    122.9895
   684.2000      7.8839      2.5747      0.0726      4.5645     18.2136    125.5333
   684.3000      7.8814      2.6003      0.1574      3.0131     17.8750    127.5244
   684.4000      7.8814      2.5929      0.1288      3.4615     17.6893    126.5323
   684.5000      7.8801      2.5683      0.0404      4.9499     17.5721    127.8528
   684.6000      7.8801      2.5542      0.0758      5.8065     17.5455    131.8547
   684.7000      7.8801      2.5502      0.0699      6.0469     17.5122    134.7292
   684.8000      7.8805      2.5515      0.0657      5.9674     17.2724    136.6058
   684.9000      7.8805      2.5573      0.0911      5.6193     17.0378    136.7344
   685.0000      7.8823      2.5635      0.0759      5.2414     17.2234    135.3730
   685.1000      7.8823      2.5707      0.0304      4.8066     17.7267    134.5150
   685.2000      7.8823      2.5757      0.0475      4.5057     18.0801    132.3230
   685.3000      7.8831      2.5705      0.0328      4.8169     18.1900    130.2758
   685.4000      7.8831      2.5603      0.0240      5.4381     18.2579    132.3165
   685.5000      7.8838      2.5572      0.0321      5.6225     18.4906    132.8839
   685.6000      7.8838      2.5679      0.0491      4.9770     18.7228    126.0540
   685.7000      7.8838      2.5870      0.0770      3.8202     18.5388    115.8556
   685.8000      7.8839      2.5978      0.0828      3.1643     18.2359    108.8853
   685.9000      7.8839      2.5946      0.0473      3.3605     18.5001    105.9659
   686.0000      7.8806      2.5867      0.0532      3.8335     19.2084    108.5449
   686.1000      7.8806      2.5762      0.0665      4.4717     20.0740    117.4300
   686.2000      7.8806      2.5705     -0.0076      4.8161     20.9622    124.8317
   686.3000      7.8773      2.5842      0.0038      3.9859     21.4039    124.0937
   686.4000      7.8773      2.6045      0.0863      2.7550     21.4163    117.3749
   686.5000      7.8765      2.6068      0.0744      2.6165     21.3395    110.2335
   686.6000      7.8765      2.5968      0.0395      3.2238     21.3057    106.9366
   686.7000      7.8765      2.5925      0.0453      3.4854     21.6946    106.3089
   686.8000      7.8773      2.5919      0.0492      3.5224     22.5049    106.4488
   686.9000      7.8773      2.5913      0.0197      3.5563     23.0682    107.4273
   687.0000      7.8796      2.5915      0.0637      3.5473     23.0305    108.3525
   687.1000      7.8796      2.5855      0.0566      3.9077     22.8202    107.0369
   687.2000      7.8796      2.5820     -0.0176      4.1229     22.9061    103.7444
   687.3000      7.8815      2.5971      0.0691      3.2031     23.2281    103.2164
   687.4000      7.8815      2.6183      0.0556      1.9224     23.8243    106.3152
   687.5000      7.8834      2.6237      0.0145      1.5940     24.6477    107.0096
   687.6000      7.8834      2.6049      0.0696      2.7354     25.2068    103.2158
   687.7000      7.8834      2.5679      0.0026      4.9751     25.3252     99.8007
   687.8000      7.8842      2.5368      0.0028      6.8631     25.1992     99.5399
   687.9000      7.8842      2.5208      0.0241      7.8276     25.0526    101.8716
   688.0000      7.8802      2.5110     -0.0028      8.4253     25.0635    101.2759
   688.1000      7.8802      2.5041     -0.0025      8.8452     25.1588     95.0975
   688.2000      7.8802      2.5009      0.0292      9.0352     25.1600     90.4445
   688.3000      7.8754      2.5066     -0.0171      8.6922     25.2435     90.1044
   688.4000      7.8754      2.5257      0.0207      7.5341     25.6600     90.3802
   688.5000      7.8737      2.5423      0.0565      6.5243     25.9955     92.2995
   688.6000      7.8737      2.5395      0.0351      6.6953     25.8180     98.3743
   688.7000      7.8737      2.5324      0.0314      7.1259     25.4458    106.7060
   688.8000      7.8750      2.5437      0.0292      6.4450     25.4939    112.4122
   688.9000      7.8750      2.5578      0.0673      5.5857     25.9457    113.5794
   689.0000      7.8792      2.5450      0.0542      6.3619     26.1698    114.0741
   689.1000      7.8792      2.5183      0.0299      7.9795     25.9408    114.6715
   689.2000      7.8792      2.5158      0.0384      8.1341     25.5916    112.2461
   689.3000      7.8840      2.5408      0.0945      6.6189     25.3614    109.6536
   689.4000      7.8840      2.5633      0.1214      5.2574     25.0608    111.1053
   689.5000      7.8836      2.5682      0.0716      4.9555     24.4178    115.2349
   689.6000      7.8836      2.5695      0.0888      4.8816     23.5848    118.5954
   689.7000      7.8836      2.5785      0.1169      4.3308     23.1187    119.2359
   689.8000      7.8809      2.5857      0.1409      3.8952     23.3352    117.8741
   689.9000      7.8809      2.5740      0.1261      4.6076     23.9072    114.2970
   690.0000      7.8800      2.5445      0.0947      6.3965     24.3150    109.0805
   690.1000      7.8800      2.5182      0.0677      7.9880     24.3886    106.9953
   690.2000      7.8800      2.5054      0.0987      8.7609     24.3210    111.1411
   690.3000      7.8791      2.5009      0.0622      9.0363     24.4496    117.7385
   690.4000      7.8791      2.5131      0.0251      8.2983     24.8397    121.0753
   690.5000      7.8792      2.5504      0.0623      6.0379     25.1885    118.3949
   690.6000      7.8792      2.5907      0.1421      3.5917     25.1493    111.8514
   690.7000      7.8792      2.6040      0.1147      2.7895     24.9370    106.0158
   690.8000      7.8824      2.5877      0.0841      3.7757     25.0588    104.5004
   690.9000      7.8824      2.5608      0.0946      5.4078     25.5079    109.5378
   691.0000      7.8848      2.5375      0.0864      6.8201     26.0924    117.7077
   691.1000      7.8848      2.5217      0.0958      7.7744     26.4133    122.8365
   691.2000      7.8848      2.5134      0.1029      8.2802     25.7356    122.3136
   691.3000      7.8817      2.5111      0.0795      8.4212     24.2869    118.8281
   691.4000      7.8817      2.5120      0.0922      8.3620     22.9918    117.0573
   691.5000      7.8795      2.5174      0.0590      8.0372     22.3021    119.7855
