~Version Information
VERS.                      2.0: CWLS Log ASCII Standard - VERSION 2.0
WRAP.                       NO: One line per depth step
~Well Information Block
STRT.FT               533.0000: 
STOP.FT              1578.0000: 
STEP.FT                 0.2500: 
NULL.                -999.2500: 
COMP.          Pioneer Natural Resources: COMPANY
WELL.           Telna 24-22 Tr: WELL
FLD.           Purgatoire River: FIELD
LOC.           748' FSL & 1931' FWL: LOCATION
PROV.                 Colorado: PROVINCE
CNTY.               Las Animas: COUNTRY
SRVC.                Patterson: SERVICE COMPANY
DATE.          Sun May 01 14:14:42 2005: LOG DATE
UWI.           05 071 08304 00: UNIQUE WELL ID
~Curve Information Block
DEPT.FT            0 000 00 00: Depth
SN.Ohm-m                      : IEL Short Normal
SP.mV                         : IEL Spontaneous Potential
DIR.Ohm-m                     : IEL Induction Resistivity
GR.GAPI                       : Gamma Ray
~Parameter Information Block
~A  Depth        SN          SP         DIR          GR     
# ...
  1203.0000     29.5045     10.7371     25.9440     89.9957
  1203.2500     30.6663     10.9988     26.5070     86.1455
  1203.5000     31.9466     11.2456     27.0833     80.9231
  1203.7500     33.4026     11.4743     27.6693     77.7195
  1204.0000     35.0548     11.6683     28.2764     72.6213
  1204.2500     36.7832     11.8028     28.9414     68.7667
  1204.5000     38.3260     11.8604     29.6972     62.9490
  1204.7500     39.4473     11.8351     30.5215     60.0173
  1205.0000     40.0966     11.7189     31.3195     58.5612
  1205.2500     40.3857     11.4908     31.9674     59.7900
  1205.5000     40.4259     11.1238     32.3898     64.3313
  1205.7500     40.2396     10.6051     32.6062     68.5385
  1206.0000     39.8063      9.9503     32.6977     75.1660
  1206.2500     39.1402      9.1960     32.7299     78.6563
  1206.5000     38.3263      8.3808     32.6998     80.5340
  1206.7500     37.5086      7.5389     32.5472     78.8774
  1207.0000     36.8231      6.7114     32.2189     72.3363
  1207.2500     36.3024      5.9491     31.7317     66.2995
  1207.5000     35.8831      5.2889     31.1805     57.2697
  1207.7500     35.5256      4.7289     30.6880     52.5722
  1208.0000     35.2552      4.2311     30.3428     48.3685
  1208.2500     35.0707      3.7538     30.1690     47.0419
  1208.5000     34.8986      3.2817     30.1333     45.9342
  1208.7500     34.6774      2.8299     30.1795     45.3243
  1209.0000     34.4406      2.4267     30.2616     44.6085
  1209.2500     34.2785      2.0943     30.3479     44.3504
  1209.5000     34.2537      1.8452     30.4001     44.1458
  1209.7500     34.3768      1.6884     30.3573     44.0247
  1210.0000     34.6163      1.6343     30.1551     43.9035
  1210.2500     34.8977      1.6877     29.7617     43.9126
  1210.5000     35.1240      1.8380     29.1888     44.0257
  1210.7500     35.2200      2.0607     28.4629     44.2141
  1211.0000     35.1432      2.3327     27.5969     45.2892
  1211.2500     34.8615      2.6460     26.5943     47.2852
  1211.5000     34.3231      3.0022     25.4798     53.7726
  1211.7500     33.4261      3.3905     24.3185     61.1040
  1212.0000     32.0679      3.7819     23.2008     76.5980
  1212.2500     30.2757      4.1519     22.2036     89.0840
  1212.5000     28.2576      4.5017     21.3571    108.7109
  1212.7500     26.2894      4.8460     20.6415    121.0774
  1213.0000     24.5537      5.1827     20.0087    137.0495
  1213.2500     23.0884      5.4825     19.4124    145.4536
  1213.5000     21.8556      5.7039     18.8244    154.0393
  1213.7500     20.8439      5.8155     18.2305    156.9571
  1214.0000     20.0894      5.8153     17.6188    157.6177
  1214.2500     19.5823      5.7462     16.9767    155.9941
  1214.5000     19.2096      5.7015     16.2960    150.3935
  1214.7500     18.8453      5.8028     15.5762    143.9896
  1215.0000     18.4373      6.1527     14.8237    129.9471
  1215.2500     17.9808      6.7909     14.0515    118.6492
  1215.5000     17.4799      7.6896     13.2811    102.9182
  1215.7500     16.9114      8.7907     12.5427     95.9943
  1216.0000     16.1758     10.0448     11.8670     93.7183
  1216.2500     15.1711     11.4164     11.2743     97.3809
  1216.5000     13.9748     12.8586     10.7685    107.8246
  1216.7500     12.8267     14.2907     10.3387    116.0346
  1217.0000     11.8913     15.6049      9.9644    127.4185
  1217.2500     11.1778     16.7025      9.6232    133.3073
  1217.5000     10.6636     17.5369      9.2959    138.6500
  1217.7500     10.3439     18.1290      8.9715    140.0792
  1218.0000     10.1816     18.5433      8.6494    140.7523
  1218.2500     10.0946     18.8495      8.3380    141.4854
  1218.5000      9.9723     19.0970      8.0512    144.0577
  1218.7500      9.7060     19.3097      7.8037    146.3271
  1219.0000      9.2696     19.4941      7.6074    148.7242
  1219.2500      8.7629     19.6491      7.4688    148.7534
  1219.5000      8.3206     19.7741      7.3882    146.3974
  1219.7500      8.0046     19.8720      7.3600    144.0047
  1220.0000      7.8219     19.9453      7.3743    140.7095
  1220.2500      7.7673     19.9937      7.4192    139.2175
  1220.5000      7.7839     20.0164      7.4841    138.2688
  1220.7500      7.8021     20.0204      7.5623    138.3907
  1221.0000      7.8517     20.0220      7.6513    139.1150
  1221.2500      8.0137     20.0375      7.7520    139.4320
  1221.5000      8.3066     20.0731      7.8665    138.8986
  1221.7500      8.6985     20.1204      7.9960    137.8132
  1222.0000      9.1444     20.1619      8.1414    135.7410
  1222.2500      9.5798     20.1811      8.3027    134.5057
  1222.5000      9.9389     20.1715      8.4791    132.9919
  1222.7500     10.1951     20.1391      8.6663    131.9822
  1223.0000     10.3779     20.0976      8.8531    130.2933
  1223.2500     10.5233     20.0646      9.0207    129.2155
  1223.5000     10.6214     20.0609      9.1477    127.9799
  1223.7500     10.6519     20.1035      9.2195    127.3013
  1224.0000     10.6285     20.1928      9.2356    125.6558
  1224.2500     10.5795     20.3062      9.2088    123.6061
  1224.5000     10.5103     20.4127      9.1568    119.3050
  1224.7500     10.3913     20.4953      9.0949    116.6156
  1225.0000     10.1915     20.5576      9.0314    114.8881
  1225.2500      9.9381     20.6156      8.9687    115.7739
  1225.5000      9.7340     20.6822      8.9066    119.4620
  1225.7500      9.7003     20.7570      8.8450    122.6575
  1226.0000      9.8722     20.8244      8.7841    127.3652
  1226.2500     10.1455     20.8618      8.7228    130.1023
  1226.5000     10.3470     20.8509      8.6592    133.3491
  1226.7500     10.3374     20.7835      8.5929    134.7280
  1227.0000     10.0768     20.6593      8.5284    135.2248
  1227.2500      9.6648     20.4823      8.4752    134.6040
  1227.5000      9.2894     20.2584      8.4442    133.1656
  1227.7500      9.0859     19.9967      8.4432    132.5074
  1228.0000      9.0930     19.7087      8.4764    132.6417
  1228.2500      9.3418     19.4066      8.5480    133.6187
  1228.5000      9.8802     19.1058      8.6645    136.4232
  1228.7500     10.6686     18.8267      8.8322    139.0235
  1229.0000     11.5276     18.5851      9.0485    143.1412
  1229.2500     12.2716     18.3774      9.2967    145.0718
  1229.5000     12.8908     18.1754      9.5520    144.6764
  1229.7500     13.5661     17.9420      9.8017    141.1389
  1230.0000     14.5523     17.6470     10.0658    129.9108
  1230.2500     16.0828     17.2698     10.3973    118.5863
  1230.5000     18.3681     16.7942     10.8603     97.3474
  1230.7500     21.7355     16.2069     11.4982     81.8248
  1231.0000     26.8467     15.5040     12.3072     59.3702
  1231.2500     34.7125     14.6991     13.2244     46.4360
  1231.5000     46.1147     13.8317     14.1384     31.6150
  1231.7500     60.5366     12.9658     14.9272     24.8840
  1232.0000     75.8261     12.1753     15.5033     18.6823
  1232.2500     89.4482     11.5227     15.8320     16.5873
  1232.5000    100.0367     11.0436     15.9183     16.0608
  1232.7500    107.5466     10.7458     15.7799     17.4582
  1233.0000    112.3384     10.6213     15.4323     22.2879
  1233.2500    114.6359     10.6604     14.8854     27.3424
  1233.5000    114.6463     10.8534     14.1519     37.3022
  1233.7500    112.6491     11.1784     13.2603     44.8121
  1234.0000    108.8596     11.5968     12.2638     55.3220
  1234.2500    103.3413     12.0660     11.2346     60.7166
  1234.5000     96.0758     12.5635     10.2458     65.9415
  1234.7500     87.1587     13.0978      9.3534     68.2722
  1235.0000     76.9990     13.7039      8.5897     72.1797
  1235.2500     66.2838     14.4210      7.9663     76.0837
  1235.5000     55.6885     15.2594      7.4805     84.5285
  1235.7500     45.6871     16.1755      7.1224     91.7101
  1236.0000     36.6934     17.0840      6.8791    104.0438
  1236.2500     29.1899     17.9032      6.7381    112.5585
