~Version Information
 VERS.                                  2.0 : CWLS LAS VERSION
 WRAP.                                   NO : WRAPING MODE
 SWARE .                 MController 2.5.0I : SOFTWARE VERSION
~Well Information
 WELL.                        Montoya 1-44v : WELL
 COMP.                       Petrogulf Corp : COMPANY
 FLD.                      Purgatorie River : FIELD
 LOC.                 SE/SE Sec 1 T33S R68W : LOCATION
 DATE.                           8/24-25/04 : DATE(S) LOGGED
 SRVC.       Blanco Geological services LLC : SERVICE COMPANY
 STAT.                                   CO : STATE
 CNTY.                           Las Animas : COUNTY
 CTRY.                                  USA : COUNTRY
 API.                       05-071-08142-00 : API NUMBER
 STRT.FT                             556.00 : START DEPTH
 STOP.FT                            2600.00 : STOP DEPTH
 STEP.FT                               1.00 : DEPTH INCREMENT
 NULL.                                -9999 : NULL VALUE
~Curve information
 DEPTH.FT                                   :
 ROP.MIN/FT                                 :
 GAS.UNITS                                  :
~ASCII Log data
# ...
      2156.0          0.2          4.1 
      2157.0          0.3          3.9 
      2158.0          0.2          3.7 
      2159.0          0.2          3.7 
      2160.0          0.1          3.5 
      2161.0          0.2          3.6 
      2162.0          0.1          3.1 
      2163.0          0.2          3.2 
      2164.0          0.3          3.0 
      2165.0          0.2          3.0 
      2166.0          0.2          5.1 
      2167.0          6.4         45.2 
      2168.0          0.3          7.6 
      2169.0          0.3          8.1 
      2170.0          0.3          8.7 
      2171.0          0.3          9.1 
      2172.0          0.3          9.3 
      2173.0          0.4          8.8 
      2174.0          0.4          8.4 
      2175.0          0.4          7.7 
      2176.0          0.4          7.2 
      2177.0          0.4          6.5 
      2178.0          0.5          5.8 
      2179.0          0.5          5.8 
      2180.0          0.4          4.9 
      2181.0          0.4          4.6 
      2182.0          0.4          4.8 
      2183.0          0.5          4.3 
      2184.0          0.5          4.1 
      2185.0          0.5          4.0 
      2186.0          0.3          4.0 
      2187.0          0.3          3.9 
      2188.0          0.2          3.6 
      2189.0          0.2          3.6 
      2190.0          0.3          4.1 
      2191.0          0.3          4.1 
      2192.0          0.3          4.4 
      2193.0          0.3          4.1 
      2194.0          0.2          4.0 
      2195.0          0.2          3.9 
      2196.0          0.1          3.8 
      2197.0          3.9         35.8 
      2198.0          0.2         33.3 
      2199.0          0.3         27.7 
      2200.0          0.3         19.4 
      2201.0          0.4         14.2 
      2202.0          0.4         12.4 
      2203.0          0.6         10.6 
      2204.0          0.5          8.7 
      2205.0          0.4          7.6 
      2206.0          0.4          7.0 
      2207.0          0.4          5.6 
      2208.0          0.4          4.6 
      2209.0          0.4          4.2 
      2210.0          0.4          4.2 
      2211.0          0.5          4.2 
      2212.0          0.3          3.8 
      2213.0          0.3          3.8 
      2214.0          0.3          4.0 
      2215.0          0.1          3.7 
      2216.0          0.3          3.8 
      2217.0          0.3          4.4 
      2218.0          0.3          4.2 
      2219.0          0.3          6.7 
      2220.0          0.3          9.4 
      2221.0          0.2          9.2 
      2222.0          0.5          8.1 
      2223.0          0.3          5.2 
      2224.0          0.2          4.8 
      2225.0          0.2          4.4 
      2226.0          0.3          4.0 
      2227.0          5.0         40.6 
      2228.0          0.3         16.6 
      2229.0          0.4         11.3 
      2230.0          0.4          9.7 
      2231.0          0.5          9.4 
      2232.0          0.5          8.9 
      2233.0          0.1          9.0 
      2234.0          0.2          9.4 
      2235.0          0.3          9.4 
      2236.0          0.2          8.7 
      2237.0          0.2          7.9 
      2238.0          0.2         11.6 
      2239.0          0.3         12.9 
      2240.0          0.3         12.1 
      2241.0          0.3          9.1 
      2242.0          0.3         13.1 
      2243.0          0.2         13.9 
      2244.0          0.3         12.3 
      2245.0          0.3          9.2 
      2246.0          0.2          7.8 
      2247.0          0.3          6.9 
      2248.0          0.3          6.1 
      2249.0          0.3          6.0 
      2250.0          0.3          5.7 
      2251.0          0.3          5.4 
      2252.0          0.3          4.9 
      2253.0          0.3          4.8 
      2254.0          0.3          4.6 
      2255.0          0.3          4.5 
      2256.0          0.2          4.4 
      2257.0          4.9         39.2 
      2258.0          0.3         10.0 
      2259.0          0.4          8.8 
      2260.0          0.4          8.2 
      2261.0          0.4          8.0 
      2262.0          0.3          8.0 
      2263.0          0.3          7.6 
      2264.0          0.3          7.6 
      2265.0          0.3          7.7 
      2266.0          0.3          7.4 
      2267.0          0.2          7.2 
      2268.0          0.2          6.6 
      2269.0          0.3          6.4 
      2270.0          0.2          6.1 
      2271.0          0.2          5.8 
      2272.0          0.2          5.9 
      2273.0          0.3          6.5 
      2274.0          0.3          6.7 
      2275.0          0.2          7.1 
      2276.0          0.4          8.7 
      2277.0          0.3          8.5 
      2278.0          0.2          7.5 
      2279.0          0.2          6.8 
      2280.0          0.1          6.5 
      2281.0          0.2          6.3 
      2282.0          0.3          6.2 
      2283.0          0.2          6.0 
      2284.0          0.3          6.2 
      2285.0          0.3          8.7 
      2286.0          0.2         11.4 
      2287.0          6.5         50.5 
      2288.0          0.4          9.1 
      2289.0          0.7          9.8 
      2290.0          0.3         11.7 
      2291.0          0.2         12.8 
      2292.0          0.2         13.6 
      2293.0          0.3         12.9 
      2294.0          0.3         10.1 
      2295.0          0.3          7.5 
      2296.0          0.3          5.8 
      2297.0          0.3          5.1 
      2298.0          0.3          4.8 
      2299.0          0.3          4.8 
      2300.0          0.2          4.7 
      2301.0          0.2          4.3 
      2302.0          0.3          4.1 
      2303.0          0.3          4.1 
      2304.0          0.3          4.2 
      2305.0          0.3          6.8 
      2306.0          0.3         10.1 
      2307.0          0.3          9.6 
      2308.0          0.3          7.9 
      2309.0          0.3          5.9 
      2310.0          0.3          5.1 
      2311.0          0.4          4.9 
      2312.0          0.4          5.2 
      2313.0          0.3          5.2 
      2314.0          0.4          6.0 
      2315.0          0.3          6.4 
      2316.0          0.2          6.6 
      2317.0          6.2         31.2 
      2318.0          0.4          6.9 
      2319.0          0.3          5.1 
      2320.0          0.4          4.6 
      2321.0          0.4          4.7 
      2322.0          0.3          5.0 
      2323.0          0.3          4.9 
      2324.0          0.3          5.1 
      2325.0          0.3          5.4 
      2326.0          0.3          4.7 
      2327.0          0.3          4.5 
      2328.0          0.4          4.2 
      2329.0          0.3          3.9 
      2330.0          0.4          3.6 
      2331.0          0.4          3.6 
      2332.0          0.3          3.4 
      2333.0          0.4          3.1 
      2334.0          0.3          2.8 
      2335.0          0.4          2.8 
      2336.0          0.3          2.4 
      2337.0          0.3          2.1 
      2338.0          0.4          2.3 
      2339.0          0.4          2.2 
      2340.0          0.4          2.4 
      2341.0          0.3          2.1 
      2342.0          0.4          2.4 
      2343.0          0.4          2.7 
      2344.0          0.4          2.7 
      2345.0          0.3          3.0 
      2346.0          0.4          3.2 
      2347.0          5.7         47.1 
      2348.0          0.4         10.0 
      2349.0          0.4          7.5 
      2350.0          0.2          6.1 
      2351.0          0.3          6.1 
      2352.0          0.3          5.9 
      2353.0          0.2          5.7 
      2354.0          0.3          7.2 
      2355.0          0.3          8.7 
