~Version Information
VERS.                      2.0: CWLS Log ASCII Standard - VERSION 2.0
WRAP.                       NO: One line per depth step
~Well Information Block
STRT.FT               456.0000: 
STOP.FT              1703.0000: 
STEP.FT                 0.2500: 
NULL.                -999.2500: 
COMP.          Pioneer Natural Resources: COMPANY
WELL.                Mead 11-9: WELL
FLD.           Purgatoire River: FIELD
LOC.           1127' FNL & 668' FWL: LOCATION
PROV.                 Colorado: PROVINCE
CNTY.               Las Animas: COUNTRY
SRVC.                Patterson: SERVICE COMPANY
DATE.          Fri Feb 18 16:14:34 2005: LOG DATE
UWI.           05 071 08160 00: UNIQUE WELL ID
~Curve Information Block
DEPT.FT            0 000 00 00: Depth
SN.Ohm-m                      : IEL Short Normal
SP.mV                         : IEL Spontaneous Potential
DIR.Ohm-m                     : IEL Induction Resistivity
GR.GAPI                       : Gamma Ray
~Parameter Information Block
~A  Depth        SN          SP         DIR          GR     
# ...
  1494.5000     30.5086    -70.8978     30.1176     46.7402
  1494.7500     30.7473    -70.8159     30.2659     47.6946
  1495.0000     30.9648    -70.7639     30.3865     49.4030
  1495.2500     31.1365    -70.7177     30.4773     50.6664
  1495.5000     31.1996    -70.6699     30.5329     52.0423
  1495.7500     31.0831    -70.6286     30.5558     52.2948
  1496.0000     30.7782    -70.6083     30.5587     51.9609
  1496.2500     30.3860    -70.6225     30.5467     51.7867
  1496.5000     30.0564    -70.6809     30.4969     52.2682
  1496.7500     29.8839    -70.7872     30.3636     53.0023
  1497.0000     29.8651    -70.9376     30.1085     53.8583
  1497.2500     29.9123    -71.1258     29.7253     53.7178
  1497.5000     29.8978    -71.3482     29.2410     52.1367
  1497.7500     29.7239    -71.6019     28.7024     50.4765
  1498.0000     29.3696    -71.8751     28.1690     48.1347
  1498.2500     28.8969    -72.1400     27.7109     47.3480
  1498.5000     28.4276    -72.3557     27.3949     48.1556
  1498.7500     28.0852    -72.4807     27.2536     50.0549
  1499.0000     27.9219    -72.4933     27.2614     53.9375
  1499.2500     27.8903    -72.4098     27.3427     56.1679
  1499.5000     27.8904    -72.2819     27.4163     57.3892
  1499.7500     27.8528    -72.1718     27.4423     56.5344
  1500.0000     27.7748    -72.1216     27.4322     53.6386
  1500.2500     27.6956    -72.1376     27.4209     51.4917
  1500.5000     27.6631    -72.1928     27.4379     48.9733
  1500.7500     27.7108    -72.2421     27.4970     47.8579
  1501.0000     27.8472    -72.2431     27.5970     46.5995
  1501.2500     28.0620    -72.1742     27.7240     45.7902
  1501.5000     28.3382    -72.0415     27.8573     44.7356
  1501.7500     28.6522    -71.8749     27.9746     44.4787
  1502.0000     28.9740    -71.7170     28.0503     45.0810
  1502.2500     29.2618    -71.6063     28.0530     45.8505
  1502.5000     29.4602    -71.5605     27.9604     46.6258
  1502.7500     29.5317    -71.5666     27.7809     46.6356
  1503.0000     29.5002    -71.5877     27.5558     46.2252
  1503.2500     29.4346    -71.5843     27.3314     45.9065
  1503.5000     29.3858    -71.5363     27.1244     45.2743
  1503.7500     29.3610    -71.4497     26.9090     44.6700
  1504.0000     29.3494    -71.3454     26.6292     43.9717
  1504.2500     29.3358    -71.2430     26.2212     44.0725
  1504.5000     29.2982    -71.1524     25.6405     45.0155
  1504.7500     29.2171    -71.0753     24.8857     45.6104
  1505.0000     29.0523    -71.0120     24.0040     45.7905
  1505.2500     28.6949    -70.9696     23.0747     45.8050
  1505.5000     27.9695    -70.9629     22.1805     47.1341
  1505.7500     26.7114    -70.9964     21.3828     49.5070
  1506.0000     24.9000    -71.0375     20.7125     55.3007
  1506.2500     22.7575    -71.0145     20.1746     60.1706
  1506.5000     20.6702    -70.8603     19.7568     67.4907
  1506.7500     18.9919    -70.5627     19.4392     71.1994
  1507.0000     17.8927    -70.1736     19.1987     73.4296
  1507.2500     17.3238    -69.7752     19.0106     72.7607
  1507.5000     17.1558    -69.4373     18.8537     70.4975
  1507.7500     17.3660    -69.1947     18.7182     69.5985
  1508.0000     17.9979    -69.0478     18.6171     70.2191
  1508.2500     18.9363    -68.9761     18.5908     71.3025
  1508.5000     19.8795    -68.9551     18.6966     71.7484
  1508.7500     20.5795    -68.9658     18.9838     70.3822
  1509.0000     21.0017    -68.9977     19.4631     66.0136
  1509.2500     21.2845    -69.0497     20.0876     62.4094
  1509.5000     21.6159    -69.1307     20.7657     57.6886
  1509.7500     22.0887    -69.2589     21.4076     55.6996
  1510.0000     22.6614    -69.4517     21.9755     54.7281
  1510.2500     23.2550    -69.7051     22.4931     55.0189
  1510.5000     23.8259    -69.9749     23.0086     55.5703
  1510.7500     24.3589    -70.1857     23.5526     55.3595
  1511.0000     24.8539    -70.2706     24.1245     54.1437
  1511.2500     25.3294    -70.2146     24.7069     53.3840
  1511.5000     25.8172    -70.0618     25.2867     53.4755
  1511.7500     26.3372    -69.8804     25.8646     54.4009
  1512.0000     26.8820    -69.7182     26.4483     56.1186
  1512.2500     27.4380    -69.5868     27.0422     56.8612
  1512.5000     28.0021    -69.4753     27.6440     56.9988
  1512.7500     28.5718    -69.3724     28.2472     56.6651
  1513.0000     29.1475    -69.2773     28.8412     56.2349
  1513.2500     29.7299    -69.1992     29.4072     56.2378
  1513.5000     30.2866    -69.1486     29.9199     56.4071
  1513.7500     30.7561    -69.1255     30.3626     56.2485
  1514.0000     31.1189    -69.1134     30.7403     55.2611
  1514.2500     31.4469    -69.0848     31.0756     54.2679
  1514.5000     31.8309    -69.0154     31.3889     52.8437
  1514.7500     32.2452    -68.8969     31.6827     52.1103
  1515.0000     32.5449    -68.7386     31.9398     51.1388
  1515.2500     32.6349    -68.5616     32.1305     50.3958
  1515.5000     32.5892    -68.3883     32.2243     49.2474
  1515.7500     32.5794    -68.2344     32.2053     48.7964
  1516.0000     32.7288    -68.1053     32.0829     49.1761
  1516.2500     33.0072    -67.9961     31.8862     50.2204
  1516.5000     33.2425    -67.8943     31.6396     52.5704
  1516.7500     33.3000    -67.7832     31.3391     54.2444
  1517.0000     33.2284    -67.6500     30.9533     56.2931
  1517.2500     33.1179    -67.4947     30.4475     57.1821
  1517.5000     32.8952    -67.3335     29.8143     57.8635
  1517.7500     32.4090    -67.1934     29.0917     58.0799
  1518.0000     31.6193    -67.0968     28.3561     58.6335
  1518.2500     30.6316    -67.0416     27.6964     59.5904
  1518.5000     29.6292    -66.9880     27.1839     62.4676
  1518.7500     28.7978    -66.8710     26.8561     65.3159
  1519.0000     28.2516    -66.6434     26.7155     70.2432
  1519.2500     27.9834    -66.3191     26.7376     73.4797
  1519.5000     27.8806    -65.9743     26.8802     78.4219
  1519.7500     27.8076    -65.7077     27.0909     82.7600
  1520.0000     27.6903    -65.5947     27.3184     93.0743
  1520.2500     27.5547    -65.6693     27.5276    102.8604
  1520.5000     27.5002    -65.9278     27.7139    119.3320
  1520.7500     27.6085    -66.3369     27.9060    128.7071
  1521.0000     27.8752    -66.8418     28.1508    136.4245
  1521.2500     28.2448    -67.3798     28.4856    136.8544
  1521.5000     28.6761    -67.8991     28.9149    132.7882
  1521.7500     29.1585    -68.3688     29.4097    129.3203
  1522.0000     29.6917    -68.7728     29.9268    127.0358
  1522.2500     30.2595    -69.0971     30.4322    129.2290
  1522.5000     30.8372    -69.3262     30.9107    139.7504
  1522.7500     31.3995    -69.4510     31.3620    151.5726
  1523.0000     31.9018    -69.4780     31.7912    174.0061
  1523.2500     32.3146    -69.4308     32.2011    188.9127
  1523.5000     32.6570    -69.3427     32.5905    204.0188
  1523.7500     32.9422    -69.2456     32.9631    205.7151
  1524.0000     33.1470    -69.1592     33.3410    193.9105
  1524.2500     33.2756    -69.0866     33.7640    178.4432
  1524.5000     33.3897    -69.0145     34.2627    150.2438
  1524.7500     33.5614    -68.9169     34.8169    131.7877
  1525.0000     33.8178    -68.7620     35.3301    108.8839
  1525.2500     34.0831    -68.5282     35.6554     98.0801
  1525.5000     34.2311    -68.2263     35.6728     89.0197
  1525.7500     34.2831    -67.9063     35.3762     87.0090
  1526.0000     34.4220    -67.6311     34.8939     87.6858
  1526.2500     34.7498    -67.4396     34.4330     89.4635
  1526.5000     35.1672    -67.3313     34.1995     94.1398
  1526.7500     35.4918    -67.2775     34.3416     99.8367
  1527.0000     35.6393    -67.2423     34.9090    115.1050
  1527.2500     35.6983    -67.1985     35.8079    130.7649
  1527.5000     35.8351    -67.1342     36.7760    161.5048
  1527.7500     36.1564    -67.0522     37.4614    184.5890
