~Version Information
VERS.                      2.0: CWLS Log ASCII Standard - VERSION 2.0
WRAP.                       NO: One line per depth step
~Well Information Block
STRT.FT               866.0000: 
STOP.FT              2027.5000: 
STEP.FT                 0.1000: 
NULL.                -999.2500: 
COMP.          Petrogulf Corporation: COMPANY
WELL.             State 16-21R: WELL
FLD.           Purgatorie River: FIELD
LOC.           203' FNL & 1560' FWL: LOCATION
PROV.                 Colorado: PROVINCE
CNTY.               Las Animas: COUNTRY
SRVC.                Patterson: SERVICE COMPANY
DATE.          Tue Aug 16 13:32:09 2005: LOG DATE
UWI.                071 08313 : UNIQUE WELL ID
~Curve Information Block
DEPT.FT            0 000 00 00: Depth
DCAL.in                       : CDL Caliper
RHOB.g/cc                     : CDL Bulk Density
RHOC.g/cc                     : CDL Density Correction
DPOR.pu                       : CDL Density Porosity
GR.GAPI                       : Gamma Ray
NPOR.pu                       : Neutron Porosity
~Parameter Information Block
~A  Depth       DCAL        RHOB        RHOC        DPOR         GR         NPOR    
# ...
  1250.0000      7.9637      2.4842      0.1098     10.0503     43.2470     15.8741
  1250.1000      7.9637      2.4889      0.0742      9.7660     44.8624     15.8612
  1250.2000      7.9637      2.4875      0.0672      9.8500     47.4555     16.0288
  1250.3000      7.9753      2.4934      0.0296      9.4934     50.4387     16.4657
  1250.4000      7.9753      2.5079      0.0794      8.6133     53.1119     16.9158
  1250.5000      7.9819      2.5135      0.1171      8.2714     54.6015     17.2624
  1250.6000      7.9819      2.5033      0.0772      8.8900     54.5081     17.6440
  1250.7000      7.9819      2.4905      0.0675      9.6642     54.0681     18.2994
  1250.8000      8.0197      2.4845      0.0635     10.0321     55.1117     19.1649
  1250.9000      8.0197      2.4876      0.0245      9.8417     59.8071     19.8926
  1251.0000      8.0288      2.5009      0.0634      9.0385     67.2464     20.4062
  1251.1000      8.0288      2.5172      0.0835      8.0498     73.8707     20.7946
  1251.2000      8.0288      2.5326      0.0890      7.1153     78.9379     21.1279
  1251.3000      8.0012      2.5546      0.0937      5.7845     83.1791     21.4352
  1251.4000      8.0012      2.5847      0.1215      3.9596     87.4959     21.5594
  1251.5000      7.9891      2.6084      0.1326      2.5242     91.8941     21.5997
  1251.6000      7.9891      2.6155      0.0936      2.0902     95.1959     21.9797
  1251.7000      7.9891      2.6112      0.1251      2.3500     97.8244     22.8030
  1251.8000      7.9770      2.6007      0.1021      2.9874    101.2735     23.6616
  1251.9000      7.9770      2.5888      0.0887      3.7104    104.9624     24.1111
  1252.0000      7.9267      2.5732      0.1067      4.6570    106.1081     24.0202
  1252.1000      7.9267      2.5441      0.0949      6.4198    105.4005     23.6927
  1252.2000      7.9267      2.5059      0.0463      8.7328    107.8514     23.4692
  1252.3000      7.9398      2.4789      0.0018     10.3678    112.3248     23.3509
  1252.4000      7.9398      2.4756      0.0376     10.5725    113.8356     23.3560
  1252.5000      7.9414      2.4917      0.0308      9.5945    113.5292     23.5089
  1252.6000      7.9414      2.5141      0.1095      8.2385    114.1765     23.6820
  1252.7000      7.9414      2.5216      0.1464      7.7834    114.4486     23.8890
  1252.8000      7.9086      2.5032      0.1561      8.8961    112.6099     24.2318
  1252.9000      7.9086      2.4664      0.1218     11.1245    110.8197     24.6728
  1253.0000      7.9355      2.4278      0.0925     13.4650    112.4203     25.1007
  1253.1000      7.9355      2.3996      0.0926     15.1779    116.2473     25.4709
  1253.2000      7.9355      2.3801      0.0501     16.3551    117.8699     25.8098
  1253.3000      7.9905      2.3704      0.0382     16.9471    117.8053     26.2172
  1253.4000      7.9905      2.3822      0.0108     16.2299    120.6519     26.7142
  1253.5000      8.0014      2.4211      0.0715     13.8744    126.8027     27.1165
  1253.6000      8.0014      2.4719      0.1214     10.7922    131.7387     27.4402
  1253.7000      8.0014      2.5096      0.1979      8.5119    131.4076     27.9578
  1253.8000      8.0035      2.5185      0.2065      7.9721    127.6473     28.6722
  1253.9000      8.0035      2.5032      0.1948      8.8996    124.6704     29.2152
  1254.0000      8.0180      2.4850      0.1188     10.0010    123.7864     29.4894
  1254.1000      8.0180      2.4850      0.0790      9.9980    126.7051     29.6088
  1254.2000      8.0180      2.4981      0.1191      9.2057    135.1119     29.4677
  1254.3000      8.0402      2.5065      0.0940      8.6996    144.4222     29.1937
  1254.4000      8.0402      2.5121      0.0827      8.3576    148.3488     29.1453
  1254.5000      8.0536      2.5175      0.1267      8.0331    148.6547     29.2473
  1254.6000      8.0536      2.5111      0.1062      8.4192    149.9837     29.0868
  1254.7000      8.0536      2.4896      0.0931      9.7219    150.3264     28.5882
  1254.8000      8.0840      2.4607      0.0738     11.4736    147.3457     28.2313
  1254.9000      8.0840      2.4314      0.0418     13.2475    143.5236     28.4247
  1255.0000      8.0739      2.4073      0.0334     14.7107    141.5405     28.8087
  1255.1000      8.0739      2.3967      0.0186     15.3533    142.0293     28.8876
  1255.2000      8.0739      2.4041      0.0482     14.9032    141.1579     28.7389
  1255.3000      8.0691      2.4181      0.0827     14.0565    137.0209     28.6275
  1255.4000      8.0691      2.4273      0.0606     13.4988    135.5375     28.7921
  1255.5000      8.0488      2.4446      0.0309     12.4467    139.9440     29.0318
  1255.6000      8.0488      2.4851      0.1248      9.9913    145.9076     28.9263
  1255.7000      8.0488      2.5322      0.1785      7.1413    150.7887     28.5321
  1255.8000      8.0484      2.5559      0.2005      5.7034    155.1815     28.1008
  1255.9000      8.0484      2.5490      0.1717      6.1222    157.6826     27.8134
  1256.0000      8.0258      2.5340      0.0823      7.0330    155.8689     27.6372
  1256.1000      8.0258      2.5345      0.1378      6.9978    152.2655     27.3348
  1256.2000      8.0258      2.5483      0.1205      6.1650    152.3578     26.8756
  1256.3000      8.0054      2.5586      0.1627      5.5383    154.4408     26.5032
  1256.4000      8.0054      2.5563      0.1329      5.6785    154.4347     26.4124
  1256.5000      8.0005      2.5498      0.0978      6.0718    154.1902     26.4862
  1256.6000      8.0005      2.5473      0.1093      6.2273    154.8814     26.3400
  1256.7000      8.0005      2.5409      0.1224      6.6118    155.3987     25.9235
  1256.8000      8.0103      2.5243      0.1277      7.6194    154.1978     25.6576
  1256.9000      8.0103      2.5066      0.0705      8.6926    148.6883     25.8473
  1257.0000      8.0088      2.5023      0.1033      8.9524    140.2898     26.3549
  1257.1000      8.0088      2.5121      0.0786      8.3586    134.8613     26.7684
  1257.2000      8.0088      2.5286      0.1109      7.3576    133.7316     26.8620
  1257.3000      7.9956      2.5394      0.1148      6.7038    135.6202     26.5264
  1257.4000      7.9956      2.5321      0.0820      7.1468    140.4755     25.8878
  1257.5000      7.9918      2.5116      0.0490      8.3855    146.1597     25.5436
  1257.6000      7.9918      2.4950      0.0374      9.3942    149.4447     25.7448
  1257.7000      7.9918      2.4897      0.0466      9.7125    150.7830     26.1413
  1257.8000      8.0456      2.4874      0.0627      9.8570    150.8456     26.3594
  1257.9000      8.0456      2.4815      0.0344     10.2099    147.5826     26.3678
  1258.0000      8.0758      2.4811      0.0365     10.2353    142.7623     26.2100
  1258.1000      8.0758      2.4930      0.0481      9.5151    141.7191     25.9754
  1258.2000      8.0758      2.5111      0.0537      8.4154    143.7925     25.9648
  1258.3000      8.0387      2.5359      0.0234      6.9164    142.3289     26.1314
  1258.4000      8.0387      2.5776      0.0670      4.3853    135.5997     26.0925
  1258.5000      8.0343      2.6283      0.1336      1.3143    129.2417     25.9179
  1258.6000      8.0343      2.6630      0.1359     -0.7860    127.0688     25.9465
  1258.7000      8.0343      2.6726      0.1213     -1.3719    127.7589     26.2070
  1258.8000      8.0555      2.6690      0.0962     -1.1529    128.9918     26.4835
  1258.9000      8.0555      2.6654      0.0825     -0.9329    129.0033     26.5932
  1259.0000      8.0073      2.6632      0.0829     -0.7986    128.1595     26.4716
  1259.1000      8.0073      2.6572      0.0605     -0.4340    126.7625     26.1335
  1259.2000      8.0073      2.6469      0.0440      0.1895    122.9758     25.6737
  1259.3000      7.9475      2.6319      0.0693      1.0966    116.9718     25.2877
  1259.4000      7.9475      2.6143      0.0169      2.1639    110.4851     25.2000
  1259.5000      7.9425      2.5978      0.0558      3.1650    103.8017     25.3938
