~Version Information
VERS.                      2.0: CWLS Log ASCII Standard - VERSION 2.0
WRAP.                       NO: One line per depth step
~Well Information Block
STRT.FT                 0.0000: 
STOP.FT              1916.0000: 
STEP.FT                 0.1000: 
NULL.                -999.2500: 
COMP.          Pioneer Natural Resources: COMPANY
WELL.          Blackjack 32-11 Tr: WELL
FLD.           Purgatorie River: FIELD
LOC.           2066' FNL & 1453' FEL: LOCATION
PROV.                 Colorado: PROVINCE
CNTY.               Las Animas: COUNTRY
SRVC.                Patterson: SERVICE COMPANY
DATE.          Tue Aug 16 12:08:23 2005: LOG DATE
UWI.                          : UNIQUE WELL ID
~Curve Information Block
DEPT.FT            0 000 00 00: Depth
DCAL.in                       : CDL Caliper
RHOB.g/cc                     : CDL Bulk Density
RHOC.g/cc                     : CDL Density Correction
DPOR.pu                       : CDL Density Porosity
GR.GAPI                       : Gamma Ray
NPOR.pu                       : Neutron Porosity
~Parameter Information Block
~A  Depth       DCAL        RHOB        RHOC        DPOR         GR         NPOR    
# ...
  1257.6000      8.0560      2.5728      0.0936      4.6786     95.7528     23.0828
  1257.7000      8.0560      2.5642      0.1197      5.2007     92.2686     23.3712
  1257.8000      8.0127      2.5325      0.0735      7.1238     88.1776     23.5365
  1257.9000      8.0127      2.5036      0.0447      8.8748     86.4432     24.0049
  1258.0000      7.9880      2.4993      0.0432      9.1359     86.9901     24.7700
  1258.1000      7.9880      2.5122      0.0769      8.3485     87.5654     25.4263
  1258.2000      7.9880      2.5178      0.1296      8.0139     86.0479     25.7377
  1258.3000      8.0007      2.5040      0.0665      8.8506     81.5937     25.6414
  1258.4000      8.0007      2.4913      0.0269      9.6169     76.9157     25.2222
  1258.5000      7.9470      2.5003      0.0764      9.0722     74.7824     24.3420
  1258.6000      7.9470      2.5161      0.1146      8.1181     74.8359     23.0415
  1258.7000      7.9470      2.5125      0.1016      8.3339     75.2987     21.9148
  1258.8000      7.9592      2.4879      0.0743      9.8232     74.9182     21.6795
  1258.9000      7.9592      2.4627      0.0391     11.3530     74.4593     21.9806
  1259.0000      7.9961      2.4526      0.0483     11.9641     74.4905     21.7023
  1259.1000      7.9961      2.4541      0.0445     11.8719     74.0911     21.1064
  1259.2000      7.9961      2.4576      0.0632     11.6630     72.3705     20.9345
  1259.3000      8.0085      2.4595      0.0791     11.5481     69.9389     21.1535
  1259.4000      8.0085      2.4603      0.0829     11.4961     69.5688     21.7805
  1259.5000      7.9649      2.4611      0.0896     11.4503     72.8293     22.6767
  1259.6000      7.9649      2.4581      0.1158     11.6282     75.5166     23.0481
  1259.7000      7.9649      2.4500      0.0785     12.1190     72.9194     22.4573
  1259.8000      7.9694      2.4465      0.0713     12.3305     69.5012     21.5020
  1259.9000      7.9694      2.4518      0.0928     12.0121     70.7867     20.9022
  1260.0000      7.9622      2.4596      0.0969     11.5421     72.9422     20.9920
  1260.1000      7.9622      2.4683      0.0783     11.0125     70.3680     21.7105
  1260.2000      7.9622      2.4826      0.0915     10.1445     65.0827     22.4608
  1260.3000      7.9479      2.5020      0.1328      8.9720     60.4784     22.8440
  1260.4000      7.9479      2.5154      0.1544      8.1596     57.4902     22.8634
  1260.5000      7.9700      2.5123      0.1458      8.3464     57.8297     22.7144
  1260.6000      7.9700      2.4962      0.1086      9.3195     61.4610     22.7181
  1260.7000      7.9700      2.4790      0.0943     10.3632     66.1763     23.0688
  1260.8000      7.9485      2.4678      0.0613     11.0407     69.5213     23.7664
  1260.9000      7.9485      2.4678      0.0614     11.0442     70.2892     24.5114
  1261.0000      7.9346      2.4817      0.0482     10.1978     70.5229     24.8099
  1261.1000      7.9346      2.5008      0.0621      9.0431     71.3736     24.4764
  1261.2000      7.9346      2.5095      0.0701      8.5176     70.9433     23.8771
  1261.3000      7.9442      2.5051      0.0361      8.7836     68.2557     23.3884
  1261.4000      7.9442      2.4997      0.0354      9.1082     65.0364     23.0562
  1261.5000      7.9739      2.4978      0.0819      9.2248     63.7450     23.0302
  1261.6000      7.9739      2.4929      0.0408      9.5228     65.0940     23.2980
  1261.7000      7.9739      2.4855      0.0470      9.9683     67.3211     23.2839
  1261.8000      8.0029      2.4772      0.0582     10.4702     69.3117     22.8044
  1261.9000      8.0029      2.4650      0.0750     11.2128     70.4872     22.4135
  1262.0000      7.9966      2.4552      0.0140     11.8053     68.9134     22.4922
  1262.1000      7.9966      2.4576      0.0352     11.6628     65.1607     22.5359
  1262.2000      7.9966      2.4639      0.0753     11.2803     62.6479     21.8520
  1262.3000      8.0255      2.4589      0.0745     11.5845     63.1688     20.9855
  1262.4000      8.0255      2.4471      0.0431     12.2961     65.5771     20.8751
  1262.5000      8.0146      2.4480      0.0032     12.2448     67.5233     21.4022
  1262.6000      8.0146      2.4556      0.1150     11.7844     66.7400     21.7935
  1262.7000      8.0146      2.4459      0.0360     12.3671     63.2830     21.6715
  1262.8000      8.0037      2.4250      0.0449     13.6374     59.9120     21.2398
  1262.9000      8.0037      2.4138      0.0597     14.3172     59.5058     20.8631
  1263.0000      7.9860      2.4181      0.0361     14.0527     62.3324     21.1581
  1263.1000      7.9860      2.4316      0.0487     13.2340     65.8157     22.2886
  1263.2000      7.9860      2.4467      0.0839     12.3188     68.3667     23.2862
  1263.3000      8.0001      2.4576      0.0668     11.6619     70.3684     23.5045
  1263.4000      8.0001      2.4598      0.0615     11.5250     72.1206     23.5818
  1263.5000      8.0387      2.4595      0.0435     11.5457     74.2163     23.9108
  1263.6000      8.0387      2.4718      0.0734     10.7989     77.5602     23.9029
  1263.7000      8.0387      2.4954      0.0800      9.3708     81.1750     23.0201
  1263.8000      8.0542      2.5059      0.1213      8.7354     83.1388     21.8625
  1263.9000      8.0542      2.4939      0.0453      9.4633     82.7041     21.4135
  1264.0000      8.0387      2.4787      0.0831     10.3822     82.2065     21.7957
  1264.1000      8.0387      2.4675      0.0860     11.0615     83.6014     22.2213
  1264.2000      8.0387      2.4523      0.0463     11.9843     85.4319     22.0383
  1264.3000      7.9700      2.4383      0.0447     12.8288     86.2638     21.6778
  1264.4000      7.9700      2.4350      0.0792     13.0310     85.4086     21.6965
  1264.5000      7.9685      2.4406      0.0477     12.6907     83.2942     22.0768
  1264.6000      7.9685      2.4489      0.0778     12.1887     81.4492     22.6380
  1264.7000      7.9685      2.4556      0.0409     11.7802     81.0358     23.0303
  1264.8000      8.0004      2.4598      0.0769     11.5293     82.5541     22.7323
  1264.9000      8.0004      2.4590      0.0748     11.5758     84.6998     21.8326
  1265.0000      8.0307      2.4524      0.0356     11.9764     84.3196     21.1041
  1265.1000      8.0307      2.4423      0.0511     12.5856     80.8600     20.9852
  1265.2000      8.0307      2.4335      0.0318     13.1231     78.4854     20.9483
  1265.3000      8.0268      2.4329      0.0550     13.1553     81.1766     20.2547
  1265.4000      8.0268      2.4407      0.0568     12.6844     86.0727     19.2100
  1265.5000      8.0886      2.4508      0.0569     12.0752     87.8587     18.9670
  1265.6000      8.0886      2.4643      0.0435     11.2570     85.9021     20.0711
  1265.7000      8.0886      2.4860      0.0724      9.9375     82.3712     21.8407
  1265.8000      8.0696      2.5049      0.1036      8.7958     80.0101     23.1184
  1265.9000      8.0696      2.5020      0.0760      8.9693     80.8910     23.2687
  1266.0000      8.0745      2.4823      0.0424     10.1620     81.8101     22.5528
  1266.1000      8.0745      2.4666      0.0384     11.1150     78.8776     21.7423
  1266.2000      8.0745      2.4655      0.0310     11.1818     74.4079     21.4329
  1266.3000      8.0351      2.4756      0.0339     10.5712     73.1977     21.7270
  1266.4000      8.0351      2.4860      0.0508      9.9368     76.8944     22.2579
  1266.5000      8.0293      2.4900      0.0641      9.6947     81.7625     22.5149
  1266.6000      8.0293      2.4912      0.0649      9.6256     82.5424     22.2639
  1266.7000      8.0293      2.4920      0.0992      9.5756     79.3112     21.9417
  1266.8000      8.0631      2.4900      0.0528      9.6959     76.2865     21.9715
  1266.9000      8.0631      2.4899      0.0657      9.7047     75.4660     21.8126
  1267.0000      8.0522      2.4949      0.0908      9.4011     75.3216     21.1343
  1267.1000      8.0522      2.4997      0.0953      9.1084     74.0434     20.5845
