~Version Information
VERS.                      2.0: CWLS Log ASCII Standard - VERSION 2.0
WRAP.                       NO: One line per depth step
~Well Information Block
STRT.FT               270.0000: 
STOP.FT              1771.7000: 
STEP.FT                 0.1000: 
NULL.                -999.2500: 
COMP.          Pioneer Natural Resources: COMPANY
WELL.           Labrador 34-30: WELL
FLD.           Purgatoire River: FIELD
LOC.           926' FSL & 2080' FEL: LOCATION
PROV.                 Colorado: PROVINCE
CNTY.               Las Animas: COUNTRY
SRVC.                Patterson: SERVICE COMPANY
DATE.          Mon Dec 06 08:24:34 2004: LOG DATE
UWI.           05 071 08202 00: UNIQUE WELL ID
~Curve Information Block
DEPT.FT            0 000 00 00: Depth
DCAL.in                       : CDL Caliper
RHOB.g/cc                     : CDL Bulk Density
RHOC.g/cc                     : CDL Density Correction
DPOR.pu                       : CDL Density Porosity
NPOR.pu                       : Neutron Porosity
GR.GAPI                       : Gamma Ray
~Parameter Information Block
~A  Depth       DCAL        RHOB        RHOC        DPOR        NPOR         GR     
# ...
   462.0000      8.2134      2.4297      0.0639     13.3528     24.6541    142.5122
   462.1000      8.2134      2.4347      0.0533     13.0455     23.9203    140.0439
   462.2000      8.2134      2.4346      0.0942     13.0551     23.0381    133.7890
   462.3000      8.2198      2.4324      0.0548     13.1880     22.1313    127.7213
   462.4000      8.2198      2.4447      0.0736     12.4427     21.2863    125.7387
   462.5000      8.2201      2.4675      0.1071     11.0610     20.8254    126.8171
   462.6000      8.2201      2.4818      0.0873     10.1942     20.7714    127.9419
   462.7000      8.2201      2.4820      0.1039     10.1809     20.9105    128.1665
   462.8000      8.2192      2.4644      0.1358     11.2455     21.2978    129.2004
   462.9000      8.2192      2.4316      0.0689     13.2376     22.0059    130.9009
   463.0000      8.2176      2.4068      0.0233     14.7399     22.6720    129.6994
   463.1000      8.2176      2.4012      0.0797     15.0801     22.9806    129.9819
   463.2000      8.2176      2.3986      0.0722     15.2338     23.0131    135.7523
   463.3000      8.2164      2.3891      0.0539     15.8102     23.1562    137.7060
   463.4000      8.2164      2.3767      0.0547     16.5619     23.3531    129.0283
   463.5000      8.2155      2.3640      0.0520     17.3351     22.9531    116.8145
   463.6000      8.2155      2.3399      0.1337     18.7937     21.9857    111.7158
   463.7000      8.2155      2.2931      0.0717     21.6304     21.1339    115.1932
   463.8000      8.2145      2.2306      0.0707     25.4203     20.6608    121.2174
   463.9000      8.2145      2.1611      0.0196     29.6280     20.2798    123.7183
   464.0000      8.2102      2.0852      0.0343     34.2298     19.7130    121.0184
   464.1000      8.2102      1.9919      0.0286     39.8850     19.0166    115.8184
   464.2000      8.2102      1.8712     -0.0696     47.2024     18.1337    108.8161
   464.3000      8.1950      1.7351     -0.0784     55.4472     16.9852    100.4857
   464.4000      8.1950      1.6106     -0.1551     62.9958     15.8644     95.1133
   464.5000      8.1675      1.5263     -0.1182     68.1043     14.9716     94.7370
   464.6000      8.1675      1.5072     -0.1385     69.2627     14.0750     95.7234
   464.7000      8.1675      1.5624     -0.0385     65.9152     13.1264     95.3028
   464.8000      8.1391      1.6702      0.0758     59.3833     12.3229     94.7063
   464.9000      8.1391      1.7964      0.1660     51.7315     11.6393     95.8986
   465.0000      8.1260      1.9253      0.2153     43.9202     10.9937     98.7157
   465.1000      8.1260      2.0570      0.2804     35.9392     10.6811    100.7817
   465.2000      8.1260      2.1927      0.3273     27.7130     10.9861     99.6200
   465.3000      8.1274      2.3317      0.3518     19.2920     11.8067     95.8991
   465.4000      8.1274      2.4610      0.4001     11.4565     12.9818     94.8412
   465.5000      8.1331      2.5523      0.3558      5.9191     14.5452     98.7659
   465.6000      8.1331      2.5884      0.2631      3.7342     16.5493    103.1125
   465.7000      8.1331      2.5795      0.1446      4.2758     18.7359    106.5747
   465.8000      8.1359      2.5539      0.0395      5.8246     20.6928    113.7438
   465.9000      8.1359      2.5342      0.0258      7.0177     22.1566    122.5896
   466.0000      8.1341      2.5208      0.0308      7.8299     23.0035    125.8766
   466.1000      8.1341      2.5116      0.0299      8.3894     23.4273    121.1108
   466.2000      8.1341      2.5114      0.0317      8.4010     23.7757    112.8671
   466.3000      8.1327      2.5168      0.0728      8.0722     23.8450    108.3160
   466.4000      8.1327      2.5176      0.0349      8.0230     23.4224    108.9913
   466.5000      8.1322      2.5057      0.0642      8.7485     23.0144    108.6391
   466.6000      8.1322      2.4810      0.0041     10.2398     22.8038    102.3976
   466.7000      8.1322      2.4589      0.0090     11.5792     22.3842     93.7462
   466.8000      8.1327      2.4515      0.0057     12.0283     21.7061     88.3113
   466.9000      8.1327      2.4604      0.0203     11.4893     21.0860     87.3647
   467.0000      8.1361      2.4814      0.0440     10.2163     20.6948     89.8634
   467.1000      8.1361      2.5067      0.0572      8.6840     20.5971     92.8016
   467.2000      8.1361      2.5258      0.0837      7.5266     20.8044     91.5852
   467.3000      8.1430      2.5295      0.0504      7.3011     21.0515     85.7975
   467.4000      8.1430      2.5196      0.0615      7.9021     20.9755     80.2338
   467.5000      8.1511      2.5026      0.0524      8.9353     20.6941     78.4858
   467.6000      8.1511      2.4847      0.0269     10.0205     20.4907     76.9857
   467.7000      8.1511      2.4730      0.0026     10.7284     20.2292     73.6528
   467.8000      8.1576      2.4736      0.0004     10.6914     19.9109     72.7103
   467.9000      8.1576      2.4904     -0.0050      9.6757     19.8611     74.0566
   468.0000      8.1618      2.5167      0.0116      8.0775     20.0598     74.7768
   468.1000      8.1618      2.5294      0.0541      7.3090     19.9967     76.4811
   468.2000      8.1618      2.5182     -0.0070      7.9905     19.4047     79.0136
   468.3000      8.1644      2.4987      0.0320      9.1720     18.6583     80.5879
   468.4000      8.1644      2.4776      0.0138     10.4465     18.1065     82.9626
   468.5000      8.1648      2.4579      0.0259     11.6435     17.6658     84.1293
   468.6000      8.1648      2.4531     -0.0202     11.9335     17.2389     80.5422
   468.7000      8.1648      2.4677      0.0583     11.0475     17.0271     75.6010
   468.8000      8.1631      2.4906     -0.0051      9.6588     17.1562     73.7758
   468.9000      8.1631      2.5038      0.0847      8.8601     17.3985     75.4385
   469.0000      8.1626      2.4930      0.0372      9.5163     17.5930     78.8285
   469.1000      8.1626      2.4678      0.0352     11.0406     17.5911     81.8583
   469.2000      8.1626      2.4476      0.0050     12.2691     17.3007     83.6978
   469.3000      8.1633      2.4338      0.0606     13.1018     16.8740     83.8106
   469.4000      8.1633      2.4163      0.0165     14.1665     16.5786     83.0762
   469.5000      8.1634      2.3945      0.0003     15.4856     16.5116     82.7091
   469.6000      8.1634      2.3784     -0.0152     16.4598     16.4750     80.5115
   469.7000      8.1634      2.3815     -0.0046     16.2737     16.1740     75.1118
   469.8000      8.1620      2.4052      0.0189     14.8392     15.7492     69.1208
   469.9000      8.1620      2.4231      0.0581     13.7516     15.4724     65.1468
   470.0000      8.1602      2.4147      0.0060     14.2623     15.1462     62.3115
   470.1000      8.1602      2.3999     -0.0305     15.1589     14.7852     58.7597
   470.2000      8.1602      2.3996      0.0261     15.1743     14.9086     56.9817
   470.3000      8.1599      2.4058      0.0220     14.8013     15.5542     60.2673
   470.4000      8.1599      2.4103      0.0388     14.5247     16.0478     66.0056
   470.5000      8.1602      2.4182     -0.0170     14.0488     16.0188     69.2837
   470.6000      8.1602      2.4328      0.0409     13.1610     15.7633     69.2886
   470.7000      8.1602      2.4449      0.0629     12.4299     15.7961     68.8736
   470.8000      8.1598      2.4466      0.0260     12.3249     16.1748     69.2465
   470.9000      8.1598      2.4445      0.0372     12.4516     16.5036     68.6944
   471.0000      8.1603      2.4478      0.0550     12.2548     16.4461     67.7320
   471.1000      8.1603      2.4567      0.0668     11.7124     15.9665     67.4617
   471.2000      8.1603      2.4594      0.0788     11.5508     15.5782     67.6100
   471.3000      8.1616      2.4476      0.0429     12.2685     15.7613     68.5072
   471.4000      8.1616      2.4298      0.0524     13.3431     16.2897     68.6527
   471.5000      8.1606      2.4125      0.0579     14.3911     16.5833     67.2421
