~Version Information
VERS.                      2.0: CWLS Log ASCII Standard - VERSION 2.0
WRAP.                       NO: One line per depth step
~Well Information Block
STRT.FT               250.0000: 
STOP.FT              1573.7500: 
STEP.FT                 0.2500: 
NULL.                -999.2500: 
COMP.          Pioneer Natural Resources: COMPANY
WELL.          Big Cat Federal 44-1: WELL
FLD.           Purgatoire River: FIELD
LOC.           197' FSL & 973' FEL--: LOCATION
CNTY.               Las Animas: COUNTY
SRVC.                Patterson: SERVICE COMPANY
DATE.          Sun Apr 23 14:54:11 2006: LOG DATE
UWI.           05 071 08042 00: UNIQUE WELL ID
STAT.                 Colorado: STATE
~Curve Information Block
DEPT.FT            0 000 00 00: Depth
DIR.Ohm-m                     : IEL Induction Resistivity
GR.GAPI                       : Gamma Ray
~Parameter Information Block
~A  Depth       DIR          GR     
# ...
   863.2500     16.9438    129.8508
   863.5000     17.1875    129.8909
   863.7500     17.4894    131.8956
   864.0000     17.8280    135.5682
   864.2500     18.1682    137.2552
   864.5000     18.4668    137.9513
   864.7500     18.6890    137.6218
   865.0000     18.8292    137.1209
   865.2500     18.9164    137.1926
   865.5000     18.9992    137.8669
   865.7500     19.1210    138.4021
   866.0000     19.3024    138.6176
   866.2500     19.5374    137.8761
   866.5000     19.8036    134.7238
   866.7500     20.0754    131.1265
   867.0000     20.3364    123.8103
   867.2500     20.5833    118.1267
   867.5000     20.8219    109.6517
   867.7500     21.0569    104.9090
   868.0000     21.2824    100.4861
   868.2500     21.4802     99.8119
   868.5000     21.6284    102.0319
   868.7500     21.7159    104.8197
   869.0000     21.7522    108.9829
   869.2500     21.7650    111.0197
   869.5000     21.7863    112.9183
   869.7500     21.8352    113.6483
   870.0000     21.9111    113.9624
   870.2500     22.0004    113.4998
   870.5000     22.0889    111.9491
   870.7500     22.1715    110.8322
   871.0000     22.2502    109.9306
   871.2500     22.3275    109.9358
   871.5000     22.4018    110.2524
   871.7500     22.4698    110.3230
   872.0000     22.5313    110.2868
   872.2500     22.5915    110.5400
   872.5000     22.6622    111.8588
   872.7500     22.7615    113.2562
   873.0000     22.9115    115.3016
   873.2500     23.1319    116.1324
   873.5000     23.4342    116.1712
   873.7500     23.8156    115.3640
   874.0000     24.2531    112.9547
   874.2500     24.7028    110.6414
   874.5000     25.1077    106.6164
   874.7500     25.4183    104.1036
   875.0000     25.6139    101.5499
   875.2500     25.7099    100.9701
   875.5000     25.7446    101.8222
   875.7500     25.7570    103.4084
   876.0000     25.7685    106.9766
   876.2500     25.7764    109.8875
   876.5000     25.7575    114.6943
   876.7500     25.6831    118.1738
   877.0000     25.5376    123.7820
   877.2500     25.3332    127.3349
   877.5000     25.1086    130.7202
   877.7500     24.9134    130.8022
   878.0000     24.7878    127.6235
   878.2500     24.7500    124.1425
   878.5000     24.7979    118.7135
   878.7500     24.9195    115.7013
   879.0000     25.1025    112.3408
   879.2500     25.3368    110.4139
   879.5000     25.6057    106.8420
   879.7500     25.8789    103.6897
   880.0000     26.1168     98.2268
   880.2500     26.2876     94.5608
   880.5000     26.3861     89.5503
   880.7500     26.4369     86.6495
   881.0000     26.4762     83.0011
   881.2500     26.5264     81.0427
   881.5000     26.5845     78.9391
   881.7500     26.6333     78.2450
   882.0000     26.6611     78.3931
   882.2500     26.6740     79.1605
   882.5000     26.6910     80.8440
   882.7500     26.7331     82.0689
   883.0000     26.8159     83.8478
   883.2500     26.9460     84.9518
   883.5000     27.1206     86.3116
   883.7500     27.3285     86.8362
   884.0000     27.5552     86.8011
   884.2500     27.7866     86.2634
   884.5000     28.0094     85.1438
   884.7500     28.2126     84.5766
   885.0000     28.3956     84.4135
   885.2500     28.5792     84.6967
   885.5000     28.8078     85.2261
   885.7500     29.1357     85.4110
   886.0000     29.6059     85.4378
   886.2500     30.2334     85.4676
   886.5000     31.0032     85.6604
   886.7500     31.8826     85.6816
   887.0000     32.8342     84.9735
   887.2500     33.8199     83.8512
   887.5000     34.7960     81.5037
   887.7500     35.7122     79.8579
   888.0000     36.5227     77.7757
   888.2500     37.2019     76.8560
   888.5000     37.7440     76.6120
   888.7500     38.1457     77.4076
   889.0000     38.3848     79.6313
   889.2500     38.4173     80.9615
   889.5000     38.2069     81.0299
   889.7500     37.7688     79.3848
   890.0000     37.1915     75.2924
   890.2500     36.6103     72.5011
   890.5000     36.1497     69.5244
   890.7500     35.8760     68.5662
   891.0000     35.7835     68.3738
   891.2500     35.8091     68.7541
   891.5000     35.8631     69.6753
   891.7500     35.8595     70.4699
   892.0000     35.7431     72.0308
   892.2500     35.5062     73.3531
   892.5000     35.1897     75.5483
   892.7500     34.8591     76.7959
   893.0000     34.5675     77.6363
   893.2500     34.3294     77.3965
   893.5000     34.1227     76.3095
   893.7500     33.9111     75.3987
   894.0000     33.6681     73.7158
   894.2500     33.3865     72.1667
   894.5000     33.0756     69.1201
   894.7500     32.7533     66.8759
   895.0000     32.4419     63.8969
   895.2500     32.1646     62.4301
   895.5000     31.9424     60.9165
   895.7500     31.7878     60.1109
   896.0000     31.7004     58.7966
   896.2500     31.6676     57.7272
   896.5000     31.6728     55.9045
   896.7500     31.7005     54.7540
   897.0000     31.7257     53.5591
   897.2500     31.6954     53.2478
   897.5000     31.5211     53.4980
   897.7500     31.0978     54.1641
   898.0000     30.3424     56.3988
   898.2500     29.2294     59.3976
   898.5000     27.8081     67.6852
   898.7500     26.1903     76.2513
   899.0000     24.5131     92.9097
   899.2500     22.8953    105.1976
   899.5000     21.4097    122.4946
   899.7500     20.0831    131.8627
   900.0000     18.9147    141.6848
   900.2500     17.8983    145.8224
   900.5000     17.0362    150.0109
   900.7500     16.3404    152.0801
   901.0000     15.8251    153.5300
   901.2500     15.4989    152.3527
   901.5000     15.3591    146.2560
   901.7500     15.3921    139.8468
   902.0000     15.5743    129.0605
   902.2500     15.8746    122.2333
   902.5000     16.2565    113.1827
   902.7500     16.6823    107.9204
   903.0000     17.1161    101.3679
   903.2500     17.5266     98.1501
   903.5000     17.8855     95.3190
   903.7500     18.1650     94.7771
   904.0000     18.3365     96.0096
   904.2500     18.3726     98.2440
   904.5000     18.2509    103.5612
   904.7500     17.9620    108.0335
   905.0000     17.5181    115.2973
   905.2500     16.9536    120.3284
   905.5000     16.3182    128.5057
   905.7500     15.6648    134.4135
   906.0000     15.0422    142.7933
   906.2500     14.4892    146.9360
   906.5000     14.0336    149.8162
   906.7500     13.6922    149.7779
   907.0000     13.4743    148.3144
   907.2500     13.3836    147.1610
   907.5000     13.4188    145.1821
   907.7500     13.5732    143.0191
   908.0000     13.8383    137.2050
   908.2500     14.2086    131.4232
   908.5000     14.6862    121.0639
   908.7500     15.2792    114.2968
   909.0000     15.9935    106.1472
   909.2500     16.8202    102.2670
   909.5000     17.7240     97.7964
   909.7500     18.6371     94.9621
   910.0000     19.4681     90.4232
   910.2500     20.1284     87.4400
   910.5000     20.5697     83.7380
   910.7500     20.8078     82.2089
   911.0000     20.9118     82.1791
   911.2500     20.9666     84.0062
   911.5000     21.0351     88.7484
   911.7500     21.1422     91.8795
   912.0000     21.2807     94.2328
   912.2500     21.4258     94.0061
   912.5000     21.5431     92.6483
   912.7500     21.5890     92.2516
   913.0000     21.5099     93.0989
   913.2500     21.2507     94.2550
   913.5000     20.7714     96.1237
   913.7500     20.0615     97.4029
   914.0000     19.1460    100.0068
   914.2500     18.0813    102.8795
   914.5000     16.9420    110.0328
   914.7500     15.8028    116.7837
   915.0000     14.7229    128.5121
   915.2500     13.7405    136.2139
   915.5000     12.8749    146.0814
   915.7500     12.1325    150.9653
   916.0000     11.5106    154.8550
   916.2500     11.0001    154.9365
   916.5000     10.5890    152.1208
   916.7500     10.2660    149.3225
   917.0000     10.0225    145.7384
   917.2500      9.8519    144.8165
   917.5000      9.7469    146.6874
   917.7500      9.6960    149.7793
   918.0000      9.6828    155.0109
   918.2500      9.6883    157.4870
   918.5000      9.6969    158.7112
   918.7500      9.7029    158.1913
