~Version Information
VERS.                      2.0: CWLS Log ASCII Standard - VERSION 2.0
WRAP.                       NO: One line per depth step
~Well Information Block
STRT.FT               577.8000: 
STOP.FT              2445.8000: 
STEP.FT                 0.1000: 
NULL.                -999.2500: 
COMP.          Petrogulf Corporation: COMPANY
WELL.             State 16-32V: WELL
FLD.           Purgatorie River: FIELD
LOC.           1599' FNL & 1783' FEL: LOCATION
CNTY.               Las Animas: COUNTY
SRVC.                         : SERVICE COMPANY
DATE.          Thu Jun 05 16:36:04 2003: LOG DATE
UWI.           05 071 07726 00: UNIQUE WELL ID
STAT.                 Colorado: STATE
~Curve Information Block
DEPT.FT            0 000 00 00: Depth
DCAL.in                       : Caliper from Density Tool
RHOB.g/cc                     : Bulk Density
RHOC.g/cc                     : Density Correction
DPOR.pu                       : Density Porosity
GR.GAPI                       : Gamma Ray
NPOR.pu                       : Neutron Porosity
~Parameter Information Block
~A  Depth       DCAL        RHOB        RHOC        DPOR         GR         NPOR    
# ...
  1201.8000      8.1808      2.6116      0.0953      2.3248     79.9125     21.4464
  1201.9000      8.1808      2.6116      0.0953      2.3248     79.4423     21.3558
  1202.0000      8.0675      2.6131      0.1023      2.2369     79.0947     21.2141
  1202.1000      8.0675      2.6131      0.1023      2.2369     78.9192     21.0251
  1202.2000      8.0675      2.6131      0.1023      2.2369     78.9642     20.7966
  1202.3000      7.9385      2.6045      0.1073      2.7605     79.2785     20.5396
  1202.4000      7.9385      2.6045      0.1073      2.7605     79.9076     20.2680
  1202.5000      7.9116      2.5909      0.1066      3.5821     80.8933     19.9980
  1202.6000      7.9116      2.5909      0.1066      3.5821     82.2714     19.7469
  1202.7000      7.9116      2.5909      0.1066      3.5821     84.0685     19.5316
  1202.8000      7.9914      2.5597      0.0999      5.4748     86.3001     19.3675
  1202.9000      7.9914      2.5597      0.0999      5.4748     88.9686     19.2671
  1203.0000      8.1164      2.5332      0.0927      7.0794     92.0613     19.2396
  1203.1000      8.1164      2.5332      0.0927      7.0794     95.5492     19.2903
  1203.2000      8.1164      2.5332      0.0927      7.0794     99.3893     19.4204
  1203.3000      8.1639      2.4897      0.0802      9.7127    103.5251     19.6276
  1203.4000      8.1639      2.4897      0.0802      9.7127    107.8898     19.9067
  1203.5000      8.1746      2.4618      0.0725     11.4074    112.4081     20.2495
  1203.6000      8.1746      2.4618      0.0725     11.4074    117.0045     20.6455
  1203.7000      8.1746      2.4618      0.0725     11.4074    121.6038     21.0823
  1203.8000      8.1622      2.4270      0.0645     13.5170    126.1394     21.5458
  1203.9000      8.1622      2.4270      0.0645     13.5170    130.5536     22.0209
  1204.0000      8.1662      2.4110      0.0631     14.4868    134.8022     22.4923
  1204.1000      8.1662      2.4110      0.0631     14.4868    138.8547     22.9458
  1204.2000      8.1662      2.4110      0.0631     14.4868    142.6943     23.3689
  1204.3000      8.2021      2.4002      0.0698     15.1375    146.3120     23.7522
  1204.4000      8.2021      2.4002      0.0698     15.1375    149.7054     24.0899
  1204.5000      8.2226      2.4023      0.0820     15.0113    152.8731     24.3796
  1204.6000      8.2226      2.4023      0.0820     15.0113    155.8100     24.6223
  1204.7000      8.2226      2.4023      0.0820     15.0113    158.5063     24.8210
  1204.8000      8.1681      2.4174      0.1123     14.0954    160.9417     24.9801
  1204.9000      8.1681      2.4174      0.1123     14.0954    163.0879     25.1036
  1205.0000      8.0972      2.4324      0.1383     13.1890    164.9090     25.1949
  1205.1000      8.0972      2.4324      0.1383     13.1890    166.3645     25.2562
  1205.2000      8.0972      2.4324      0.1383     13.1890    167.4157     25.2877
  1205.3000      8.0892      2.4541      0.1774     11.8730    168.0360     25.2892
  1205.4000      8.0892      2.4541      0.1774     11.8730    168.2158     25.2600
  1205.5000      8.1365      2.4634      0.1977     11.3079    167.9707     25.2002
  1205.6000      8.1365      2.4634      0.1977     11.3079    167.3484     25.1117
  1205.7000      8.1365      2.4634      0.1977     11.3079    166.4262     24.9985
  1205.8000      8.1783      2.4651      0.2127     11.2089    165.3043     24.8669
  1205.9000      8.1783      2.4651      0.2127     11.2089    164.0982     24.7250
  1206.0000      8.2076      2.4580      0.2117     11.6356    162.9226     24.5817
  1206.1000      8.2076      2.4580      0.2117     11.6356    161.8763     24.4455
  1206.2000      8.2076      2.4580      0.2117     11.6356    161.0295     24.3227
  1206.3000      8.3006      2.4391      0.1985     12.7788    160.4139     24.2156
  1206.4000      8.3006      2.4391      0.1985     12.7788    160.0201     24.1219
  1206.5000      8.3694      2.4235      0.1867     13.7286    159.8053     24.0337
  1206.6000      8.3694      2.4235      0.1867     13.7286    159.7012     23.9378
  1206.7000      8.3694      2.4235      0.1867     13.7286    159.6326     23.8160
  1206.8000      8.3356      2.3946      0.1716     15.4792    159.5266     23.6472
  1206.9000      8.3356      2.3946      0.1716     15.4792    159.3305     23.4083
  1207.0000      8.2951      2.3662      0.1651     17.1989    159.0146     23.0771
  1207.1000      8.2951      2.3662      0.1651     17.1989    158.5740     22.6342
  1207.2000      8.2951      2.3662      0.1651     17.1989    158.0234     22.0648
  1207.3000      8.3089      2.2942      0.1587     21.5617    157.3871     21.3610
  1207.4000      8.3089      2.2942      0.1587     21.5617    156.6880     20.5226
  1207.5000      8.3162      2.2198      0.1545     26.0715    155.9390     19.5582
  1207.6000      8.3162      2.2198      0.1545     26.0715    155.1370     18.4846
  1207.7000      8.3162      2.2198      0.1545     26.0715    154.2587     17.3272
  1207.8000      8.3415      2.0730      0.1468     34.9705    153.2668     16.1174
  1207.9000      8.3415      2.0730      0.1468     34.9705    152.1131     14.8924
  1208.0000      8.4307      1.9634      0.1407     41.6134    150.7485     13.6918
  1208.1000      8.4307      1.9634      0.1407     41.6134    149.1277     12.5555
  1208.2000      8.4307      1.9634      0.1407     41.6134    147.2158     11.5222
  1208.3000      8.5519      1.8051      0.1290     51.2080    144.9933     10.6287
  1208.4000      8.5519      1.8051      0.1290     51.2080    142.4602      9.9075
  1208.5000      8.6178      1.7138      0.1171     56.7364    139.6353      9.3851
  1208.6000      8.6178      1.7138      0.1171     56.7364    136.5576      9.0809
  1208.7000      8.6178      1.7138      0.1171     56.7364    133.2876      9.0053
  1208.8000      8.5740      1.6085      0.0888     63.1220    129.9037      9.1595
  1208.9000      8.5740      1.6085      0.0888     63.1220    126.5024      9.5348
  1209.0000      8.6021      1.5626      0.0624     65.9048    123.1928     10.1134
  1209.1000      8.6021      1.5626      0.0624     65.9048    120.0901     10.8688
  1209.2000      8.6021      1.5626      0.0624     65.9048    117.3102     11.7686
  1209.3000      8.6596      1.5351      0.0154     67.5677    114.9608     12.7753
  1209.4000      8.6596      1.5351      0.0154     67.5677    113.1324     13.8493
  1209.5000      8.5348      1.5473     -0.0154     66.8320    111.8925     14.9510
  1209.6000      8.5348      1.5473     -0.0154     66.8320    111.2785     16.0430
  1209.7000      8.5348      1.5473     -0.0154     66.8320    111.2957     17.0914
  1209.8000      8.3745      1.6130     -0.0490     62.8477    111.9189     18.0684
  1209.9000      8.3745      1.6130     -0.0490     62.8477    113.0953     18.9534
  1210.0000      8.3269      1.6852     -0.0576     58.4707    114.7510     19.7337
  1210.1000      8.3269      1.6852     -0.0576     58.4707    116.7971     20.4039
  1210.2000      8.3269      1.6852     -0.0576     58.4707    119.1404     20.9652
  1210.3000      8.3430      1.8202     -0.0468     50.2915    121.6867     21.4238
  1210.4000      8.3430      1.8202     -0.0468     50.2915    124.3482     21.7899
  1210.5000      8.3042      1.9147     -0.0263     44.5615    127.0460     22.0762
  1210.6000      8.3042      1.9147     -0.0263     44.5615    129.7100     22.2965
  1210.7000      8.3042      1.9147     -0.0263     44.5615    132.2854     22.4646
  1210.8000      8.2997      2.0437      0.0165     36.7471    134.7281     22.5937
  1210.9000      8.2997      2.0437      0.0165     36.7471    137.0116     22.6950
  1211.0000      8.3450      2.1150      0.0480     32.4251    139.1243     22.7777
  1211.1000      8.3450      2.1150      0.0480     32.4251    141.0708     22.8480
  1211.2000      8.3450      2.1150      0.0480     32.4251    142.8692     22.9097
  1211.3000      8.3271      2.1978      0.0922     27.4032    144.5462     22.9637
