~Version Information
VERS.                      2.0: CWLS Log ASCII Standard - VERSION 2.0
WRAP.                       NO: One line per depth step
~Well Information Block
STRT.FT               754.6000: 
STOP.FT              2329.0000: 
STEP.FT                 0.1000: 
NULL.                -999.2500: 
COMP.          Petrogulf Corporation: COMPANY
WELL.           Anderson 18-42: WELL
FLD.           Purgatoire River: FIELD
LOC.           1668' FNL & 1110' FEL: LOCATION
CNTY.               Las Animas: COUNTY
SRVC.                         : SERVICE COMPANY
DATE.          Tue Dec 16 12:18:55 2003: LOG DATE
UWI.                          : UNIQUE WELL ID
STAT.                 Colorado: STATE
~Curve Information Block
DEPT.FT            0 000 00 00: Depth
DCAL.in                       : CDL Caliper
RHOB.g/cc                     : CDL Bulk Density
RHOC.g/cc                     : CDL Density Correction
DPOR.pu                       : CDL Density Porosity
NPOR.pu                       : Neutron Porosity
GR.GAPI                       : Gamma Ray
~Parameter Information Block
~A  Depth       DCAL        RHOB        RHOC        DPOR        NPOR         GR     
# ...
   783.4000   -999.2500   -999.2500   -999.2500   -999.2500     41.1085     59.8436
   783.5000   -999.2500   -999.2500   -999.2500   -999.2500     40.9548     57.0623
   783.6000   -999.2500   -999.2500   -999.2500   -999.2500     40.7196     55.3530
   783.7000   -999.2500   -999.2500   -999.2500   -999.2500     40.5516     53.9206
   783.8000   -999.2500   -999.2500   -999.2500   -999.2500     40.5661     55.2125
   783.9000   -999.2500   -999.2500   -999.2500   -999.2500     40.8201     60.9272
   784.0000   -999.2500   -999.2500   -999.2500   -999.2500     41.1789     67.3470
   784.1000   -999.2500   -999.2500   -999.2500   -999.2500     41.4908     70.5525
   784.2000   -999.2500   -999.2500     -0.1532   -999.2500     41.7220     71.3883
   784.3000      8.4622   -999.2500     -0.1599   -999.2500     41.8972     70.1893
   784.4000      8.4622   -999.2500     -0.1634   -999.2500     42.1227     67.0856
   784.5000      8.4605   -999.2500     -0.1457   -999.2500     42.2341     65.5322
   784.6000      8.4605   -999.2500     -0.1696   -999.2500     41.8984     66.2578
   784.7000      8.4605      2.5006     -0.1585      9.0541     41.2553     67.1162
   784.8000      8.4598      2.5078     -0.1900      8.6210     40.7148     67.7218
   784.9000      8.4598      2.5165     -0.1963      8.0939     40.5655     69.8676
   785.0000      8.4602      2.5232     -0.1316      7.6842     40.6674     74.3182
   785.1000      8.4602      2.5201     -0.1832      7.8715     40.6078     75.2760
   785.2000      8.4602      2.5097     -0.1673      8.5009     40.4003     69.5464
   785.3000      8.4525      2.5006     -0.2052      9.0569     40.3228     63.9561
   785.4000      8.4525      2.4959     -0.1530      9.3416     40.4827     61.0623
   785.5000      8.4484      2.4909     -0.1816      9.6448     40.7237     58.9836
   785.6000      8.4484      2.4856     -0.2039      9.9664     40.8971     59.4356
   785.7000      8.4484      2.4817     -0.2015     10.2009     41.1274     61.7740
   785.8000      8.4579      2.4725     -0.1889     10.7553     41.5128     61.5912
   785.9000      8.4579      2.4535     -0.1708     11.9102     41.9008     58.4797
   786.0000      8.4633      2.4297     -0.1811     13.3516     42.0549     56.8806
   786.1000      8.4633      2.4099     -0.2006     14.5545     41.9564     59.6300
   786.2000      8.4633      2.3996     -0.2296     15.1731     41.8433     65.8234
   786.3000      8.4621      2.4033     -0.2214     14.9529     41.9103     73.7225
   786.4000      8.4621      2.4195     -0.1804     13.9713     42.0949     80.4776
   786.5000      8.4593      2.4380     -0.1427     12.8514     42.2878     81.1047
   786.6000      8.4593      2.4473     -0.1501     12.2821     42.5455     76.4725
   786.7000      8.4593      2.4423     -0.1708     12.5878     42.7188     74.3985
   786.8000      8.4612      2.4247     -0.1420     13.6573     42.4893     74.9902
   786.9000      8.4612      2.4127     -0.2419     14.3800     41.9624     72.7881
   787.0000      8.4622      2.4231     -0.1976     13.7526     41.5972     69.4297
   787.1000      8.4622      2.4408     -0.1461     12.6804     41.6661     66.3200
   787.2000      8.4622      2.4421     -0.1335     12.5996     41.9254     62.2708
   787.3000      8.4615      2.4213     -0.1726     13.8585     42.0874     58.8304
   787.4000      8.4615      2.3897     -0.1840     15.7772     42.0014     57.1907
   787.5000      8.4561      2.3630     -0.2257     17.3927     41.6568     56.1701
   787.6000      8.4561      2.3447     -0.2122     18.5033     41.4299     55.4483
   787.7000      8.4561      2.3272     -0.2093     19.5623     41.3844     54.9922
   787.8000      8.4587      2.3075     -0.2024     20.7603     41.1438     54.3632
   787.9000      8.4587      2.2906     -0.2116     21.7800     40.6413     53.3038
   788.0000      8.4625      2.2858     -0.2247     22.0702     40.3373     51.0453
   788.1000      8.4625      2.2947     -0.2084     21.5353     40.7172     48.8305
   788.2000      8.4625      2.3111     -0.2079     20.5411     41.3837     49.2269
   788.3000      8.4615      2.3300     -0.2090     19.3920     41.6598     50.3534
   788.4000      8.4615      2.3472     -0.1857     18.3511     41.5753     50.1536
   788.5000      8.4606      2.3555     -0.1560     17.8457     41.3193     49.1261
   788.6000      8.4606      2.3537     -0.1647     17.9566     40.9836     45.2418
   788.7000      8.4606      2.3502     -0.1731     18.1722     40.7976     38.4403
   788.8000      8.4617      2.3519     -0.1730     18.0676     40.8197     34.1979
   788.9000      8.4617      2.3592     -0.1605     17.6242     40.8867     35.0857
   789.0000      8.4647      2.3652     -0.1499     17.2621     40.8798     37.1835
   789.1000      8.4647      2.3632     -0.1574     17.3812     40.7802     37.5200
   789.2000      8.4647      2.3549     -0.1649     17.8821     40.6989     37.2485
   789.3000      8.4644      2.3460     -0.1711     18.4258     40.7674     36.8043
   789.4000      8.4644      2.3390     -0.1859     18.8501     40.9013     33.9988
   789.5000      8.4608      2.3351     -0.1900     19.0845     40.8402     30.9116
   789.6000      8.4608      2.3363     -0.1684     19.0091     40.4709     31.9543
   789.7000      8.4608      2.3387     -0.1684     18.8637     40.1331     34.3247
   789.8000      8.4699      2.3342     -0.2214     19.1421     40.2355     32.8993
   789.9000      8.4699      2.3219     -0.1932     19.8822     40.4922     29.7836
   790.0000      8.4634      2.3105     -0.1745     20.5762     40.5109     28.8649
   790.1000      8.4634      2.3107     -0.2178     20.5627     40.4042     29.7083
   790.2000      8.4634      2.3228     -0.1759     19.8291     40.2639     30.1300
   790.3000      8.4624      2.3355     -0.1947     19.0589     40.1894     28.9153
   790.4000      8.4624      2.3430     -0.1812     18.6089     40.3702     27.3827
   790.5000      8.4632      2.3449     -0.1755     18.4934     40.5473     28.7569
   790.6000      8.4632      2.3418     -0.2122     18.6760     40.4629     32.7288
   790.7000      8.4632      2.3367     -0.1819     18.9883     40.3474     36.5734
   790.8000      8.4638      2.3343     -0.2055     19.1306     40.3079     37.6493
   790.9000      8.4638      2.3447     -0.2389     18.5059     40.3417     35.2111
   791.0000      8.4626      2.3667     -0.1850     17.1678     40.5594     32.6353
   791.1000      8.4626      2.3866     -0.1883     15.9630     40.9088     32.7440
   791.2000      8.4626      2.4058     -0.1834     14.7971     41.0400     34.7074
   791.3000      8.4641      2.4263     -0.1256     13.5589     40.8502     36.6305
   791.4000      8.4641      2.4293     -0.1499     13.3748     40.6393     36.7255
   791.5000      8.4708      2.4153     -0.1649     14.2240     40.5734     35.1363
   791.6000      8.4708      2.4066     -0.1682     14.7537     40.7106     34.4740
   791.7000      8.4708      2.4039     -0.1509     14.9174     41.0372     35.7955
   791.8000      8.4666      2.3982     -0.1870     15.2590     41.3113     37.8622
   791.9000      8.4666      2.3996     -0.1960     15.1763     41.3194     39.0077
   792.0000      8.4611      2.4175     -0.2002     14.0881     41.2122     40.9765
   792.1000      8.4611      2.4388     -0.1492     12.8024     41.1627     45.8400
   792.2000      8.4611      2.4445     -0.1696     12.4541     40.9680     50.3209
   792.3000      8.4349      2.4447     -0.2098     12.4428     40.4287     50.6079
   792.4000      8.4349      2.4581     -0.1769     11.6289     39.6884     47.9013
   792.5000      8.4591      2.4765     -0.1764     10.5180     39.0788     45.6475
   792.6000      8.4591      2.4800     -0.1253     10.3028     38.8464     42.9055
   792.7000      8.4591      2.4662     -0.1968     11.1389     38.8791     37.6185
   792.8000      8.4668      2.4504     -0.1760     12.0993     38.8936     32.3272
   792.9000      8.4668      2.4412     -0.2002     12.6519     39.0180     30.6407
