~Version Information
 VERS.                                  2.0 : CWLS LAS VERSION
 WRAP.                                   NO : WRAPING MODE
 SWARE .                 MController 2.5.0E : SOFTWARE VERSION
~Well Information
 WELL.                                  N/A : WELL
 COMP.                                  N/A : COMPANY
 FLD.                                   N/A : FIELD
 LOC.                                   N/A : LOCATION
 DATE.                                  N/A : DATE(S) LOGGED
 SRVC.                                  N/A : SERVICE COMPANY
 STAT.                                  N/A : STATE
 CNTY.                                  N/A : COUNTY
 CTRY.                                  N/A : COUNTRY
 API.                                   N/A : API NUMBER
 STRT.FT                             838.00 : START DEPTH
 STOP.FT                            2499.00 : STOP DEPTH
 STEP.FT                               1.00 : DEPTH INCREMENT
 NULL.                                -9999 : NULL VALUE
~Curve information
 DEPTH.FT                                   :
 ROP.MIN/FT                                 :
 GAS.UNITS                                  :
~ASCII Log data
# ...
     2238.00        0.200         25.4 
     2239.00        0.200         25.6 
     2240.00        0.233         26.5 
     2241.00        0.300         27.1 
     2242.00        0.233         25.4 
     2243.00        0.133         25.4 
     2244.00        0.167         24.2 
     2245.00        0.167         23.2 
     2246.00        0.200         21.6 
     2247.00        0.200         21.2 
     2248.00        3.217         54.0 
     2249.00        0.400         54.8 
     2250.00        0.350         51.8 
     2251.00        0.200         46.7 
     2252.00        0.133         46.5 
     2253.00        0.100         42.7 
     2254.00        0.267         42.4 
     2255.00        0.333         38.3 
     2256.00        0.333         35.7 
     2257.00        0.233         33.3 
     2258.00        0.133         30.1 
     2259.00        0.300         29.4 
     2260.00        0.500         29.0 
     2261.00        0.333         29.0 
     2262.00        0.417         29.2 
     2263.00        0.333         29.6 
     2264.00        0.200         29.6 
     2265.00        0.200         29.1 
     2266.00        0.200         29.7 
     2267.00        0.200         29.3 
     2268.00        0.233         28.9 
     2269.00        0.233         27.6 
     2270.00        0.233         27.6 
     2271.00        0.333         28.3 
     2272.00        0.433         27.7 
     2273.00        0.500         27.2 
     2274.00        0.517         27.8 
     2275.00        0.533         28.5 
     2276.00        0.467         24.2 
     2277.00        0.400         22.0 
     2278.00        5.200         69.3 
     2279.00        0.867         72.8 
     2280.00        0.833         51.4 
     2281.00        0.467         33.2 
     2282.00        0.433         30.1 
     2283.00        0.333         28.0 
     2284.00        0.350         27.2 
     2285.00        0.267         27.7 
     2286.00        0.233         27.2 
     2287.00        0.333         27.9 
     2288.00        0.300         28.5 
     2289.00        0.233         29.4 
     2290.00        0.100         30.0 
     2291.00        0.200         30.0 
     2292.00        0.267         29.5 
     2293.00        0.267         29.4 
     2294.00        0.233         29.6 
     2295.00        0.233         28.7 
     2296.00        0.133         28.7 
     2297.00        0.167         28.3 
     2298.00        0.283         27.8 
     2299.00        0.267         27.2 
     2300.00        0.233         27.1 
     2301.00        0.267         28.3 
     2302.00        0.233         29.0 
     2303.00        0.233         27.4 
     2304.00        0.233         26.3 
     2305.00        0.233         24.3 
     2306.00        0.200         23.6 
     2307.00        0.233         22.8 
     2308.00        4.150         56.7 
     2309.00        0.450         54.2 
     2310.00        0.367         41.1 
     2311.00        0.367         36.5 
     2312.00        0.333         32.9 
     2313.00        0.300         28.1 
     2314.00        0.300         27.5 
     2315.00        0.300         26.1 
     2316.00        0.267         26.4 
     2317.00        0.267         25.5 
     2318.00        0.267         25.1 
     2319.00        0.300         24.6 
     2320.00        0.283         25.1 
     2321.00        0.267         25.3 
     2322.00        0.267         24.2 
     2323.00        0.267         25.1 
     2324.00        0.333         23.4 
     2325.00        0.267         24.9 
     2326.00        0.267         24.6 
     2327.00        0.267         23.5 
     2328.00        0.267         23.3 
     2329.00        0.300         24.6 
     2330.00        0.267         26.0 
     2331.00        0.233         25.9 
     2332.00        0.250         25.8 
     2333.00        0.267         23.2 
     2334.00        0.200         23.2 
     2335.00        0.233         21.8 
     2336.00        0.233         21.7 
     2337.00        0.533         21.5 
     2338.00        3.917         71.3 
     2339.00        0.600         58.3 
     2340.00        0.367         48.3 
     2341.00        0.350         45.6 
     2342.00        0.333         44.1 
     2343.00        0.333         43.9 
     2344.00        0.333         42.9 
     2345.00        0.333         42.5 
     2346.00        0.300         42.4 
     2347.00        0.300         42.3 
     2348.00        0.267         41.4 
     2349.00        0.267         42.2 
     2350.00        0.333         42.1 
     2351.00        0.367         41.8 
     2352.00        0.350         40.5 
     2353.00        0.300         41.4 
     2354.00        0.267         41.0 
     2355.00        0.267         41.2 
     2356.00        0.267         40.8 
     2357.00        0.267         39.8 
     2358.00        0.267         40.1 
     2359.00        0.267         40.0 
     2360.00        0.233         41.0 
     2361.00        0.267         42.1 
     2362.00        0.233         42.1 
     2363.00        0.300         40.5 
     2364.00        0.317         39.3 
     2365.00        0.267         38.7 
     2366.00        0.233         38.9 
     2367.00        0.533         39.5 
     2368.00        5.117         99.6 
     2369.00        0.450         75.1 
     2370.00        0.433         54.2 
     2371.00        0.400         50.5 
     2372.00        0.333         47.5 
     2373.00        0.400         44.9 
     2374.00        0.367         43.2 
     2375.00        0.333         42.2 
     2376.00        0.333         42.4 
     2377.00        0.267         42.1 
     2378.00        0.300         41.8 
     2379.00        0.317         42.2 
     2380.00        0.267         41.5 
     2381.00        0.267         41.3 
     2382.00        0.267         41.7 
     2383.00        0.300         41.4 
     2384.00        0.300         40.6 
     2385.00        0.233         40.3 
     2386.00        0.200         40.9 
     2387.00        0.267         40.1 
     2388.00        0.233         40.5 
     2389.00        0.267         40.5 
     2390.00        0.267         42.2 
     2391.00        0.233         44.5 
     2392.00        0.250         43.9 
     2393.00        0.267         41.3 
     2394.00        0.233         40.1 
     2395.00        0.233         39.9 
     2396.00        0.233         39.6 
     2397.00        0.533         39.6 
     2398.00        4.117         76.0 
     2399.00        0.467         72.9 
     2400.00        0.367         58.5 
     2401.00        0.417         52.4 
     2402.00        0.300         47.5 
     2403.00        0.233         46.8 
     2404.00        0.300         45.1 
     2405.00        0.367         43.7 
     2406.00        0.300         42.8 
     2407.00        0.267         43.1 
     2408.00        0.267         42.2 
     2409.00        0.300         42.4 
     2410.00        0.333         42.2 
     2411.00        0.333         42.2 
     2412.00        0.283         41.5 
     2413.00        0.267         41.2 
     2414.00        0.300         41.8 
     2415.00        0.267         41.7 
     2416.00        0.200         41.1 
     2417.00        0.267         41.4 
     2418.00        0.267         40.6 
     2419.00        0.300         41.8 
     2420.00        0.167         41.8 
     2421.00        0.267         42.8 
     2422.00        0.233         41.2 
     2423.00        0.167         40.5 
     2424.00        0.200         39.1 
     2425.00        0.217         39.1 
     2426.00        0.200         39.5 
     2427.00        6.150         83.8 
     2428.00        0.383         60.0 
     2429.00        0.367         54.5 
     2430.00        0.300         46.9 
     2431.00        0.233         45.8 
     2432.00        0.333         44.9 
     2433.00        0.300         43.2 
     2434.00        0.300         42.6 
     2435.00        0.300         43.4 
     2436.00        0.233         42.5 
     2437.00        0.367         43.3 
