~Version Information
VERS.                      2.0: CWLS Log ASCII Standard - VERSION 2.0
WRAP.                       NO: One line per depth step
~Well Information Block
STRT.FT                -4.2500: 
STOP.FT              2218.5000: 
STEP.FT                 0.2500: 
NULL.                -999.2500: 
COMP.          Pioneer Natural Resources: COMPANY
WELL.             Warrior 32-1: WELL
FLD.           Purgatorie River: FIELD
LOC.           2624' FNL & 2392' FEL--: LOCATION
PROV.                       CO: PROVINCE
CNTY.               Las Animas: COUNTRY
SRVC.                         : SERVICE COMPANY
DATE.          Tue Oct 12 10:54:12 2004: LOG DATE
UWI.           005 071 08176 : UNIQUE WELL ID
~Curve Information Block
DEPT.FT            0 000 00 00: Depth
GR.GAPI                       : Gamma Ray
CCL.                          : Casing Collar Locator
TT3.usec                      : CBL 3' Travel Time
AMP3.mV                       : CBL 3' Amplitude
~Parameter Information Block
~A  Depth        GR         CCL         TT3         AMP3    
# ...
   297.2500     79.0775      0.0000    610.7589     11.3264
   297.5000     80.6528      0.0000    645.0294     11.2492
   297.7500     84.5625      0.0000    680.2047     11.2189
   298.0000     89.7373      0.0000    714.4480     11.2083
   298.2500     94.2160      0.0000    740.5719     11.1784
   298.5000     95.9523      0.0000    751.9856     11.0852
   298.7500     93.9701      0.0000    745.9057     10.9206
   299.0000     88.9038      0.0000    723.5720     10.7142
   299.2500     82.5692      0.0000    692.7630     10.4871
   299.5000     77.0536      0.0000    668.7292     10.2473
   299.7500     73.8869      0.0000    666.2104     10.0277
   300.0000     73.5776      0.0000    687.7400      9.8687
   300.2500     75.6487      0.0000    721.9426      9.7604
   300.5000     79.0855      0.0000    753.6480      9.6445
   300.7500     82.8437      0.0000    773.9685      9.4705
   301.0000     86.1646      0.0000    782.1702      9.2197
   301.2500     88.5589      0.0000    782.1821      8.8900
   301.5000     89.4601      0.0000    778.8082      8.4812
   301.7500     87.9719      0.0000    775.4438      7.9805
   302.0000     83.4974      0.0000    773.4936      7.3741
   302.2500     76.8381      0.0000    773.4312      6.7159
   302.5000     70.1461      0.0000    776.5105      6.1622
   302.7500     65.4221      0.0000    785.4360      5.8561
   303.0000     63.3920      0.0000    802.4723      5.7806
   303.2500     63.9184      0.0000    826.1487      5.7983
   303.5000     66.7618      0.0000    850.8459      5.8157
   303.7500     71.3290      0.0000    871.1216      5.8354
   304.0000     76.1331      0.0000    885.8698      5.8725
   304.2500     79.4071      2.0000    897.1698      5.8928
   304.5000     80.4593      0.0000    906.2634      5.8353
   304.7500     80.1724      0.0000    912.0607      5.6643
   305.0000     80.1615      0.0000    912.2931      5.4093
   305.2500     81.5587      0.0000    904.4565      5.1644
   305.5000     84.2949      0.0000    886.6820      5.0192
   305.7500     87.1520      0.0000    859.9892      4.9704
   306.0000     88.8974      0.0000    829.9449      4.9174
   306.2500     89.7712      0.0000    804.2867      4.7568
   306.5000     91.2560      0.0000    787.7144      4.4621
   306.7500     94.0039      0.0000    779.3997      4.0744
   307.0000     96.8144      0.0000    775.5736      3.6516
   307.2500     98.0885      0.0000    773.5522      3.2389
   307.5000     97.5709      0.0000    772.9477      2.8666
   307.7500     96.2581      0.0000    774.0822      2.5555
   308.0000     94.9646      0.0000    776.4510      2.3173
   308.2500     93.3871      0.0000    778.8834      2.1522
   308.5000     90.7575      0.0000    780.4861      2.0472
   308.7500     87.2420      0.0000    780.9868      1.9819
   309.0000     84.0589      0.0000    780.3820      1.9356
   309.2500     82.1393      0.0000    778.6812      1.8927
   309.5000     81.2585      0.0000    776.1731      1.8455
   309.7500     80.6068      0.0000    773.7933      1.7920
   310.0000     79.7550      0.0000    772.7975      1.7284
   310.2500     79.0100      0.0000    773.7155      1.6453
   310.5000     79.1502      0.0000    775.7236      1.5372
   310.7500     80.7407      0.0000    777.2362      1.4138
   311.0000     83.2692      0.0000    777.0652      1.2996
   311.2500     84.9954      0.0000    775.1696      1.2203
   311.5000     84.1053      0.0000    772.6802      1.1904
   311.7500     80.1269      0.0000    771.1611      1.2098
   312.0000     74.0706      0.0000    771.4412      1.2678
   312.2500     67.4522      0.0000    773.0491      1.3482
   312.5000     61.5601      0.0000    774.8666      1.4309
   312.7500     57.3981      0.0000    775.9781      1.4916
   313.0000     55.5478      0.0000    775.6251      1.5163
   313.2500     55.8329      0.0000    772.5494      1.5203
   313.5000     57.6462      0.0000    765.2909      1.5417
   313.7500     60.9751      0.0000    754.2287      1.6092
   314.0000     66.6291      0.0000    742.9501      1.7228
   314.2500     74.9680      0.0000    735.9808      1.8667
   314.5000     84.7729      0.0000    735.7282      2.0291
   314.7500     93.9234      0.0000    744.0760      2.2063
   315.0000    100.8576      0.0000    764.8871      2.3912
   315.2500    104.8740      0.0000    799.6220      2.5610
   315.5000    105.4499      0.0000    841.3246      2.6794
   315.7500    102.2338      0.0000    877.9435      2.7192
   316.0000     95.9592      0.0000    901.5461      2.6848
   316.2500     88.8011      0.0000    911.7219      2.6041
   316.5000     83.2808      0.0000    911.4282      2.4962
   316.7500     80.6830      0.0000    902.4576      2.3581
   317.0000     80.4958      0.0000    885.1713      2.1853
   317.2500     81.2675      0.0000    861.1063      1.9920
   317.5000     81.9420      0.0000    834.7053      1.8025
   317.7500     82.5790      0.0000    811.7154      1.6318
   318.0000     84.0280      0.0000    795.7534      1.4811
   318.2500     86.7987      0.0000    786.7738      1.3528
   318.5000     90.0510      0.0000    782.5311      1.2596
   318.7500     92.0672      0.0000    780.8104      1.2134
   319.0000     92.1805      0.0000    780.3888      1.2064
   319.2500     91.9482      0.0000    780.7729      1.2089
   319.5000     93.7475      0.0000    781.6376      1.1864
   319.7500     98.1019      0.0000    782.3258      1.1200
   320.0000    102.6009      0.0000    781.4723      1.0131
   320.2500    103.6665      0.0000    776.8519      0.8848
   320.5000     99.6800      0.0000    766.2523      0.7619
   320.7500     92.6475      0.0000    750.1475      0.6712
   321.0000     86.7252      0.0000    734.1844      0.6301
   321.2500     84.9086      0.0000    726.8856      0.6414
   321.5000     87.1437      0.0000    732.4619      0.6948
   321.7500     91.4239      0.0000    746.6628      0.7801
   322.0000     95.9115      0.0000    761.1481      0.9014
   322.2500     99.5982      0.0000    770.6873      1.0829
   322.5000    101.8753      0.0000    775.3066      1.3591
   322.7500    102.7459      0.0000    777.6891      1.7556
   323.0000    103.2971      0.0000    780.6022      2.2715
   323.2500    104.8634      0.0000    785.8832      2.8777
   323.5000    107.2730      0.0000    793.5191      3.5345
   323.7500    108.4319      0.0000    800.7069      4.2088
   324.0000    106.1649      0.0000    803.1445      4.8743
   324.2500    100.4930      0.0000    798.7484      5.5035
   324.5000     93.8526      0.0000    789.8547      6.0655
   324.7500     89.0787      0.0000    780.9459      6.5332
   325.0000     87.2818      0.0000    774.8488      6.8933
   325.2500     87.3548      0.0000    771.6406      7.1559
   325.5000     86.9567      0.0000    770.1431      7.3489
   325.7500     83.9948      0.0000    769.3907      7.5005
   326.0000     77.8959      0.0000    768.9551      7.6280
   326.2500     70.0355      0.0000    768.6946      7.7422
   326.5000     62.8522      0.0000    768.5593      7.8521
   326.7500     58.1638      0.0000    768.5171      7.9630
   327.0000     56.1889      0.0000    768.5509      8.0657
   327.2500     56.0276      0.0000    768.6555      8.1296
   327.5000     56.6683      0.0000    768.8451      8.1122
   327.7500     57.3887      0.0000    769.1429      7.9913
   328.0000     57.7349      0.0000    769.5593      7.7872
   328.2500     57.8781      0.0000    770.0789      7.5472
   328.5000     59.0814      0.0000    770.6661      7.3120
   328.7500     63.2034      0.0000    771.2828      7.1059
   329.0000     71.1780      0.0000    771.9014      6.9490
   329.2500     81.8799      0.0000    772.4894      6.8595
   329.5000     92.5900      0.0000    772.9954      6.8425
   329.7500    100.7042      0.0000    773.3885      6.8849
   330.0000    105.2744      0.0000    773.7054      6.9595
   330.2500    107.3010      0.0000    774.0121      7.0328
   330.5000    108.7014      0.0000    774.3073      7.0801
