~Version Information
VERS.                      2.0: CWLS Log ASCII Standard - VERSION 2.0
WRAP.                       NO: One line per depth step
~Well Information Block
STRT.FT               700.0000: 
STOP.FT              1869.5000: 
STEP.FT                 0.2500: 
NULL.                -999.2500: 
COMP.          Petrogulf Corporation: COMPANY
WELL.             State 16-24R: WELL
FLD.           Purgatorie River: FIELD
LOC.           541' FSL & 2371' FWL: LOCATION
PROV.                 Colorado: PROVINCE
CNTY.               Las Animas: COUNTRY
SRVC.                Patterson: SERVICE COMPANY
DATE.          Fri Aug 12 09:07:22 2005: LOG DATE
UWI.                071-08312 : UNIQUE WELL ID
~Curve Information Block
DEPT.FT            0 000 00 00: Depth
SP.mV                         : DIL Spontaneous Potential
RILD.Ohm-m                    : DIL Deep Resistivity
RILM.Ohm-m                    : DIL Medium Resistivity
RLL3.Ohm-m                    : DIL Shallow Resistivity
GR.GAPI                       : Gamma Ray
~Parameter Information Block
~A  Depth        SP         RILD        RILM        RLL3         GR     
# ...
  1848.0000      7.3811     15.5953     18.6667     17.3466   -999.2500
  1848.2500      6.1452     15.3741     18.8523     18.7763   -999.2500
  1848.5000      5.1687     15.8370     19.0198     19.8034   -999.2500
  1848.7500      4.1765     16.2628     19.5565     18.5911   -999.2500
  1849.0000      3.6744     16.4595     20.7208     16.5436   -999.2500
  1849.2500      2.2948     16.0684     20.5678     15.9815   -999.2500
  1849.5000      0.8915     16.2354     20.9795     17.6455   -999.2500
  1849.7500     -0.9404     16.7508     21.2551     18.8780   -999.2500
  1850.0000     -2.1054     17.0098     23.0553     20.0087   -999.2500
  1850.2500     -2.3976     17.3907     23.1701     21.1642   -999.2500
  1850.5000     -2.9749     17.6306     23.8796     24.2678   -999.2500
  1850.7500     -2.7794     17.9091     24.5742     27.8213   -999.2500
  1851.0000     -1.1438     18.6476     24.4489     26.8466   -999.2500
  1851.2500      0.3921     17.1250     24.1709     23.3327   -999.2500
  1851.5000      1.1189     15.2102     24.1473     21.3568   -999.2500
  1851.7500      2.9299     15.3910     24.6513     19.8450   -999.2500
  1852.0000      3.6121     15.4245     26.3679     18.5127   -999.2500
  1852.2500      4.9732     16.0150     26.1563     18.9862   -999.2500
  1852.5000      6.2278     15.8737     26.6311     22.2883   -999.2500
  1852.7500      7.0227     15.5389     26.9971     26.7753   -999.2500
  1853.0000      8.9202     14.8741     28.1667     28.5451   -999.2500
  1853.2500     10.4758     14.6201     27.8558     27.9775   -999.2500
  1853.5000     13.3627     14.1797     26.6132     26.5034   -999.2500
  1853.7500     14.8700     13.5518     24.8641     26.0381   -999.2500
  1854.0000     20.2264     13.2760     22.3174     25.8280   -999.2500
  1854.2500     24.8962     12.6249     21.1953     23.5061   -999.2500
  1854.5000     30.2789     12.2554     19.3991     16.9447   -999.2500
  1854.7500     37.0314     12.1652     17.5644     14.0907   -999.2500
  1855.0000     41.2633     12.6379     16.4080     13.7393   -999.2500
  1855.2500     45.4197     12.5021     15.8987     13.1164   -999.2500
  1855.5000     47.7116     11.9784     15.4932     11.6059   -999.2500
  1855.7500     50.0917     12.0560     15.2059     10.9667   -999.2500
  1856.0000     52.0765     11.7456     14.8998     11.5935   -999.2500
  1856.2500     53.4848     11.6460     15.0716     12.9920   -999.2500
  1856.5000     53.7063     11.2977     15.0127     14.3021   -999.2500
  1856.7500     54.7648     11.2886     15.5964     14.9591   -999.2500
  1857.0000     54.6710     10.9160     15.4751     15.8111   -999.2500
  1857.2500     56.4269     10.6647     15.6567     17.3582   -999.2500
  1857.5000     58.5171     10.4568     15.3979     19.6849   -999.2500
  1857.7500     53.1368     11.8005     15.2409     20.4771   -999.2500
  1858.0000      6.3594    204.6309     14.6385     17.8962   -999.2500
  1858.2500      0.0157 100000.0000     14.4438     14.9859   -999.2500
  1858.5000   -999.2500    217.9126     13.8458     13.4675   -999.2500
  1858.7500   -999.2500    219.5736     13.5797     12.4279   -999.2500
  1859.0000   -999.2500    214.3658     13.0701     11.8012   -999.2500
  1859.2500   -999.2500    212.7338     13.0824     11.5899   -999.2500
  1859.5000   -999.2500    206.6660     12.6475     11.6468   -999.2500
  1859.7500   -999.2500    206.9825     12.4420     11.7285   -999.2500
  1860.0000   -999.2500    200.3527     12.1042     11.6017   -999.2500
  1860.2500   -999.2500    196.2299     11.9152     11.3098   -999.2500
  1860.5000   -999.2500    192.6660     11.7565     10.9943   -999.2500
  1860.7500   -999.2500    217.8018     11.5069     10.7836   -999.2500
  1861.0000   -999.2500  30435.9102     11.4092     10.9514   -999.2500
  1861.2500   -999.2500 100000.0000     11.3514     11.4399   -999.2500
  1861.5000   -999.2500 100000.0000     12.5345     12.2006   -999.2500
  1861.7500   -999.2500 100000.0000     83.5173     12.6413   -999.2500
  1862.0000   -999.2500 100000.0000    346.4941     12.3612   -999.2500
  1862.2500   -999.2500 100000.0000    782.8029     11.5160   -999.2500
  1862.5000   -999.2500 100000.0000    769.7531     10.9040   -999.2500
  1862.7500   -999.2500 100000.0000    761.7824     10.2738   -999.2500
  1863.0000   -999.2500 100000.0000    731.1417      9.9984   -999.2500
  1863.2500   -999.2500 100000.0000    721.6004      9.8312   -999.2500
  1863.5000   -999.2500 100000.0000    692.0129      9.9955   -999.2500
  1863.7500   -999.2500 100000.0000    680.0225     10.4111   -999.2500
  1864.0000   -999.2500 100000.0000    660.5310     10.5969   -999.2500
  1864.2500   -999.2500 100000.0000    656.3580     10.7154   -999.2500
  1864.5000   -999.2500 100000.0000    634.5283     11.1795   -999.2500
  1864.7500   -999.2500 100000.0000    624.9070     12.3181   -999.2500
  1865.0000   -999.2500   -999.2500    608.4718     13.8628   -999.2500
  1865.2500   -999.2500   -999.2500    599.2086     13.4492   -999.2500
  1865.5000   -999.2500   -999.2500    591.4155     12.0526   -999.2500
  1865.7500   -999.2500   -999.2500    578.9601     11.4276   -999.2500
  1866.0000   -999.2500   -999.2500    574.1941     11.0030   -999.2500
  1866.2500   -999.2500   -999.2500    571.1644     11.3803   -999.2500
  1866.5000   -999.2500   -999.2500    631.1758     13.8517   -999.2500
  1866.7500   -999.2500   -999.2500   4593.2871     14.4567   -999.2500
  1867.0000   -999.2500   -999.2500  30774.4473      4.8349   -999.2500
  1867.2500   -999.2500   -999.2500 100000.0000      3.5033   -999.2500
  1867.5000   -999.2500   -999.2500 100000.0000   -999.2500   -999.2500
  1867.7500   -999.2500   -999.2500 100000.0000   -999.2500   -999.2500
  1868.0000   -999.2500   -999.2500 100000.0000   -999.2500   -999.2500
  1868.2500   -999.2500   -999.2500 100000.0000   -999.2500   -999.2500
  1868.5000   -999.2500   -999.2500 100000.0000   -999.2500   -999.2500
  1868.7500   -999.2500   -999.2500 100000.0000   -999.2500   -999.2500
  1869.0000   -999.2500   -999.2500 100000.0000   -999.2500   -999.2500
  1869.2500   -999.2500   -999.2500 100000.0000   -999.2500   -999.2500
  1869.5000   -999.2500   -999.2500 100000.0000   -999.2500   -999.2500
