
~Version Information
 VERS.                                  2.0 : CWLS LAS VERSION
 WRAP.                                   NO : WRAPING MODE
 SWARE .                 MController 2.5.0N : SOFTWARE VERSION
~Well Information
 WELL.                          Whinny 42-4 : WELL
 COMP.                                  N/A : COMPANY
 FLD.                      Purgatoire River : FIELD
 LOC.                SE/NE Sec 2 T33S  R67W : LOCATION
 DATE.                           8/19-20/05 : DATE(S) LOGGED
 SRVC.       BLANCO Geological Services LLC : SERVICE COMPANY
 STAT.                                   CO : STATE
 CNTY.                           Las Animas : COUNTY
 CTRY.                                  USA : COUNTRY
 API.                       05-071-08406-00 : API NUMBER
 STRT.FT                             574.00 : START DEPTH
 STOP.FT                            2360.00 : STOP DEPTH
 STEP.FT                               1.00 : DEPTH INCREMENT
 NULL.                                -9999 : NULL VALUE
~Curve information
 DEPTH.FT                                   :
 ROP.MIN/FT                                 :
 GAS.UNITS                                  :
~ASCII Log data
# ...
      1574.0         0.40        174.5 
      1575.0         0.42        168.2 
      1576.0         0.40        184.0 
      1577.0         0.33        202.4 
      1578.0         0.33        199.6 
      1579.0         0.30        200.9 
      1580.0         0.30        201.7 
      1581.0         0.30        191.2 
      1582.0         0.20        179.9 
      1583.0         0.33        167.8 
      1584.0         0.20        165.6 
      1585.0         0.40        169.2 
      1586.0         0.32        180.0 
      1587.0         0.20        186.6 
      1588.0         0.40        182.2 
      1589.0         0.30        178.4 
      1590.0         0.30        176.1 
      1591.0         0.40        176.8 
      1592.0         0.37        241.6 
      1593.0         0.27        290.3 
      1594.0         0.37        193.6 
      1595.0         0.17        167.6 
      1596.0         0.38        145.6 
      1597.0         0.30        142.4 
      1598.0         0.30        142.5 
      1599.0         0.20        145.6 
      1600.0         0.30        157.9 
      1601.0         0.20        162.4 
      1602.0         0.20        164.7 
      1603.0         0.20        168.7 
      1604.0         0.30        172.8 
      1605.0         0.30        173.4 
      1606.0         0.30        169.8 
      1607.0         0.30        175.2 
      1608.0         0.30        179.6 
      1609.0         0.32        180.8 
      1610.0         0.20        180.6 
      1611.0         0.20        183.5 
      1612.0         0.33        198.7 
      1613.0         0.30        186.0 
      1614.0         0.30        183.3 
      1615.0         0.17        184.0 
      1616.0         0.30        185.1 
      1617.0         0.20        180.5 
      1618.0         0.30        170.6 
      1619.0         0.40        164.7 
      1620.0         0.52        170.8 
      1621.0         0.20        174.6 
      1622.0         0.30        177.5 
      1623.0         0.30        179.0 
      1624.0         0.50        177.4 
      1625.0         0.30        167.5 
      1626.0         0.40        164.7 
      1627.0         0.40        174.6 
      1628.0         0.40        179.9 
      1629.0         0.20        184.4 
      1630.0         0.58        195.9 
      1631.0         0.67        176.6 
      1632.0         0.30        194.5 
      1633.0         0.40        209.6 
      1634.0         0.20        197.9 
      1635.0         0.30        192.5 
      1636.0         0.20        198.0 
      1637.0         0.30        199.2 
      1638.0         0.40        193.2 
      1639.0         0.98        158.0 
      1640.0         0.60        170.1 
      1641.0         0.70        154.8 
      1642.0         0.60        163.1 
      1643.0         0.60        162.0 
      1644.0         0.52        165.1 
      1645.0         0.70        193.2 
      1646.0         0.27        174.6 
      1647.0         0.67        171.0 
      1648.0         0.30        178.7 
      1649.0         0.30        184.0 
      1650.0         0.30        177.5 
      1651.0         0.30        172.2 
      1652.0         0.22        168.9 
      1653.0         0.40        173.4 
      1654.0         0.40        173.0 
      1655.0         0.40        164.7 
      1656.0         0.30        172.7 
      1657.0         0.50        175.9 
      1658.0         0.40        173.9 
      1659.0         0.20        174.8 
      1660.0         0.30        171.6 
      1661.0         0.42        164.3 
      1662.0         0.40        168.3 
      1663.0         0.43        182.8 
      1664.0         0.30        175.4 
      1665.0         0.30        164.4 
      1666.0         0.37        163.5 
      1667.0         0.20        169.6 
      1668.0         0.40        170.1 
      1669.0         0.30        172.5 
      1670.0         0.33        183.8 
      1671.0         0.20        190.3 
      1672.0         0.55        193.6 
      1673.0         0.30        198.7 
      1674.0         0.40        173.7 
      1675.0         0.40        163.8 
      1676.0         0.40        166.2 
      1677.0         0.20        166.7 
      1678.0         0.40        162.8 
      1679.0         0.40        171.6 
      1680.0         0.62        174.3 
      1681.0         0.50        183.1 
      1682.0         0.50        168.5 
      1683.0         0.50        166.7 
      1684.0         0.40        179.3 
      1685.0         0.30        182.9 
      1686.0         0.40        175.7 
      1687.0         0.40        175.4 
      1688.0         0.35        178.3 
      1689.0         0.40        177.2 
      1690.0         0.30        173.9 
      1691.0         0.50        170.3 
      1692.0         0.20        175.2 
      1693.0         0.20        198.6 
      1694.0         0.37        209.2 
      1695.0         0.40        216.8 
      1696.0         0.30        217.7 
      1697.0         0.62        222.0 
      1698.0         0.40        215.1 
      1699.0         0.50        216.1 
      1700.0         0.40        239.5 
      1701.0         0.50        231.1 
      1702.0         0.37        243.8 
      1703.0         0.47        374.5 
      1704.0         0.47        207.4 
      1705.0         0.48        160.6 
      1706.0         0.53        164.0 
      1707.0         0.40        183.0 
      1708.0         0.13        186.5 
      1709.0         0.40        198.2 
      1710.0         0.30        192.3 
      1711.0         0.37        214.4 
      1712.0         0.30        226.7 
      1713.0         0.40        207.1 
      1714.0         0.38        204.6 
      1715.0         0.30        219.2 
      1716.0         0.30        241.6 
      1717.0         0.50        246.2 
      1718.0         0.40        229.5 
      1719.0         0.33        224.7 
      1720.0         0.20        224.6 
      1721.0         0.40        224.9 
      1722.0         0.30        219.5 
      1723.0         0.32        205.4 
      1724.0         0.17        197.5 
      1725.0         0.40        199.3 
      1726.0         0.10        201.3 
      1727.0         0.40        206.8 
      1728.0         0.27        206.2 
      1729.0         0.30        209.3 
      1730.0         0.40        202.9 
      1731.0         0.10        201.7 
      1732.0         0.50        199.7 
      1733.0         0.10        200.9 
      1734.0         0.40        215.5 
      1735.0         0.12        215.5 
      1736.0         0.50        205.4 
      1737.0         0.10        205.7 
      1738.0         0.40        210.1 
      1739.0         0.40        201.1 
      1740.0         0.40        195.4 
      1741.0         0.10        195.2 
      1742.0         0.20        196.5 
      1743.0         0.50        206.3 
      1744.0         0.10        209.2 
      1745.0         0.43        217.3 
      1746.0         0.32        215.2 
      1747.0         0.30        206.2 
      1748.0         0.40        204.4 
      1749.0         0.30        211.0 
      1750.0         0.20        215.7 
      1751.0         0.40        216.8 
      1752.0         0.30        207.7 
      1753.0         0.30        204.6 
      1754.0         0.20        203.8 
      1755.0         0.40        208.1 
      1756.0         0.52        228.6 
      1757.0         0.30        224.4 
      1758.0         0.10        220.7 
      1759.0         0.40        199.4 
      1760.0         0.40        189.8 
      1761.0         0.30        190.2 
      1762.0         0.30        189.1 
      1763.0         0.40        190.0 
      1764.0         0.30        192.3 
      1765.0         0.40        191.6 
      1766.0         0.42        190.5 
      1767.0         0.10        191.8 
      1768.0         0.30        198.8 
      1769.0         0.30        206.0 
      1770.0         0.20        206.7 
      1771.0         0.30        210.1 
      1772.0         0.40        215.1 
      1773.0         0.40        208.2 
