~Version Information
VERS.                      2.0: CWLS Log ASCII Standard - VERSION 2.0
WRAP.                       NO: One line per depth step
~Well Information Block
STRT.FT               650.0000: 
STOP.FT              2085.0000: 
STEP.FT                 0.1000: 
NULL.                -999.2500: 
COMP.          Pioneer Natural Resources: COMPANY
WELL.           Galloway 32-13: WELL
FLD.           Purgatoire River: FIELD
LOC.           1809' FNL & 2004' FEL: LOCATION
PROV.                 Colorado: PROVINCE
CNTY.               Las Animas: COUNTRY
SRVC.                Patterson: SERVICE COMPANY
DATE.          Sat Jul 09 02:17:51 2005: LOG DATE
UWI.           05 071 08423 00: UNIQUE WELL ID
~Curve Information Block
DEPT.FT            0 000 00 00: Depth
DCAL.in                       : CDL Caliper
RHOB.g/cc                     : CDL Bulk Density
RHOC.g/cc                     : CDL Density Correction
DPOR.pu                       : CDL Density Porosity
GR.GAPI                       : Gamma Ray
NPOR.pu                       : Neutron Porosity
~Parameter Information Block
~A  Depth       DCAL        RHOB        RHOC        DPOR         GR         NPOR    
# ...
  1408.4000      8.0245      2.3410      0.0149     18.7302     53.8760     19.8864
  1408.5000      8.0382      2.3603      0.0775     17.5569     51.3264     20.2309
  1408.6000      8.0382      2.3903      0.0882     15.7395     54.5735     20.6366
  1408.7000      8.0382      2.4194      0.1088     13.9734     58.0281     20.7641
  1408.8000      8.0730      2.4387      0.1232     12.8081     58.3265     20.0841
  1408.9000      8.0730      2.4477      0.1326     12.2609     59.1958     18.5430
  1409.0000      8.1303      2.4491      0.1113     12.1740     62.1070     16.9399
  1409.1000      8.1303      2.4483      0.1222     12.2237     62.5287     16.2409
  1409.2000      8.1303      2.4521      0.1274     11.9938     60.5953     16.4597
  1409.3000      8.1576      2.4569      0.1325     11.7052     60.4891     16.8353
  1409.4000      8.1576      2.4471      0.0940     12.2959     61.1789     17.0684
  1409.5000      8.1337      2.4201      0.0636     13.9322     61.0986     16.9652
  1409.6000      8.1337      2.3946      0.0005     15.4795     60.6072     16.3768
  1409.7000      8.1337      2.3818      0.0282     16.2549     59.4641     16.0024
  1409.8000      8.1205      2.3772      0.0355     16.5328     59.0113     16.3860
  1409.9000      8.1205      2.3779      0.0336     16.4937     59.1456     16.8450
  1410.0000      8.1475      2.3786      0.0644     16.4476     58.0511     16.4514
  1410.1000      8.1475      2.3752      0.0372     16.6526     56.2983     15.6460
  1410.2000      8.1475      2.3818      0.0370     16.2538     54.9023     15.3440
  1410.3000      8.1833      2.4044      0.0996     14.8831     53.4614     15.6341
  1410.4000      8.1833      2.4218      0.1120     13.8318     53.6496     16.2579
  1410.5000      8.1780      2.4234      0.0416     13.7337     56.2549     17.0015
  1410.6000      8.1780      2.4192      0.0515     13.9856     57.9992     17.3285
  1410.7000      8.1780      2.4147      0.0570     14.2608     58.2557     16.4794
  1410.8000      8.1342      2.4173      0.0603     14.1002     60.6684     14.9438
  1410.9000      8.1342      2.4347      0.0741     13.0492     64.5756     14.0653
  1411.0000      8.1038      2.4535      0.1010     11.9084     65.9078     14.1796
  1411.1000      8.1038      2.4525      0.0800     11.9720     65.2831     14.8606
  1411.2000      8.1038      2.4268      0.0605     13.5248     64.9554     15.8657
  1411.3000      8.1002      2.3949      0.0074     15.4598     65.0117     16.6048
  1411.4000      8.1002      2.3799      0.0094     16.3688     64.2353     16.4555
  1411.5000      8.1063      2.3812      0.0759     16.2888     62.1728     15.5326
  1411.6000      8.1063      2.3839      0.0351     16.1303     60.4541     14.2842
  1411.7000      8.1063      2.3861      0.0539     15.9936     58.8055     13.3075
  1411.8000      8.1073      2.3924      0.0559     15.6092     56.9185     13.3229
  1411.9000      8.1073      2.4008      0.0544     15.1034     57.5544     14.1890
  1412.0000      8.0959      2.4075      0.0548     14.6981     60.4564     14.7740
  1412.1000      8.0959      2.4128      0.0667     14.3771     60.1311     14.8501
  1412.2000      8.0959      2.4181      0.0401     14.0547     54.6895     15.2457
  1412.3000      8.0767      2.4255      0.0044     13.6083     49.7113     16.2616
  1412.4000      8.0767      2.4330      0.0725     13.1526     48.5642     17.3895
  1412.5000      8.0604      2.4307      0.0625     13.2909     50.4708     18.1298
  1412.6000      8.0604      2.4156      0.0720     14.2034     54.6260     18.2189
  1412.7000      8.0604      2.3964      0.0976     15.3681     58.6684     17.5174
  1412.8000      8.0515      2.3845      0.0288     16.0938     59.3606     16.4667
  1412.9000      8.0515      2.3837      0.0704     16.1411     56.8219     15.9594
  1413.0000      8.0481      2.3870      0.0561     15.9377     53.3845     16.2435
  1413.1000      8.0481      2.3969     -0.0064     15.3371     51.7753     16.6815
  1413.2000      8.0481      2.4175      0.0584     14.0889     53.7469     16.9266
  1413.3000      8.0491      2.4373      0.0654     12.8923     57.1098     17.1323
  1413.4000      8.0491      2.4461      0.0749     12.3556     57.5847     16.9571
  1413.5000      8.0549      2.4469      0.0641     12.3104     54.8360     16.2896
  1413.6000      8.0549      2.4448      0.0508     12.4366     51.8792     15.4753
  1413.7000      8.0549      2.4386      0.0444     12.8129     51.2139     14.3230
  1413.8000      8.0599      2.4261      0.0511     13.5700     53.2124     12.8845
  1413.9000      8.0599      2.4156      0.0111     14.2055     55.1498     11.9401
  1414.0000      8.0675      2.4217      0.0162     13.8334     54.5911     11.8826
  1414.1000      8.0675      2.4431      0.0291     12.5394     53.5411     12.6540
  1414.2000      8.0675      2.4629      0.0537     11.3387     54.8359     13.6569
  1414.3000      8.0804      2.4757      0.0140     10.5648     56.8809     13.8396
  1414.4000      8.0804      2.4904      0.0294      9.6734     59.1723     13.0137
  1414.5000      8.0909      2.5048      0.0572      8.7983     62.5050     12.2911
  1414.6000      8.0909      2.5025      0.0673      8.9385     64.5004     12.2750
  1414.7000      8.0909      2.4758      0.0469     10.5594     63.5906     12.2810
  1414.8000      8.0974      2.4412      0.0105     12.6526     62.1964     12.0921
  1414.9000      8.0974      2.4268     -0.0056     13.5264     62.1825     12.3899
  1415.0000      8.1025      2.4362      0.0342     12.9604     63.2462     13.1152
  1415.1000      8.1025      2.4384      0.0958     12.8261     64.5027     13.3378
  1415.2000      8.1025      2.4180      0.0150     14.0588     64.5608     12.9205
  1415.3000      8.1070      2.4046     -0.0318     14.8715     62.4458     12.7135
  1415.4000      8.1070      2.4151      0.0416     14.2390     61.4378     12.8791
  1415.5000      8.1102      2.4311      0.0190     13.2692     65.3494     13.0006
  1415.6000      8.1102      2.4436      0.0514     12.5119     70.6868     12.9975
  1415.7000      8.1102      2.4503      0.0507     12.1055     72.3551     13.0263
  1415.8000      8.1168      2.4464      0.0286     12.3418     70.6952     12.9735
  1415.9000      8.1168      2.4394      0.0527     12.7665     65.7070     12.5507
  1416.0000      8.1334      2.4337      0.0477     13.1097     58.0076     12.0362
  1416.1000      8.1334      2.4247      0.0044     13.6531     53.5324     11.8654
  1416.2000      8.1334      2.4153     -0.0050     14.2249     54.9736     12.1366
  1416.3000      8.1467      2.4109      0.0414     14.4892     57.7085     12.6479
  1416.4000      8.1467      2.4107      0.0089     14.5035     58.5498     12.9447
  1416.5000      8.1477      2.4110      0.0473     14.4854     59.2366     13.0078
  1416.6000      8.1477      2.4100      0.0157     14.5428     62.3145     13.1892
  1416.7000      8.1477      2.4074      0.0480     14.7045     66.9365     13.3941
  1416.8000      8.1379      2.4005      0.0272     15.1187     70.7916     13.4620
  1416.9000      8.1379      2.3916      0.0154     15.6633     72.2972     14.0476
  1417.0000      8.1168      2.3895     -0.0108     15.7909     71.2099     15.5753
  1417.1000      8.1168      2.3986      0.0381     15.2388     69.3929     17.1998
  1417.2000      8.1168      2.4139      0.0530     14.3071     66.4452     17.5867
  1417.3000      8.0835      2.4279      0.0590     13.4636     62.8717     16.8132
  1417.4000      8.0835      2.4366      0.0233     12.9321     63.5331     15.7824
  1417.5000      8.0512      2.4414      0.0539     12.6440     70.9719     14.7712
  1417.6000      8.0512      2.4398      0.0517     12.7410     80.2632     14.0508
  1417.7000      8.0512      2.4323      0.0192     13.1944     81.6958     14.1243
  1417.8000      8.0303      2.4285      0.0385     13.4216     72.7304     14.8543
  1417.9000      8.0303      2.4325      0.0420     13.1836     64.1656     15.3196
