~Version Information
VERS.                      2.0: CWLS Log ASCII Standard - VERSION 2.0
WRAP.                       NO: One line per depth step
~Well Information Block
STRT.FT               451.7500: 
STOP.FT              1387.0000: 
STEP.FT                 0.2500: 
NULL.                -999.2500: 
COMP.          Petrogulf Corporation: COMPANY
WELL.          Great Plains 22-22R: WELL
FLD.           Purgatoire River: FIELD
LOC.           2042' FNL & 1657' FWL--: LOCATION
PROV.                 Colorado: PROVINCE
CNTY.               Las Animas: COUNTRY
SRVC.                Patterson: SERVICE COMPANY
DATE.          Fri Sep 09 10:42:01 2005: LOG DATE
UWI.           05 071 08028 00: UNIQUE WELL ID
~Curve Information Block
DEPT.FT            0 000 00 00: Depth
SP.mV                         : DIL Spontaneous Potential
RILD.Ohm-m                    : DIL Deep Resistivity
RILM.Ohm-m                    : DIL Medium Resistivity
RLL3.Ohm-m                    : DIL Shallow Resistivity
GR.GAPI                       : Gamma Ray
~Parameter Information Block
~A  Depth        SP         RILD        RILM        RLL3         GR     
# ...
  1095.7500     85.2349     23.7661     37.3564     69.6136     74.6942
  1096.0000     85.1662     23.8719     38.9745     66.5682     76.2864
  1096.2500     85.1335     23.4465     38.8893     64.0832     77.5136
  1096.5000     85.1379     22.5809     36.8829     62.0354     80.0231
  1096.7500     85.1866     21.4360     33.3482     59.7339     82.7551
  1097.0000     85.2861     20.1755     29.0993     56.0580     89.6237
  1097.2500     85.4362     18.9177     24.9321     50.0492     96.4901
  1097.5000     85.6278     17.7254     21.3338     41.7145    109.9808
  1097.7500     85.8453     16.6206     18.4698     32.2907    120.1165
  1098.0000     86.0729     15.6060     16.3043     23.6113    134.1460
  1098.2500     86.2995     14.6789     14.7164     17.1033    141.1295
  1098.5000     86.5232     13.8356     13.5666     13.2085    147.1834
  1098.7500     86.7526     13.0708     12.7270     11.4929    149.0498
  1099.0000     87.0044     12.3773     12.0918     11.1282    150.7850
  1099.2500     87.2956     11.7503     11.5813     11.3358    152.0023
  1099.5000     87.6350     11.1902     11.1429     11.6076    153.6900
  1099.7500     88.0200     10.7026     10.7487     11.7228    154.2617
  1100.0000     88.4423     10.2936     10.3904     11.6518    154.5056
  1100.2500     88.8951      9.9639     10.0709     11.4415    155.0654
  1100.5000     89.3750      9.7074      9.7965     11.1502    157.3788
  1100.7500     89.8759      9.5129      9.5701     10.8442    159.2579
  1101.0000     90.3835      9.3678      9.3886     10.6015    160.2208
  1101.2500     90.8749      9.2602      9.2435     10.4662    158.8331
  1101.5000     91.3212      9.1792      9.1263     10.3954    154.5745
  1101.7500     91.6911      9.1146      9.0335     10.2880    151.4489
  1102.0000     91.9566      9.0566      8.9683     10.0981    147.7081
  1102.2500     92.1004      8.9970      8.9373      9.9213    146.1001
  1102.5000     92.1191      8.9316      8.9432      9.9613    145.1846
  1102.7500     92.0207      8.8618      8.9775     10.3918    145.6211
  1103.0000     91.8186      8.7949      9.0193     11.2045    147.3976
  1103.2500     91.5275      8.7433      9.0415     12.1529    148.7488
  1103.5000     91.1618      8.7218      9.0233     12.8506    150.1525
  1103.7500     90.7381      8.7447      8.9627     12.9785    150.4500
  1104.0000     90.2765      8.8228      8.8809     12.4627    149.9165
  1104.2500     89.7999      8.9600      8.8162     11.5045    149.0562
  1104.5000     89.3295      9.1522      8.8116     10.4798    147.3597
  1104.7500     88.8836      9.3863      8.9046      9.8191    145.7767
  1105.0000     88.4834      9.6423      9.1209      9.9505    141.2013
  1105.2500     88.1575      9.8986      9.4713     11.2564    135.6400
  1105.5000     87.9392     10.1400      9.9477     13.9139    123.4195
  1105.7500     87.8521     10.3636     10.5200     17.6056    114.0393
  1106.0000     87.8928     10.5820     11.1350     21.3872    101.6976
  1106.2500     88.0229     10.8192     11.7257     24.0507     96.2377
  1106.5000     88.1795     11.1054     12.2346     24.8387     92.6834
  1106.7500     88.3001     11.4708     12.6411     23.8571     92.6076
  1107.0000     88.3473     11.9411     12.9737     21.8263     94.3871
  1107.2500     88.3192     12.5317     13.2989     19.5534     96.3031
  1107.5000     88.2428     13.2419     13.6957     17.6489     99.4584
  1107.7500     88.1579     14.0514     14.2346     16.5203    101.0459
  1108.0000     88.1016     14.9218     14.9689     16.4184    101.6122
  1108.2500     88.0991     15.8060     15.9330     17.4760    100.7419
  1108.5000     88.1615     16.6593     17.1428     19.7873     98.3959
  1108.7500     88.2877     17.4476     18.5923     23.4872     96.5915
  1109.0000     88.4680     18.1507     20.2488     28.6921     93.5965
  1109.2500     88.6885     18.7625     22.0513     35.2436     91.2387
  1109.5000     88.9343     19.2903     23.9121     42.4283     87.1603
  1109.7500     89.1911     19.7522     25.7223     48.9979     84.3685
  1110.0000     89.4457     20.1679     27.3573     53.5703     80.9836
  1110.2500     89.6847     20.5452     28.6890     55.1086     79.8911
  1110.5000     89.8940     20.8650     29.6090     53.2313     80.6089
  1110.7500     90.0603     21.0749     30.0483     48.4174     82.4308
  1111.0000     90.1744     21.0990     29.9718     42.0562     86.0342
  1111.2500     90.2342     20.8660     29.3545     36.0207     88.3938
  1111.5000     90.2450     20.3426     28.1788     31.7796     91.5464
  1111.7500     90.2184     19.5491     26.4745     29.6534     93.6082
  1112.0000     90.1683     18.5515     24.3636     28.7668     97.2691
  1112.2500     90.1056     17.4387     22.0507     27.6996    100.4304
  1112.5000     90.0325     16.2970     19.7545     25.4140    106.6458
  1112.7500     89.9434     15.1942     17.6413     21.8740    111.7579
  1113.0000     89.8323     14.1729     15.8001     17.9144    120.1983
  1113.2500     89.6999     13.2532     14.2545     14.5108    125.5881
  1113.5000     89.5544     12.4394     12.9860     12.1429    131.7228
  1113.7500     89.4070     11.7255     11.9561     10.7269    133.6850
  1114.0000     89.2668     11.1003     11.1205      9.9376    133.0500
  1114.2500     89.1398     10.5509     10.4386      9.4871    131.0501
  1114.5000     89.0290     10.0667      9.8775      9.1983    128.4329
  1114.7500     88.9344      9.6414      9.4129      8.9750    128.2834
  1115.0000     88.8542      9.2727      9.0280      8.7707    130.4747
  1115.2500     88.7870      8.9598      8.7115      8.5709    132.4368
  1115.5000     88.7336      8.7004      8.4558      8.3787    134.3766
  1115.7500     88.6968      8.4893      8.2552      8.2104    134.7670
  1116.0000     88.6792      8.3194      8.1036      8.1005    134.4206
  1116.2500     88.6806      8.1831      7.9929      8.0952    133.6939
  1116.5000     88.6959      8.0736      7.9115      8.2211    131.5197
  1116.7500     88.7160      7.9859      7.8454      8.4514    129.1179
  1117.0000     88.7295      7.9161      7.7812      8.7052    124.6188
  1117.2500     88.7228      7.8617      7.7092      8.8877    122.0535
  1117.5000     88.6797      7.8218      7.6256      8.9373    120.7584
  1117.7500     88.5817      7.7971      7.5313      8.8466    121.8051
  1118.0000     88.4118      7.7896      7.4299      8.6512    124.5079
  1118.2500     88.1600      7.8020      7.3257      8.4053    125.5773
  1118.5000     87.8266      7.8377      7.2235      8.1602    124.4859
  1118.7500     87.4205      7.9003      7.1290      7.9460    121.8722
  1119.0000     86.9527      7.9935      7.0498      7.7573    115.9078
  1119.2500     86.4307      8.1206      6.9954      7.5605    111.2307
  1119.5000     85.8582      8.2840      6.9772      7.3294    104.1781
  1119.7500     85.2377      8.4864      7.0084      7.0796     99.8165
  1120.0000     84.5746      8.7308      7.1038      6.8654     94.1638
  1120.2500     83.8796      9.0209      7.2795      6.7452     91.2743
  1120.5000     83.1724      9.3583      7.5533      6.7600     88.9064
  1120.7500     82.4806      9.7415      7.9447      6.9473     88.8900
  1121.0000     81.8353     10.1656      8.4749      7.3636     90.8715
  1121.2500     81.2631     10.6249      9.1644      8.0845     92.7825
  1121.5000     80.7812     11.1158     10.0271      9.1751     94.9739
  1121.7500     80.3962     11.6388     11.0597     10.6345     95.5883
  1122.0000     80.1070     12.1974     12.2304     12.3210     95.8859
  1122.2500     79.9061     12.7946     13.4753     13.9052     96.2403
  1122.5000     79.7793     13.4270     14.7137     14.9554     97.0400
  1122.7500     79.7050     14.0791     15.8777     15.1936     97.2552
  1123.0000     79.6609     14.7191     16.9341     14.7459     96.5117
  1123.2500     79.6333     15.2977     17.8766     14.1212     95.4913
  1123.5000     79.6242     15.7539     18.6913     13.9084     94.0003
