~Version Information
 VERS.                                  2.0 : CWLS LAS VERSION
 WRAP.                                   NO : WRAPING MODE
 SWARE .                 MController 2.5.0J : SOFTWARE VERSION
~Well Information
 WELL.                         State 16-43R : WELL
 COMP.                Petrogulf Corporation : COMPANY
 FLD.                      Purgatoire River : FIELD
 LOC.                NE/SE Sec 16 T33S R67W : LOCATION
 DATE.                             08/09/05 : DATE(S) LOGGED
 SRVC.       BLANCO Geological Services LLC : SERVICE COMPANY
 STAT.                                   CO : STATE
 CNTY.                           Las Animas : COUNTY
 CTRY.                                  USA : COUNTRY
 API.                       05-071-08338-00 : API NUMBER
 STRT.FT                               0.00 : START DEPTH
 STOP.FT                            1565.00 : STOP DEPTH
 STEP.FT                               1.00 : DEPTH INCREMENT
 NULL.                                -9999 : NULL VALUE
~Curve information
 DEPTH.FT                                   :
 ROP.MIN/FT                                 :
 GAS.UNITS                                  :
~ASCII Log data
# ...
       800.0         0.23         60.3 
       801.0         0.27         58.3 
       802.0         0.27         55.8 
       803.0         0.23         53.5 
       804.0         0.27         50.6 
       805.0         0.27         53.0 
       806.0         0.30         69.9 
       807.0         0.27         99.5 
       808.0         1.52        155.9 
       809.0         0.47         79.2 
       810.0         0.47         59.7 
       811.0         0.40         51.4 
       812.0         0.43         47.8 
       813.0         0.28         45.6 
       814.0         0.27         44.3 
       815.0         0.27         43.4 
       816.0         0.37         43.4 
       817.0         0.40         42.3 
       818.0         0.37         41.6 
       819.0         0.37         44.9 
       820.0         0.20         53.1 
       821.0         0.20         63.6 
       822.0         0.17         71.3 
       823.0         0.22         76.1 
       824.0         0.20         76.6 
       825.0         0.20         75.8 
       826.0         0.13         74.4 
       827.0         0.13         72.5 
       828.0         0.13         70.0 
       829.0         0.13         67.4 
       830.0         0.13         65.1 
       831.0         0.13         62.9 
       832.0         0.17         60.7 
       833.0         0.17         57.3 
       834.0         0.20         53.9 
       835.0         0.33         55.1 
       836.0         0.20         65.1 
       837.0         0.20         80.1 
       838.0         2.05        169.1 
       839.0         0.27         64.3 
       840.0         0.33         55.3 
       841.0         0.40         48.2 
       842.0         0.45         45.1 
       843.0         0.23         43.7 
       844.0         0.27         43.0 
       845.0         0.20         42.6 
       846.0         0.20         42.8 
       847.0         0.23         42.1 
       848.0         0.23         41.5 
       849.0         0.20         41.3 
       850.0         0.27         40.7 
       851.0         0.23         40.0 
       852.0         0.23         39.8 
       853.0         0.27         39.4 
       854.0         0.27         38.5 
       855.0         0.32         39.6 
       856.0         0.27         41.1 
       857.0         0.23         42.6 
       858.0         0.27         47.4 
       859.0         0.27         50.9 
       860.0         0.30         51.3 
       861.0         0.17         50.5 
       862.0         0.20         53.4 
       863.0         0.17         59.9 
       864.0         0.13         67.2 
       865.0         0.13         76.7 
       866.0         0.17         91.9 
       867.0         0.20        123.8 
       868.0         1.68        193.9 
       869.0         0.30         73.6 
       870.0         0.17         60.7 
       871.0         0.23         56.0 
       872.0         0.27         51.6 
       873.0         0.27         48.3 
       874.0         0.27         46.6 
       875.0         0.23         44.5 
       876.0         0.28         42.4 
       877.0         0.27         44.2 
       878.0         0.30         45.8 
       879.0         0.27         45.7 
       880.0         0.20         45.3 
       881.0         0.23         45.9 
       882.0         0.20         45.7 
       883.0         0.13         45.8 
       884.0         0.17         45.5 
       885.0         0.17         45.3 
       886.0         0.20         45.0 
       887.0         0.20         44.4 
       888.0         0.13         44.1 
       889.0         0.17         43.1 
       890.0         0.17         42.0 
       891.0         0.20         43.3 
       892.0         0.17         49.7 
       893.0         0.22         64.1 
       894.0         0.20         80.3 
       895.0         0.17         96.7 
       896.0         0.27        137.2 
       897.0         0.23        176.2 
       898.0         1.10        184.5 
       899.0         0.23         77.7 
       900.0         0.23         64.2 
       901.0         0.20         54.8 
       902.0         0.20         49.0 
       903.0         0.28         46.7 
       904.0         0.17         44.1 
       905.0         0.17         43.6 
       906.0         0.13         43.0 
       907.0         0.17         42.9 
       908.0         0.17         41.6 
       909.0         0.17         40.9 
       910.0         0.20         40.3 
       911.0         0.20         39.9 
       912.0         0.13         40.0 
       913.0         0.17         39.6 
       914.0         0.20         39.5 
       915.0         0.30         39.2 
       916.0         0.30         38.8 
       917.0         0.30         38.3 
       918.0         0.27         38.1 
       919.0         0.32         38.3 
       920.0         0.27         38.5 
       921.0         0.30         38.4 
       922.0         0.27         37.6 
       923.0         0.33         37.0 
       924.0         0.33         34.7 
       925.0         0.30         34.8 
       926.0         0.30         51.4 
       927.0         0.30         81.3 
       928.0         2.28        219.8 
       929.0         0.50         46.4 
       930.0         0.33         38.5 
       931.0         0.33         36.2 
       932.0         0.33         35.4 
       933.0         0.32         34.0 
       934.0         0.33         33.4 
       935.0         0.33         35.4 
       936.0         0.20         38.6 
       937.0         0.23         40.3 
       938.0         0.20         41.6 
       939.0         0.20         41.9 
       940.0         0.20         41.6 
       941.0         0.17         41.3 
       942.0         0.13         41.1 
       943.0         0.17         40.8 
       944.0         0.20         40.7 
       945.0         0.13         40.4 
       946.0         0.17         39.8 
       947.0         0.13         38.8 
       948.0         0.20         37.3 
       949.0         0.27         35.9 
       950.0         0.22         36.1 
       951.0         0.23         34.9 
       952.0         0.20         33.6 
       953.0         0.17         36.9 
       954.0         0.20         45.9 
       955.0         0.23         65.6 
       956.0         0.20         86.8 
       957.0         0.20        110.3 
       958.0         1.95        236.7 
       959.0         0.33         54.8 
       960.0         0.30         45.6 
       961.0         0.37         41.5 
       962.0         0.37         38.9 
       963.0         0.30         37.2 
       964.0         0.23         36.5 
       965.0         0.37         35.7 
       966.0         0.30         35.5 
       967.0         0.37         37.0 
       968.0         0.28         38.1 
       969.0         0.23         38.5 
       970.0         0.30         38.2 
       971.0         0.27         37.9 
       972.0         0.20         37.3 
       973.0         0.13         37.1 
       974.0         0.17         36.6 
       975.0         0.13         36.3 
       976.0         0.20         36.2 
       977.0         0.27         35.7 
       978.0         0.33         34.8 
       979.0         0.43         35.0 
       980.0         0.38         34.5 
       981.0         0.23         34.3 
       982.0         0.17         33.4 
       983.0         0.20         32.3 
       984.0         0.20         30.0 
       985.0         0.40         33.0 
       986.0         0.43         62.3 
       987.0         0.43        106.8 
       988.0         2.02        250.3 
       989.0         0.43         52.0 
       990.0         0.33         40.2 
       991.0         0.27         36.1 
       992.0         0.50         35.0 
       993.0         0.37         33.9 
       994.0         0.28         33.3 
       995.0         0.40         33.7 
       996.0         0.40         33.3 
       997.0         0.30         32.8 
       998.0         0.43         32.1 
       999.0         0.30         31.8 
