~Version Information
VERS.                      2.0: CWLS Log ASCII Standard - VERSION 2.0
WRAP.                       NO: One line per depth step
~Well Information Block
STRT.FT               952.6000: 
STOP.FT              2511.5000: 
STEP.FT                 0.1000: 
NULL.                -999.2500: 
COMP.          Petrogulf Corporation: COMPANY
WELL.             Royal 8-33 V: WELL
FLD.           Purgatoire River: FIELD
LOC.           2365' FSL & 2336' FEL: LOCATION
PROV.                 Colorado: PROVINCE
CNTY.               Las Animas: COUNTRY
SRVC.                Patterson: SERVICE COMPANY
DATE.          Fri Dec 05 09:15:49 2003: LOG DATE
UWI.                          : UNIQUE WELL ID
~Curve Information Block
DEPT.FT            0 000 00 00: Depth
DCAL.in                       : CDL Caliper
RHOB.g/cc                     : CDL Bulk Density
RHOC.g/cc                     : CDL Density Correction
DPOR.pu                       : CDL Density Porosity
GR.GAPI                       : Gamma Ray
NPOR.pu                       : Neutron Porosity
~Parameter Information Block
~A  Depth       DCAL        RHOB        RHOC        DPOR         GR         NPOR    
# ...
  2392.6000      8.2086      2.5087      0.1123      8.5652     52.9899     13.7419
  2392.7000      8.2086      2.5151      0.0723      8.1730     58.8996     13.5325
  2392.8000      8.1939      2.5101      0.1142      8.4771     65.1647     13.5244
  2392.9000      8.1939      2.5035      0.0656      8.8796     68.2107     13.8333
  2393.0000      8.1908      2.4962      0.0804      9.3217     63.2643     14.4229
  2393.1000      8.1908      2.4831      0.0794     10.1132     52.5370     15.3353
  2393.2000      8.1908      2.4734      0.0570     10.7016     44.9160     16.2797
  2393.3000      8.1951      2.4706      0.0640     10.8725     43.8513     16.6950
  2393.4000      8.1951      2.4594      0.1179     11.5518     46.7199     16.5572
  2393.5000      8.1503      2.4411      0.0069     12.6628     52.3957     16.1541
  2393.6000      8.1503      2.4339      0.0549     13.0974     57.5855     15.7053
  2393.7000      8.1503      2.4359      0.0719     12.9781     57.4507     15.4302
  2393.8000      8.1217      2.4444      0.0204     12.4586     54.1506     15.5664
  2393.9000      8.1217      2.4660      0.0755     11.1508     53.8094     16.0372
  2394.0000      8.1379      2.4850      0.0688     10.0006     55.0737     16.3373
  2394.1000      8.1379      2.4782      0.1069     10.4112     56.7278     16.1536
  2394.2000      8.1379      2.4525      0.0925     11.9667     61.4339     15.4824
  2394.3000      8.1499      2.4448      0.0373     12.4339     64.7512     14.8241
  2394.4000      8.1499      2.4730      0.1176     10.7273     60.7790     14.8693
  2394.5000      8.1509      2.5053      0.1388      8.7700     53.8144     15.3572
  2394.6000      8.1509      2.5046      0.1237      8.8150     50.7325     15.6980
  2394.7000      8.1509      2.4809      0.0464     10.2467     51.5537     15.7602
  2394.8000      8.1479      2.4696      0.0767     10.9334     53.3973     15.4285
  2394.9000      8.1479      2.4782      0.0611     10.4106     54.1198     14.7621
  2395.0000      8.1464      2.4916      0.1088      9.6026     53.0842     14.1488
  2395.1000      8.1464      2.4980      0.1251      9.2095     52.3795     13.8243
  2395.2000      8.1464      2.4992      0.1075      9.1375     53.3694     13.7048
  2395.3000      8.1566      2.4986      0.1354      9.1756     55.0380     13.5949
  2395.4000      8.1566      2.4940      0.1133      9.4561     56.1200     13.3925
  2395.5000      8.1571      2.4943      0.0924      9.4357     55.4925     13.2294
  2395.6000      8.1571      2.5062      0.1375      8.7162     52.5831     12.9698
  2395.7000      8.1571      2.5121      0.1427      8.3602     50.1177     12.6136
  2395.8000      8.1446      2.5014      0.0914      9.0038     50.4595     12.6128
  2395.9000      8.1446      2.4880      0.1005      9.8173     53.7261     13.0985
  2396.0000      8.1455      2.4851      0.1316      9.9955     58.2065     13.7396
  2396.1000      8.1455      2.4991      0.0631      9.1466     58.4707     14.2910
  2396.2000      8.1455      2.5248      0.1694      7.5856     53.3077     14.8576
  2396.3000      8.1416      2.5399      0.1591      6.6723     48.9387     15.2131
  2396.4000      8.1416      2.5308      0.1511      7.2266     48.2579     14.9072
  2396.5000      8.1536      2.5095      0.0984      8.5167     49.3430     14.2652
  2396.6000      8.1536      2.5001      0.0684      9.0856     52.6908     14.0294
  2396.7000      8.1536      2.5021      0.1261      8.9652     56.0785     14.1505
  2396.8000      8.1596      2.4973      0.0644      9.2521     54.0081     14.1553
  2396.9000      8.1596      2.4876      0.1118      9.8412     49.5591     13.9047
  2397.0000      8.2033      2.4792      0.1659     10.3528     49.7860     13.5681
  2397.1000      8.2033      2.4748      0.0927     10.6169     52.9527     13.3025
  2397.2000      8.2033      2.4786      0.1416     10.3890     53.3416     13.2849
  2397.3000      8.1642      2.4845      0.0745     10.0311     51.9316     13.6706
  2397.4000      8.1642      2.4871      0.1162      9.8757     53.0687     14.2089
  2397.5000      8.1800      2.4829      0.0862     10.1303     55.1468     14.5269
  2397.6000      8.1800      2.4639      0.1451     11.2761     52.5533     14.3861
  2397.7000      8.1800      2.4357      0.0490     12.9909     45.8059     13.9739
  2397.8000      8.1807      2.4294      0.0397     13.3687     41.6822     13.8636
  2397.9000      8.1807      2.4557      0.0883     11.7770     43.1967     13.9525
  2398.0000      8.1327      2.4873      0.1378      9.8603     45.8855     13.9213
  2398.1000      8.1327      2.5020      0.1112      8.9688     46.5250     13.9337
  2398.2000      8.1327      2.4922      0.1170      9.5653     47.2690     14.0493
  2398.3000      8.1258      2.4617      0.1179     11.4122     49.8510     14.2120
  2398.4000      8.1258      2.4375      0.0880     12.8808     50.1607     14.4568
  2398.5000      8.1367      2.4427      0.0901     12.5646     47.0055     14.6105
  2398.6000      8.1367      2.4570      0.1501     11.6961     45.8038     14.3407
  2398.7000      8.1367      2.4525      0.0813     11.9722     47.5054     13.6297
  2398.8000      8.3847      2.4494      0.0454     12.1588     48.5998     12.8696
  2398.9000      8.3847      2.4723      0.0813     10.7699     47.1621     12.2321
  2399.0000      8.4629      2.4942      0.1526      9.4436     44.3155     11.7723
  2399.1000      8.4629      2.4843      0.1128     10.0451     41.7928     11.7948
  2399.2000      8.4629      2.4620      0.0827     11.3928     40.7900     12.2644
  2399.3000      8.1756      2.4585      0.0590     11.6083     42.4188     12.6446
  2399.4000      8.1756      2.4725      0.0729     10.7557     46.3758     12.5701
  2399.5000      8.1024      2.4884      0.0923      9.7931     50.4975     12.2947
  2399.6000      8.1024      2.5060      0.0754      8.7292     53.5785     12.3156
  2399.7000      8.1024      2.5335      0.1035      7.0588     56.2454     13.0072
  2399.8000      8.0928      2.5600      0.1346      5.4566     56.8943     14.1461
  2399.9000      8.0928      2.5644      0.1100      5.1881     54.9936     14.8227
  2400.0000      8.0619      2.5448      0.0828      6.3734     53.8450     14.9124
  2400.1000      8.0619      2.5058      0.1090      8.7373     53.6945     15.2091
  2400.2000      8.0619      2.4475      0.0541     12.2715     51.8220     16.1750
  2400.3000      8.0560      2.3816     -0.0026     16.2695     50.7741     17.2680
  2400.4000      8.0560      2.3196      0.0024     20.0266     54.2863     17.8016
  2400.5000      8.0567      2.2568      0.0107     23.8304     59.6857     17.9088
  2400.6000      8.0567      2.2023     -0.0068     27.1335     62.6811     17.7369
  2400.7000      8.0567      2.1839      0.0225     28.2471     61.9085     17.3125
  2400.8000      8.0637      2.2150      0.0496     26.3666     57.8779     16.7993
  2400.9000      8.0637      2.2894      0.1257     21.8528     55.7382     16.1328
  2401.0000      8.0632      2.3904      0.2330     15.7337     58.5702     15.4244
  2401.1000      8.0632      2.4918      0.3515      9.5869     61.9897     15.0302
  2401.2000      8.0632      2.5634      0.4851      5.2486     64.0217     14.7824
  2401.3000      8.0433      2.5887      0.4831      3.7146     64.6253     14.1623
  2401.4000      8.0433      2.5885      0.3957      3.7300     61.1843     13.2707
  2401.5000      7.9725      2.5903      0.4338      3.6211     55.5016     12.7190
  2401.6000      7.9725      2.5861      0.3784      3.8728     51.2574     12.6109
  2401.7000      7.9725      2.5627      0.2250      5.2931     48.6957     12.7356
  2401.8000      7.9596      2.5302      0.1052      7.2632     46.8820     13.1545
  2401.9000      7.9596      2.5030      0.1109      8.9106     45.0903     13.6248
  2402.0000      7.9530      2.4862      0.0659      9.9269     44.9931     13.6975
  2402.1000      7.9530      2.4824      0.0555     10.1582     46.9185     13.7180
