~Version Information
VERS.                      2.0: CWLS Log ASCII Standard - VERSION 2.0
WRAP.                       NO: One line per depth step
~Well Information Block
STRT.FT                 0.0000: 
STOP.FT              2234.2500: 
STEP.FT                 0.2500: 
NULL.                -999.2500: 
COMP.          Pioner Natural Resources: COMPANY
WELL.          Casablanca 11-28 Tr: WELL
FLD.           Purgatoire River: FIELD
LOC.           422' FNL & 215' FWL--: LOCATION
PROV.                 Colorado: PROVINCE
CNTY.               Las Animas: COUNTRY
SRVC.                         : SERVICE COMPANY
DATE.          Fri Mar 11 13:02:46 2005: LOG DATE
UWI.           005 071 08314  : UNIQUE WELL ID
~Curve Information Block
DEPT.FT            0 000 00 00: Depth
CCL.                          : Casing Collar Locator
TT3.usec                      : CBL 3' Travel Time
AMP3.mV                       : CBL 3' Amplitude
AMP5.mV                       : CBL 5' Amplitude
GR.GAPI                       : Gamma Ray
~Parameter Information Block
~A  Depth       CCL         TT3         AMP3        AMP5         GR     
# ...
   448.0000      0.0000    792.5569      6.0525     -1.1798    108.5662
   448.2500      0.0000    794.6548      5.7783     -0.6575    104.4896
   448.5000      0.0000    796.3431      5.4069      0.3000    101.0516
   448.7500      0.0000    797.2454      5.0740     -1.2668     99.4540
   449.0000      0.0000    797.3879      4.8756     -1.6150     99.5656
   449.2500      0.0000    796.8360      4.8444     -0.6575    100.2269
   449.5000      0.0000    795.5359      4.9695     -0.4834    100.5747
   449.7500      0.0000    793.4062      5.2338     -0.4834    101.0156
   450.0000      0.0000    790.4730      5.6353      0.2129    102.7358
   450.2500      0.0000    786.9633      6.1719      0.9093    106.2402
   450.5000      0.0000    783.3510      6.8042      0.9093    110.4514
   450.7500      0.0000    780.2286      7.4352      1.1705    113.2577
   451.0000      0.0000    777.9763      7.9435      0.6482    113.0468
   451.2500      0.0000    776.5592      8.2565      2.3021    109.9047
   451.5000      0.0000    775.6995      8.3941      1.9539    105.4174
   451.7500      0.0000    775.1650      8.4390      4.8264    101.2746
   452.0000      0.0000    774.8549      8.4714      2.5632     98.1158
   452.2500      0.0000    774.7308      8.5263      2.1280     95.7282
   452.5000      0.0000    774.7679      8.5901      1.7798     94.0292
   452.7500      0.0000    774.9268      8.6238      1.5186     93.3803
   453.0000      0.0000    775.1190      8.5988      2.8243     94.1157
   453.2500      0.0000    775.2439      8.5191      2.8243     96.2963
   453.5000      0.0000    775.2838      8.4072      1.7798     99.7939
   453.7500      0.0000    775.3382      8.2754      1.7798    103.9461
   454.0000      0.0000    775.6008      8.1205      2.3891    107.1305
   454.2500      0.0000    776.3183      7.9439      2.3891    107.3153
   454.5000      0.0000    777.6472      7.7718      2.3891    103.5347
   454.7500      0.0000    779.4794      7.6499      3.4337     96.9381
   455.0000      0.0000    781.5729      7.6164      3.7819     90.2018
   455.2500      0.0000    783.9397      7.6747      3.0855     85.6555
   455.5000      0.0000    786.8298      7.7867      1.6057     83.9179
   455.7500      0.0000    790.1561      7.8954      2.4762     84.1780
   456.0000      0.0000    793.1970      7.9618      3.7819     85.3454
   456.2500      0.0000    795.0377      7.9798      3.3466     86.7441
   456.5000      0.0000    795.1538      7.9565      3.1725     88.1278
   456.7500      0.0000    793.6564      7.8870      1.2575     89.3638
   457.0000      0.0000    791.3604      7.7567      0.3870     90.0571
   457.2500      0.0000    789.6001      7.5686      0.3000     89.4712
   457.5000      0.0000    789.4641      7.3628      1.9539     87.0350
   457.7500      0.0000    790.9097      7.1991      1.6057     83.0757
   458.0000      0.0000    792.8089      7.1177      1.5186     79.0013
   458.2500      0.0000    794.0089      7.1163      0.5611     76.4025
   458.5000      0.0000    794.1260      7.1672      0.0389     75.7087
   458.7500      0.0000    793.1568      7.2531      0.6482     75.8142
   459.0000      0.0000    790.4149      7.3750      1.6927     75.2659
   459.2500      0.0000    784.4791      7.5247      0.9093     73.8802
   459.5000      0.0000    775.1536      7.6728      0.5611     73.1665
   459.7500      0.0000    765.6160      7.8102      0.9093     75.0525
   460.0000      0.0000    761.1257      7.9940     -0.2223     79.9845
   460.2500      0.0000    764.0330      8.3184     -0.3093     86.1586
   460.5000      0.0000    770.3551      8.8296      0.7352     90.8129
   460.7500      0.0000    771.7878      9.4770      2.7373     92.3826
   461.0000      0.0000    760.6940     10.1390      3.1725     91.3384
   461.2500      0.0000    734.9269     10.6793      2.3891     89.2357
   461.5000      0.0000    701.4327     11.0022      1.2575     87.4754
   461.7500      0.0000    674.5456     11.1001      2.0409     86.8357
   462.0000      0.0000    664.9240     11.0580      2.0409     87.4136
   462.2500      0.0000    667.3381     10.9825      2.0409     88.4788
   462.5000      0.0000    663.0218     10.9175      2.4762     88.6461
   462.7500      0.0000    637.2074     10.8409      3.6948     86.8103
   463.0000      0.0000    592.7737     10.7421      1.4316     83.0656
   463.2500      0.0000    545.6525     10.6701      0.5611     78.5519
   463.5000      0.0000    509.8155     10.6964      0.7352     74.5870
   463.7500      0.0000    489.0490     10.8438      1.0834     72.0883
   464.0000      0.0000    480.1572     11.0600      1.6057     71.4075
   464.2500      0.0000    478.8560     11.2564      2.3021     72.2635
   464.5000      0.0000    481.7167     11.3699      1.3446     73.8968
   464.7500      0.0000    485.9478     11.3988      1.6057     75.5890
   465.0000      0.0000    490.1665     11.3886      0.9093     77.1732
   465.2500      0.0000    495.7737     11.3934      0.9964     79.0934
   465.5000      0.0000    506.3099     11.4411      2.1280     82.0169
   465.7500      0.0000    523.6672     11.5139      1.4316     86.1479
   466.0000      0.0000    544.3123     11.5587      1.0834     90.5018
   466.2500      0.0000    562.0223     11.5354      1.2575     92.9531
   466.5000      0.0000    576.7200     11.4537      0.9093     91.7702
   466.7500      0.0000    597.4727     11.3367      1.1705     87.5483
   467.0000      0.0000    632.1830     11.1565      0.6482     83.2482
   467.2500      0.0000    675.5189     10.8436      0.1259     81.9170
   467.5000      0.0000    710.6896     10.3738     -0.3093     84.3457
   467.7500      0.0000    723.5571      9.8277     -1.0057     88.9442
   468.0000      0.0000    714.7531      9.3536     -1.6150     93.5435
   468.2500      0.0000    699.7927      9.0546     -1.7021     96.8112
   468.5000      0.0000    697.2819      8.8938     -0.9187     97.9510
   468.7500      0.0000    714.3865      8.7108     -1.8762     96.0684
   469.0000      0.0000    742.8746      8.3551     -0.7446     90.8693
   469.2500      0.0000    768.7831      7.8055     -1.2668     83.8410
   469.5000      0.0000    783.4201      7.1639     -1.0927     77.8277
   469.7500      4.6539    785.0064      6.5667     -0.8316     75.0096
   470.0000      0.0000    774.7315      6.1359     -0.9187     75.4993
   470.2500      0.0000    756.0580      5.9963     -0.8316     77.8880
   470.5000      0.0000    737.2042      6.2607     -1.2668     80.7816
   470.7500      0.0000    729.1225      6.9365     -2.3984     83.6971
   471.0000      0.0000    737.1223      7.8586     -1.0057     86.9789
   471.2500      0.0000    755.7656      8.7694     -1.6150     91.1513
   471.5000      0.0000    773.9032      9.4963     -2.8337     96.1034
   471.7500      0.0000    782.8808     10.0520     -1.9632    100.8271
   472.0000      0.0000    778.2180     10.5639     -4.2264    104.1197
   472.2500      0.0000    756.8261     11.1144     -2.3114    105.3350
   472.5000      0.0000    718.6406     11.6387     -2.1373    104.3270
   472.7500      0.0000    673.5705     11.9677     -0.4834    101.2830
   473.0000      0.0000    642.4611     11.9691      0.4741     97.0791
   473.2500      0.0000    643.5377     11.6527     -2.1373     93.3968
   473.5000      0.0000    676.0097     11.1518     -2.0503     91.8825
   473.7500      0.0000    720.7990     10.6232     -2.1373     92.9777
   474.0000      0.0000    757.7432     10.1707     -1.7021     95.6347
   474.2500      0.0000    778.8224      9.8353     -1.0057     98.2346
   474.5000      0.0000    786.6869      9.6216     -1.5280     99.7330
   474.7500      0.0000    786.8426      9.5149     -1.5280     99.8372
   475.0000      0.0000    783.3411      9.4841     -2.0503     98.4063
   475.2500      0.0000    778.4630      9.4845     -1.3539     95.2668
   475.5000      0.0000    773.3114      9.4743     -1.1798     90.7639
   475.7500      0.0000    768.6638      9.4322     -1.4409     85.9991
