~Version Information
VERS.                      2.0: CWLS Log ASCII Standard - VERSION 2.0
WRAP.                       NO: One line per depth step
~Well Information Block
STRT.FT                -7.0000: 
STOP.FT              1863.5000: 
STEP.FT                 0.2500: 
NULL.                -999.2500: 
COMP.          Pioneer Natural Resources: COMPANY
WELL.            Formula 23-11: WELL
FLD.           Purgatorie River: FIELD
LOC.           1976' FSL & 1935' FWL--: LOCATION
PROV.                       CO: PROVINCE
CNTY.               Las Animas: COUNTRY
SRVC.          Patterson Wireline: SERVICE COMPANY
DATE.          Wed Jun 15 14:44:40 2005: LOG DATE
UWI.           05 071 08399 00: UNIQUE WELL ID
~Curve Information Block
DEPT.FT            0 000 00 00: Depth
CCL.                          : Casing Collar Locator
TT3.usec                      : CBL 3' Travel Time
AMP3.mV                       : CBL 3' Amplitude
GR.GAPI                       : Gamma Ray
~Parameter Information Block
~A  Depth       CCL         TT3         AMP3         GR     
# ...
   361.5000      0.0000    897.6131      6.5244     47.5343
   361.7500      0.0000    910.4789      6.2137     44.7986
   362.0000      0.0000    920.7672      5.9518     42.4693
   362.2500      0.0000    923.6992      5.7274     41.1743
   362.5000      0.0000    917.8019      5.5410     40.9511
   362.7500      0.0000    905.7980      5.4213     41.5231
   363.0000      0.0000    892.6757      5.3851     42.5006
   363.2500      2.0000    882.3931      5.4166     43.5824
   363.5000      2.0000    876.2693      5.4862     44.8343
   363.7500      0.0000    873.9412      5.5804     46.7321
   364.0000      0.0000    874.4815      5.7212     49.6614
   364.2500      0.0000    875.9066      5.9629     53.2737
   364.5000      0.0000    875.2839      6.3545     56.5721
   364.7500      0.0000    871.5809      6.8859     58.7856
   365.0000      0.0000    867.8780      7.4707     60.0453
   365.2500      0.0000    868.6409      7.9800     61.0837
   365.5000      0.0000    874.9637      8.3075     62.3613
   365.7500      0.0000    883.8158      8.4257     63.5711
   366.0000      0.0000    891.4261      8.3938     63.8627
   366.2500      0.0000    896.6741      8.3076     62.4763
   366.5000      0.0000    901.5373      8.2345     59.3876
   366.7500      0.0000    908.1287      8.1878     55.5896
   367.0000      0.0000    914.9802      8.1467     52.7145
   367.2500      0.0000    917.2723      8.0904     52.1084
   367.5000      0.0000    911.7281      8.0103     53.9643
   367.7500      0.0000    900.0880      7.9032     57.1807
   368.0000      0.0000    886.7481      7.7676     60.0377
   368.2500      0.0000    874.4272      7.6128     61.0469
   368.5000      0.0000    863.3655      7.4649     59.4711
   368.7500      0.0000    853.4287      7.3563     55.6831
   369.0000      0.0000    845.2318      7.3033     51.1938
   369.2500      0.0000    839.3097      7.2947     47.7372
   369.5000      0.0000    835.2202      7.3069     46.0225
   369.7500      0.0000    831.8804      7.3268     45.6284
   370.0000      0.0000    828.6102      7.3523     46.0160
   370.2500      0.0000    825.8233      7.3741     47.0698
   370.5000      0.0000    824.6094      7.3670     48.6364
   370.7500      0.0000    825.5306      7.3076     50.1573
   371.0000      0.0000    827.9294      7.1985     51.0730
   371.2500      0.0000    830.5368      7.0684     51.4167
   371.5000      0.0000    832.5156      6.9525     51.9648
   371.7500      0.0000    833.7410      6.8729     53.8162
   372.0000      0.0000    834.3829      6.8365     57.5392
   372.2500      0.0000    834.4911      6.8457     62.4449
   372.5000      0.0000    833.8264      6.9046     66.8430
   372.7500      0.0000    831.7646      7.0023     69.2560
   373.0000      0.0000    827.4540      7.0983     69.3638
   373.2500      0.0000    820.7399      7.1392     67.8349
   373.5000      0.0000    813.4248      7.0955     65.5458
   373.7500      0.0000    809.0316      6.9788     63.0345
   374.0000      0.0000    810.2080      6.8307     60.5037
   374.2500      0.0000    816.2484      6.6999     58.0436
   374.5000      0.0000    823.7575      6.6168     55.7076
   374.7500      0.0000    829.5222      6.5802     53.5072
   375.0000      0.0000    832.2205      6.5702     51.5968
   375.2500      0.0000    831.8267      6.5726     50.3462
   375.5000      0.0000    828.5259      6.5834     49.9820
   375.7500      0.0000    822.8002      6.5919     50.2816
   376.0000      0.0000    816.2157      6.5768     50.7977
   376.2500      0.0000    811.1126      6.5327     51.1730
   376.5000      0.0000    808.6545      6.4882     51.0719
   376.7500      0.0000    807.2708      6.4838     50.0994
   377.0000      0.0000    803.7971      6.5297     48.0996
   377.2500      0.0000    796.6063      6.5965     45.4941
   377.5000      0.0000    787.3352      6.6478     43.2083
   377.7500      0.0000    779.0243      6.6757     42.2099
   378.0000      0.0000    772.8680      6.6972     42.9337
   378.2500      0.0000    767.6645      6.7253     45.0051
   378.5000      0.0000    762.1721      6.7512     47.6601
   378.7500      0.0000    756.7281      6.7586     50.3903
   379.0000      0.0000    752.4193      6.7466     52.9528
   379.2500      0.0000    749.6933      6.7316     54.8879
   379.5000      0.0000    748.2424      6.7314     55.5649
   379.7500      0.0000    747.6888      6.7483     54.9002
   380.0000      0.0000    748.0510      6.7705     53.6515
   380.2500      0.0000    749.6861      6.7861     52.6076
   380.5000      0.0000    752.8651      6.7935     51.6005
   380.7500      0.0000    757.2917      6.8001     49.8055
   381.0000      0.0000    761.9860      6.8137     47.0770
   381.2500      0.0000    765.6741      6.8358     44.5642
   381.5000      0.0000    767.4645      6.8572     43.9302
   381.7500      0.0000    767.5500      6.8645     46.1963
   382.0000      0.0000    767.3359      6.8579     51.0673
   382.2500      0.0000    768.2103      6.8549     56.9925
   382.5000      0.0000    769.8101      6.8728     62.1858
   382.7500      0.0000    770.0891      6.9109     66.0599
   383.0000      0.0000    767.5867      6.9545     69.6606
   383.2500      0.0000    763.1911      6.9930     74.5392
   383.5000      0.0000    759.1575      7.0303     81.2236
   383.7500      0.0000    756.6671      7.0799     88.8182
   384.0000      0.0000    754.9823      7.1485     95.9443
   384.2500      0.0000    752.9139      7.2235    101.7535
   384.5000      0.0000    750.3419      7.2816    105.8989
   384.7500      0.0000    748.0068      7.3058    107.8088
   385.0000      0.0000    746.4314      7.2978    106.5153
   385.2500      0.0000    745.5288      7.2778    101.5219
   385.5000      0.0000    744.9845      7.2711     93.7439
   385.7500      0.0000    744.6218      7.2853     85.2926
   386.0000      0.0000    744.4232      7.2997     78.1444
   386.2500      0.0000    744.3897      7.2868     72.9924
   386.5000      0.0000    744.4592      7.2404     69.3686
   386.7500      0.0000    744.5283      7.1739     66.7310
   387.0000      0.0000    744.5376      7.0953     65.2600
   387.2500      0.0000    744.5098      6.9951     65.6753
   387.5000      0.0000    744.5103      6.8581     68.4880
   387.7500      0.0000    744.5757      6.6825     73.3869
   388.0000      0.0000    744.6710      6.4908     79.0920
   388.2500      0.0000    744.6989      6.3234     83.8539
   388.5000      0.0000    744.5763      6.2127     86.4700
   388.7500      0.0000    744.3178      6.1594     86.9467
   389.0000      0.0000    744.0320      6.1399     86.1725
   389.2500      0.0000    743.8340      6.1313     85.1276
   389.5000      0.0000    743.7711      6.1174     84.4256
   389.7500      0.0000    743.8114      6.0797     84.2478
   390.0000      0.0000    743.8757      6.0060     84.4574
   390.2500      0.0000    743.8840      5.9073     84.7409
   390.5000      0.0000    743.7990      5.8121     84.6289
   390.7500      0.0000    743.6398      5.7409     83.6604
   391.0000      0.0000    743.4660      5.6947     81.9806
   391.2500      0.0000    743.3444      5.6657     80.6332
   391.5000      0.0000    743.3208      5.6518     80.7657
   391.7500      0.0000    743.4122      5.6591     82.5998
   392.0000      0.0000    743.6154      5.6925     85.4183
   392.2500      0.0000    743.9341      5.7467     88.3527
   392.5000      0.0000    744.4619      5.8076     90.9302
   392.7500      0.0000    745.5201      5.8622     93.0531
   393.0000      0.0000    747.6691      5.9046     94.7308
   393.2500      0.0000    751.2588      5.9334     95.8370
   393.5000      0.0000    755.6589      5.9492     96.1427
   393.7500      0.0000    759.1758      5.9565     95.7280
   394.0000      0.0000    760.4476      5.9640     95.3049
   394.2500      0.0000    760.1320      5.9817     95.8266
   394.5000      0.0000    760.6182      6.0142     97.5238
   394.7500      0.0000    763.6680      6.0588     99.3780
