~Version Information
VERS.                      2.0: CWLS Log ASCII Standard - VERSION 2.0
WRAP.                       NO: One line per depth step
~Well Information Block
STRT.FT               520.0000: 
STOP.FT              1105.5000: 
STEP.FT                 0.1000: 
NULL.                -999.2500: 
COMP.          Pioneer Natural Resources: COMPANY
WELL.            Redland 23-24: WELL
FLD.           Purgatoire River: FIELD
LOC.           2356' FSL & 1880' FWL: LOCATION
PROV.                 Colorado: PROVINCE
CNTY.               Las Animas: COUNTRY
SRVC.                Patterson: SERVICE COMPANY
DATE.          Mon Mar 21 07:08:20 2005: LOG DATE
UWI.           05 071 08221 00: UNIQUE WELL ID
~Curve Information Block
DEPT.FT            0 000 00 00: Depth
DCAL.in                       : CDL Caliper
RHOB.g/cc                     : CDL Bulk Density
RHOC.g/cc                     : CDL Density Correction
DPOR.pu                       : CDL Density Porosity
GR.GAPI                       : Gamma Ray
NPOR.pu                       : Neutron Porosity
~Parameter Information Block
~A  Depth       DCAL        RHOB        RHOC        DPOR         GR         NPOR    
# ...
   971.2000      7.8642      2.4591     -0.0295     11.5708     54.3245     18.6086
   971.3000      7.8632      2.4703      0.0408     10.8922     54.6648     19.3789
   971.4000      7.8632      2.4754      0.0112     10.5804     55.7254     20.0041
   971.5000      7.8601      2.4718      0.0132     10.7971     56.1314     19.8034
   971.6000      7.8601      2.4682     -0.0323     11.0166     56.7304     19.0928
   971.7000      7.8601      2.4742      0.0105     10.6565     58.8746     18.7235
   971.8000      7.8722      2.4891      0.0027      9.7509     60.1753     19.5292
   971.9000      7.8722      2.4985      0.0320      9.1792     58.8977     21.0003
   972.0000      7.8764      2.5001     -0.0258      9.0867     59.3016     21.4030
   972.1000      7.8764      2.5013      0.0098      9.0125     63.8873     20.4653
   972.2000      7.8764      2.4873      0.0029      9.8625     68.3436     19.8506
   972.3000      7.8650      2.4518     -0.0124     12.0122     69.2953     20.4848
   972.4000      7.8650      2.4256     -0.0544     13.5979     67.5424     21.4991
   972.5000      7.8649      2.4247      0.0011     13.6555     64.0997     22.0287
   972.6000      7.8649      2.4303      0.0213     13.3144     60.2246     21.7527
   972.7000      7.8649      2.4381     -0.0431     12.8420     56.7854     20.6820
   972.8000      7.8675      2.4610     -0.0010     11.4572     54.6812     19.7543
   972.9000      7.8675      2.4826      0.0464     10.1485     54.2816     19.6763
   973.0000      7.8788      2.4815      0.0134     10.2121     55.4641     20.1923
   973.1000      7.8788      2.4778     -0.0059     10.4382     58.9016     20.6362
   973.2000      7.8788      2.4925      0.0332      9.5465     61.2296     20.7185
   973.3000      7.8820      2.5071      0.0166      8.6589     61.0182     20.7471
   973.4000      7.8820      2.5073      0.0213      8.6498     62.5954     20.8118
   973.5000      7.8721      2.5044     -0.0525      8.8271     65.3362     20.6086
   973.6000      7.8721      2.5008      0.0520      9.0412     65.6752     19.8452
   973.7000      7.8721      2.4873      0.0043      9.8596     65.1133     18.7482
   973.8000      7.8756      2.4751     -0.0054     10.6021     65.5420     18.1989
   973.9000      7.8756      2.4808      0.0179     10.2534     67.2013     18.5817
   974.0000      7.8651      2.4959      0.0326      9.3424     69.8388     19.1833
   974.1000      7.8651      2.5035      0.0311      8.8763     70.1460     19.4506
   974.2000      7.8651      2.5078     -0.0165      8.6193     67.1219     19.8361
   974.3000      7.8607      2.5137      0.0226      8.2631     64.1660     20.5438
   974.4000      7.8607      2.5095      0.0074      8.5139     61.5520     20.8457
   974.5000      7.8512      2.4977      0.0135      9.2320     57.3562     20.6907
   974.6000      7.8512      2.5000     -0.0109      9.0935     53.7066     20.6615
   974.7000      7.8512      2.5172      0.0208      8.0460     54.0486     20.7239
   974.8000      7.8609      2.5229      0.0489      7.7014     57.0738     20.7891
   974.9000      7.8609      2.5084      0.0122      8.5842     60.2256     20.8590
   975.0000      7.8658      2.4964     -0.0102      9.3062     64.4612     20.7847
   975.1000      7.8658      2.5015      0.0203      9.0013     66.3807     20.4836
   975.2000      7.8658      2.5202      0.0200      7.8683     62.7338     20.0456
   975.3000      7.8714      2.5423      0.0674      6.5281     58.3636     19.5666
   975.4000      7.8714      2.5562      0.0720      5.6828     56.0790     19.3178
   975.5000      7.8740      2.5653      0.0272      5.1362     54.2913     19.6297
   975.6000      7.8740      2.5674      0.1100      5.0051     54.4957     19.8220
   975.7000      7.8740      2.5470      0.0163      6.2398     58.7197     19.4945
   975.8000      7.8586      2.5155     -0.0086      8.1486     63.9301     19.4688
   975.9000      7.8586      2.4963     -0.0048      9.3130     65.9085     19.7147
   976.0000      7.8620      2.4963     -0.0127      9.3129     63.8602     20.0464
   976.1000      7.8620      2.5117      0.0012      8.3814     59.8774     20.4215
   976.2000      7.8620      2.5214      0.0061      7.7952     57.6395     19.9744
   976.3000      7.8563      2.5058      0.0036      8.7412     59.4092     18.8475
   976.4000      7.8563      2.4808     -0.0288     10.2557     61.9485     18.1831
   976.5000      7.8519      2.4743     -0.0292     10.6513     61.5373     18.1453
   976.6000      7.8519      2.4884     -0.0099      9.7947     60.3680     18.3209
   976.7000      7.8519      2.5066      0.0166      8.6906     60.0235     18.6985
   976.8000      7.8530      2.5193      0.0231      7.9237     59.7778     19.1769
   976.9000      7.8530      2.5279      0.0201      7.3995     60.2275     19.5015
   977.0000      7.8592      2.5345     -0.0125      6.9977     61.3959     19.7479
   977.1000      7.8592      2.5407      0.0074      6.6242     61.9497     19.7015
   977.2000      7.8592      2.5453      0.0366      6.3448     61.3390     18.8487
   977.3000      7.8629      2.5526      0.0299      5.9010     60.7936     17.9959
   977.4000      7.8629      2.5744      0.0184      4.5838     59.9852     18.1490
   977.5000      7.8654      2.6088      0.0411      2.4987     56.2652     18.7024
   977.6000      7.8654      2.6303      0.0794      1.1957     50.6002     18.4114
   977.7000      7.8654      2.6240      0.0136      1.5748     47.4743     17.4463
   977.8000      7.8726      2.6113      0.0063      2.3426     47.1366     16.7501
   977.9000      7.8726      2.6012      0.0572      2.9578     46.6669     16.4128
   978.0000      7.8587      2.5807     -0.0165      4.1972     46.8913     16.1993
   978.1000      7.8587      2.5563     -0.0038      5.6790     49.6303     15.6683
   978.2000      7.8587      2.5461     -0.0435      6.2971     52.9811     14.6210
   978.3000      7.8472      2.5626     -0.0238      5.2975     55.2251     13.8132
   978.4000      7.8472      2.5976      0.0228      3.1761     55.5983     13.8812
   978.5000      7.8580      2.6279      0.0178      1.3372     53.2974     14.5866
   978.6000      7.8580      2.6430      0.0492      0.4218     50.4574     15.1696
   978.7000      7.8580      2.6441      0.0806      0.3568     50.2478     15.3181
   978.8000      7.8642      2.6333      0.1034      1.0094     51.9813     15.3589
   978.9000      7.8642      2.6210      0.0222      1.7553     53.1261     15.3774
   979.0000      7.8648      2.6223      0.0575      1.6816     52.9370     15.4126
   979.1000      7.8648      2.6269      0.0847      1.3993     52.2814     15.3764
   979.2000      7.8648      2.6063      0.1270      2.6509     51.6237     15.1037
   979.3000      7.8390      2.5604      0.0143      5.4325     51.6474     15.0100
   979.4000      7.8390      2.5168      0.0044      8.0708     54.6537     15.4183
   979.5000      7.8256      2.4869     -0.0031      9.8838     60.2447     16.4366
   979.6000      7.8256      2.4709     -0.0157     10.8553     63.6699     17.7790
   979.7000      7.8256      2.4733      0.0010     10.7119     62.4888     18.4993
   979.8000      7.8464      2.4900      0.0212      9.6975     59.7184     18.5737
   979.9000      7.8464      2.5089      0.0554      8.5512     58.3088     19.1884
   980.0000      7.8506      2.5221      0.0862      7.7501     59.1648     20.3971
   980.1000      7.8506      2.5264      0.0384      7.4881     62.8153     21.0549
   980.2000      7.8506      2.5264      0.0273      7.4907     66.5975     20.5419
   980.3000      7.8533      2.5354     -0.0076      6.9476     66.0541     19.3856
   980.4000      7.8533      2.5573      0.0640      5.6152     61.4982     18.6020
   980.5000      7.8367      2.5727      0.0645      4.6840     57.5552     18.5874
   980.6000      7.8367      2.5587      0.0993      5.5351     56.7113     19.1365
   980.7000      7.8367      2.5177      0.0365      8.0209     57.6736     19.8513
