~Version Information
VERS.                      2.0: CWLS Log ASCII Standard - VERSION 2.0
WRAP.                       NO: One line per depth step
~Well Information Block
STRT.FT               588.6000: 
STOP.FT              2281.0000: 
STEP.FT                 0.1000: 
NULL.                -999.2500: 
COMP.          Petrogulf Corporation: COMPANY
WELL.             State 16-41V: WELL
FLD.           Purgatorie River: FIELD
LOC.           335' FNL & 823' FEL: LOCATION
CNTY.               Las Animas: COUNTY
SRVC.                         : SERVICE COMPANY
DATE.          Tue Aug 02 07:31:25 2005: LOG DATE
UWI.                          : UNIQUE WELL ID
STAT.                 Colorado: STATE
~Curve Information Block
DEPT.FT            0 000 00 00: Depth
DCAL.in                       : CDL Caliper
RHOB.g/cc                     : CDL Bulk Density
RHOC.g/cc                     : CDL Density Correction
DPOR.pu                       : CDL Density Porosity
GR.GAPI                       : Gamma Ray
NPOR.pu                       : Neutron Porosity
~Parameter Information Block
~A  Depth       DCAL        RHOB        RHOC        DPOR         GR         NPOR    
# ...
  1039.8000      8.1847      2.3828      0.0154     16.1959    112.7539     21.7348
  1039.9000      8.1847      2.3669      0.0130     17.1569    118.2813     21.5266
  1040.0000      8.1768      2.3488      0.0065     18.2573    126.1939     21.3870
  1040.1000      8.1768      2.3408      0.0225     18.7391    132.4615     21.3302
  1040.2000      8.1768      2.3440      0.0870     18.5429    134.7965     21.3642
  1040.3000      8.1734      2.3477      0.0714     18.3192    134.6915     21.4898
  1040.4000      8.1734      2.3512      0.1058     18.1083    133.1305     21.7009
  1040.5000      8.1838      2.3586      0.1593     17.6592    131.8644     21.9851
  1040.6000      8.1838      2.3693      0.1197     17.0111    132.4578     22.3250
  1040.7000      8.1838      2.3852      0.1317     16.0485    133.8912     22.7002
  1040.8000      8.2118      2.4044      0.1174     14.8856    133.8117     23.0891
  1040.9000      8.2118      2.4197      0.0901     13.9554    131.8923     23.4710
  1041.0000      8.1801      2.4340      0.0496     13.0881    130.9706     23.8277
  1041.1000      8.1801      2.4596      0.0522     11.5385    132.5864     24.1452
  1041.2000      8.1801      2.4945      0.0922      9.4214    135.4890     24.4136
  1041.3000      8.2110      2.5191      0.1170      7.9335    138.0964     24.6281
  1041.4000      8.2110      2.5247      0.0943      7.5945    138.2709     24.7880
  1041.5000      8.1699      2.5188      0.1064      7.9516    136.9779     24.8968
  1041.6000      8.1699      2.5054      0.0947      8.7664    137.7048     24.9609
  1041.7000      8.1699      2.4824      0.0443     10.1579    140.7064     24.9892
  1041.8000      8.1830      2.4504      0.0381     12.0982    145.0550     24.9922
  1041.9000      8.1830      2.4173      0.0244     14.1050    149.7378     24.9811
  1042.0000      8.1794      2.3963     -0.0152     15.3744    152.3634     24.9669
  1042.1000      8.1794      2.3952      0.0228     15.4421    153.4100     24.9599
  1042.2000      8.1794      2.4079      0.0507     14.6710    156.2367     24.9686
  1042.3000      8.1858      2.4215      0.0817     13.8495    160.7402     24.9994
  1042.4000      8.1858      2.4279      0.0919     13.4597    163.0410     25.0567
  1042.5000      8.1630      2.4305      0.0615     13.3020    163.1922     25.1419
  1042.6000      8.1630      2.4377      0.0810     12.8680    164.6031     25.2548
  1042.7000      8.1630      2.4467      0.1447     12.3221    165.8341     25.3940
  1042.8000      8.1484      2.4511      0.1107     12.0533    164.5306     25.5571
  1042.9000      8.1484      2.4566      0.1455     11.7204    164.3366     25.7422
  1043.0000      8.1760      2.4706      0.1137     10.8738    168.2318     25.9480
  1043.1000      8.1760      2.4917      0.1310      9.5968    170.1439     26.1741
  1043.2000      8.1760      2.5081      0.1358      8.6027    164.3678     26.4210
  1043.3000      8.2412      2.5147      0.1010      8.1977    155.9450     26.6893
  1043.4000      8.2412      2.5227      0.0696      7.7172    152.0590     26.9787
  1043.5000      8.2476      2.5351      0.0668      6.9649    152.4890     27.2873
  1043.6000      8.2476      2.5426      0.1198      6.5093    154.5203     27.6104
  1043.7000      8.2476      2.5467      0.0543      6.2614    155.6331     27.9403
  1043.8000      8.2515      2.5544      0.1213      5.7965    153.7260     28.2665
  1043.9000      8.2515      2.5606      0.0735      5.4200    151.9092     28.5763
  1044.0000      8.1918      2.5657      0.0147      5.1094    151.9155     28.8561
  1044.1000      8.1918      2.5757      0.0091      4.5035    151.6495     29.0931
  1044.2000      8.1918      2.5783      0.0711      4.3478    151.9546     29.2768
  1044.3000      8.1991      2.5554      0.0306      5.7348    153.9417     29.4001
  1044.4000      8.1991      2.5170     -0.0105      8.0585    155.4495     29.4604
  1044.5000      8.1638      2.4887     -0.0357      9.7738    154.3658     29.4592
  1044.6000      8.1638      2.4823     -0.0657     10.1634    151.3398     29.4016
  1044.7000      8.1638      2.4976     -0.0353      9.2343    147.5162     29.2955
  1044.8000      8.1491      2.5293     -0.0184      7.3167    144.0313     29.1502
  1044.9000      8.1491      2.5629      0.0542      5.2779    143.5042     28.9754
  1045.0000      8.1509      2.5769      0.0705      4.4274    145.4389     28.7800
  1045.1000      8.1509      2.5628      0.0738      5.2871    145.6700     28.5723
  1045.2000      8.1509      2.5372      0.0352      6.8366    144.1189     28.3590
  1045.3000      8.1331      2.5218      0.0257      7.7693    142.8545     28.1459
  1045.4000      8.1331      2.5216      0.0339      7.7827    141.0199     27.9373
  1045.5000      8.0975      2.5349      0.0371      6.9730    137.9795     27.7370
  1045.6000      8.0975      2.5537      0.1491      5.8375    135.3759     27.5476
  1045.7000      8.0975      2.5588      0.1123      5.5282    133.1702     27.3710
  1045.8000      8.0686      2.5500      0.0897      6.0614    132.4866     27.2083
  1045.9000      8.0686      2.5453      0.0952      6.3431    135.5373     27.0597
  1046.0000      8.0750      2.5517      0.1042      5.9573    139.8323     26.9256
  1046.1000      8.0750      2.5601      0.1458      5.4476    141.2221     26.8066
  1046.2000      8.0750      2.5630      0.1541      5.2737    139.3673     26.7041
  1046.3000      8.0728      2.5593      0.1673      5.4949    138.1723     26.6204
  1046.4000      8.0728      2.5476      0.1323      6.2045    138.5065     26.5593
  1046.5000      8.0738      2.5305      0.1100      7.2423    137.3093     26.5256
  1046.6000      8.0738      2.5178      0.1232      8.0110    137.4334     26.5248
  1046.7000      8.0738      2.5205      0.1012      7.8463    142.0445     26.5619
  1046.8000      8.0672      2.5427      0.1148      6.5039    146.2375     26.6415
  1046.9000      8.0672      2.5744      0.1563      4.5830    146.7069     26.7675
  1047.0000      8.0730      2.5980      0.2057      3.1488    146.2766     26.9421
  1047.1000      8.0730      2.6043      0.1687      2.7677    146.8925     27.1671
  1047.2000      8.0730      2.5952      0.1520      3.3230    149.3224     27.4439
  1047.3000      8.0751      2.5757      0.1406      4.5015    151.7173     27.7734
  1047.4000      8.0751      2.5503      0.1396      6.0436    150.6471     28.1574
  1047.5000      8.0648      2.5278      0.0614      7.4088    147.1694     28.5974
  1047.6000      8.0648      2.5227      0.0427      7.7122    144.0186     29.0946
  1047.7000      8.0648      2.5433      0.0438      6.4682    143.0735     29.6486
  1047.8000      8.0607      2.5906      0.0685      3.6006    144.1692     30.2557
  1047.9000      8.0607      2.6603      0.1086     -0.6217    143.5635     30.9075
  1048.0000      8.0498      2.7354      0.1619     -5.1765    138.3144     31.5896
  1048.1000      8.0498      2.7993      0.1692     -9.0503    130.4187     32.2807
  1048.2000      8.0498      2.8538      0.2093    -12.3525    123.5980     32.9535
  1048.3000      8.0465      2.9053      0.1895    -15.4711    117.3422     33.5751
  1048.4000      8.0465      2.9495      0.1678    -18.1531    109.3769     34.1104
  1048.5000      8.0435      2.9779      0.1362    -19.8732    100.7948     34.5249
  1048.6000      8.0435      2.9803      0.1729    -20.0173     93.7721     34.7878
  1048.7000      8.0435      2.9533      0.0941    -18.3808     89.3055     34.8755
  1048.8000      8.0494      2.9175     -0.0259    -16.2145     87.0130     34.7739
  1048.9000      8.0494      2.8962      0.0059    -14.9211     84.8999     34.4801
  1049.0000      8.0382      2.8841      0.0228    -14.1855     81.8495     34.0030
  1049.1000      8.0382      2.8718      0.0302    -13.4421     77.5853     33.3627
  1049.2000      8.0382      2.8683      0.0872    -13.2318     73.3195     32.5888
  1049.3000      8.0235      2.8757      0.1751    -13.6798     72.2453     31.7186
