~Version Information
VERS.                      2.0: CWLS Log ASCII Standard - VERSION 2.0
WRAP.                       NO: One line per depth step
~Well Information Block
STRT.FT               553.0000: 
STOP.FT              1576.5000: 
STEP.FT                 0.2500: 
NULL.                -999.2500: 
COMP.          Pioneer Natural Resources: COMPANY
WELL.           Telna 24-22 Tr: WELL
FLD.           Purgatoire River: FIELD
LOC.           748' FSL & 1931' FWL: LOCATION
PROV.                 Colorado: PROVINCE
CNTY.               Las Animas: COUNTRY
SRVC.                Patterson: SERVICE COMPANY
DATE.          Mon May 02 07:15:29 2005: LOG DATE
UWI.           05 071 08304 00: UNIQUE WELL ID
~Curve Information Block
DEPT.FT            0 000 00 00: Depth
DCAL.in                       : CDL Caliper
RHOB.g/cc                     : CDL Bulk Density
RHOC.g/cc                     : CDL Density Correction
DPOR.pu                       : CDL Density Porosity
GR.GAPI                       : Gamma Ray
NPOR.pu                       : Neutron Porosity
~Parameter Information Block
~A  Depth       DCAL        RHOB        RHOC        DPOR         GR         NPOR    
# ...
  1225.0000      7.8354      2.4850      0.0144     10.0014    102.5817     24.1046
  1225.2500      7.8374      2.4289     -0.0026     13.4019    119.7276     26.0157
  1225.5000      7.8436      2.4220     -0.0532     13.8203    112.4291     24.6781
  1225.7500      7.8561      2.4530      0.0730     11.9424    124.1099     27.0965
  1226.0000      7.8712      2.4447      0.0406     12.4440    131.6197     28.1266
  1226.2500      7.9006      2.4343      0.0301     13.0707    129.0409     27.0585
  1226.5000      7.9444      2.4072     -0.0230     14.7149    131.4993     27.8114
  1226.7500      7.9531      2.4586      0.1014     11.6025    136.8870     29.1385
  1227.0000      7.9169      2.4317      0.0051     13.2329    145.4991     30.2042
  1227.2500      7.8859      2.4112      0.0671     14.4731    131.8710     29.1389
  1227.5000      7.8730      2.3837      0.0050     16.1385    129.2361     30.4303
  1227.7500      7.8693      2.3596     -0.0166     17.5980    134.3474     30.9287
  1228.0000      7.8653      2.4130      0.0331     14.3622    128.3372     29.3144
  1228.2500      7.8568      2.4289      0.0240     13.3972    133.2433     29.5430
  1228.5000      7.8489      2.5045      0.1108      8.8203    135.2566     28.9513
  1228.7500      7.8472      2.4923      0.0813      9.5577    135.6029     30.4440
  1229.0000      7.8562      2.4713      0.0653     10.8298    141.9624     29.0075
  1229.2500      7.8649      2.4780      0.0624     10.4262    150.1905     30.1697
  1229.5000      7.8667      2.4553      0.0149     11.7971    153.5241     32.5668
  1229.7500      7.8692      2.4593      0.0485     11.5602    147.2374     31.2793
  1230.0000      7.8795      2.3524     -0.0232     18.0362    144.7737     29.1507
  1230.2500      7.9051      2.2013     -0.0593     27.1962    130.8566     29.9748
  1230.5000      7.9501      1.7902     -0.1495     52.1118     92.8706     30.5841
  1230.7500      8.0144      1.5148     -0.2206     68.7986     83.5946     31.7884
  1231.0000      8.0857      1.3193     -0.0235     80.6493     53.2611     33.3009
  1231.2500      8.1329      1.2357     -0.0610     85.7178     31.9162     32.7401
  1231.5000      8.1351      1.2352      0.0278     85.7467     22.2665     33.6375
  1231.7500      8.0788      1.2087      0.0215     87.3544     19.3492     37.0183
  1232.0000      7.9841      1.1368     -0.0734     91.7072     15.9177     35.7439
  1232.2500      7.9441      1.1099     -0.1363     93.3369     15.1056     34.1292
  1232.5000      7.9735      1.1219     -0.0834     92.6118      9.0483     33.4130
  1232.7500      8.0046      1.1254     -0.1110     92.3992     11.0025     35.7560
  1233.0000      7.9929      1.1176     -0.1261     92.8731     21.8428     35.7415
  1233.2500      7.9489      1.1193     -0.1478     92.7694     21.8940     35.6530
  1233.5000      7.9206      1.1532     -0.1080     90.7129     30.0958     34.6346
  1233.7500      7.9223      1.2714     -0.0609     83.5527     44.0447     34.4309
  1234.0000      7.9376      1.4720      0.0416     71.3950     65.5939     33.9682
  1234.2500      7.9552      1.4883      0.0002     70.4067     69.8180     33.2841
  1234.5000      7.9575      1.4360     -0.0305     73.5779     68.9882     34.5450
  1234.7500      7.9374      1.3100     -0.1731     81.2126     67.2208     33.2566
  1235.0000      7.9148      1.2576     -0.0780     84.3900     65.1089     32.2570
  1235.2500      7.8859      1.3783      0.0160     77.0727     67.9076     31.9385
  1235.5000      7.8662      1.5638      0.0696     65.8304     85.2672     33.6752
  1235.7500      7.8902      1.5877      0.1052     64.3797     91.8704     34.6749
  1236.0000      7.9458      1.5803     -0.0319     64.8289     98.7945     30.9282
  1236.2500      7.9626      1.6960      0.0397     57.8201    112.6075     32.5418
  1236.5000      7.9313      1.9882      0.2083     40.1080    130.6159     32.1400
  1236.7500      7.9199      2.1493      0.1954     30.3463    143.8960     33.2064
  1237.0000      7.9474      2.2189      0.0522     26.1251    143.4787     32.1138
  1237.2500      7.9811      2.1941      0.0308     27.6302    134.8509     30.7122
  1237.5000      7.9942      1.9433     -0.0630     42.8316    111.1601     31.1216
  1237.7500      7.9655      1.7142     -0.0686     56.7147    107.5249     30.9624
  1238.0000      7.9130      1.4917     -0.0718     70.2014    101.4199     30.0251
  1238.2500      7.9012      1.5426     -0.0205     67.1147     99.1195     31.0708
  1238.5000      7.9489      1.8815      0.1738     46.5757     88.3154     29.9763
  1238.7500      7.9686      2.0946      0.1380     33.6600     96.1222     27.0745
  1239.0000      8.0132      2.3818      0.1555     16.2526    115.1174     26.5073
  1239.2500      7.9408      2.4440      0.0105     12.4852    119.0363     26.5246
  1239.5000      7.8996      2.5316      0.1088      7.1772    111.6596     23.7241
  1239.7500      7.8855      2.4875      0.0224      9.8481    130.3812     21.8530
  1240.0000      7.8772      2.4628      0.0120     11.3485    135.0672     23.5577
  1240.2500      7.8711      2.4254      0.0196     13.6144    130.2051     23.1093
  1240.5000      7.8682      2.4957      0.0657      9.3512    122.6212     19.6741
  1240.7500      7.8701      2.5752      0.1062      4.5362    127.8361     18.3090
  1241.0000      7.8739      2.6327      0.1074      1.0503    101.0972     17.3412
  1241.2500      7.8757      2.5947      0.0628      3.3515     89.2264     15.3496
  1241.5000      7.8777      2.5652      0.0484      5.1386     88.9483     14.1626
  1241.7500      7.8824      2.5081      0.0594      8.6023     89.3482     13.9100
  1242.0000      7.8838      2.4276      0.0216     13.4816    108.2924     16.6924
  1242.2500      7.8808      2.4395      0.0606     12.7589    115.4606     18.1651
  1242.5000      7.8804      2.4725      0.0184     10.7575    133.4827     22.3599
  1242.7500      7.8814      2.5368      0.2065      6.8595    135.9687     20.9318
  1243.0000      7.8851      2.5152      0.1488      8.1718    119.6834     23.2339
  1243.2500      7.8885      2.5198      0.0995      7.8925    113.8559     23.3560
  1243.5000      7.8929      2.5154      0.0435      8.1603    111.2941     21.1206
  1243.7500      7.8951      2.5508      0.0098      6.0121     99.4239     22.3203
  1244.0000      7.8925      2.5732      0.0598      4.6559     91.6818     20.0434
  1244.2500      7.8875      2.5056     -0.0268      8.7489     91.7350     20.1952
  1244.5000      7.8844      2.4533     -0.0606     11.9198    117.4791     21.3764
  1244.7500      7.8814      2.4559     -0.0074     11.7625    116.3371     21.8426
  1245.0000      7.8751      2.4487      0.0399     12.2013    115.5701     19.5992
  1245.2500      7.8750      2.5040      0.0559      8.8491    119.6203     20.1248
  1245.5000      7.8841      2.5348      0.0589      6.9824    113.8433     20.1140
  1245.7500      7.8913      2.4962      0.0401      9.3228    115.4520     18.4603
  1246.0000      7.8875      2.4978      0.0082      9.2232    104.3580     18.6075
  1246.2500      7.8778      2.4959      0.0865      9.3390    109.7998     20.3793
  1246.5000      7.8725      2.4505      0.0633     12.0925    121.5377     21.3952
  1246.7500      7.8727      2.4766      0.0466     10.5118    125.8072     21.7907
  1247.0000      7.8717      2.5159      0.0865      8.1260    120.7217     21.5212
  1247.2500      7.8695      2.4981      0.0373      9.2070    121.9939     22.7683
  1247.5000      7.8700      2.4534      0.0122     11.9148    122.9206     25.3418
  1247.7500      7.8734      2.4791      0.0250     10.3603    121.7577     24.8240
  1248.0000      7.8781      2.4860      0.0030      9.9414    131.6315     20.9357
  1248.2500      7.8828      2.4318      0.0433     13.2214    130.9543     22.3411
  1248.5000      7.8836      2.4034      0.0274     14.9431    126.0899     24.3216
  1248.7500      7.8801      2.3878     -0.0025     15.8936    133.9425     23.8903
