~Version Information
VERS.                      2.0: CWLS Log ASCII Standard - VERSION 2.0
WRAP.                       NO: One line per depth step
~Well Information Block
STRT.FT               780.0000: 
STOP.FT              3152.2000: 
STEP.FT                 0.1000: 
NULL.                -999.2500: 
COMP.          Pioneer Natural Resources: COMPANY
WELL.            Paradise 13-8: WELL
FLD.           Purgatoire River: FIELD
LOC.           1896' FSL & 1120' FWL: LOCATION
PROV.                 Colorado: PROVINCE
CNTY.               Las Animas: COUNTRY
SRVC.                Patterson: SERVICE COMPANY
DATE.          Sat Jan 22 20:51:32 2005: LOG DATE
UWI.           05 071 07946 00: UNIQUE WELL ID
~Curve Information Block
DEPT.FT            0 000 00 00: Depth
DCAL.in                       : CDL Caliper
RHOB.g/cc                     : CDL Bulk Density
RHOC.g/cc                     : CDL Density Correction
DPOR.pu                       : CDL Density Porosity
NPOR.pu                       : Neutron Porosity
GR.GAPI                       : Gamma Ray
~Parameter Information Block
~A  Depth       DCAL        RHOB        RHOC        DPOR        NPOR         GR     
# ...
  2968.8000      7.8557      2.5708      0.0566      4.7989     19.3698    137.4439
  2968.9000      7.8557      2.5694      0.0654      4.8844     19.5619    135.5538
  2969.0000      7.8561      2.5578      0.0139      5.5878     19.3504    133.8711
  2969.1000      7.8561      2.5515      0.0356      5.9693     18.8717    129.2345
  2969.2000      7.8561      2.5486      0.0215      6.1437     18.6598    125.8881
  2969.3000      7.8590      2.5405      0.0261      6.6359     18.7661    130.2125
  2969.4000      7.8590      2.5288     -0.0009      7.3435     18.7426    138.5277
  2969.5000      7.8643      2.5213      0.0033      7.8019     18.7130    144.3825
  2969.6000      7.8643      2.5195      0.0160      7.9064     19.0529    147.3518
  2969.7000      7.8643      2.5193      0.0292      7.9212     19.6810    146.5764
  2969.8000      7.8678      2.5169      0.0298      8.0671     20.3008    139.2956
  2969.9000      7.8678      2.5104      0.0278      8.4588     20.6907    128.5003
  2970.0000      7.8681      2.5015      0.0078      8.9987     20.8275    122.5350
  2970.1000      7.8681      2.4973      0.0213      9.2529     20.7605    122.7086
  2970.2000      7.8681      2.4973      0.0119      9.2526     20.4457    124.6815
  2970.3000      7.8689      2.4909      0.0161      9.6422     19.9080    126.4985
  2970.4000      7.8689      2.4780      0.0007     10.4239     19.4946    129.3999
  2970.5000      7.8608      2.4723      0.0079     10.7680     19.5878    136.8540
  2970.6000      7.8608      2.4770      0.0073     10.4878     20.1096    144.9992
  2970.7000      7.8608      2.4858     -0.0012      9.9534     20.7152    147.3158
  2970.8000      7.8521      2.4962      0.0310      9.3210     21.2041    145.5703
  2970.9000      7.8521      2.5077      0.0320      8.6224     21.3637    142.6686
  2971.0000      7.8503      2.5196      0.0401      7.9024     21.0160    138.8062
  2971.1000      7.8503      2.5279      0.0677      7.4021     20.3234    136.6521
  2971.2000      7.8503      2.5335      0.0282      7.0636     19.6593    137.6821
  2971.3000      7.8495      2.5384      0.0286      6.7639     19.1324    136.3438
  2971.4000      7.8495      2.5317      0.0889      7.1724     18.5659    128.9737
  2971.5000      7.8483      2.5170     -0.0329      8.0612     17.9249    121.7977
  2971.6000      7.8483      2.5164      0.0313      8.0984     17.2792    120.1503
  2971.7000      7.8483      2.5344      0.0115      7.0067     16.8253    120.1806
  2971.8000      7.8492      2.5641      0.0234      5.2055     16.9193    117.5752
  2971.9000      7.8492      2.5937      0.0743      3.4126     17.3421    114.0764
  2972.0000      7.8495      2.6057      0.0517      2.6875     17.4996    113.2950
  2972.1000      7.8495      2.5941      0.0343      3.3885     17.2186    115.5909
  2972.2000      7.8495      2.5698      0.0541      4.8584     16.9826    119.6512
  2972.3000      7.8494      2.5554     -0.0067      5.7335     17.0516    123.4181
  2972.4000      7.8494      2.5653      0.0340      5.1328     17.2960    123.6998
  2972.5000      7.8492      2.5851      0.0708      3.9357     17.6625    120.8498
  2972.6000      7.8492      2.5971      0.0488      3.2039     17.8746    116.1196
  2972.7000      7.8492      2.5988      0.0697      3.1028     17.8865    109.2703
  2972.8000      7.8488      2.5814      0.0832      4.1552     18.1971    102.3700
  2972.9000      7.8488      2.5482      0.0355      6.1678     18.7493    100.4784
  2973.0000      7.8501      2.5278      0.0294      7.4040     18.9327    107.1214
  2973.1000      7.8501      2.5311      0.0540      7.2084     18.8070    116.2455
  2973.2000      7.8501      2.5381      0.0643      6.7822     18.6632    119.6141
  2973.3000      7.8518      2.5332      0.0511      7.0786     18.4188    120.0607
  2973.4000      7.8518      2.5190      0.0584      7.9408     18.0344    122.5261
  2973.5000      7.8514      2.5093      0.0126      8.5279     17.4652    123.5879
  2973.6000      7.8514      2.5138      0.0290      8.2549     16.7436    121.5526
  2973.7000      7.8514      2.5227      0.0684      7.7128     16.1556    119.5379
  2973.8000      7.8513      2.5283      0.0355      7.3764     15.7435    121.1679
  2973.9000      7.8513      2.5340      0.0741      7.0317     15.3485    123.9420
  2974.0000      7.8524      2.5365      0.0704      6.8758     15.1623    122.6784
  2974.1000      7.8524      2.5321      0.0520      7.1430     15.0461    119.2389
  2974.2000      7.8524      2.5245      0.0444      7.6073     14.3482    117.6839
  2974.3000      7.8504      2.5273     -0.0010      7.4341     13.2797    116.3973
  2974.4000      7.8504      2.5538      0.0735      5.8274     12.4704    113.5698
  2974.5000      7.8482      2.5959      0.0713      3.2787     12.0439    112.1799
  2974.6000      7.8482      2.6325      0.1513      1.0585     12.0492    111.6621
  2974.7000      7.8482      2.6497      0.0913      0.0161     12.3461    104.8335
  2974.8000      7.8491      2.6442      0.1111      0.3486     12.4864     92.0988
  2974.9000      7.8491      2.6184      0.0532      1.9137     12.2743     84.4436
  2975.0000      7.8503      2.5916      0.0522      3.5373     11.9328     83.6237
  2975.1000      7.8503      2.5829      0.0354      4.0670     11.7271     81.6239
  2975.2000      7.8503      2.5922      0.0379      3.5050     11.5509     77.3460
  2975.3000      7.8502      2.6105      0.0598      2.3948     11.1381     76.6235
  2975.4000      7.8502      2.6240      0.0627      1.5770     10.7276     80.5336
  2975.5000      7.8494      2.6243      0.0707      1.5571     10.7226     86.9551
  2975.6000      7.8494      2.6152      0.0464      2.1098     11.0197     95.4496
  2975.7000      7.8494      2.5966      0.0723      3.2388     11.2010    101.8219
  2975.8000      7.8488      2.5696      0.0231      4.8727     10.9228    102.0857
  2975.9000      7.8488      2.5512      0.0191      5.9877     10.3970     99.1070
  2976.0000      7.8479      2.5490      0.0176      6.1214     10.0633     91.1142
  2976.1000      7.8479      2.5569      0.0249      5.6402      9.9358     79.7550
  2976.2000      7.8479      2.5727      0.0296      4.6848     10.0520     77.0154
  2976.3000      7.8475      2.5918      0.0348      3.5271     10.8851     81.8945
  2976.4000      7.8475      2.6017      0.0866      2.9272     12.5019     83.9911
  2976.5000      7.8493      2.5947      0.0592      3.3528     14.1948     85.1914
  2976.6000      7.8493      2.5872      0.0228      3.8048     15.1786     90.4793
  2976.7000      7.8493      2.5992      0.0431      3.0812     15.1607     95.5718
  2976.8000      7.8514      2.6103      0.1050      2.4060     14.5204     98.5726
  2976.9000      7.8514      2.5905      0.0338      3.6033     13.9487    100.9773
  2977.0000      7.8497      2.5573      0.0347      5.6193     13.9223    100.8326
  2977.1000      7.8497      2.5455     -0.0010      6.3314     14.3562     99.6275
  2977.2000      7.8497      2.5637      0.0443      5.2331     14.5209     99.0514
  2977.3000      7.8473      2.5966      0.0598      3.2384     14.3164     97.1520
  2977.4000      7.8473      2.6229      0.0767      1.6400     14.4700     93.5615
  2977.5000      7.8471      2.6259      0.1112      1.4629     15.0874     90.3694
  2977.6000      7.8471      2.6098      0.0381      2.4367     15.5417     90.3649
  2977.7000      7.8471      2.5997      0.0836      3.0476     15.6386     94.3592
  2977.8000      7.8483      2.6055      0.0694      2.6953     15.6040    100.0169
  2977.9000      7.8483      2.6226      0.0427      1.6632     15.6293    103.5148
  2978.0000      7.8497      2.6492      0.0709      0.0497     15.8264    104.2602
  2978.1000      7.8497      2.6671      0.1384     -1.0390     16.0172    106.7709
  2978.2000      7.8497      2.6486      0.0964      0.0847     15.9884    110.8045
  2978.3000      7.8500      2.6007      0.0282      2.9872     16.0686    111.0749
