~Version Information
VERS.                      2.0: CWLS Log ASCII Standard - VERSION 2.0
WRAP.                       NO: One line per depth step
~Well Information Block
STRT.FT               806.0000: 
STOP.FT              1814.0000: 
STEP.FT                 0.2500: 
NULL.                -999.2500: 
COMP.          Pioneer Natural Resources: COMPANY
WELL.            Hill 33-22 Tr: WELL
FLD.           Purgatoire River: FIELD
LOC.           1573' FSL & 1585' FEL: LOCATION
PROV.                 Colorado: PROVINCE
CNTY.               Las Animas: COUNTRY
SRVC.                Patterson: SERVICE COMPANY
DATE.          Thu Apr 14 09:13:17 2005: LOG DATE
UWI.           05 071 08316 00: UNIQUE WELL ID
~Curve Information Block
DEPT.FT            0 000 00 00: Depth
SN.Ohm-m                      : IEL Short Normal
SP.mV                         : IEL Spontaneous Potential
DIR.Ohm-m                     : IEL Induction Resistivity
GR.GAPI                       : Gamma Ray
~Parameter Information Block
~A  Depth        SN          SP         DIR          GR     
# ...
  1074.0000      5.4573   -262.4129 100000.0000     86.5632
  1074.2500      5.6395   -290.5899 100000.0000     86.7874
  1074.5000      5.7120   -303.5894 100000.0000     82.7119
  1074.7500      5.5637   -301.7972 100000.0000     78.2968
  1075.0000      5.2657   -287.1792 100000.0000     71.8260
  1075.2500      4.9806   -264.0545 100000.0000     68.7077
  1075.5000      4.7939   -240.4745 100000.0000     66.4527
  1075.7500      4.6629   -226.1443 100000.0000     66.3834
  1076.0000      4.5817   -227.3466 100000.0000     67.6930
  1076.2500      4.6507   -243.5506 100000.0000     69.0678
  1076.5000      4.8634   -268.6626 100000.0000     71.2115
  1076.7500      5.0191   -295.1892 100000.0000     72.2816
  1077.0000      4.9975   -317.5958 100000.0000     72.6671
  1077.2500      4.9142   -332.9033 100000.0000     71.9294
  1077.5000      4.8742   -339.5970 100000.0000     69.6301
  1077.7500      4.8092   -336.9184 100000.0000     67.8400
  1078.0000      4.6711   -325.1572 100000.0000     66.2349
  1078.2500      4.5540   -306.2808 100000.0000     66.8549
  1078.5000      4.5501   -284.2953 100000.0000     71.4554
  1078.7500      4.6292   -264.3651 100000.0000     77.0856
  1079.0000      4.6949   -249.7940      9.3707     88.8846
  1079.2500      4.7033   -238.5150      1.9343     98.4854
  1079.5000      4.7106   -222.9561      0.7901    114.1497
  1079.7500      4.7962   -194.8501      0.3872    124.3717
  1080.0000      4.9850   -151.5294      0.2003    137.7425
  1080.2500      5.2832    -98.3169      0.1091    144.8566
  1080.5000      5.6937    -45.1901      0.0669    152.5540
  1080.7500      6.2253     -0.8376      0.0492    155.6040
  1081.0000      6.9189     31.1485      0.0449    157.1797
  1081.2500      7.7671     51.7608      0.0521    156.6788
  1081.5000      8.7505     63.4941      0.0767    154.6184
  1081.7500      9.9864     68.1105      0.1377    152.6922
  1082.0000     11.5842     66.8664      0.2763    149.0002
  1082.2500     13.3734     61.7885      0.5820    146.0900
  1082.5000     14.9405     55.7743      1.4032    141.7608
  1082.7500     15.9808     51.3042      5.7678    139.5304
  1083.0000     16.5292     49.3235 100000.0000    138.1879
  1083.2500     16.7458     49.2816 100000.0000    138.9456
  1083.5000     16.6284     49.9291 100000.0000    142.1913
  1083.7500     16.0770     50.1532 100000.0000    144.9667
  1084.0000     15.0681     49.4759 100000.0000    148.4023
  1084.2500     13.7380     48.0794 100000.0000    149.6300
  1084.5000     12.4064     46.4621 100000.0000    149.8328
  1084.7500     11.4415     45.0685 100000.0000    149.1371
  1085.0000     11.0381     44.1525 100000.0000    147.3332
  1085.2500     11.0929     43.8242 100000.0000    145.8071
  1085.5000     11.2956     44.1051 100000.0000    142.8595
  1085.7500     11.3942     44.9119 100000.0000    140.0859
  1086.0000     11.3522     46.0427 100000.0000    134.5406
  1086.2500     11.2690     47.2540 100000.0000    130.5216
  1086.5000     11.2239     48.3774 100000.0000    125.5658
  1086.7500     11.2234     49.3373 100000.0000    123.4218
  1087.0000     11.2601     50.0595 100000.0000    121.6815
  1087.2500     11.3203     50.4061 100000.0000    121.3526
  1087.5000     11.3729     50.2281 100000.0000    122.5100
  1087.7500     11.4491     49.4813 100000.0000    124.6089
  1088.0000     11.5435     48.2957 100000.0000    129.1822
  1088.2500     11.4506     46.9409 100000.0000    132.4071
  1088.5000     11.0173     45.7137    111.6833    136.4345
  1088.7500     10.4434     44.8236     20.5816    138.4379
  1089.0000     10.1079     44.3332     12.1412    140.6622
  1089.2500     10.2137     44.1561      9.3607    141.6261
  1089.5000     10.6377     44.1039      8.2195    141.8488
  1089.7500     11.0093     43.9758      7.7746    141.0107
  1090.0000     10.9686     43.6638      7.6851    138.7039
  1090.2500     10.4777     43.2038      7.8020    136.9527
  1090.5000      9.8438     42.7277      8.0603    134.5245
  1090.7500      9.4437     42.3532      8.4366    133.0789
  1091.0000      9.5270     42.1006      8.9207    131.2700
  1091.2500     10.1930     41.9059      9.4932    130.5577
  1091.5000     11.4094     41.7054     10.1111    130.6220
  1091.7500     12.8900     41.5116     10.7077    131.3059
  1092.0000     14.0060     41.4250     11.2122    132.6118
  1092.2500     14.2019     41.5918     11.5750    133.3923
  1092.5000     13.5335     42.1359     11.7784    134.7562
  1092.7500     12.5271     43.0763     11.8250    136.4013
  1093.0000     11.6434     44.2722     11.7237    140.8939
  1093.2500     11.0706     45.4633     11.4907    145.0802
  1093.5000     10.7760     46.3929     11.1584    151.3686
  1093.7500     10.5742     46.9142     10.7746    154.3530
  1094.0000     10.3416     47.0111     10.3867    156.3902
  1094.2500     10.2032     46.7542     10.0273    156.8214
  1094.5000     10.3255     46.2400      9.7085    157.8475
  1094.7500     10.6152     45.5466      9.4286    159.3233
  1095.0000     10.8036     44.7282      9.1819    162.4459
  1095.2500     10.7390     43.8485      8.9659    164.6804
  1095.5000     10.4907     43.0173      8.7838    167.5693
  1095.7500     10.2049     42.3843      8.6413    168.7534
  1096.0000      9.9297     42.0846      8.5428    168.6794
  1096.2500      9.6072     42.1751      8.4891    167.3763
  1096.5000      9.2315     42.6223      8.4781    164.5159
  1096.7500      8.9404     43.3357      8.5075    162.6638
  1097.0000      8.8717     44.1971      8.5758    160.1069
  1097.2500      9.0472     45.0668      8.6826    158.0497
  1097.5000      9.5028     45.8081      8.8276    153.6174
  1097.7500     10.3262     46.3392      9.0108    149.8445
  1098.0000     11.3938     46.6777      9.2334    144.0422
  1098.2500     12.2808     46.9302      9.4969    140.7654
  1098.5000     12.6474     47.2268      9.8003    137.2233
  1098.7500     12.5819     47.6450     10.1357    135.7285
  1099.0000     12.3991     48.1720     10.4860    134.6801
  1099.2500     12.3171     48.7222     10.8277    134.7337
  1099.5000     12.4323     49.1821     11.1414    135.6150
  1099.7500     12.7389     49.4484     11.4224    136.4841
  1100.0000     13.1718     49.4545     11.6852    138.1761
  1100.2500     13.6770     49.1924     11.9567    139.7391
  1100.5000     14.1455     48.7173     12.2622    142.6381
  1100.7500     14.4121     48.1205     12.6121    144.4749
  1101.0000     14.4359     47.4835     12.9946    146.2841
  1101.2500     14.3359     46.8521     13.3766    146.8278
  1101.5000     14.1950     46.2459     13.7130    147.1833
  1101.7500     14.0111     45.6875     13.9641    147.3170
  1102.0000     13.8422     45.2223     14.1165    147.2383
  1102.2500     13.7781     44.9176     14.1867    147.0180
  1102.5000     13.7854     44.8399     14.2050    147.1687
  1102.7500     13.7477     45.0207     14.1919    148.1763
  1103.0000     13.6503     45.4313     14.1495    151.3379
  1103.2500     13.6179     45.9817     14.0711    154.0575
  1103.5000     13.7129     46.5460     13.9554    157.5283
  1103.7500     13.8129     47.0041     13.8126    158.6825
  1104.0000     13.7522     47.2846     13.6602    158.4889
  1104.2500     13.4966     47.3860     13.5172    157.5968
  1104.5000     13.1686     47.3633     13.4001    156.1521
  1104.7500     12.9337     47.2890     13.3207    155.3804
  1105.0000     12.8548     47.2183     13.2847    154.5246
  1105.2500     12.9133     47.1728     13.2917    154.2140
  1105.5000     13.1341     47.1458     13.3363    154.3243
  1105.7500     13.4890     47.1194     13.4085    154.6461
  1106.0000     13.7960     47.0812     13.4961    154.6772
  1106.2500     13.9405     47.0323     13.5867    153.8947
  1106.5000     14.0209     46.9864     13.6694    151.3226
  1106.7500     14.1785     46.9638     13.7354    148.9504
  1107.0000     14.4412     46.9838     13.7775    144.8886
  1107.2500     14.7289     47.0526     13.7916    141.8847
