~Version Information
VERS.                      2.0: CWLS Log ASCII Standard - VERSION 2.0
WRAP.                       NO: One line per depth step
~Well Information Block
STRT.FT               425.0000: 
STOP.FT              2461.0000: 
STEP.FT                 0.2500: 
NULL.                -999.2500: 
COMP.          Evergreen Operating Corporation: COMPANY
WELL.              Nomad 32-10: WELL
FLD.           Purgatorie River: FIELD
LOC.           2281' FNL & 1585' FEL: LOCATION
PROV.                 Colorado: PROVINCE
CNTY.               Las Animas: COUNTRY
SRVC.                Patterson: SERVICE COMPANY
DATE.          Thu Aug 12 02:01:07 2004: LOG DATE
UWI.           05 071 08127 00: UNIQUE WELL ID
~Curve Information Block
DEPT.FT            0 000 00 00: Depth
SN.Ohm-m                      : IEL Short Normal
SP.mV                         : IEL Spontaneous Potential
DIR.Ohm-m                     : IEL Induction Resistivity
GR.GAPI                       : Gamma Ray
~Parameter Information Block
~A  Depth        SN          SP         DIR          GR     
# ...
  2033.0000     28.3666    155.0881     26.7753     48.5310
  2033.2500     28.6117    154.9844     26.7573     47.7597
  2033.5000     28.9335    154.9120     26.8820     47.5482
  2033.7500     29.3008    154.8844     27.1594     47.7516
  2034.0000     29.6548    154.9050     27.5389     47.6605
  2034.2500     29.9581    154.9649     27.9415     46.8519
  2034.5000     30.2035    155.0464     28.2962     44.2883
  2034.7500     30.3960    155.1309     28.5566     42.0014
  2035.0000     30.5373    155.2093     28.6934     38.8635
  2035.2500     30.6217    155.2856     28.6877     37.7641
  2035.5000     30.6297    155.3712     28.5347     38.6114
  2035.7500     30.5235    155.4766     28.2502     40.9976
  2036.0000     30.2681    155.6062     27.8703     47.0576
  2036.2500     29.8551    155.7572     27.4419     52.7766
  2036.5000     29.3050    155.9197     27.0138     64.7020
  2036.7500     28.6555    156.0788     26.6300     75.3826
  2037.0000     27.9450    156.2186     26.3199     94.7484
  2037.2500     27.2208    156.3276     26.0870    108.0084
  2037.5000     26.5793    156.4052     25.9061    123.5802
  2037.7500     26.1434    156.4616     25.7351    128.5522
  2038.0000     25.9466    156.5089     25.5401    126.1702
  2038.2500     25.8968    156.5507     25.3148    118.8472
  2038.5000     25.8837    156.5818     25.0815    102.9275
  2038.7500     25.8479    156.5983     24.8736     91.6508
  2039.0000     25.7648    156.6078     24.7107     77.4000
  2039.2500     25.6421    156.6272     24.5779     70.6670
  2039.5000     25.5230    156.6702     24.4245     64.5852
  2039.7500     25.4574    156.7327     24.1854     62.6437
  2040.0000     25.4596    156.7948     23.8167     61.7189
  2040.2500     25.4841    156.8378     23.3159     61.6238
  2040.5000     25.4502    156.8618     22.7103     61.1907
  2040.7500     25.3064    156.8876     22.0282     60.7231
  2041.0000     25.0599    156.9406     21.2874     60.6471
  2041.2500     24.7233    157.0364     20.5081     61.3478
  2041.5000     24.2363    157.1805     19.7290     63.3112
  2041.7500     23.4807    157.3790     19.0027     65.2065
  2042.0000     22.3994    157.6415     18.3748     70.0688
  2042.2500     21.0819    157.9726     17.8655     75.8348
  2042.5000     19.7172    158.3588     17.4670     89.9068
  2042.7500     18.4718    158.7633     17.1526    102.8980
  2043.0000     17.4237    159.1371     16.8901    125.3184
  2043.2500     16.5904    159.4458     16.6496    139.6170
  2043.5000     15.9617    159.6918     16.4061    155.8238
  2043.7500     15.5145    159.9105     16.1405    161.9969
  2044.0000     15.2506    160.1407     15.8457    165.0329
  2044.2500     15.2046    160.3943     15.5343    163.9923
  2044.5000     15.3806    160.6486     15.2407    159.0091
  2044.7500     15.7111    160.8636     15.0098    153.4760
  2045.0000     16.1085    161.0097     14.8795    141.8545
  2045.2500     16.5234    161.0865     14.8677    132.3150
  2045.5000     16.9298    161.1177     14.9682    116.6072
  2045.7500     17.2877    161.1245     15.1564    105.8667
  2046.0000     17.5480    161.1065     15.3990     90.0869
  2046.2500     17.6868    161.0491     15.6637     80.2031
  2046.5000     17.7164    160.9454     15.9227     67.3937
  2046.7500     17.6585    160.8082     16.1499     60.9318
  2047.0000     17.5100    160.6632     16.3185     55.0836
  2047.2500     17.2646    160.5354     16.4069     53.4515
  2047.5000     16.9905    160.4404     16.4114     52.7023
  2047.7500     16.8267    160.3809     16.3520     52.2736
  2048.0000     16.8342    160.3475     16.2622     51.0428
  2048.2500     16.9259    160.3203     16.1690     50.1539
  2048.5000     16.9985    160.2767     16.0798     49.6796
  2048.7500     17.0267    160.2019     15.9847     50.2638
  2049.0000     17.0255    160.0972     15.8718     52.2853
  2049.2500     17.0225    159.9784     15.7444     53.8607
  2049.5000     17.0500    159.8640     15.6286     55.4422
  2049.7500     17.1232    159.7648     15.5661     55.5753
  2050.0000     17.2424    159.6801     15.5980     54.3818
  2050.2500     17.4081    159.5987     15.7473     52.8094
  2050.5000     17.6146    159.5003     16.0081     49.4354
  2050.7500     17.8551    159.3614     16.3483     46.6502
  2051.0000     18.1350    159.1708     16.7241     42.4508
  2051.2500     18.4588    158.9414     17.0981     40.3531
  2051.5000     18.8144    158.7065     17.4485     39.1411
  2051.7500     19.1862    158.5015     17.7667     39.5448
  2052.0000     19.5730    158.3487     18.0506     41.0317
  2052.2500     19.9779    158.2545     18.3024     42.0712
  2052.5000     20.3941    158.2108     18.5289     43.3121
  2052.7500     20.8059    158.1975     18.7392     43.9746
  2053.0000     21.1844    158.1924     18.9405     45.1554
  2053.2500     21.5063    158.1811     19.1367     46.5003
  2053.5000     21.7857    158.1611     19.3307     50.0927
  2053.7500     22.0566    158.1340     19.5265     53.7267
  2054.0000     22.3305    158.0965     19.7273     60.9284
  2054.2500     22.5958    158.0391     19.9314     66.6807
  2054.5000     22.8314    157.9570     20.1270     75.9413
  2054.7500     23.0078    157.8610     20.2918     81.7359
  2055.0000     23.1144    157.7795     20.3956     88.4211
  2055.2500     23.1897    157.7476     20.4038     91.0169
  2055.5000     23.2851    157.7907     20.2790     91.7338
  2055.7500     23.3946    157.9125     19.9859     90.0826
  2056.0000     23.4401    158.0962     19.5040     85.1435
  2056.2500     23.3128    158.3153     18.8435     81.2088
  2056.5000     22.9224    158.5489     18.0476     76.3845
  2056.7500     22.2240    158.7929     17.1786     74.7761
  2057.0000     21.2120    159.0705     16.2959     75.4676
  2057.2500     19.9291    159.4324     15.4448     77.9819
  2057.5000     18.5159    159.9377     14.6558     84.3450
  2057.7500     17.1754    160.6187     13.9497     90.0047
  2058.0000     16.0276    161.4525     13.3402    100.3292
  2058.2500     15.0665    162.3598     12.8335    108.2451
  2058.5000     14.2613    163.2351     12.4261    120.6648
  2058.7500     13.6219    163.9906     12.1051    128.2417
  2059.0000     13.1693    164.5876     11.8494    136.5106
  2059.2500     12.9020    165.0357     11.6333    139.2324
  2059.5000     12.7946    165.3679     11.4319    139.4750
  2059.7500     12.8018    165.6117     11.2302    138.0598
  2060.0000     12.8739    165.7790     11.0319    135.2803
  2060.2500     12.9943    165.8736     10.8604    133.3417
  2060.5000     13.1897    165.9033     10.7518    129.8929
  2060.7500     13.4900    165.8876     10.7426    127.0813
  2061.0000     13.8765    165.8567     10.8604    122.8477
  2061.2500     14.2779    165.8415     11.1188    120.8577
  2061.5000     14.6569    165.8568     11.5155    120.3040
  2061.7500     15.0698    165.8916     12.0336    121.7276
  2062.0000     15.5779    165.9179     12.6427    125.8036
  2062.2500     16.1773    165.9156     13.3006    129.0160
  2062.5000     16.8403    165.8896     13.9526    133.2380
  2062.7500     17.5723    165.8637     14.5352    134.8937
  2063.0000     18.4276    165.8596     14.9891    134.1201
  2063.2500     19.4593    165.8834     15.2817    130.6966
  2063.5000     20.6324    165.9259     15.4202    121.1213
  2063.7500     21.8133    165.9725     15.4447    112.6573
  2064.0000     22.8355    166.0141     15.4073     99.6866
  2064.2500     23.5232    166.0514     15.3513     92.7462
  2064.5000     23.7015    166.0914     15.2991     86.7884
  2064.7500     23.2813    166.1408     15.2482     85.5337
  2065.0000     22.3325    166.2040     15.1749     86.1356
  2065.2500     21.0494    166.2855     15.0485     87.7698
  2065.5000     19.6445    166.3930     14.8458     92.8815
  2065.7500     18.2531    166.5363     14.5582     98.6105
  2066.0000     16.9104    166.7227     14.1894    109.8521
  2066.2500     15.6281    166.9494     13.7493    117.4739
