~Version Information
VERS.                      2.0: CWLS Log ASCII Standard - VERSION 2.0
WRAP.                       NO: One line per depth step
~Well Information Block
STRT.FT               998.8000: 
STOP.FT              2235.5000: 
STEP.FT                 0.1000: 
NULL.                -999.2500: 
COMP.          Petrogulf Corporation: COMPANY
WELL.          Latiluppe 8-13R: WELL
FLD.           Purgatorie River: FIELD
LOC.           1495' FSL & 946' FWL: LOCATION
CNTY.               Las Animas: COUNTY
SRVC.                         : SERVICE COMPANY
DATE.          Wed Apr 21 10:46:16 2004: LOG DATE
UWI.           05 071 08035 00: UNIQUE WELL ID
STAT.                 Colorado: STATE
~Curve Information Block
DEPT.FT            0 000 00 00: Depth
DCAL.in                       : CDL Caliper
RHOB.g/cc                     : CDL Bulk Density
RHOC.g/cc                     : CDL Density Correction
DPOR.pu                       : CDL Density Porosity
NPOR.pu                       : Neutron Porosity
GR.GAPI                       : Gamma Ray
~Parameter Information Block
~A  Depth       DCAL        RHOB        RHOC        DPOR        NPOR         GR     
# ...
  2035.6000      7.6949      2.5489      0.0856      6.1298     23.8552    131.4324
  2035.7000      7.6949      2.5322      0.0470      7.1401     24.8787    132.4648
  2035.8000      7.6990      2.5336     -0.0095      7.0559     25.7244    127.3609
  2035.9000      7.6990      2.5637      0.0354      5.2331     26.2750    120.0130
  2036.0000      7.6856      2.6008      0.1322      2.9793     26.5436    115.4789
  2036.1000      7.6856      2.6245      0.1020      1.5428     26.7884    117.0479
  2036.2000      7.6856      2.6398      0.1332      0.6199     27.1236    124.0776
  2036.3000      7.6884      2.6497      0.1270      0.0171     27.2001    129.8885
  2036.4000      7.6884      2.6473      0.1272      0.1616     26.8949    131.9174
  2036.5000      7.6906      2.6304      0.1222      1.1860     26.3712    133.3502
  2036.6000      7.6906      2.6078      0.0841      2.5595     25.7076    136.0966
  2036.7000      7.6906      2.5900      0.0433      3.6367     25.2129    139.3697
  2036.8000      7.6871      2.5794      0.0376      4.2758     25.2576    139.9132
  2036.9000      7.6871      2.5761      0.0090      4.4803     25.6784    135.1053
  2037.0000      7.6738      2.5825      0.0573      4.0898     25.9963    127.3737
  2037.1000      7.6738      2.5885      0.0973      3.7261     26.0985    120.9559
  2037.2000      7.6738      2.5797      0.0629      4.2582     26.3026    117.5030
  2037.3000      7.6799      2.5595      0.0432      5.4857     26.6962    117.3922
  2037.4000      7.6799      2.5432      0.0298      6.4747     27.0625    118.9847
  2037.5000      7.6791      2.5414      0.0319      6.5844     27.4899    119.9128
  2037.6000      7.6791      2.5491      0.0436      6.1121     28.0732    121.2055
  2037.7000      7.6791      2.5492      0.1103      6.1068     28.6340    125.9437
  2037.8000      7.6821      2.5368      0.0493      6.8607     29.0741    133.8738
  2037.9000      7.6821      2.5316      0.0330      7.1774     29.1931    140.4885
  2038.0000      7.6749      2.5438      0.0318      6.4357     28.9321    142.6701
  2038.1000      7.6749      2.5608      0.0941      5.4055     28.7456    143.8843
  2038.2000      7.6749      2.5759      0.0861      4.4916     28.7629    148.9226
  2038.3000      7.6766      2.5964      0.1085      3.2458     28.6933    155.7372
  2038.4000      7.6766      2.6208      0.1243      1.7710     28.4796    162.2322
  2038.5000      7.6702      2.6411      0.1019      0.5386     28.2753    167.9704
  2038.6000      7.6702      2.6505      0.1783     -0.0313     28.2571    171.2733
  2038.7000      7.6702      2.6313      0.1775      1.1325     28.1362    173.8861
  2038.8000      7.6770      2.5805      0.1142      4.2139     27.5641    178.4487
  2038.9000      7.6770      2.5238      0.0588      7.6509     27.0262    182.2737
  2039.0000      7.6950      2.4861      0.0379      9.9361     27.0355    181.8169
  2039.1000      7.6950      2.4766      0.0406     10.5090     27.2090    179.1812
  2039.2000      7.6950      2.4883      0.0655      9.8004     27.0305    178.7789
  2039.3000      7.7103      2.5063      0.0641      8.7107     26.5162    180.1283
  2039.4000      7.7103      2.5223      0.0714      7.7421     25.9846    179.8326
  2039.5000      7.7108      2.5298      0.0848      7.2848     25.6368    176.9085
  2039.6000      7.7108      2.5303      0.0726      7.2545     25.4910    174.3726
  2039.7000      7.7108      2.5311      0.1189      7.2035     25.4843    172.9017
  2039.8000      7.7123      2.5345      0.0546      7.0002     25.3671    169.2375
  2039.9000      7.7123      2.5433      0.0958      6.4642     24.8429    163.8449
  2040.0000      7.7275      2.5556      0.0939      5.7184     24.0864    161.5185
  2040.1000      7.7275      2.5637      0.1178      5.2324     23.5562    163.0949
  2040.2000      7.7275      2.5649      0.0875      5.1572     23.2416    162.6984
  2040.3000      7.7148      2.5638      0.0766      5.2249     22.8100    158.1416
  2040.4000      7.7148      2.5578      0.0918      5.5898     22.3399    153.4702
  2040.5000      7.7155      2.5467      0.0589      6.2581     22.3962    148.1153
  2040.6000      7.7155      2.5465      0.0468      6.2703     23.0869    140.4267
  2040.7000      7.7155      2.5594      0.0982      5.4903     23.7294    135.7304
  2040.8000      7.7123      2.5650      0.0482      5.1525     24.0219    136.7861
  2040.9000      7.7123      2.5554      0.0994      5.7311     24.2018    137.8584
  2041.0000      7.7126      2.5463      0.0539      6.2876     24.2896    136.3169
  2041.1000      7.7126      2.5512      0.1183      5.9899     24.2277    136.3139
  2041.2000      7.7126      2.5639      0.0644      5.2152     24.1005    137.8865
  2041.3000      7.7042      2.5778      0.0667      4.3777     23.9946    138.5323
  2041.4000      7.7042      2.5886      0.1168      3.7185     24.0797    138.7950
  2041.5000      7.7022      2.5869      0.0857      3.8267     24.4887    136.5213
  2041.6000      7.7022      2.5717      0.0727      4.7437     25.2713    132.5352
  2041.7000      7.7022      2.5598      0.0310      5.4658     26.0954    132.5004
  2041.8000      7.7095      2.5665      0.0722      5.0582     26.3424    135.4555
  2041.9000      7.7095      2.5908      0.0400      3.5907     25.9440    136.0607
  2042.0000      7.7081      2.6180      0.0877      1.9377     25.6010    134.9599
  2042.1000      7.7081      2.6265      0.1094      1.4228     25.8059    132.1275
  2042.2000      7.7081      2.6109      0.0617      2.3682     26.0542    125.8196
  2042.3000      7.7010      2.5921      0.0239      3.5067     25.9073    118.7958
  2042.4000      7.7010      2.5836      0.0202      4.0227     25.6659    114.1610
  2042.5000      7.7100      2.5776      0.0532      4.3863     25.5083    112.2405
  2042.6000      7.7100      2.5691      0.0161      4.9027     25.3768    113.1029
  2042.7000      7.7100      2.5620      0.0466      5.3321     25.2498    115.3105
  2042.8000      7.7094      2.5601      0.0001      5.4484     25.1433    113.6073
  2042.9000      7.7094      2.5694      0.0145      4.8852     25.0669    107.7814
  2043.0000      7.7045      2.5883      0.0610      3.7388     24.9420    101.9145
  2043.1000      7.7045      2.6036      0.0217      2.8111     24.7807     96.7596
  2043.2000      7.7045      2.6057      0.0555      2.6871     24.7076     94.3534
  2043.3000      7.7070      2.5996      0.0297      3.0556     24.9218     97.9668
  2043.4000      7.7070      2.6017      0.0596      2.9287     25.2139    104.9736
  2043.5000      7.7060      2.6112      0.0887      2.3510     24.8761    109.1671
  2043.6000      7.7060      2.6115      0.1060      2.3308     24.1251    106.6146
  2043.7000      7.7060      2.6042      0.0530      2.7781     23.8856    100.5466
  2043.8000      7.6960      2.6058      0.0670      2.6768     24.0249     97.9998
  2043.9000      7.6960      2.6118      0.1274      2.3140     23.8805     99.1950
  2044.0000      7.7046      2.6056      0.0785      2.6889     23.6060    100.0313
  2044.1000      7.7046      2.5913      0.0713      3.5577     23.6778    102.3942
  2044.2000      7.7046      2.5783      0.0437      4.3453     23.8360    108.8444
  2044.3000      7.7278      2.5651      0.0243      5.1429     23.4649    113.9703
  2044.4000      7.7278      2.5425      0.0516      6.5141     22.6414    113.3746
  2044.5000      7.7294      2.5066     -0.0034      8.6919     21.8250    110.1506
  2044.6000      7.7294      2.4724     -0.0029     10.7640     21.0864    107.3723
  2044.7000      7.7294      2.4581      0.0150     11.6317     20.2331    102.9024
  2044.8000      7.7288      2.4624      0.0158     11.3669     19.2711     95.5521
  2044.9000      7.7288      2.4668      0.0346     11.1031     18.4148     86.7474
  2045.0000      7.7335      2.4590      0.0240     11.5765     17.8155     79.6566
  2045.1000      7.7335      2.4445      0.0246     12.4543     17.5348     77.8126
