~Version Information
VERS.                      2.0: CWLS Log ASCII Standard - VERSION 2.0
WRAP.                       NO: One line per depth step
~Well Information Block
STRT.FT                -7.2500: 
STOP.FT              2827.7500: 
STEP.FT                 0.2500: 
NULL.                -999.2500: 
COMP.          Pioneer Natural Resources: COMPANY
WELL.           Ei-ei-oh 31-24: WELL
FLD.           Purgatorie River: FIELD
LOC.           235' FNL & 2001' FEL--: LOCATION
PROV.                       CO: PROVINCE
CNTY.               Las Animas: COUNTRY
SRVC.          Patterson Wireline: SERVICE COMPANY
DATE.          Tue Aug 23 12:06:00 2005: LOG DATE
UWI.           05 071 08403 00: UNIQUE WELL ID
~Curve Information Block
DEPT.FT            0 000 00 00: Depth
CCL.                          : Casing Collar Locator
TT3.usec                      : CBL 3' Travel Time
AMP3.mV                       : CBL 3' Amplitude
GR.GAPI                       : Gamma Ray
~Parameter Information Block
~A  Depth       CCL         TT3         AMP3         GR     
# ...
   562.2500      0.0000    261.5102     76.5344    122.4583
   562.5000      0.0000    261.6616     76.1228    125.2895
   562.7500      0.0000    262.1145     74.9752    121.0901
   563.0000      0.0000    263.0382     72.6470    110.6725
   563.2500      0.0000    264.4641     68.9917     97.2667
   563.5000      0.0000    266.1690     64.4444     84.9234
   563.7500      0.0000    267.7481     59.9612     76.2720
   564.0000      0.0000    268.8750     56.4952     71.4675
   564.2500      0.0000    269.5019     54.4126     69.1801
   564.5000      0.0000    269.8284     53.4112     68.2401
   564.7500      2.0000    270.1574     52.9351     68.1455
   565.0000     -2.0000    270.8244     52.5555     68.4254
   565.2500      0.0000    272.1029     52.0744     68.3198
   565.5000      0.0000    273.8737     51.5674     67.5115
   565.7500      0.0000    275.2958     51.4774     66.8527
   566.0000      0.0000    275.1526     52.5096     67.6759
   566.2500      0.0000    272.9094     55.1964     70.2477
   566.5000      0.0000    269.3366     59.4640     73.4042
   566.7500      0.0000    265.8632     64.5586     75.8270
   567.0000      0.0000    263.4449     69.3816     77.2668
   567.2500      0.0000    262.1645     73.0444     78.4883
   567.5000      0.0000    261.6250     75.2764     80.5368
   567.7500      0.0000    261.4288     76.3771     84.2503
   568.0000      0.0000    261.3546     76.8367     90.0632
   568.2500      0.0000    261.3189     77.0219     97.7988
   568.5000      0.0000    261.3007     77.1039    106.5807
   568.7500      0.0000    261.2929     77.1350    115.2095
   569.0000      0.0000    261.2904     77.1273    122.9391
   569.2500      0.0000    261.2890     77.0897    129.7387
   569.5000      0.0000    261.2867     77.0293    135.4913
   569.7500      0.0000    261.2842     76.9521    139.1815
   570.0000      0.0000    261.2817     76.8748    139.4655
   570.2500      0.0000    261.2786     76.8267    136.1922
   570.5000      0.0000    261.2744     76.8331    131.0199
   570.7500      0.0000    261.2702     76.8970    126.1823
   571.0000      0.0000    261.2679     76.9939    122.5377
   571.2500      0.0000    261.2675     77.0794    118.9615
   571.5000      0.0000    261.2666     77.1125    113.9903
   571.7500      0.0000    261.2617     77.0900    108.0886
   572.0000      0.0000    261.2506     77.0554    103.9444
   572.2500      0.0000    261.2346     77.0627    104.4522
   572.5000      0.0000    261.2198     77.1248    110.6380
   572.7500      0.0000    261.2145     77.2018    121.2979
   573.0000      0.0000    261.2235     77.2396    134.0894
   573.2500      0.0000    261.2449     77.2175    146.8400
   573.5000      0.0000    261.2714     77.1659    157.9095
   573.7500      0.0000    261.2959     77.1335    165.6453
   574.0000      0.0000    261.3147     77.1408    168.4019
   574.2500      0.0000    261.3275     77.1668    165.6490
   574.5000      0.0000    261.3351     77.1788    158.7490
   574.7500      0.0000    261.3393     77.1571    150.3341
   575.0000      0.0000    261.3412     77.0980    142.9330
   575.2500      0.0000    261.3393     77.0158    138.0430
   575.5000      0.0000    261.3293     76.9486    136.2009
   575.7500      0.0000    261.3095     76.9395    137.5361
   576.0000      0.0000    261.2867     76.9948    141.9178
   576.2500      0.0000    261.2735     77.0674    148.5320
   576.5000      0.0000    261.2792     77.0886    155.5592
   576.7500      0.0000    261.3017     77.0206    160.6875
   577.0000      0.0000    261.3298     76.8821    162.5142
   577.2500      0.0000    261.3528     76.7278    161.7118
   577.5000      0.0000    261.3674     76.6044    160.4478
   577.7500      0.0000    261.3765     76.5310    160.1717
   578.0000      0.0000    261.3833     76.5131    159.8641
   578.2500      0.0000    261.3885     76.5614    156.8351
   578.5000      0.0000    261.3908     76.6832    149.6028
   578.7500      0.0000    261.3889     76.8565    139.8776
   579.0000      0.0000    261.3833     77.0229    131.5044
   579.2500      0.0000    261.3763     77.1180    127.4977
   579.5000      0.0000    261.3701     77.1129    128.1027
   579.7500      0.0000    261.3651     77.0299    131.2375
   580.0000      0.0000    261.3619     76.9245    134.2246
   580.2500      0.0000    261.3618     76.8512    135.1918
   580.5000      0.0000    261.3657     76.8381    133.5288
   580.7500      0.0000    261.3711     76.8812    129.8101
   581.0000      0.0000    261.3727     76.9510    125.5590
   581.2500      0.0000    261.3667     77.0139    122.5286
   581.5000      0.0000    261.3533     77.0621    121.4499
   581.7500      0.0000    261.3369     77.1165    121.3376
   582.0000      0.0000    261.3235     77.1904    120.1673
   582.2500      0.0000    261.3184     77.2566    116.2431
   582.5000      0.0000    261.3231     77.2680    109.0950
   582.7500      0.0000    261.3339     77.2128     99.5650
   583.0000      0.0000    261.3430     77.1397     89.3889
   583.2500      0.0000    261.3423     77.1215     80.5129
   583.5000      0.0000    261.3278     77.1894     74.4333
   583.7500      0.0000    261.3028     77.3026     71.6995
   584.0000      0.0000    261.2775     77.3855     71.5386
   584.2500      0.0000    261.2639     77.3959     72.0844
   584.5000      0.0000    261.2690     77.3522     71.5434
   584.7500      0.0000    261.2917     77.2949     69.4728
   585.0000      0.0000    261.3228     77.2445     66.9021
   585.2500      0.0000    261.3496     77.2057     65.2887
   585.5000      0.0000    261.3621     77.1893     65.5144
   585.7500      0.0000    261.3582     77.2048     67.8611
   586.0000      0.0000    261.3430     77.2440     72.3768
   586.2500      0.0000    261.3234     77.2853     78.6447
   586.5000      0.0000    261.3058     77.3116     85.3048
   586.7500      0.0000    261.2944     77.3121     90.3971
   587.0000      0.0000    261.2911     77.2742     92.4956
   587.2500      0.0000    261.2937     77.1888     91.4786
   587.5000      0.0000    261.2972     77.0741     88.2535
   587.7500      0.0000    261.2996     76.9804     83.8383
   588.0000      0.0000    261.3053     76.9526     78.7219
   588.2500      0.0000    261.3198     76.9854     73.0662
   588.5000      0.0000    261.3414     77.0293     67.2821
   588.7500      0.0000    261.3609     77.0455     62.1385
   589.0000      0.0000    261.3694     77.0428     58.3980
   589.2500      0.0000    261.3664     77.0555     56.4828
   589.5000      0.0000    261.3586     77.0958     56.1703
   589.7500      0.0000    261.3538     77.1404     56.3307
   590.0000      0.0000    261.3532     77.1619     55.4832
   590.2500      0.0000    261.3522     77.1589     53.3132
   590.5000      0.0000    261.3464     77.1500     51.4317
   590.7500      0.0000    261.3351     77.1512     52.0337
   591.0000      0.0000    261.3214     77.1661     55.9186
   591.2500      0.0000    261.3099     77.1897     62.3058
   591.5000      0.0000    261.3047     77.2079     70.4201
   591.7500      0.0000    261.3079     77.2030     80.5529
   592.0000      0.0000    261.3188     77.1700     93.0436
   592.2500      0.0000    261.3345     77.1259    106.3521
   592.5000      0.0000    261.3523     77.0948    116.8413
   592.7500      0.0000    261.3700     77.0872    121.0452
   593.0000      0.0000    261.3853     77.0989    118.2410
   593.2500      0.0000    261.3954     77.1238    110.8137
   593.5000      0.0000    261.3972     77.1584    102.3057
   593.7500      0.0000    261.3877     77.1984     95.1223
   594.0000      0.0000    261.3658     77.2392     89.8179
   594.2500      0.0000    261.3352     77.2820     86.0373
   594.5000      0.0000    261.3039     77.3327     83.5569
   594.7500      0.0000    261.2799     77.3903     82.3228
   595.0000      0.0000    261.2680     77.4379     81.9287
   595.2500      0.0000    261.2697     77.4483     81.4052
   595.5000      0.0000    261.2841     77.4014     79.6819
