~Version Information
VERS.                      2.0: CWLS Log ASCII Standard - VERSION 2.0
WRAP.                       NO: One line per depth step
~Well Information Block
STRT.FT               545.0000: 
STOP.FT              1920.5000: 
STEP.FT                 0.1000: 
NULL.                -999.2500: 
COMP.          Pioneer Natural Resources: COMPANY
WELL.            Summers 21-19: WELL
FLD.           Purgatoire River: FIELD
LOC.           900' FNL & 1950' FWL: LOCATION
PROV.                 Colorado: PROVINCE
CNTY.               Las Animas: COUNTRY
SRVC.                Patterson: SERVICE COMPANY
DATE.          Mon Oct 17 07:05:22 2005: LOG DATE
UWI.           05 071 08315 00: UNIQUE WELL ID
~Curve Information Block
DEPT.FT            0 000 00 00: Depth
DCAL.in                       : CDL Caliper
RHOB.g/cc                     : CDL Bulk Density
RHOC.g/cc                     : CDL Density Correction
DPOR.pu                       : CDL Density Porosity
GR.GAPI                       : Gamma Ray
NPOR.pu                       : Neutron Porosity
~Parameter Information Block
~A  Depth       DCAL        RHOB        RHOC        DPOR         GR         NPOR    
# ...
  1274.6000      7.9874      2.5338      0.0173      7.0415     71.7909     22.1571
  1274.7000      7.9874      2.5535      0.0898      5.8498     74.9304     22.6367
  1274.8000      7.9400      2.5569      0.0471      5.6432     82.7190     22.1584
  1274.9000      7.9400      2.5439      0.0259      6.4282     85.7517     20.8632
  1275.0000      7.9419      2.5455      0.0064      6.3312     82.4515     18.9183
  1275.1000      7.9419      2.5751      0.0580      4.5397     80.0347     16.9389
  1275.2000      7.9419      2.6034      0.1075      2.8224     80.5916     15.8846
  1275.3000      7.9067      2.6007      0.0775      2.9856     80.0653     15.9053
  1275.4000      7.9067      2.5782      0.0505      4.3504     76.8248     16.3839
  1275.5000      7.9045      2.5634      0.0234      5.2476     73.5826     16.7390
  1275.6000      7.9045      2.5653      0.0274      5.1324     71.8776     16.9937
  1275.7000      7.9045      2.5734      0.0730      4.6425     70.9924     17.4694
  1275.8000      7.9163      2.5705      0.0335      4.8171     71.6428     17.9071
  1275.9000      7.9163      2.5564      0.0149      5.6725     76.2898     18.1496
  1276.0000      7.9277      2.5482     -0.0500      6.1668     84.2575     18.4264
  1276.1000      7.9277      2.5522      0.0358      5.9246     89.4634     18.5464
  1276.2000      7.9277      2.5575      0.0061      5.6070     88.8318     18.3695
  1276.3000      7.9462      2.5591      0.0715      5.5111     87.1221     18.1757
  1276.4000      7.9462      2.5595      0.0195      5.4847     86.9613     18.1270
  1276.5000      7.9636      2.5603      0.0011      5.4368     86.6366     18.5572
  1276.6000      7.9636      2.5584      0.0465      5.5499     86.9886     19.5248
  1276.7000      7.9636      2.5580     -0.0405      5.5730     89.3383     20.0601
  1276.8000      8.0007      2.5709      0.0209      4.7962     94.0196     19.7081
  1276.9000      8.0007      2.5867      0.0659      3.8387     99.8978     19.4813
  1277.0000      7.9891      2.5884      0.0593      3.7363    103.3070     20.2496
  1277.1000      7.9891      2.5783      0.0799      4.3433    105.2598     21.5344
  1277.2000      7.9891      2.5600      0.0418      5.4545    107.8379     22.5918
  1277.3000      7.9654      2.5322      0.0528      7.1403    109.9038     23.7190
  1277.4000      7.9654      2.5002      0.0018      9.0816    112.1047     25.0910
  1277.5000      7.8891      2.4675     -0.0221     11.0576    117.0621     25.8741
  1277.6000      7.8891      2.4344     -0.0466     13.0691    125.4255     25.8371
  1277.7000      7.8891      2.4059     -0.0384     14.7949    135.6808     26.2634
  1277.8000      7.9388      2.3912      0.0005     15.6827    143.5695     28.1367
  1277.9000      7.9388      2.3976      0.0440     15.2996    144.8260     30.0878
  1278.0000      7.9854      2.4226      0.0775     13.7816    140.7152     30.2744
  1278.1000      7.9854      2.4540      0.1341     11.8770    139.1017     29.0574
  1278.2000      7.9854      2.4798      0.1925     10.3171    146.4042     27.9018
  1278.3000      7.9757      2.5032      0.1364      8.8965    156.4898     27.3167
  1278.4000      7.9757      2.5357      0.1864      6.9278    161.4695     27.2488
  1278.5000      7.9912      2.5632      0.2363      5.2631    162.4476     27.7095
  1278.6000      7.9912      2.5608      0.1581      5.4031    162.5167     28.2051
  1278.7000      7.9912      2.5374      0.0882      6.8225    162.2667     28.0835
  1278.8000      8.0699      2.5186      0.1048      7.9640    163.1018     27.5609
  1278.9000      8.0699      2.5119      0.0698      8.3727    166.4349     27.2194
  1279.0000      7.9952      2.5159      0.0601      8.1280    169.6573     26.9871
  1279.1000      7.9952      2.5298      0.0796      7.2851    168.2283     26.7928
  1279.2000      7.9952      2.5456      0.1131      6.3290    166.4940     26.9685
  1279.3000      8.0078      2.5561      0.0805      5.6896    170.7736     27.4130
  1279.4000      8.0078      2.5543      0.1130      5.7987    174.4935     27.7747
  1279.5000      8.0218      2.5321      0.0491      7.1439    170.2130     27.8867
  1279.6000      8.0218      2.4960      0.0648      9.3334    161.8805     27.5077
  1279.7000      8.0218      2.4515      0.0633     12.0285    154.3507     26.9893
  1279.8000      8.0333      2.4025      0.0244     15.0009    148.0696     26.9716
  1279.9000      8.0333      2.3675      0.0052     17.1212    144.9049     27.2444
  1280.0000      8.0691      2.3545      0.0603     17.9110    143.6679     27.3897
  1280.1000      8.0691      2.3447      0.0602     18.5043    140.6075     27.5229
  1280.2000      8.0691      2.3299     -0.0035     19.4025    134.8733     27.3821
  1280.3000      8.1037      2.3258      0.0132     19.6481    127.3448     26.5835
  1280.4000      8.1037      2.3465      0.0490     18.3932    124.5361     25.5283
  1280.5000      8.2666      2.3952      0.0818     15.4450    130.0467     24.9129
  1280.6000      8.2666      2.4562      0.0886     11.7461    132.1181     24.9576
  1280.7000      8.2666      2.4991      0.1124      9.1430    123.8357     25.3181
  1280.8000      8.2103      2.5166      0.0107      8.0851    113.3323     25.7634
  1280.9000      8.2103      2.5284      0.0511      7.3690    106.5331     26.1971
  1281.0000      8.0804      2.5445      0.0673      6.3950    101.5229     26.2829
  1281.1000      8.0804      2.5657      0.0905      5.1096     97.1119     25.7165
  1281.2000      8.0804      2.5862      0.1093      3.8687     96.4188     24.6526
  1281.3000      8.0284      2.5972      0.1075      3.1992    101.3004     23.5141
  1281.4000      8.0284      2.6044      0.1066      2.7646    108.0299     22.9184
  1281.5000      7.9557      2.6118      0.1057      2.3164    111.0366     23.0803
  1281.6000      7.9557      2.6108      0.1178      2.3773    107.2063     23.0651
  1281.7000      7.9557      2.6005      0.1151      2.9991     99.3522     22.3039
  1281.8000      7.9465      2.5947      0.0942      3.3526     95.2042     21.7001
  1281.9000      7.9465      2.5994      0.0912      3.0639     98.2450     21.7370
  1282.0000      7.9567      2.6058      0.0960      2.6816    104.0082     21.5663
  1282.1000      7.9567      2.6117      0.0406      2.3232    106.5764     21.4465
  1282.2000      7.9567      2.6190      0.0603      1.8784    103.8979     22.5689
  1282.3000      7.9787      2.6148      0.1090      2.1318     98.1338     24.1471
  1282.4000      7.9787      2.5950      0.0467      3.3349     94.5342     24.5587
  1282.5000      7.9961      2.5753      0.0479      4.5244     94.7784     23.7943
  1282.6000      7.9961      2.5688      0.0259      4.9236     95.0476     22.6466
  1282.7000      7.9961      2.5774      0.0387      4.4006     94.5536     22.0261
  1282.8000      7.9912      2.5954      0.0342      3.3103     97.0589     22.6252
  1282.9000      7.9912      2.6109      0.0170      2.3678    105.3653     23.9333
  1283.0000      7.9858      2.6118      0.0447      2.3161    114.3080     24.7750
  1283.1000      7.9858      2.5938      0.0762      3.4041    117.0309     24.6327
  1283.2000      7.9858      2.5761      0.0168      4.4766    118.0507     23.7580
  1283.3000      7.9829      2.5812      0.0586      4.1691    126.3642     23.1586
  1283.4000      7.9829      2.5939      0.0467      3.4020    136.9305     23.5222
  1283.5000      7.9852      2.5844      0.0891      3.9768    139.8079     24.0633
  1283.6000      7.9852      2.5626      0.0201      5.2940    137.8586     23.7426
  1283.7000      7.9852      2.5637      0.0325      5.2294    137.7951     22.9264
  1283.8000      7.9824      2.5791      0.0787      4.2944    138.5241     23.1880
  1283.9000      7.9824      2.5772      0.0192      4.4144    134.8256     25.0164
  1284.0000      7.9894      2.5708      0.0284      4.7999    128.5031     26.7019
  1284.1000      7.9894      2.5872      0.0564      3.8052    127.3373     26.7365
