~Version Information
VERS.                      2.0: CWLS Log ASCII Standard - VERSION 2.0
WRAP.                       NO: One line per depth step
~Well Information Block
STRT.FT                -7.0000: 
STOP.FT              1329.7500: 
STEP.FT                 0.2500: 
NULL.                -999.2500: 
COMP.          Pioneer Natural Resources: COMPANY
WELL.             Raptor 44-26: WELL
FLD.           Purgatorie River: FIELD
LOC.           180' FSL & 812' FEL--: LOCATION
PROV.                       CO: PROVINCE
CNTY.               Las Animas: COUNTRY
SRVC.          Patterson Wireline: SERVICE COMPANY
DATE.          Wed Mar 30 12:38:23 2005: LOG DATE
UWI.           05 071 08187 00: UNIQUE WELL ID
~Curve Information Block
DEPT.FT            0 000 00 00: Depth
CCL.                          : Casing Collar Locator
TT3.usec                      : CBL 3' Travel Time
AMP3.mV                       : CBL 3' Amplitude
GR.GAPI                       : Gamma Ray
~Parameter Information Block
MINATTN.db/ft           0.8000: Minimum Attenuation
~A  Depth       CCL         TT3         AMP3         GR     
# ...
   964.5000      0.0000    648.7042      5.1997    105.9599
   964.7500      0.0000    637.0240      5.2112    107.1170
   965.0000      0.0000    635.7538      5.2075    108.4124
   965.2500      0.0000    639.6840      5.1687    109.2803
   965.5000      0.0000    646.6177      5.1002    108.6722
   965.7500      0.0000    658.9249      5.0158    106.1724
   966.0000      0.0000    677.3861      4.9338    102.6296
   966.2500      0.0000    697.3157      4.8749     99.4987
   966.5000      0.0000    712.3774      4.8442     97.4836
   966.7500      0.0000    719.8369      4.8210     96.0059
   967.0000      0.0000    721.2508      4.7851     93.9526
   967.2500      0.0000    720.0134      4.7426     90.6772
   967.5000      0.0000    719.0611      4.7175     86.3468
   967.7500      0.0000    719.7052      4.7272     81.6529
   968.0000      0.0000    721.6343      4.7826     77.2452
   968.2500      0.0000    724.0388      4.8935     73.2955
   968.5000      0.0000    726.6896      5.0581     69.5530
   968.7500      0.0000    729.7495      5.2518     65.7394
   969.0000      0.0000    732.7758      5.4414     61.7237
   969.2500      0.0000    734.5338      5.6052     57.5511
   969.5000      0.0000    734.1414      5.7365     53.6646
   969.7500      0.0000    732.0689      5.8300     50.8121
   970.0000      0.0000    729.6674      5.8775     49.2332
   970.2500      0.0000    727.9534      5.8748     48.2592
   970.5000      0.0000    727.0775      5.8269     47.2387
   970.7500      0.0000    726.6825      5.7394     46.4770
   971.0000      0.0000    726.4187      5.6112     46.7127
   971.2500      0.0000    726.1593      5.4403     48.0990
   971.5000      0.0000    725.9294      5.2421     50.2338
   971.7500      0.0000    725.7271      5.0503     52.7683
   972.0000      0.0000    725.3787      4.8969     55.4388
   972.2500      0.0000    724.3926      4.7920     57.8362
   972.5000      0.0000    721.7465      4.7338     59.6261
   972.7500      0.0000    715.7727      4.7242     60.7959
   973.0000      0.0000    704.9936      4.7675     61.2756
   973.2500      0.0000    690.3171      4.8541     60.5274
   973.5000      0.0000    676.6185      4.9598     58.0317
   973.7500      0.0000    670.4520      5.0544     54.2655
   974.0000      0.0000    674.6774      5.1095     50.9156
   974.2500      0.0000    685.7737      5.1042     49.9181
   974.5000      0.0000    697.0959      5.0358     52.1575
   974.7500      0.0000    704.3408      4.9239     56.9269
   975.0000      0.0000    708.2100      4.8063     62.4921
   975.2500      0.0000    712.8421      4.7238     67.1924
   975.5000      0.0000    721.4051      4.7015     70.3284
   975.7500      0.0000    732.2920      4.7330     72.4233
   976.0000      0.0000    740.0222      4.7828     74.5911
   976.2500      0.0000    740.4053      4.8081     77.1916
   976.5000      0.0000    734.1224      4.7898     79.0373
   976.7500      0.0000    725.0780      4.7479     78.3966
   977.0000      0.0000    716.8238      4.7228     74.8387
   977.2500      0.0000    711.1802      4.7428     69.6579
   977.5000      0.0000    708.7996      4.8105     64.6097
   977.7500      0.0000    709.5922      4.9106     60.7551
   978.0000      0.0000    712.6577      5.0211     58.3949
   978.2500      0.0000    716.5197      5.1192     57.3856
   978.5000      0.0000    719.8795      5.1839     57.2664
   978.7500      0.0000    722.1917      5.2029     57.4326
   979.0000      0.0000    723.5646      5.1792     57.4339
   979.2500      0.0000    724.1074      5.1318     57.1404
   979.5000      0.0000    723.2910      5.0853     56.5963
   979.7500      0.0000    719.5410      5.0591     55.6785
   980.0000      0.0000    710.6483      5.0641     54.0118
   980.2500      0.0000    695.5065      5.1012     51.3802
   980.5000      0.0000    676.3757      5.1570     48.1926
   980.7500      0.0000    659.0430      5.2062     45.5518
   981.0000      0.0000    649.5930      5.2294     44.8244
   981.2500      0.0000    650.2965      5.2260     46.8251
   981.5000      0.0000    658.3249      5.2074     51.1349
   981.7500      0.0000    668.2290      5.1840     56.2021
   982.0000      0.0000    675.8332      5.1640     60.1547
   982.2500      0.0000    680.2413      5.1527     61.7038
   982.5000      0.0000    682.9866      5.1462     60.8540
   982.7500      0.0000    686.1440      5.1368     58.9601
   983.0000      0.0000    691.0424      5.1262     57.5664
   983.2500      0.0000    697.5821      5.1216     56.8358
   983.5000      0.0000    704.2290      5.1214     55.4154
   983.7500      0.0000    709.1224      5.1166     52.1744
   984.0000      0.0000    711.7869      5.1026     47.9013
   984.2500      0.0000    713.6287      5.0815     44.8422
   984.5000      0.0000    716.7582      5.0581     44.5524
   984.7500      0.0000    722.5555      5.0362     46.6400
   985.0000      0.0000    731.0336      5.0090     49.5315
   985.2500      0.0000    740.6176      4.9586     51.7892
   985.5000      0.0000    748.6619      4.8779     52.6105
   985.7500      0.0000    753.5387      4.7924     51.9559
   986.0000      0.0000    756.5527      4.7478     50.7698
   986.2500      0.0000    760.4640      4.7731     50.7305
   986.5000      0.0000    765.4306      4.8603     53.3143
   986.7500      0.0000    766.6425      4.9778     58.8034
   987.0000      0.0000    755.8498      5.0967     65.9861
   987.2500      0.0000    725.9171      5.2034     72.8954
   987.5000      0.0000    676.6370      5.2932     78.1073
   987.7500      0.0000    617.7249      5.3576     81.4538
   988.0000      0.0000    564.3190      5.3829     83.6089
   988.2500      0.0000    527.5898      5.3588     85.1289
   988.5000      0.0000    509.5085      5.2909     85.9161
   988.7500      0.0000    505.3593      5.2021     85.6537
   989.0000      0.0000    508.7221      5.1225     84.5938
   989.2500      0.0000    514.1273      5.0714     83.4795
   989.5000      0.0000    518.0439      5.0454     82.6908
   989.7500      0.0000    519.9840      5.0255     81.9409
   990.0000      0.0000    523.1783      4.9942     80.8480
   990.2500      0.0000    533.5524      4.9479     79.3670
   990.5000      0.0000    556.4473      4.8962     77.6470
   990.7500      0.0000    591.9816      4.8569     75.8562
   991.0000      0.0000    632.3901      4.8486     74.2877
   991.2500      0.0000    665.3711      4.8814     73.4922
   991.5000      0.0000    682.0370      4.9558     74.1966
   991.7500      0.0000    682.2679      5.0670     76.8766
   992.0000      0.0000    672.7696      5.1964     81.3002
   992.2500      0.0000    660.6042      5.3003     86.5834
   992.5000      0.0000    647.9867      5.3265     91.7079
   992.7500      0.0000    631.6860      5.2550     95.9206
   993.0000      0.0000    607.2747      5.1115     98.8187
   993.2500      0.0000    575.0681      4.9425    100.2713
   993.5000      0.0000    541.6071      4.7911    100.3567
   993.7500      0.0000    514.4756      4.6858     99.4483
   994.0000      0.0000    496.5031      4.6294     98.2013
   994.2500      0.0000    485.5547      4.5985     97.1357
   994.5000      0.0000    478.4406      4.5718     96.2458
   994.7500      0.0000    473.8767      4.5567     95.1203
   995.0000      0.0000    472.5468      4.5756     93.3095
   995.2500      0.0000    476.1281      4.6232     90.6194
   995.5000      0.0000    487.1752      4.6576     87.4880
   995.7500      0.0000    509.4481      4.6438     85.0555
   996.0000      0.0000    546.1735      4.5928     84.3223
   996.2500      0.0000    595.3643      4.5392     85.1240
   996.5000      0.0000    646.6732      4.4975     86.3210
   996.7500      0.0000    684.9125      4.4587     87.1036
   997.0000      0.0000    697.9836      4.4188     87.9799
   997.2500      0.0000    682.5606      4.3895     90.2880
   997.5000      0.0000    645.6587      4.3811     94.5636
   997.7500      0.0000    603.5874      4.3887     99.5491
