~Version Information
VERS.                      2.0: CWLS Log ASCII Standard - VERSION 2.0
WRAP.                       NO: One line per depth step
~Well Information Block
STRT.FT               890.0000: 
STOP.FT              1589.0000: 
STEP.FT                 0.2500: 
NULL.                -999.2500: 
COMP.          Evergreen Operating Corporation: COMPANY
WELL.            Tomahawk 44-9: WELL
FLD.           Purgatorie River: FIELD
LOC.           434' FSL & 491' FEL: LOCATION
PROV.                 Colorado: PROVINCE
CNTY.               Las Animas: COUNTRY
SRVC.                         : SERVICE COMPANY
DATE.          Sat Sep 11 23:05:26 2004: LOG DATE
UWI.           05 071 08133 00: UNIQUE WELL ID
~Curve Information Block
DEPT.FT            0 000 00 00: Depth
LTEN.lb                       : Surface Line Tension
SN.Ohm-m                      : IEL Short Normal
SP.mV                         : IEL Spontaneous Potential
DIR.Ohm-m                     : IEL Induction Resistivity
GR.GAPI                       : Gamma Ray
~Parameter Information Block
~A  Depth       LTEN         SN          SP         DIR          GR     
# ...
  1254.0000    788.6791     15.4087    -54.5055     17.0780    110.2460
  1254.2500    788.2167     16.7996    -55.5192     18.0113    110.7518
  1254.5000    784.7335     18.4428    -56.2124     19.1329    110.9717
  1254.7500    781.5872     20.3913    -56.4473     20.4442    110.3508
  1255.0000    781.5079     22.6923    -56.1998     21.8914    107.5071
  1255.2500    784.5493     25.3665    -55.5575     23.3519    103.9677
  1255.5000    788.4551     28.3948    -54.6959     24.6869     96.1277
  1255.7500    790.7830     31.7171    -53.8158     25.8525     89.6356
  1256.0000    790.7353     35.2338    -53.0796     26.9622     79.4963
  1256.2500    789.1890     38.8009    -52.5709     28.2188     73.6663
  1256.5000    787.2938     42.2243    -52.2798     29.7734     68.2065
  1256.7500    785.3531     45.2702    -52.1307     31.6043     67.2717
  1257.0000    783.0444     47.7063    -52.0295     33.4433     69.4082
  1257.2500    780.2602     49.3595    -51.9035     34.7762     72.2423
  1257.5000    777.3801     50.1562    -51.7290     34.9941     76.5731
  1257.7500    774.9910     50.1184    -51.5324     33.7283     78.5252
  1258.0000    773.8227     49.3140    -51.3658     31.1542     79.3265
  1258.2500    774.7495     47.7933    -51.2871     27.9229     78.5993
  1258.5000    778.2194     45.5569    -51.3301     24.7475     76.2135
  1258.7500    783.4933     42.5804    -51.4993     22.0659     73.9575
  1259.0000    788.7933     38.8873    -51.7780     19.9901     70.0362
  1259.2500    792.3069     34.6200    -52.1312     18.4219     67.9146
  1259.5000    792.9438     30.0583    -52.5164     17.1807     67.7687
  1259.7500    790.4445     25.5643    -52.8919     16.0978     70.6414
  1260.0000    785.3499     21.4844    -53.2165     15.0742     79.0911
  1260.2500    778.9921     18.0580    -53.4602     14.0970     86.3822
  1260.5000    773.2025     15.3771    -53.6074     13.2132     97.6057
  1260.7500    769.7210     13.4083    -53.6693     12.4790    104.2739
  1261.0000    769.4622     12.0503    -53.6714     11.9180    111.9483
  1261.2500    771.9521     11.1894    -53.6502     11.5098    115.1814
  1261.5000    775.5976     10.7232    -53.6247     11.2087    117.2718
  1261.7500    778.7362     10.5567    -53.5910     10.9777    117.2483
  1262.0000    780.4030     10.5954    -53.5156     10.8106    116.0816
  1262.2500    780.3233     10.7514    -53.3570     10.7257    115.0650
  1262.5000    778.7219     10.9587    -53.0934     10.7398    113.9187
  1262.7500    776.2417     11.1801    -52.7392     10.8511    113.6624
  1263.0000    773.7797     11.3999    -52.3609     11.0389    113.7525
  1263.2500    772.1931     11.6125    -52.0639     11.2744    113.5909
  1263.5000    771.9687     11.8136    -51.9686     11.5280    112.1852
  1263.7500    772.9852     11.9977    -52.1742     11.7700    110.2898
  1264.0000    774.5463     12.1551    -52.7239     11.9752    106.2140
  1264.2500    775.7120     12.2708    -53.5956     12.1325    103.2232
  1264.5000    775.9698     12.3234    -54.6960     12.2478    100.0527
  1264.7500    775.8467     12.2890    -55.8835     12.3279     99.7580
  1265.0000    776.4908     12.1490    -56.9984     12.3605    102.2207
  1265.2500    778.3438     11.9022    -57.8968     12.3150    105.0410
  1265.5000    780.5697     11.5738    -58.4879     12.1715    109.5429
  1265.7500    782.0043     11.2117    -58.7476     11.9500    112.3280
  1266.0000    782.2551     10.8717    -58.7261     11.7063    116.0874
  1266.2500    781.6049     10.6019    -58.5308     11.4986    118.1145
  1266.5000    780.2376     10.4326    -58.3001     11.3611    119.6180
  1266.7500    777.9619     10.3733    -58.1808     11.3013    119.2580
  1267.0000    774.5664     10.4154    -58.2976     11.3147    117.0295
  1267.2500    770.3068     10.5394    -58.7308     11.3965    115.0712
  1267.5000    766.0573     10.7274    -59.5056     11.5429    112.5634
  1267.7500    763.0421     10.9718    -60.5719     11.7416    111.5096
  1268.0000    762.3710     11.2739    -61.8013     11.9659    110.7348
  1268.2500    764.4643     11.6362    -63.0023     12.1826    110.4798
  1268.5000    768.5607     12.0590    -63.9520     12.3776    110.0994
  1268.7500    773.0536     12.5444    -64.4507     12.5770    109.7480
  1269.0000    776.7078     13.0988    -64.3682     12.8388    109.1872
  1269.2500    779.2823     13.7304    -63.6901     13.2185    109.0717
  1269.5000    780.8859     14.4461    -62.5165     13.7368    109.8685
  1269.7500    781.5043     15.2560    -61.0359     14.3682    111.1399
  1270.0000    781.3391     16.1842    -59.4644     15.0582    113.6892
  1270.2500    780.7906     17.2756    -57.9931     15.7560    115.2980
  1270.5000    779.9077     18.5891    -56.7426     16.4442    116.4627
  1270.7500    778.5508     20.1788    -55.7599     17.1401    115.7692
  1271.0000    777.0264     22.0705    -55.0418     17.8666    111.9448
  1271.2500    775.9647     24.2456    -54.5689     18.6159    107.5837
  1271.5000    775.7828     26.6313    -54.3385     19.3387     98.5999
  1271.7500    776.7301     29.0969    -54.3745     19.9716     91.1378
  1272.0000    778.7960     31.4537    -54.7146     20.4752     78.5397
  1272.2500    780.9338     33.4694    -55.3877     20.8413     70.2394
  1272.5000    781.3597     34.9015    -56.3832     21.0591     60.2193
  1272.7500    779.7287     35.5459    -57.6429     21.0872     56.2608
  1273.0000    778.2980     35.2825    -59.0659     20.8654     55.2429
  1273.2500    779.5696     34.1031    -60.5256     20.3597     57.6271
  1273.5000    782.9627     32.1140    -61.9018     19.5991     64.3928
  1273.7500    785.1367     29.5156    -63.0968     18.6716     69.9281
  1274.0000    783.8389     26.5657    -64.0471     17.6858     78.2644
  1274.2500    780.2057     23.5357    -64.7163     16.7287     83.5086
  1274.5000    776.8300     20.6688    -65.0851     15.8454     91.1087
  1274.7500    774.9294     18.1467    -65.1384     15.0439     96.1982
  1275.0000    774.3077     16.0711    -64.8650     14.3153    103.6858
  1275.2500    775.0798     14.4666    -64.2590     13.6541    108.0473
  1275.5000    778.1339     13.2993    -63.3362     13.0669    112.4968
  1275.7500    783.8387     12.5021    -62.1428     12.5669    113.7980
  1276.0000    790.6835     11.9920    -60.7713     12.1631    113.9128
  1276.2500    795.5667     11.6815    -59.3512     11.8549    113.3806
  1276.5000    795.9212     11.4900    -58.0417     11.6345    112.0555
  1276.7500    791.7867     11.3551    -56.9989     11.4920    110.6931
  1277.0000    785.6749     11.2378    -56.3450     11.4183    108.0123
  1277.2500    780.4520     11.1204    -56.1425     11.4094    106.1895
  1277.5000    777.4226     10.9995    -56.3694     11.4678    103.9659
  1277.7500    776.1050     10.8806    -56.9257     11.5985    102.7785
  1278.0000    775.5367     10.7734    -57.6455     11.7934    101.1002
  1278.2500    775.6412     10.6882    -58.3348     12.0143    100.0894
  1278.5000    777.0624     10.6319    -58.8060     12.1939     99.2745
  1278.7500    779.6915     10.6059    -58.9140     12.2650     99.4461
  1279.0000    782.0798     10.6074    -58.5797     12.2042    100.5856
  1279.2500    782.8865     10.6366    -57.7947     12.0472    101.5313
  1279.5000    782.4915     10.7043    -56.6240     11.8679    102.4888
  1279.7500    782.4387     10.8327    -55.1945     11.7434    102.5928
  1280.0000    783.3106     11.0446    -53.6901     11.7331    102.1302
  1280.2500    783.8691     11.3494    -52.3283     11.8739    101.7911
  1280.5000    782.6633     11.7404    -51.3270     12.1819    101.8850
  1280.7500    780.0767     12.2064    -50.8599     12.6523    102.4331
  1281.0000    778.2190     12.7467    -51.0094     13.2515    103.3004
  1281.2500    778.7289     13.3741    -51.7249     13.9099    103.1129
  1281.5000    781.0439     14.1021    -52.8337     14.5343    100.5784
  1281.7500    782.9883     14.9286    -54.0736     15.0472     97.6009
