~Version Information
VERS.                      2.0: CWLS Log ASCII Standard - VERSION 2.0
WRAP.                       NO: One line per depth step
~Well Information Block
STRT.FT                 0.0000: 
STOP.FT              1439.5000: 
STEP.FT                 0.2500: 
NULL.                -999.2500: 
COMP.          Petrogulf Corporation: COMPANY
WELL.          Robinson 15-12R: WELL
FLD.           Purgatorie River: FIELD
LOC.           1752' FNL & 561' FWL: LOCATION
PROV.                 Colorado: PROVINCE
CNTY.               Las Animas: COUNTRY
SRVC.                Patterson: SERVICE COMPANY
DATE.          Tue Oct 04 09:17:52 2005: LOG DATE
UWI.                          : UNIQUE WELL ID
~Curve Information Block
DEPT.FT            0 000 00 00: Depth
GR.GAPI                       : Gamma Ray
CCL.                          : Casing Collar Locator
TT3.usec                      : CBL 3' Travel Time
AMP3.mV                       : CBL 3' Amplitude
~Parameter Information Block
~A  Depth        GR         CCL         TT3         AMP3    
# ...
  1038.5000    133.7949      0.0000    568.3816      4.9623
  1038.7500    135.1731      0.0000    567.9547      4.8718
  1039.0000    135.1559      0.0000    587.9648      4.9131
  1039.2500    133.3772      0.0000    624.1528      5.1260
  1039.5000    130.5930      0.0000    664.6050      5.4948
  1039.7500    128.3835      0.0000    693.1599      5.9743
  1040.0000    128.1671      0.0000    706.9148      6.4905
  1040.2500    130.1334      0.0000    714.3573      6.9434
  1040.5000    133.0893      0.0000    721.6509      7.2537
  1040.7500    135.4708      0.0000    732.3482      7.4034
  1041.0000    136.5083      0.0000    752.9701      7.4182
  1041.2500    136.4772      0.0000    789.4708      7.3320
  1041.5000    136.1436      0.0000    838.9711      7.1907
  1041.7500    136.1190      0.0000    891.8221      7.0562
  1042.0000    136.5243      0.0000    941.1978      6.9870
  1042.2500    136.9332      0.0000    974.7672      7.0259
  1042.5000    136.5470      0.0000    970.0323      7.1789
  1042.7500    134.6277      0.0000    922.8365      7.4237
  1043.0000    131.1490      0.0000    859.0099      7.7752
  1043.2500    127.1513      0.0000    806.3365      8.2849
  1043.5000    124.0902      0.0000    773.5545      8.9839
  1043.7500    122.5287      0.0000    755.0154      9.9306
  1044.0000    121.7971      0.0000    738.4298     11.2569
  1044.2500    121.0757      0.0000    706.8622     13.0596
  1044.5000    120.1213      0.0000    649.4047     15.3098
  1044.7500    118.7101      0.0000    579.8514     17.8496
  1045.0000    116.2584      0.0000    532.9953     20.3627
  1045.2500    112.4227      0.0000    536.0863     22.4365
  1045.5000    107.5913      0.0000    588.8566     23.7769
  1045.7500    102.6957      0.0000    661.6381     24.3183
  1046.0000     98.9298      0.0000    716.6807     24.0903
  1046.2500     97.3837      0.0000    740.1349     23.0904
  1046.5000     98.3981      0.0000    741.5255     21.4041
  1046.7500    101.3058      0.0000    730.8901     19.3215
  1047.0000    105.0122      0.0000    713.8757     17.1402
  1047.2500    108.7207      0.0000    705.2327     14.9711
  1047.5000    112.1229      0.0000    729.8766     12.8650
  1047.7500    115.1553      0.0000    788.1385     10.9454
  1048.0000    117.7433      0.0000    837.7789      9.3052
  1048.2500    119.7161      0.0000    843.3956      7.9354
  1048.5000    120.9224      0.0000    813.1822      6.8009
  1048.7500    121.5195      0.0000    770.5358      5.8855
  1049.0000    122.2928      0.0000    728.1786      5.1842
  1049.2500    124.4746      0.0000    695.9898      4.7109
  1049.5000    128.5502      0.0000    687.8387      4.4709
  1049.7500    133.0084      0.0000    710.6648      4.3986
  1050.0000    134.8811      0.0000    752.9105      4.3678
  1050.2500    131.9007      0.0000    791.7600      4.3007
  1050.5000    124.0696      0.0000    811.4958      4.2271
  1050.7500    113.6552      0.0000    813.1870      4.2135
  1051.0000    104.2365      0.0000    807.7333      4.2915
  1051.2500     99.0788      0.0000    803.1105      4.4369
  1051.5000     99.3470      0.0000    800.8358      4.5675
  1051.7500    103.6273      0.0000    799.7095      4.6074
  1052.0000    109.2954      0.0000    797.5654      4.5803
  1052.2500    114.3038      0.0000    789.4164      4.5720
  1052.5000    118.0559      0.0000    768.1367      4.5961
  1052.7500    121.1877      0.0000    736.1792      4.5971
  1053.0000    124.5771      0.0000    713.4868      4.6051
  1053.2500    128.3404      0.0000    714.5134      4.7623
  1053.5000    131.7752      0.0000    727.0244      5.1762
  1053.7500    134.2148      0.0000    733.4437      5.8661
  1054.0000    135.6918      0.0000    734.1570      6.8393
  1054.2500    136.6324      0.0000    736.6954      8.1371
  1054.5000    136.9713      0.0000    734.5370      9.8177
  1054.7500    135.7671      0.0000    707.8998     11.8842
  1055.0000    131.9963      0.0000    648.5716     14.1673
  1055.2500    125.8199      0.0000    580.0291     16.2726
  1055.5000    118.9033      0.0000    542.3074     17.7245
  1055.7500    113.4435      0.0000    556.1985     18.2323
  1056.0000    111.0127      0.0000    608.7420     17.8209
  1056.2500    112.0973      0.0000    668.9603     16.7417
  1056.5000    116.1276      0.0000    712.8821     15.2716
  1056.7500    121.5980      0.0000    735.3259     13.5752
  1057.0000    126.5832      0.0000    743.1929     11.7838
  1057.2500    129.8360      0.0000    743.1119     10.0955
  1057.5000    131.5883      0.0000    735.7653      8.6669
  1057.7500    132.9665      0.0000    720.0176      7.5391
  1058.0000    134.5245      0.0000    700.6274      6.7165
  1058.2500    135.4985      0.0000    688.2374      6.1851
  1058.5000    134.3932      0.0000    691.3240      5.9152
  1058.7500    130.0853      0.0000    709.1048      5.9089
  1059.0000    122.5409      0.0000    729.7421      6.1841
  1059.2500    112.8693      0.0000    739.7665      6.7368
  1059.5000    102.9409      0.0000    738.0856      7.5246
  1059.7500     94.6867      0.0000    734.1223      8.4293
  1060.0000     89.0833      0.0000    734.4837      9.2652
  1060.2500     85.5598      0.0000    739.5870      9.8818
  1060.5000     82.8319      0.0000    750.1064     10.2527
  1060.7500     80.6685      0.0000    766.6746     10.4335
  1061.0000     80.5639      0.0000    784.1873     10.4559
  1061.2500     84.2714      0.0000    793.4788     10.3004
  1061.5000     91.7327      0.0000    790.4535      9.9388
  1061.7500    100.7479      0.0000    779.4948      9.3510
  1062.0000    108.6752      0.0000    764.3408      8.5447
  1062.2500    114.0914      0.0000    744.8934      7.5942
  1062.5000    116.7228      0.0000    726.4276      6.6257
  1062.7500    116.3577      0.0000    717.1240      5.7580
  1063.0000    112.6211      0.0000    714.0737      5.0744
  1063.2500    105.8372      0.0000    710.0681      4.6323
  1063.5000     97.4940      0.0000    707.5035      4.4441
  1063.7500     89.6086      0.0000    709.7514      4.4041
  1064.0000     83.8604      0.0000    715.1686      4.3273
  1064.2500     81.1213      0.0000    721.3201      4.1656
  1064.5000     81.0824      0.0000    723.0390      4.0289
  1064.7500     82.1588      0.0000    720.9350      3.9416
  1065.0000     82.4826      0.0000    729.1649      3.8573
  1065.2500     81.5466      0.0000    755.0830      3.8190
  1065.5000     80.5088      0.0000    783.2949      3.8734
  1065.7500     80.5173      0.0000    794.8210      4.0327
  1066.0000     81.2074      0.0000    788.9931      4.3291
  1066.2500     81.2192     -2.0000    774.3318      4.7428
  1066.5000     79.7707      0.0000    758.0455      5.1548
  1066.7500     77.4381      0.0000    750.8690      5.5314
  1067.0000     75.8456      0.0000    753.7875      6.1501
  1067.2500     76.8487      0.0000    752.6884      7.2586
  1067.5000     81.4442      0.0000    743.1329      8.4867
  1067.7500     88.8904      0.0000    736.8234      9.2351
  1068.0000     97.0375      0.0000    740.7269      9.4348
  1068.2500    103.9016      0.0000    747.7488      9.3595
  1068.5000    109.0144      0.0000    750.1177      9.1812
  1068.7500    113.3211      0.0000    746.9108      8.9200
  1069.0000    117.9933      0.0000    738.6317      8.5075
  1069.2500    123.4766      0.0000    728.7773      7.9002
  1069.5000    129.4413      0.0000    726.6082      7.1666
  1069.7500    135.2945      0.0000    734.6910      6.4314
  1070.0000    140.6459      0.0000    740.9419      5.7762
  1070.2500    145.3070      0.0000    731.0260      5.2257
  1070.5000    148.8722      0.0000    698.3407      4.7805
  1070.7500    150.5183      0.0000    648.4733      4.4322
  1071.0000    149.6059      0.0000    602.8970      4.1755
  1071.2500    146.6689      0.0000    581.9733      4.0180
  1071.5000    143.5544      0.0000    582.1218      3.9663
  1071.7500    142.1406      0.0000    585.1410      4.0368
