~Version Information
VERS.                      2.0: CWLS Log ASCII Standard - VERSION 2.0
WRAP.                       NO: One line per depth step
~Well Information Block
STRT.FT                -8.2500: 
STOP.FT              1795.0000: 
STEP.FT                 0.2500: 
NULL.                -999.2500: 
COMP.          Petrogulf Corporation: COMPANY
WELL.           Montoya 7-21 R: WELL
FLD.           Purgatoire River: FIELD
LOC.           445' FNL & 1942' FWL----: LOCATION
PROV.                 Colorado: PROVINCE
CNTY.               Las Animas: COUNTRY
SRVC.                         : SERVICE COMPANY
DATE.          Fri Sep 30 15:33:54 2005: LOG DATE
UWI.                          : UNIQUE WELL ID
~Curve Information Block
DEPT.FT            0 000 00 00: Depth
GR.GAPI                       : Gamma Ray
CCL.                          : Casing Collar Locator
TT3.usec                      : CBL 3' Travel Time
AMP3.mV                       : CBL 3' Amplitude
~Parameter Information Block
~A  Depth        GR         CCL         TT3         AMP3    
# ...
   460.7500     98.3570      0.0000    282.0862     33.9269
   461.0000     94.9307      0.0000    281.7894     34.5900
   461.2500     92.4501      0.0000    281.4745     35.5823
   461.5000     92.1925      0.0000    281.1810     36.8626
   461.7500     94.2638      0.0000    280.9456     38.3288
   462.0000     96.9909      0.0000    280.7942     39.7996
   462.2500     98.4715      0.0000    280.7325     41.0499
   462.5000     98.4181      0.0000    280.7467     41.9027
   462.7500     98.1692      0.0000    280.8120     42.3002
   463.0000     99.0412      0.0000    280.9016     42.2973
   463.2500    100.8909      0.0000    280.9940     42.0124
   463.5000    102.3400      0.0000    281.0771     41.5944
   463.7500    102.2094      0.0000    281.1465     41.1968
   464.0000    100.4068      0.0000    281.2016     40.9249
   464.2500     97.5994      0.0000    281.2423     40.7973
   464.5000     94.7342      0.0000    281.2711     40.7830
   464.7500     93.2224      0.0000    281.2956     40.8802
   465.0000     94.9747      0.0000    281.3272     41.1584
   465.2500    101.2641      0.0000    281.3743     41.7401
   465.5000    111.3068      0.0000    281.4334     42.7505
   465.7500    122.3644      0.0000    281.4860     44.2589
   466.0000    131.3807      0.0000    281.5037     46.2396
   466.2500    136.4574      0.0000    281.4354     48.5724
   466.5000    137.2705      0.0000    281.1434     51.0762
   466.7500    134.8665      0.0000    280.2826     53.5621
   467.0000    131.2038      0.0000    278.2559     55.8957
   467.2500    128.3585      0.0000    274.4840     58.0305
   467.5000    127.5365      0.0000    268.9874     59.9693
   467.7500    128.4318      0.0000    262.7381     61.6830
   468.0000    129.6479      0.0000    257.2038     63.0817
   468.2500    130.2201      0.0000    253.3980     64.0836
   468.5000    130.7902      0.0000    251.3900     64.6967
   468.7500    133.0658      0.0000    250.6438     65.0082
   469.0000    138.1026      0.0000    250.6465     65.0870
   469.2500    145.0911      0.0000    251.2465     64.9119
   469.5000    151.5893      0.0000    252.5529     64.4051
   469.7500    155.0438      0.0000    254.5091     63.5487
   470.0000    154.4962      0.0000    256.5284     62.4807
   470.2500    151.0396      0.0000    257.7677     61.4614
   470.5000    146.7846      0.0000    258.0485     60.7006
   470.7500    143.4992      0.0000    258.3918     60.1898
   471.0000    141.8899      0.0000    260.2971     59.7016
   471.2500    141.4951      0.0000    264.3743     58.9436
   471.5000    140.9516      0.0000    269.7484     57.7060
   471.7500    138.8312      0.0000    274.7874     55.8848
   472.0000    134.8332      0.0000    278.3228     53.4154
   472.2500    130.1522      0.0000    280.2091     50.2311
   472.5000    126.5039      0.0000    280.9836     46.3142
   472.7500    124.9314      0.0000    281.2990     41.7945
   473.0000    125.4601      0.0000    281.6799     36.9913
   473.2500    127.4122      0.0000    282.5834     32.3480
   473.5000    129.8744      0.0000    284.3751     28.3024
   473.7500    132.0905      0.0000    286.9879     25.1743
   474.0000    133.5074      0.0000    289.5870     23.0988
   474.2500    133.5307      0.0000    290.9608     21.9929
   474.5000    131.7674      0.0000    290.6636     21.5641
   474.7500    128.9229      0.0000    289.7489     21.4029
   475.0000    127.3039      0.0000    290.1479     21.1573
   475.2500    129.8524      0.0000    293.1923     20.7091
   475.5000    137.9623      0.0000    298.4260     20.2351
   475.7500    149.6932      0.0000    303.5197     20.1087
   476.0000    160.1556      0.0000    305.6047     20.7095
   476.2500    164.3272      0.0000    303.3149     22.2613
   476.5000    160.4798      0.0000    297.7832     24.7587
   476.7500    151.5499      0.0000    291.6018     27.9456
   477.0000    143.1599      0.0000    286.8607     31.3430
   477.2500    139.7051      0.0000    284.1451     34.4140
   477.5000    141.8501      0.0000    282.9079     36.8672
   477.7500    147.5462      0.0000    282.2502     38.8750
   478.0000    154.8427      0.0000    281.2859     40.9906
   478.2500    162.8696      0.0000    279.1690     43.8315
   478.5000    170.5458      0.0000    275.2597     47.7403
   478.7500    176.0963      0.0000    269.5936     52.5539
   479.0000    178.6202      0.0000    263.1610     57.5998
   479.2500    179.1246      0.0000    257.4342     62.0215
   479.5000    179.3402      0.0000    253.4221     65.2663
   479.7500    179.9610      0.0000    251.1815     67.3517
   480.0000    180.1577      0.0000    250.1332     68.7380
   480.2500    178.5709      0.0000    249.6493     69.9911
   480.5000    174.9371      0.0000    249.3577     71.4762
   480.7500    170.7313      0.0000    249.1279     73.1937
   481.0000    167.9217      0.0000    248.9497     74.8284
   481.2500    167.2616      0.0000    248.8379     76.0084
   481.5000    168.1504      0.0000    248.7891     76.5693
   481.7500    169.8115      0.0000    248.7853     76.5825
   482.0000    171.9776      0.0000    248.8186     76.1726
   482.2500    174.4117      0.0000    248.9380     75.3417
   482.5000    176.1811      0.0000    249.3240     73.9473
   482.7500    175.9340      0.0000    250.3821     71.7949
   483.0000    173.2504      0.0000    252.7372     68.7518
   483.2500    169.4527      0.0000    256.9280     64.8483
   483.5000    166.2939      0.0000    262.8438     60.3646
   483.7500    163.7628      0.0000    269.4444     55.8366
   484.0000    160.0899      0.0000    275.2665     51.8973
   484.2500    154.3197      0.0000    279.3457     48.9981
   484.5000    147.9929      0.0000    281.6410     47.2190
   484.7500    143.7092      0.0000    282.6990     46.3267
   485.0000    142.6146      0.0000    283.1161     45.9985
   485.2500    143.7029      0.0000    283.2731     46.0067
   485.5000    145.0780      0.0000    283.3097     46.2483
   485.7500    145.4558      0.0000    283.1316     46.6513
   486.0000    144.7440      0.0000    282.4778     47.0319
   486.2500    143.5189      0.0000    281.1897     47.0246
   486.5000    142.1072      0.0000    279.4521     46.2241
   486.7500    140.4717      0.0000    277.5078     44.5174
   487.0000    138.8540      0.0000    275.0962     42.2916
   487.2500    137.8244      0.0000    271.6750     40.2268
   487.5000    137.6127      0.0000    267.4618     38.8234
   487.7500    138.1723      0.0000    263.8699     38.1290
   488.0000    140.0541      0.0000    262.6245     37.8648
   488.2500    144.2865      1.4819    264.5121     37.7420
   488.5000    150.8029      0.0000    268.7469     37.6956
   488.7500    157.5717      0.0000    273.2226     37.9628
   489.0000    161.9034      0.0000    275.6129     39.0607
   489.2500    162.4046      0.0000    274.7168     41.6613
   489.5000    159.5677      0.0000    270.9252     46.2490
   489.7500    155.1056      0.0000    265.5454     52.6139
   490.0000    150.9623      0.0000    259.9494     59.6389
   490.2500    148.2746      0.0000    255.1993     65.7876
   490.5000    146.6724      0.0000    251.8857     69.9780
   490.7500    144.7157      0.0000    250.0202     72.0829
   491.0000    141.3811      0.0000    249.1884     72.7426
   491.2500    137.2007      0.0000    248.9022     72.8267
   491.5000    133.7785      0.0000    248.8320     72.9834
   491.7500    132.3330      0.0000    248.8259     73.4507
   492.0000    133.0540      0.0000    248.8395     74.0924
   492.2500    135.5645      0.0000    248.9113     74.5583
   492.5000    139.3012      0.0000    249.2066     74.4508
   492.7500    143.4654      0.0000    250.1190     73.4412
   493.0000    147.1715      0.0000    252.2805     71.3323
   493.2500    149.7668      0.0000    256.2618     68.0889
   493.5000    150.8444      0.0000    261.9845     63.8594
   493.7500    150.1151      0.0000    268.4023     58.9858
   494.0000    147.5492      0.0000    274.0085     53.9431
