~Version Information
VERS.                      2.0: CWLS Log ASCII Standard - VERSION 2.0
WRAP.                       NO: One line per depth step
~Well Information Block
STRT.FT               840.0000: 
STOP.FT              2268.0000: 
STEP.FT                 0.2500: 
NULL.                -999.2500: 
COMP.          Pioneer Natural Resources: COMPANY
WELL.              Tonto 42-23: WELL
FLD.           Purgatoire River: FIELD
LOC.           2217' FNL & 423' FEL: LOCATION
PROV.                 Colorado: PROVINCE
CNTY.               Las Animas: COUNTRY
SRVC.                Patterson: SERVICE COMPANY
DATE.          Sun Apr 17 01:24:47 2005: LOG DATE
UWI.           05 071 08335 00: UNIQUE WELL ID
~Curve Information Block
DEPT.FT            0 000 00 00: Depth
SN.Ohm-m                      : IEL Short Normal
SP.mV                         : IEL Spontaneous Potential
DIR.Ohm-m                     : IEL Induction Resistivity
GR.GAPI                       : Gamma Ray
~Parameter Information Block
~A  Depth        SN          SP         DIR          GR     
# ...
  1778.0000     13.9362    -30.3483     11.7443    118.5276
  1778.2500     14.1237    -30.5222     11.5820    117.7425
  1778.5000     14.2901    -30.7947     11.3505    116.0630
  1778.7500     14.4459    -31.1028     11.0917    114.1896
  1779.0000     14.5998    -31.3873     10.8498    109.8971
  1779.2500     14.7108    -31.6155     10.6531    106.2487
  1779.5000     14.7275    -31.7823     10.5096    100.4866
  1779.7500     14.6623    -31.9045     10.4137     97.2077
  1780.0000     14.5775    -32.0116     10.3566     94.7520
  1780.2500     14.5120    -32.1301     10.3333     95.5195
  1780.5000     14.4276    -32.2716     10.3412    100.1312
  1780.7500     14.2280    -32.4414     10.3761    104.5337
  1781.0000     13.8853    -32.6514     10.4286    111.3225
  1781.2500     13.5255    -32.9209     10.4859    115.4646
  1781.5000     13.3316    -33.2603     10.5357    120.8608
  1781.7500     13.3584    -33.6552     10.5704    123.6760
  1782.0000     13.5048    -34.0632     10.5880    125.9527
  1782.2500     13.6699    -34.4305     10.5880    125.7284
  1782.5000     13.7943    -34.7117     10.5676    122.6483
  1782.7500     13.8188    -34.8833     10.5223    119.3920
  1783.0000     13.7524    -34.9482     10.4510    114.9618
  1783.2500     13.7138    -34.9308     10.3607    113.6618
  1783.5000     13.7864    -34.8645     10.2662    114.7377
  1783.7500     13.8115    -34.7754     10.1841    116.3926
  1784.0000     13.4784    -34.6726     10.1233    117.5032
  1784.2500     12.7270    -34.5452     10.0802    116.4727
  1784.5000     11.8560    -34.3677     10.0409    113.2085
  1784.7500     11.2227    -34.1171      9.9897    111.2637
  1785.0000     11.0215    -33.7911      9.9192    110.5457
  1785.2500     11.2244    -33.4130      9.8320    111.7404
  1785.5000     11.6097    -33.0225      9.7359    115.0823
  1785.7500     11.9216    -32.6645      9.6359    117.4320
  1786.0000     12.0304    -32.3826      9.5326    119.7937
  1786.2500     11.9634    -32.2061      9.4256    120.2973
  1786.5000     11.8466    -32.1344      9.3184    119.8572
  1786.7500     11.7885    -32.1317      9.2195    119.2113
  1787.0000     11.7994    -32.1441      9.1390    118.1964
  1787.2500     11.8225    -32.1243      9.0849    117.5672
  1787.5000     11.7808    -32.0487      9.0600    116.8451
  1787.7500     11.6461    -31.9195      9.0619    116.7651
  1788.0000     11.5030    -31.7587      9.0853    117.6622
  1788.2500     11.4646    -31.5958      9.1249    118.7153
  1788.5000     11.5637    -31.4536      9.1768    119.5040
  1788.7500     11.7595    -31.3432      9.2364    118.6184
  1789.0000     11.9664    -31.2689      9.2975    115.1809
  1789.2500     12.0911    -31.2353      9.3530    112.4172
  1789.5000     12.0983    -31.2469      9.3987    109.2527
  1789.7500     11.9968    -31.3025      9.4355    108.1393
  1790.0000     11.8285    -31.3928      9.4685    107.5217
  1790.2500     11.7332    -31.5007      9.5033    107.3892
  1790.5000     11.8126    -31.6073      9.5426    107.1265
  1790.7500     11.9265    -31.7031      9.5845    106.8264
  1791.0000     11.9009    -31.7986      9.6237    106.3388
  1791.2500     11.8185    -31.9216      9.6551    106.1787
  1791.5000     11.8495    -32.1016      9.6771    106.4835
  1791.7500     11.9988    -32.3486      9.6910    107.1064
  1792.0000     12.1360    -32.6412      9.6975    108.5467
  1792.2500     12.1357    -32.9325      9.6954    109.6924
  1792.5000     12.0030    -33.1691      9.6853    111.3251
  1792.7500     11.8844    -33.3128      9.6748    112.0580
  1793.0000     11.8833    -33.3509      9.6780    112.1135
  1793.2500     11.9271    -33.2964      9.7089    111.3868
  1793.5000     11.9075    -33.1838      9.7717    109.7527
  1793.7500     11.8692    -33.0588      9.8599    108.9565
  1794.0000     11.9398    -32.9596      9.9633    109.1234
  1794.2500     12.1211    -32.8970     10.0788    110.1459
  1794.5000     12.2841    -32.8551     10.2142    112.0258
  1794.7500     12.3558    -32.8140     10.3807    112.7053
  1795.0000     12.4242    -32.7707     10.5831    112.0844
  1795.2500     12.5984    -32.7375     10.8172    110.7484
  1795.5000     12.8322    -32.7247     11.0749    108.5851
  1795.7500     13.0428    -32.7301     11.3497    107.8533
  1796.0000     13.2888    -32.7446     11.6376    107.9930
  1796.2500     13.6883    -32.7612     11.9357    107.8779
  1796.5000     14.2428    -32.7787     12.2425    105.0674
  1796.7500     14.8207    -32.8000     12.5594    101.2215
  1797.0000     15.2986    -32.8366     12.8919     94.8542
  1797.2500     15.6413    -32.9168     13.2487     91.9556
  1797.5000     15.8750    -33.0771     13.6399     90.7561
  1797.7500     16.0688    -33.3357     14.0731     91.5222
  1798.0000     16.2878    -33.6747     14.5495     93.3721
  1798.2500     16.5702    -34.0531     15.0654     94.2273
  1798.5000     16.9794    -34.4372     15.6180     94.1933
  1798.7500     17.5584    -34.8197     16.2127     93.4542
  1799.0000     18.2228    -35.2196     16.8598     92.3529
  1799.2500     18.8376    -35.6711     17.5611     92.2018
  1799.5000     19.4132    -36.2036     18.2963     92.7143
  1799.7500     20.0892    -36.8211     19.0259     92.6894
  1800.0000     20.8552    -37.4893     19.7164     90.3135
  1800.2500     21.5224    -38.1436     20.3650     86.8172
  1800.5000     22.0705    -38.7123     21.0000     79.9473
  1800.7500     22.7359    -39.1398     21.6599     75.4899
  1801.0000     23.6957    -39.3975     22.3763     70.0916
  1801.2500     24.9167    -39.4853     23.1731     67.0491
  1801.5000     26.2817    -39.4282     24.0730     62.0943
  1801.7500     27.6925    -39.2680     25.0910     58.2128
  1802.0000     29.0980    -39.0483     26.2140     52.2546
  1802.2500     30.4499    -38.7969     27.3823     48.9535
  1802.5000     31.6774    -38.5191     28.4947     45.7686
  1802.7500     32.7345    -38.2079     29.4517     44.8385
  1803.0000     33.5854    -37.8598     30.2113     45.2057
  1803.2500     34.1931    -37.4792     30.8015     46.8196
  1803.5000     34.5318    -37.0720     31.2626     51.4944
  1803.7500     34.5788    -36.6443     31.5740     55.7671
  1804.0000     34.3807    -36.2081     31.6385     62.6167
  1804.2500     34.0376    -35.7848     31.3500     66.7559
  1804.5000     33.5392    -35.3957     30.6854     71.8532
  1804.7500     32.7877    -35.0537     29.7380     74.7740
  1805.0000     31.8104    -34.7655     28.6634     79.4559
  1805.2500     30.7696    -34.5382     27.5950     83.2262
  1805.5000     29.7557    -34.3722     26.5997     89.5455
  1805.7500     28.7225    -34.2505     25.6929     93.4995
  1806.0000     27.6366    -34.1412     24.8796     98.1475
  1806.2500     26.5513    -34.0132     24.1761    100.5613
  1806.5000     25.5242    -33.8478     23.5937    104.3904
  1806.7500     24.5579    -33.6410     23.1107    107.7655
  1807.0000     23.6806    -33.4030     22.6661    114.0666
  1807.2500     22.9904    -33.1589     22.1863    118.2083
  1807.5000     22.4984    -32.9402     21.6219    122.1245
  1807.7500     22.0670    -32.7698     20.9722    122.3945
  1808.0000     21.5767    -32.6476     20.2867    119.7290
  1808.2500     21.0160    -32.5467     19.6458    116.9368
  1808.5000     20.4638    -32.4256     19.1286    112.9085
  1808.7500     20.0660    -32.2484     18.7811    110.8071
  1809.0000     19.8959    -32.0014     18.5981    108.7038
  1809.2500     19.8703    -31.6998     18.5278    108.0314
  1809.5000     19.8881    -31.3821     18.4949    108.0732
  1809.7500     19.9283    -31.0931     18.4329    108.5270
  1810.0000     19.9684    -30.8603     18.3060    109.0311
  1810.2500     19.9368    -30.6791     18.1134    108.9686
  1810.5000     19.7765    -30.5186     17.8756    108.6819
  1810.7500     19.4798    -30.3436     17.6183    108.9008
  1811.0000     19.0359    -30.1360     17.3603    110.2962
  1811.2500     18.4553    -29.9000     17.1097    111.7030
