~Version Information
VERS.                      2.0: CWLS Log ASCII Standard - VERSION 2.0
WRAP.                       NO: One line per depth step
~Well Information Block
STRT.FT               652.0000: 
STOP.FT              1880.0000: 
STEP.FT                 0.1000: 
NULL.                -999.2500: 
COMP.          Pioneer Natural Resources: COMPANY
WELL.          Corkscrew 33-12 Tr: WELL
FLD.           Purgatoire River: FIELD
LOC.           1870' FSL & 1706' FEL: LOCATION
PROV.                 Colorado: PROVINCE
CNTY.               Las Animas: COUNTRY
SRVC.                Patterson: SERVICE COMPANY
DATE.          Tue Mar 29 09:18:51 2005: LOG DATE
UWI.           05 071 08295 00: UNIQUE WELL ID
~Curve Information Block
DEPT.FT            0 000 00 00: Depth
DCAL.in                       : CDL Caliper
RHOB.g/cc                     : CDL Bulk Density
RHOC.g/cc                     : CDL Density Correction
DPOR.pu                       : CDL Density Porosity
GR.GAPI                       : Gamma Ray
NPOR.pu                       : Neutron Porosity
~Parameter Information Block
~A  Depth       DCAL        RHOB        RHOC        DPOR         GR         NPOR    
# ...
   978.4000      7.8026      2.5578     -0.0593      5.5868     83.8186     19.9006
   978.5000      7.7733      2.5483     -0.0500      6.1653     89.2796     19.4578
   978.6000      7.7733      2.5373     -0.0357      6.8291     91.0396     19.2261
   978.7000      7.7733      2.5113     -0.0492      8.4048     86.2069     19.3397
   978.8000      7.7646      2.4806     -0.0673     10.2663     83.7332     19.5817
   978.9000      7.7646      2.4572      0.0104     11.6878     86.9358     19.5742
   979.0000      7.7667      2.4356      0.0173     12.9961     92.1259     19.6806
   979.1000      7.7667      2.4161     -0.0292     14.1731     96.2228     20.4228
   979.2000      7.7667      2.4116     -0.0296     14.4462     97.3420     21.6071
   979.3000      7.7711      2.4221      0.0079     13.8112     95.9830     22.4528
   979.4000      7.7711      2.4335     -0.0311     13.1184     95.3063     22.5512
   979.5000      7.7790      2.4418     -0.0101     12.6166     92.8297     22.5264
   979.6000      7.7790      2.4584     -0.0472     11.6103     87.2888     22.9960
   979.7000      7.7790      2.4886      0.0012      9.7800     85.8260     23.7002
   979.8000      7.7695      2.5223      0.0147      7.7412     86.8772     24.0804
   979.9000      7.7695      2.5563      0.0055      5.6772     85.1863     24.0493
   980.0000      7.7497      2.5944      0.0304      3.3683     83.8586     23.9403
   980.1000      7.7497      2.6259      0.0478      1.4584     82.0571     24.0409
   980.2000      7.7497      2.6435      0.0115      0.3932     78.5490     24.2462
   980.3000      7.7452      2.6546      0.0466     -0.2767     81.1321     24.4284
   980.4000      7.7452      2.6654      0.0213     -0.9361     92.2378     24.5625
   980.5000      7.7601      2.6891      0.0122     -2.3704    102.0127     24.4839
   980.6000      7.7601      2.7322      0.0644     -4.9844    101.7773     24.2590
   980.7000      7.7601      2.7654      0.1182     -6.9930     97.4298     24.2755
   980.8000      7.7731      2.7573      0.0827     -6.5036     96.9364     24.6633
   980.9000      7.7731      2.7304     -0.0047     -4.8726     97.0879     25.0456
   981.0000      7.7759      2.7222      0.0258     -4.3760     94.3152     25.0933
   981.1000      7.7759      2.7206      0.0044     -4.2805     90.4945     25.0007
   981.2000      7.7759      2.7012     -0.0270     -3.1059     88.0318     24.9837
   981.3000      7.7808      2.6693      0.0275     -1.1697     88.8977     25.0256
   981.4000      7.7808      2.6411     -0.0230      0.5416     90.5598     25.2104
   981.5000      7.7744      2.6306      0.0062      1.1777     88.7271     25.4670
   981.6000      7.7744      2.6342     -0.0118      0.9595     87.6658     25.6901
   981.7000      7.7744      2.6308     -0.0348      1.1645     90.5708     25.8476
   981.8000      7.7749      2.6168     -0.0184      2.0116     91.7619     25.7769
   981.9000      7.7749      2.6163     -0.0572      2.0410     88.8051     25.7565
   982.0000      7.7810      2.6448      0.0140      0.3147     87.0269     26.2718
   982.1000      7.7810      2.6871      0.0040     -2.2500     88.7524     26.9474
   982.2000      7.7810      2.7176      0.0486     -4.0951     89.5861     27.0946
   982.3000      7.7692      2.7189      0.0742     -4.1759     87.6846     26.8063
   982.4000      7.7692      2.6989     -0.0215     -2.9630     88.3712     26.4097
   982.5000      7.7641      2.6843     -0.0112     -2.0795     94.7409     26.0311
   982.6000      7.7641      2.6922     -0.0344     -2.5583    102.1927     25.9746
   982.7000      7.7641      2.7198      0.0110     -4.2279    104.3240     26.2377
   982.8000      7.7565      2.7444      0.0361     -5.7185     97.3497     26.2040
   982.9000      7.7565      2.7416      0.0290     -5.5513     85.3597     25.5084
   983.0000      7.7580      2.7075      0.0194     -3.4827     77.8354     24.6129
   983.1000      7.7580      2.6655     -0.0351     -0.9414     78.2138     23.8555
   983.2000      7.7580      2.6441     -0.0965      0.3550     84.1568     22.7667
   983.3000      7.7541      2.6420     -0.0307      0.4849     89.7116     21.3396
   983.4000      7.7541      2.6362     -0.0227      0.8367     89.4996     20.2052
   983.5000      7.7357      2.6203     -0.0406      1.8013     84.8735     19.3757
   983.6000      7.7357      2.5883      0.0515      3.7375     80.2908     18.5025
   983.7000      7.7357      2.5212     -0.0150      7.8074     79.5764     17.6642
   983.8000      7.7315      2.4249     -0.0760     13.6440     81.5898     16.9411
   983.9000      7.7315      2.3237     -0.0763     19.7764     82.6284     16.4837
   984.0000      7.7391      2.2362     -0.1343     25.0771     83.7738     16.8246
   984.1000      7.7391      2.1802     -0.1504     28.4754     88.8052     17.9433
   984.2000      7.7391      2.1592     -0.1208     29.7477     99.4436     18.9641
   984.3000      7.7474      2.1526     -0.0926     30.1444    113.6647     19.5024
   984.4000      7.7474      2.1445     -0.0525     30.6383    124.5475     19.8602
   984.5000      7.8165      2.1526     -0.0634     30.1431    127.2952     20.3802
   984.6000      7.8165      2.2001      0.0807     27.2683    125.9307     21.2726
   984.7000      7.8165      2.2764      0.1917     22.6434    125.0633     22.1169
   984.8000      7.8713      2.3591      0.1534     17.6317    125.8611     22.5535
   984.9000      7.8713      2.4386      0.2124     12.8135    131.0474     22.9626
   985.0000      7.9283      2.5159      0.1940      8.1244    138.8822     23.3727
   985.1000      7.9283      2.5828      0.2247      4.0711    144.2795     23.5246
   985.2000      7.9283      2.6136      0.2555      2.2032    147.2001     23.6744
   985.3000      7.9533      2.6079      0.1660      2.5488    146.4659     23.9091
   985.4000      7.9533      2.5991      0.1552      3.0877    139.8886     24.1418
   985.5000      7.9712      2.6026      0.1221      2.8727    133.6862     24.4555
   985.6000      7.9712      2.6081      0.1117      2.5374    135.7076     24.7988
   985.7000      7.9712      2.6075      0.1279      2.5743    144.4051     24.9773
   985.8000      7.9781      2.5996      0.1048      3.0531    152.9226     25.0268
   985.9000      7.9781      2.5905      0.0099      3.6032    156.3144     25.2725
   986.0000      7.9209      2.5870      0.0310      3.8182    152.4177     25.8076
   986.1000      7.9209      2.5861      0.0492      3.8725    147.4399     26.0748
   986.2000      7.9209      2.5877      0.0478      3.7766    144.0858     25.5743
   986.3000      7.9080      2.5926      0.0869      3.4797    137.2181     24.9697
   986.4000      7.9080      2.5977      0.0241      3.1722    128.3338     25.0284
   986.5000      7.8866      2.6025      0.1027      2.8770    123.8614     25.2281
   986.6000      7.8866      2.6005      0.0775      3.0009    121.6386     25.0341
   986.7000      7.8866      2.5894      0.0197      3.6743    115.7571     24.8432
   986.8000      7.8696      2.5749     -0.0351      4.5508    110.0780     25.0230
   986.9000      7.8696      2.5554     -0.0362      5.7348    110.3282     25.3312
   987.0000      7.8591      2.5345     -0.0498      6.9978    114.1698     25.1767
   987.1000      7.8591      2.5256     -0.0188      7.5392    119.2640     24.4459
   987.2000      7.8591      2.5336     -0.0733      7.0563    121.1902     23.7371
   987.3000      7.8767      2.5467      0.0314      6.2617    114.5447     23.6271
   987.4000      7.8767      2.5399      0.0376      6.6719    105.8888     23.9880
   987.5000      7.9211      2.5159     -0.0549      8.1289    105.9302     24.3959
   987.6000      7.9211      2.5139     -0.0468      8.2491    114.1147     24.7254
   987.7000      7.9211      2.5456      0.0199      6.3292    123.9593     24.7777
   987.8000      7.9366      2.5842      0.0035      3.9890    126.9556     24.4334
   987.9000      7.9366      2.6096      0.0228      2.4512    117.7758     23.9443
