~Version Information
VERS.                      2.0: CWLS Log ASCII Standard - VERSION 2.0
WRAP.                       NO: One line per depth step
~Well Information Block
STRT.FT                 0.7500: 
STOP.FT              2144.0000: 
STEP.FT                 0.2500: 
NULL.                -999.2500: 
COMP.          Petrogulf Corporation: COMPANY
WELL.            Montoya 1-44R: WELL
FLD.           Purgatorie River: FIELD
LOC.           658' FSL & 1052' FWL: LOCATION
CNTY.               Las Animas: COUNTY
SRVC.                         : SERVICE COMPANY
DATE.          Tue Nov 30 08:31:55 2004: LOG DATE
UWI.           05 071 08239 00: UNIQUE WELL ID
STAT.                 Colorado: STATE
~Curve Information Block
DEPT.FT            0 000 00 00: Depth
TT3.usec                      : CBL 3' Travel Time
AMP3.mV                       : CBL 3' Amplitude
GR.GAPI                       : Gamma Ray
CCL.                          : Casing Collar Locator
~Parameter Information Block
~A  Depth       TT3         AMP3         GR         CCL     
# ...
   972.2500    830.4168     14.6084    147.2802      0.0000
   972.5000    827.8244     14.6233    149.1728      0.0000
   972.7500    822.3214     14.5704    150.2418      0.0000
   973.0000    814.6603     14.3759    150.1032      0.0000
   973.2500    805.0320     14.0077    148.7359      0.0000
   973.5000    793.5474     13.5200    146.6007      0.0000
   973.7500    781.1180     13.0164    144.4523      0.0000
   974.0000    769.7788     12.5710    142.9371      0.0000
   974.2500    761.8908     12.1996    142.2616      0.0000
   974.5000    758.6016     11.8945    142.1524      0.0000
   974.7500    759.0237     11.6600    142.1016      0.0000
   975.0000    761.1551     11.5069    141.6998      0.0000
   975.2500    763.6367     11.4286    140.8089      0.0000
   975.5000    766.4478     11.3965    139.5052      0.0000
   975.7500    770.0812     11.3797    137.9251      0.0000
   976.0000    774.4908     11.3676    136.2087      0.0000
   976.2500    778.6739     11.3742    134.5899      0.0000
   976.5000    780.8986     11.4246    133.4362      0.0000
   976.7500    779.6437     11.5405    133.1264      0.0000
   977.0000    774.9393     11.7272    133.8319      0.0000
   977.2500    768.7504     11.9533    135.3922      0.0000
   977.5000    763.4626     12.1435    137.3716      0.0000
   977.7500    759.6965     12.2183    139.2156      0.0000
   978.0000    755.9932     12.1566    140.4260      0.0000
   978.2500    750.9523     12.0019    140.7017      0.0000
   978.5000    745.2636     11.8036    140.0401      0.0000
   978.7500    741.1420     11.5718    138.7739      0.0000
   979.0000    740.0124     11.3017    137.4778      0.0000
   979.2500    741.3212     11.0212    136.7550      0.0000
   979.5000    743.4667     10.7937    136.9614      0.0000
   979.7500    745.2452     10.6744    138.0379      0.0000
   980.0000    746.2975     10.6764    139.5850      0.0000
   980.2500    746.7335     10.7769    141.1302      0.0000
   980.5000    746.7598     10.9411    142.3841      0.0000
   980.7500    746.5554     11.1358    143.3204      0.0000
   981.0000    746.2612     11.3309    144.0808      0.0000
   981.2500    745.9780     11.5041    144.8151      0.0000
   981.5000    745.8253     11.6497    145.5969      0.0000
   981.7500    746.0290     11.7713    146.4771      0.0000
   982.0000    747.0137     11.8556    147.5819      0.0000
   982.2500    749.3553     11.8675    149.0990      0.0000
   982.5000    753.4407     11.7874    151.0514      0.0000
   982.7500    759.0148     11.6485    153.0493      0.0000
   983.0000    765.1257     11.5230    154.3496      0.0000
   983.2500    770.6439     11.4676    154.2526      0.0000
   983.5000    774.9233     11.4819    152.4968      0.0000
   983.7500    778.1639     11.5181    149.3113      0.0000
   984.0000    781.2064     11.5369    145.2072      0.0000
   984.2500    784.6653     11.5482    140.7840      0.0000
   984.5000    788.1015     11.5909    136.6546      0.0000
   984.7500    790.2104     11.6791    133.3929      0.0000
   985.0000    789.8362     11.7834    131.3946      0.0000
   985.2500    786.9631     11.8695    130.6943      0.0000
   985.5000    783.1151     11.9405    130.8436      0.0000
   985.7500    780.4628     12.0283    130.9945      0.0000
   986.0000    779.6708     12.1517    130.2549      0.0000
   986.2500    778.8096     12.2897    128.1813      0.0000
   986.5000    775.5354     12.4022    125.0753      0.0000
   986.7500    770.2534     12.4774    121.8196      0.0000
   987.0000    765.8564     12.5505    119.3714      0.0000
   987.2500    764.1945     12.6671    118.2755      0.0000
   987.5000    763.8988     12.8376    118.5000      0.0000
   987.7500    762.1341     13.0365    119.6365      0.0000
   988.0000    757.7484     13.2299    121.2842      0.0000
   988.2500    752.0941     13.3912    123.3225      0.0000
   988.5000    747.2546     13.4993    125.8676      0.0000
   988.7500    744.2661     13.5399    128.9273      0.0000
   989.0000    742.9320     13.5096    132.1202      0.0000
   989.2500    742.5833     13.4239    134.8131      0.0000
   989.5000    742.6595     13.3174    136.6209      0.0000
   989.7500    742.8508     13.2181    137.7260      0.0000
   990.0000    743.0481     13.1094    138.6122      0.0000
   990.2500    743.3138     12.9227    139.4551      0.0000
   990.5000    743.9171     12.5762    139.8505      0.0000
   990.7500    745.4044     12.0237    139.2134      0.0000
   991.0000    748.5999     11.2726    137.4405      0.0000
   991.2500    754.3730     10.3703    135.1334      0.0000
   991.5000    763.4199      9.3885    133.1506      0.0000
   991.7500    776.7560      8.4149    131.9347      0.0000
   992.0000    796.8160      7.5327    131.1508      0.0000
   992.2500    826.5219      6.7866    129.8118      0.0000
   992.5000    864.4296      6.1744    126.7229      0.0000
   992.7500    900.9805      5.6787    121.0200      0.0000
   993.0000    924.2974      5.2879    112.6137      0.0000
   993.2500    933.0402      4.9833    102.3376      0.0000
   993.5000    940.5676      4.7338     91.6912      0.0000
   993.7500    963.6618      4.5240     82.3037      0.0000
   994.0000   1008.9714      4.3784     75.4567      0.0000
   994.2500   1070.5532      4.3535     71.9260      0.0000
   994.5000   1135.2042      4.5132     72.0854      0.0000
   994.7500   1187.6074      4.9103     75.9999      0.0000
   995.0000   1214.7272      5.5753     83.3486      0.0000
   995.2500   1210.6666      6.5008     93.3113      3.0000
   995.5000   1178.7909      7.6117    104.6208      0.0000
   995.7500   1126.7916      8.7599    115.7993      0.0000
   996.0000   1058.3649      9.7895    125.4361      0.0000
   996.2500    973.6185     10.6386    132.4238      0.0000
   996.5000    879.2207     11.3707    136.2210      0.0000
   996.7500    789.9854     12.1095    137.1198      0.0000
   997.0000    716.7533     12.9314    136.2847      0.0000
   997.2500    662.2523     13.7721    135.3502      0.0000
   997.5000    631.5717     14.4124    135.6601      0.0000
   997.7500    633.8141     14.6177    137.6200      0.0000
   998.0000    667.5480     14.3363    140.6055      0.0000
   998.2500    714.6940     13.7409    143.4401      0.0000
   998.5000    754.0891     13.0773    145.0122      0.0000
   998.7500    776.0891     12.5048    144.6044      0.0000
   999.0000    782.9932     12.0668    141.9453      0.0000
   999.2500    781.3261     11.7508    137.2933      0.0000
   999.5000    776.4326     11.5360    131.5869      0.0000
   999.7500    771.3336     11.4026    126.3788      0.0000
  1000.0000    767.2859     11.3235    123.3276      0.0000
  1000.2500    764.3309     11.2645    123.4780      0.0000
  1000.5000    761.8812     11.1973    126.7972      0.0000
  1000.7500    759.7208     11.1165    132.2800      0.0000
  1001.0000    758.6942     11.0423    138.5011      0.0000
  1001.2500    759.8522     11.0046    144.2585      0.0000
  1001.5000    762.7309     11.0200    148.9554      0.0000
  1001.7500    764.9840     11.0807    152.5616      0.0000
  1002.0000    764.2463     11.1558    155.2720      0.0000
  1002.2500    760.3059     11.2053    157.1505      0.0000
  1002.5000    755.1030     11.2074    158.0554      0.0000
  1002.7500    750.7828     11.1798    157.8454      0.0000
  1003.0000    748.1813     11.1699    156.6205      0.0000
  1003.2500    746.9668     11.2205    154.7578      0.0000
  1003.5000    746.5173     11.3398    152.7530      0.0000
  1003.7500    746.3936     11.4977    151.0236      0.0000
  1004.0000    746.3396     11.6490    149.8054      0.0000
  1004.2500    746.2122     11.7697    149.1408      0.0000
  1004.5000    745.9785     11.8775    148.8861      0.0000
  1004.7500    745.6919     12.0164    148.7470      0.0000
  1005.0000    745.4134     12.2217    148.3965      0.0000
  1005.2500    745.1540     12.5003    147.6439      0.0000
  1005.5000    744.8945     12.8320    146.5370      0.0000
