~Version Information
 VERS.                                  2.0 : CWLS LAS VERSION
 WRAP.                                   NO : WRAPING MODE
 SWARE .                 MController 2.5.0J : SOFTWARE VERSION
~Well Information
 WELL.                  Great Plains 22-21V : WELL
 COMP.                Petrogulf Corporation : COMPANY
 FLD.                      Purgatoire River : FIELD
 LOC.                NE/NW Sec 22 T33S R67W : LOCATION
 DATE.                          08/29-30/05 : DATE(S) LOGGED
 SRVC.       Blanco Geological Services LLC : SERVICE COMPANY
 STAT.                                   CO : STATE
 CNTY.                           Las Animas : COUNTY
 CTRY.                                  USA : COUNTRY
 API.                       05-071-08346-00 : API NUMBER
 STRT.FT                              -2.00 : START DEPTH
 STOP.FT                            2090.00 : STOP DEPTH
 STEP.FT                               1.00 : DEPTH INCREMENT
 NULL.                                -9999 : NULL VALUE
~Curve information
 DEPTH.FT                                   :
 ROP.MIN/FT                                 :
 GAS.UNITS                                  :
~ASCII Log data
# ...
      1198.0         3.90       1171.0 
      1199.0         0.63        521.0 
      1200.0         0.70        518.1 
      1201.0         0.90        503.8 
      1202.0         0.55        576.8 
      1203.0         0.60        580.6 
      1204.0         1.23        501.3 
      1205.0         0.73        475.6 
      1206.0         0.43        479.4 
      1207.0         0.32        474.0 
      1208.0         0.30        475.9 
      1209.0         0.30        474.6 
      1210.0         0.30        473.1 
      1211.0         0.30        483.5 
      1212.0         0.30        489.6 
      1213.0         0.30        490.2 
      1214.0         0.23        488.0 
      1215.0         0.27        487.0 
      1216.0         0.33        488.6 
      1217.0         0.27        488.3 
      1218.0         0.32        485.1 
      1219.0         0.33        490.5 
      1220.0         0.30        486.7 
      1221.0         0.33        440.0 
      1222.0         0.27         24.7 
      1223.0         0.13         24.3 
      1224.0         0.30         62.8 
      1225.0         0.30        110.4 
      1226.0         0.27        155.7 
      1227.0         0.23        205.2 
      1228.0         3.65       1722.9 
      1229.0         0.38        595.2 
      1230.0         0.30        599.7 
      1231.0         0.20        591.8 
      1232.0         0.20        577.8 
      1233.0         0.37        574.3 
      1234.0         0.37        575.2 
      1235.0         0.40        577.5 
      1236.0         0.40        656.8 
      1237.0         0.37        703.8 
      1238.0         0.33        700.3 
      1239.0         0.37        643.2 
      1240.0         0.65        630.8 
      1241.0         0.77        624.4 
      1242.0         0.57        604.1 
      1243.0         0.53        604.1 
      1244.0         0.53        605.4 
      1245.0         0.65        601.9 
      1246.0         0.60        618.1 
      1247.0         0.27        617.5 
      1248.0         0.30        614.3 
      1249.0         0.30        660.9 
      1250.0         0.43        663.5 
      1251.0         0.43        626.7 
      1252.0         0.50        653.6 
      1253.0         0.48        645.7 
      1254.0         0.27        440.0 
      1255.0         0.33         39.3 
      1256.0         0.33        121.8 
      1257.0         0.23        216.7 
      1258.0         3.52       2191.7 
      1259.0         0.47        797.1 
      1260.0         0.43        684.7 
      1261.0         0.45        687.6 
      1262.0         0.70        692.0 
      1263.0         0.47        700.0 
      1264.0         0.37        694.3 
      1265.0         0.33        677.8 
      1266.0         0.33        668.9 
      1267.0         0.38        666.7 
      1268.0         0.40        642.2 
      1269.0         0.40        730.1 
      1270.0         0.37        835.8 
      1271.0         0.33        836.5 
      1272.0         0.37        737.4 
      1273.0         0.77        618.4 
      1274.0         1.08        610.5 
      1275.0         0.73        645.7 
      1276.0         0.50        672.1 
      1277.0         0.40        648.6 
      1278.0         0.30        668.2 
      1279.0         0.32        714.6 
      1280.0         0.37        728.2 
      1281.0         0.30        703.8 
      1282.0         0.27        617.5 
      1283.0         0.30        622.9 
      1284.0         0.40        718.4 
      1285.0         0.47        718.7 
      1286.0         0.40        591.1 
      1287.0         0.43        683.8 
      1288.0         0.42        688.2 
      1289.0         0.50        470.8 
      1290.0         5.12       2092.3 
      1291.0         0.40        647.6 
      1292.0         0.55        677.8 
      1293.0         0.57        681.9 
      1294.0         0.33        683.2 
      1295.0         0.30        681.9 
      1296.0         0.27        689.5 
      1297.0         0.30        800.3 
      1298.0         0.30        926.6 
      1299.0         0.30        936.4 
      1300.0         0.17        861.5 
      1301.0         0.20        772.7 
      1302.0         0.30        668.2 
      1303.0         0.58        729.8 
      1304.0         0.67        718.1 
      1305.0         0.47        663.5 
      1306.0         0.40        831.7 
      1307.0         0.50        839.0 
      1308.0         0.30        733.0 
      1309.0         0.27        708.9 
      1310.0         0.42        842.5 
      1311.0         0.57        846.0 
      1312.0         0.23        779.3 
      1313.0         0.30        747.9 
      1314.0         0.57        809.2 
      1315.0         0.57        766.3 
      1316.0         0.43        442.3 
      1317.0         0.28        134.0 
      1318.0         0.30        255.7 
      1319.0         0.40        391.5 
      1320.0        10.72       4440.7 
      1321.0         0.47        743.8 
      1322.0         0.40        742.2 
      1323.0         0.37        750.8 
      1324.0         0.37        754.9 
      1325.0         0.38        807.3 
      1326.0         0.30        922.1 
      1327.0         0.33       1030.4 
      1328.0         0.33       1033.2 
      1329.0         0.37        936.4 
      1330.0         0.80        902.5 
      1331.0         0.73        901.8 
      1332.0         0.65        839.6 
      1333.0         0.63        835.8 
      1334.0         0.63        878.0 
      1335.0         0.53        886.6 
      1336.0         0.33        884.7 
      1337.0         0.33       1003.7 
      1338.0         0.35       1101.2 
      1339.0         0.37       1096.4 
      1340.0        22.08       1719.7 
      1341.0         0.80       1348.7 
      1342.0         0.63       1147.2 
      1343.0         0.53        826.6 
      1344.0         0.40       1402.0 
      1345.0         0.37       2109.8 
      1346.0         0.25       2636.7 
      1347.0         0.57       3585.6 
      1348.0         0.30       3519.6 
      1349.0         0.47       2552.9 
      1350.0         3.05       1624.5 
      1351.0         0.77       1532.2 
      1352.0         0.70       1697.5 
      1353.0         4.17       2051.4 
      1354.0         1.27       1982.5 
      1355.0         0.83       1424.9 
      1356.0         0.40       1422.3 
      1357.0         0.33       1413.1 
      1358.0         0.28       1609.0 
      1359.0         0.37       1659.4 
      1360.0         0.30       1617.2 
      1361.0         0.33       1449.0 
      1362.0         0.33       1297.6 
      1363.0         0.40       1384.6 
      1364.0         0.57       1405.2 
      1365.0         0.47       1308.4 
      1366.0         0.52       1415.7 
      1367.0         0.53       1512.5 
      1368.0         0.47       1497.2 
      1369.0         0.30       1469.0 
      1370.0         0.37       1429.0 
      1371.0         0.37       1426.2 
      1372.0         0.43       1415.4 
      1373.0         0.47       1381.7 
      1374.0         0.48       1339.2 
      1375.0         0.40        978.6 
      1376.0         0.37        881.8 
      1377.0         0.33       1399.2 
      1378.0         0.23       1810.5 
      1379.0         0.23       2302.8 
      1380.0         4.97       4058.5 
      1381.0         0.63       1332.8 
      1382.0         0.40       1615.3 
      1383.0         0.40       1982.8 
      1384.0         0.23       1987.9 
      1385.0         0.50       1887.0 
      1386.0         0.52       1500.1 
      1387.0         0.60       1515.7 
      1388.0         0.40       1509.9 
      1389.0         0.17       1366.5 
      1390.0         0.37       1316.7 
      1391.0         0.30       1281.4 
      1392.0         0.37       1345.9 
      1393.0         0.37       1349.7 
      1394.0         0.42       1384.9 
      1395.0         0.33       1400.8 
      1396.0         0.33       1403.6 
      1397.0         0.40       1394.7 
