~Version Information
VERS.                      2.0: CWLS Log ASCII Standard - VERSION 2.0
WRAP.                       NO: One line per depth step
~Well Information Block
STRT.FT               550.0000: 
STOP.FT              1577.7000: 
STEP.FT                 0.1000: 
NULL.                -999.2500: 
COMP.          Pioneer Natural Resources: COMPANY
WELL.          Kristin 22-23 Tr: WELL
FLD.           Purgatoire River: FIELD
LOC.           2273' FNL & 2029' FWL: LOCATION
PROV.                 Colorado: PROVINCE
CNTY.               Las Animas: COUNTRY
SRVC.                Patterson: SERVICE COMPANY
DATE.          Fri Jan 21 06:58:50 2005: LOG DATE
UWI.           05 071 08259 00: UNIQUE WELL ID
~Curve Information Block
DEPT.FT            0 000 00 00: Depth
DCAL.in                       : CDL Caliper
RHOB.g/cc                     : CDL Bulk Density
RHOC.g/cc                     : CDL Density Correction
DPOR.pu                       : CDL Density Porosity
NPOR.pu                       : Neutron Porosity
GR.GAPI                       : Gamma Ray
~Parameter Information Block
~A  Depth       DCAL        RHOB        RHOC        DPOR        NPOR         GR     
# ...
   886.0000      8.0225      2.6741      0.1081     -1.4580     27.1687    109.7614
   886.1000      8.0225      2.6436      0.0587      0.3868     27.0573    109.6832
   886.2000      8.0225      2.6073      0.0468      2.5888     26.9410    107.5790
   886.3000      8.0241      2.5834      0.0428      4.0390     27.2626    110.7382
   886.4000      8.0241      2.5705      0.0394      4.8157     28.1457    121.9657
   886.5000      8.0242      2.5559      0.0460      5.7036     29.0202    131.7896
   886.6000      8.0242      2.5375      0.0288      6.8172     29.4770    132.6261
   886.7000      8.0242      2.5192      0.0278      7.9247     29.7527    129.5674
   886.8000      8.0254      2.4990      0.0032      9.1519     29.8317    131.0635
   886.9000      8.0254      2.4795     -0.0016     10.3361     29.8967    135.9792
   887.0000      8.0272      2.4699     -0.0133     10.9128     30.3735    138.9733
   887.1000      8.0272      2.4662      0.0594     11.1402     31.0397    140.5176
   887.2000      8.0272      2.4590      0.0602     11.5750     31.5331    142.6090
   887.3000      8.0270      2.4598      0.0122     11.5288     31.7274    145.3143
   887.4000      8.0270      2.4797      0.0455     10.3230     31.6247    148.8152
   887.5000      8.0240      2.5058      0.0664      8.7410     31.2815    150.7504
   887.6000      8.0240      2.5216      0.1048      7.7837     30.4629    149.0787
   887.7000      8.0240      2.5252      0.0694      7.5623     29.6335    146.1597
   887.8000      8.0201      2.5227      0.0815      7.7154     29.6305    141.4971
   887.9000      8.0201      2.5249      0.0636      7.5833     30.1073    136.1987
   888.0000      8.0187      2.5412      0.0956      6.5915     30.1567    134.9747
   888.1000      8.0187      2.5620      0.1025      5.3355     29.4177    135.2025
   888.2000      8.0187      2.5678      0.1067      4.9802     28.3651    130.7296
   888.3000      8.0198      2.5543      0.0771      5.8007     28.0944    123.5521
   888.4000      8.0198      2.5379      0.0316      6.7950     29.1397    120.2975
   888.5000      8.0201      2.5345      0.0821      6.9997     30.4099    122.0133
   888.6000      8.0201      2.5409      0.0489      6.6148     30.8344    126.0859
   888.7000      8.0201      2.5447      0.0842      6.3822     30.7068    133.2072
   888.8000      8.0190      2.5377      0.0679      6.8052     30.6549    141.7395
   888.9000      8.0190      2.5241      0.0768      7.6278     30.5811    146.5878
   889.0000      8.0191      2.5086      0.0752      8.5674     30.2373    147.4478
   889.1000      8.0191      2.4953      0.0519      9.3729     30.0018    147.3839
   889.2000      8.0191      2.4938      0.0482      9.4640     30.2968    146.7706
   889.3000      8.0234      2.5022      0.0909      8.9586     30.6782    144.8957
   889.4000      8.0234      2.5048      0.1093      8.7988     30.2579    142.2405
   889.5000      8.0295      2.4981      0.0789      9.2031     29.2220    139.7894
   889.6000      8.0295      2.4942      0.0964      9.4438     28.4501    139.0818
   889.7000      8.0295      2.4969      0.1027      9.2803     28.2497    143.7683
   889.8000      8.0289      2.5017      0.1004      8.9900     28.7038    154.8250
   889.9000      8.0289      2.5067      0.1060      8.6864     29.7923    164.2294
   890.0000      8.0244      2.5123      0.0989      8.3431     30.6591    163.3578
   890.1000      8.0244      2.5160      0.1378      8.1225     30.3073    155.4059
   890.2000      8.0244      2.5133      0.1060      8.2877     29.1169    150.4042
   890.3000      8.0188      2.5048      0.0916      8.8014     28.0229    149.9708
   890.4000      8.0188      2.4981      0.0626      9.2043     27.3316    150.6691
   890.5000      8.0086      2.5079      0.0563      8.6139     26.6670    148.5014
   890.6000      8.0086      2.5417      0.0943      6.5640     25.3733    140.9224
   890.7000      8.0086      2.5950      0.0998      3.3359     23.8386    133.7826
   890.8000      7.9959      2.6626      0.1229     -0.7651     23.0380    130.5872
   890.9000      7.9959      2.7324      0.1662     -4.9915     22.9134    128.4967
   891.0000      7.9912      2.7831      0.1613     -8.0685     22.9336    126.0574
   891.1000      7.9912      2.8061      0.1744     -9.4633     23.0192    122.1338
   891.2000      7.9912      2.8103      0.1410     -9.7128     23.0447    116.6265
   891.3000      7.9924      2.8137      0.1080     -9.9234     22.7303    112.9286
   891.4000      7.9924      2.8165      0.1292    -10.0911     22.2953    114.2927
   891.5000      7.9931      2.7959      0.1410     -8.8451     22.4419    119.8799
   891.6000      7.9931      2.7560      0.0663     -6.4236     23.2908    121.4131
   891.7000      7.9931      2.7290      0.0342     -4.7897     23.9377    114.4917
   891.8000      7.9920      2.7262      0.0407     -4.6153     24.1912    110.2575
   891.9000      7.9920      2.7388     -0.0143     -5.3836     24.9268    115.9574
   892.0000      7.9910      2.7570      0.0330     -6.4848     26.0114    122.2307
   892.1000      7.9910      2.7606      0.0864     -6.7039     26.3870    124.0095
   892.2000      7.9910      2.7338      0.0687     -5.0796     26.1573    125.1787
   892.3000      7.9933      2.6895      0.0362     -2.3958     26.3229    126.3610
   892.4000      7.9933      2.6597      0.0352     -0.5871     27.0262    126.9144
   892.5000      7.9991      2.6555      0.0454     -0.3317     27.7271    127.2631
   892.6000      7.9991      2.6582      0.0477     -0.4958     28.2344    127.1440
   892.7000      7.9991      2.6550      0.0122     -0.3048     28.4858    126.2632
   892.8000      8.0028      2.6558     -0.0092     -0.3488     28.3375    128.3260
   892.9000      8.0028      2.6735      0.0326     -1.4271     28.1043    134.9080
   893.0000      7.9985      2.7151      0.0268     -3.9437     27.9208    140.1369
   893.1000      7.9985      2.7708      0.1188     -7.3212     27.2124    142.0182
   893.2000      7.9985      2.8101      0.1700     -9.7051     25.9073    141.8638
   893.3000      7.9933      2.8205      0.1078    -10.3342     24.9325    139.4068
   893.4000      7.9933      2.8175      0.1131    -10.1501     25.0005    135.7334
   893.5000      7.9908      2.8107      0.1040     -9.7399     25.6291    135.5234
   893.6000      7.9908      2.7951      0.0639     -8.7930     26.1716    141.8139
   893.7000      7.9908      2.7631      0.0616     -6.8542     26.5247    149.6012
   893.8000      7.9898      2.7195      0.0150     -4.2092     26.5523    152.9822
   893.9000      7.9898      2.6797      0.0289     -1.7974     26.4422    150.9610
   894.0000      7.9896      2.6543      0.0140     -0.2630     26.5450    149.5596
   894.1000      7.9896      2.6416      0.0759      0.5095     26.6942    151.5137
   894.2000      7.9896      2.6340      0.0597      0.9723     26.5826    151.3997
   894.3000      7.9897      2.6293      0.0684      1.2568     26.2585    147.7890
   894.4000      7.9897      2.6223      0.0929      1.6785     26.0655    143.0863
   894.5000      7.9936      2.6167      0.0504      2.0184     26.1190    139.4402
   894.6000      7.9936      2.6247      0.0962      1.5357     25.9851    140.4590
   894.7000      7.9936      2.6344      0.1138      0.9473     25.6625    144.8069
   894.8000      7.9976      2.6249      0.0966      1.5233     25.9833    148.7236
   894.9000      7.9976      2.6019      0.0579      2.9123     27.0734    153.4876
   895.0000      7.9959      2.5888      0.0924      3.7118     27.7556    158.8365
   895.1000      7.9959      2.5891      0.1129      3.6929     27.3788    160.5425
   895.2000      7.9959      2.5914      0.0726      3.5504     26.9282    158.8930
   895.3000      7.9925      2.5968      0.0543      3.2233     27.0793    154.9256
   895.4000      7.9925      2.6098      0.0799      2.4334     26.9254    151.0619
   895.5000      7.9915      2.6198      0.1047      1.8307     26.1088    149.9069
