~Version Information
 VERS.                                  2.0 : CWLS LAS VERSION
 WRAP.                                   NO : WRAPING MODE
 SWARE .                 MController 2.5.0J : SOFTWARE VERSION
~Well Information
 WELL.                          GETEM 21-21 : WELL
 COMP.    PIONEER NATURAL RESOURCES USA INC : COMPANY
 FLD.                      PURGATOIRE RIVER : FIELD
 LOC.                NE/NW SEC 23 T32S R67W : LOCATION
 DATE.                             06/18/05 : DATE(S) LOGGED
 SRVC.       BLANCO GEOLOGICAL SERVICES LLC : SERVICE COMPANY
 STAT.                             COLORADO : STATE
 CNTY.                           LAS ANIMAS : COUNTY
 CTRY.                                  USA : COUNTRY
 API.                       05-071-08411-00 : API NUMBER
 STRT.FT                             321.00 : START DEPTH
 STOP.FT                            2815.00 : STOP DEPTH
 STEP.FT                               1.00 : DEPTH INCREMENT
 NULL.                                -9999 : NULL VALUE
~Curve information
 DEPTH.FT                                   :
 ROP.MIN/FT                                 :
 GAS.UNITS                                  :
~ASCII Log data
       321.0     -9999.00          6.5 
       322.0        23.48          2.6 
       323.0         0.03          2.3 
       324.0         0.10          2.1 
       325.0         0.07          1.7 
       326.0         0.03          2.5 
       327.0         0.03          2.2 
       328.0         0.03          2.3 
       329.0         0.07          2.3 
       330.0         0.03          1.9 
       331.0         0.03          2.4 
       332.0         0.07          2.5 
       333.0         0.03          2.1 
       334.0         0.03          2.7 
       335.0         0.07          2.0 
       336.0         0.07          2.0 
       337.0         0.10          2.0 
       338.0         0.20          2.3 
       339.0         0.20          2.2 
       340.0         0.17          2.1 
       341.0         0.17          1.9 
       342.0         0.17          1.9 
       343.0         0.17          2.2 
       344.0         0.13          1.0 
       345.0         0.17          2.1 
       346.0         0.10          1.4 
       347.0         0.15          1.5 
       348.0         0.13          1.8 
       349.0         0.17          2.4 
       350.0         0.13          2.3 
       351.0         0.17          2.7 
       352.0         0.13          2.7 
       353.0         0.10          3.0 
       354.0         0.17          1.7 
       355.0         1.27          1.6 
       356.0         0.13          2.3 
       357.0         0.20          1.6 
       358.0         0.20          1.6 
       359.0         0.13          2.1 
       360.0         0.17          1.7 
       361.0         0.13          2.0 
       362.0         0.15          1.7 
       363.0         0.13          1.9 
       364.0         0.13          1.4 
       365.0         0.13          1.8 
       366.0         0.13          1.7 
       367.0         0.10          1.6 
       368.0         0.10          1.3 
       369.0         0.13          0.9 
       370.0         0.10          2.1 
       371.0         0.10          1.5 
       372.0         0.10          1.5 
       373.0         0.10          1.8 
       374.0         0.10          1.4 
       375.0         0.10          2.0 
       376.0         0.10          1.2 
       377.0         0.10          1.4 
       378.0         0.10          2.3 
       379.0         0.07          1.7 
       380.0         0.07          1.4 
       381.0         0.07          1.8 
       382.0         0.10          1.5 
       383.0         0.10          1.6 
       384.0         0.07          1.5 
       385.0         0.07          1.6 
       386.0         1.78          1.6 
       387.0         0.33          2.0 
       388.0         0.20          1.4 
       389.0         0.20          1.0 
       390.0         0.20          0.9 
       391.0         0.17          1.3 
       392.0         0.13          1.1 
       393.0         0.20          1.6 
       394.0         0.17          1.5 
       395.0         0.13          1.9 
       396.0         0.17          1.8 
       397.0         0.13          1.9 
       398.0         0.13          1.8 
       399.0         0.20          1.6 
       400.0         0.18          1.8 
       401.0         0.17          1.3 
       402.0         0.17          0.9 
       403.0         0.17          1.5 
       404.0         0.13          0.7 
       405.0         0.20          1.2 
       406.0         0.17          1.4 
       407.0         0.20          1.4 
       408.0         0.13          1.7 
       409.0         0.20          1.9 
       410.0         0.17          0.9 
       411.0         0.17          1.3 
       412.0         0.20          1.6 
       413.0         0.20          0.9 
       414.0         0.13          1.6 
       415.0         0.13          1.1 
       416.0         1.82          1.6 
       417.0         0.27          1.5 
       418.0         0.20          1.9 
       419.0         0.20          1.7 
       420.0         0.17          1.4 
       421.0         0.17          2.2 
       422.0         0.17          2.0 
       423.0         0.17          1.6 
       424.0         0.17          1.7 
       425.0         0.17          1.6 
       426.0         0.17          1.7 
       427.0         0.17          2.3 
       428.0         0.18          2.2 
       429.0         0.17          1.6 
       430.0         0.13          2.1 
       431.0         0.17          1.8 
       432.0         0.17          2.1 
       433.0         0.17          1.2 
       434.0         0.17          2.4 
       435.0         0.17          2.1 
       436.0         0.20          1.9 
       437.0         0.17          2.5 
       438.0         0.20          2.3 
       439.0         0.20          1.4 
       440.0         0.17          2.0 
       441.0         0.17          2.1 
       442.0         0.20          2.3 
       443.0         0.20          1.8 
       444.0         0.20          2.4 
       445.0         0.10          1.7 
       446.0         1.68          2.2 
       447.0         0.30          2.2 
       448.0         0.17          1.9 
       449.0         0.17          2.3 
       450.0         0.23          2.3 
       451.0         0.20          2.5 
       452.0         0.17          2.3 
       453.0         0.17          1.9 
       454.0         0.17          1.9 
       455.0         0.13          2.1 
       456.0         0.17          2.2 
       457.0         0.18          1.8 
       458.0         0.20          2.8 
       459.0         0.20          2.7 
       460.0         0.17          3.2 
       461.0         0.20          2.9 
       462.0         0.17          2.6 
       463.0         0.20          2.2 
       464.0         0.17          2.2 
       465.0         0.20          2.5 
       466.0         0.17          1.6 
       467.0         0.20          2.4 
       468.0         0.17          3.4 
       469.0         0.17          2.2 
       470.0         0.13          3.0 
       471.0         0.20          2.7 
       472.0         0.17          2.1 
       473.0         0.17          2.7 
       474.0         0.20          2.0 
       475.0         0.22          2.0 
       476.0         1.50          2.7 
       477.0         0.30          3.0 
       478.0         0.27          2.9 
       479.0         0.23          2.5 
       480.0         0.20          2.4 
       481.0         0.20          2.2 
       482.0         0.20          2.1 
       483.0         0.20          3.2 
       484.0         0.22          2.5 
       485.0         0.13          2.3 
       486.0         0.17          2.9 
       487.0         0.17          2.0 
       488.0         0.13          2.7 
       489.0         0.17          2.7 
       490.0         0.17          3.0 
       491.0         0.17          2.9 
       492.0         0.17          2.9 
       493.0         0.13          3.1 
       494.0         0.20          3.1 
       495.0         0.20          2.7 
       496.0         0.17          2.4 
       497.0         0.17          2.2 
       498.0         0.17          2.8 
       499.0         0.17          2.9 
       500.0         0.17          3.5 
       501.0         0.13          3.0 
       502.0         0.17          2.9 
       503.0         0.20          3.2 
       504.0         0.18          3.0 
       505.0         0.17          2.8 
       506.0         1.47          3.0 
       507.0         0.33          2.5 
       508.0         0.27          3.4 
       509.0         0.20          2.8 
       510.0         0.17          3.5 
       511.0         0.20          2.9 
       512.0         0.20          2.7 
       513.0         0.20          3.0 
       514.0         0.18          3.1 
       515.0         0.13          2.9 
       516.0         0.17          2.7 
       517.0         0.20          2.7 
       518.0         0.20          3.1 
       519.0         0.20          3.6 
       520.0         0.17          3.0 
