~Version Information
 VERS.                                  2.0 : CWLS LAS VERSION
 WRAP.                                   NO : WRAPING MODE
 SWARE .                 MController 2.5.0I : SOFTWARE VERSION
~Well Information
 WELL.                      Alexander 9-43R : WELL
 COMP.                       Petrogulf corp : COMPANY
 FLD.                      Purgatorie River : FIELD
 LOC.                 NE/SE Sec 9 T33s R67W : LOCATION
 DATE.                              9/03/04 : DATE(S) LOGGED
 SRVC.       Blanco Geological Services LLC : SERVICE COMPANY
 STAT.                                   CO : STATE
 CNTY.                           Las Animas : COUNTY
 CTRY.                                  USA : COUNTRY
 API.                       05-071-08036-00 : API NUMBER
 STRT.FT                             527.00 : START DEPTH
 STOP.FT                            1779.00 : STOP DEPTH
 STEP.FT                               1.00 : DEPTH INCREMENT
 NULL.                                -9999 : NULL VALUE
~Curve information
 DEPTH.FT                                   :
 ROP.MIN/FT                                 :
 GAS.UNITS                                  :
~ASCII Log data
# ...
      1527.0          0.1          3.4 
      1528.0          0.2          4.3 
      1529.0          0.2          4.4 
      1530.0          2.6         25.2 
      1531.0          0.3         24.7 
      1532.0          0.3         20.3 
      1533.0          0.3         16.4 
      1534.0          0.2         13.8 
      1535.0          0.2         12.1 
      1536.0          0.2         10.8 
      1537.0          0.2         10.0 
      1538.0          0.2          9.4 
      1539.0          0.3          9.1 
      1540.0          0.2          8.3 
      1541.0          0.2          8.2 
      1542.0          0.2          7.7 
      1543.0          0.2          7.4 
      1544.0          0.2          7.1 
      1545.0          0.2          6.9 
      1546.0          0.2          7.0 
      1547.0          0.2          7.1 
      1548.0          0.2          7.5 
      1549.0          0.2          7.6 
      1550.0          0.2          7.7 
      1551.0          0.3          7.4 
      1552.0          0.1          6.0 
      1553.0          0.2          5.5 
      1554.0          0.2          4.7 
      1555.0          0.2          4.5 
      1556.0          0.2          5.6 
      1557.0          0.2          5.6 
      1558.0          0.1          4.0 
      1559.0          0.1          1.6 
      1560.0          1.5         21.7 
      1561.0          0.6         34.5 
      1562.0          0.1         26.2 
      1563.0          0.3         26.1 
      1564.0          0.2         26.8 
      1565.0          0.2         25.3 
      1566.0          0.2         23.3 
      1567.0          0.2         20.1 
      1568.0          0.2         16.5 
      1569.0          0.2         13.4 
      1570.0          0.2         11.7 
      1571.0          0.2          9.0 
      1572.0          0.2          7.8 
      1573.0          0.2          7.5 
      1574.0          0.2          7.5 
      1575.0          0.2          7.2 
      1576.0          0.2          6.8 
      1577.0          0.1          7.1 
      1578.0          0.2          7.9 
      1579.0          0.2          7.7 
      1580.0          0.1          7.4 
      1581.0          0.2          7.4 
      1582.0          0.2          7.2 
      1583.0          0.2          6.9 
      1584.0          0.2          6.3 
      1585.0          0.2          5.6 
      1586.0          0.2          5.1 
      1587.0          0.2          5.4 
      1588.0          0.1          5.3 
      1589.0          0.3          4.7 
      1590.0          3.0         36.6 
      1591.0          0.7         27.2 
      1592.0          0.2         24.4 
      1593.0          0.2         20.2 
      1594.0          0.2         16.2 
      1595.0          0.2         14.9 
      1596.0          0.2         12.6 
      1597.0          0.2         10.1 
      1598.0          0.2          8.9 
      1599.0          0.2          9.0 
      1600.0          0.2          8.7 
      1601.0          0.2          9.1 
      1602.0          0.2          8.7 
      1603.0          0.1          9.2 
      1604.0          0.1          9.3 
      1605.0          0.2          9.2 
      1606.0          0.1          8.7 
      1607.0          0.1          8.5 
      1608.0          0.2          8.4 
      1609.0          0.1          7.6 
      1610.0          0.1          6.5 
      1611.0          0.1          6.1 
      1612.0          0.2          6.5 
      1613.0          0.2          6.6 
      1614.0          0.1          6.3 
      1615.0          0.1          8.2 
      1616.0          0.1         10.8 
      1617.0          0.2         13.2 
      1618.0          0.2         13.9 
      1619.0          0.2         12.1 
      1620.0          2.7         55.8 
      1621.0          0.5         31.4 
      1622.0          0.5         29.0 
      1623.0          0.2         20.8 
      1624.0          0.3         17.2 
      1625.0          0.4         14.5 
      1626.0          0.2         12.8 
      1627.0          0.2         13.2 
      1628.0          0.1         13.3 
      1629.0          0.2         14.9 
      1630.0          0.2         14.7 
      1631.0          0.2         14.4 
      1632.0          0.2         12.8 
      1633.0          0.2         11.6 
      1634.0          0.2         11.0 
      1635.0          0.2         10.5 
      1636.0          0.2         10.4 
      1637.0          0.2         10.8 
      1638.0          0.2         11.3 
      1639.0          0.2         11.5 
      1640.0          0.2         11.0 
      1641.0          0.2         10.2 
      1642.0          0.2          9.9 
      1643.0          0.1          8.7 
      1644.0          0.2          8.4 
      1645.0          0.2          8.0 
      1646.0          0.2          7.8 
      1647.0          0.2          7.9 
      1648.0          0.3          7.9 
      1649.0          0.1          5.5 
      1650.0          2.3         47.6 
      1651.0          0.3         38.3 
      1652.0          0.6         39.5 
      1653.0          0.5         33.0 
      1654.0          0.3         16.5 
      1655.0          0.3         12.6 
      1656.0          0.3         11.9 
      1657.0          0.3         12.8 
      1658.0          0.3         13.8 
      1659.0          0.3         13.7 
      1660.0          0.4         11.8 
      1661.0          0.3          9.4 
      1662.0          0.4          9.6 
      1663.0          0.4         10.0 
      1664.0          0.3         12.7 
      1665.0          0.3         13.7 
      1666.0          0.2         13.8 
      1667.0          0.2         13.1 
      1668.0          0.2         13.7 
      1669.0          0.3         12.5 
      1670.0          0.3         11.4 
      1671.0          0.3         10.7 
      1672.0          0.2         11.5 
      1673.0          0.3         11.9 
      1674.0          0.2         12.1 
      1675.0          0.2         12.0 
      1676.0          0.2         12.6 
      1677.0          0.3         12.5 
      1678.0          0.3          9.3 
      1679.0          0.2          9.9 
      1680.0          3.6         66.9 
      1681.0          0.2         19.6 
      1682.0          0.3         18.7 
      1683.0          0.4         20.2 
      1684.0          0.4         20.0 
      1685.0          0.4         17.5 
      1686.0          0.4         16.2 
      1687.0          0.4         16.5 
      1688.0          0.5         15.2 
      1689.0          0.4         15.0 
      1690.0          0.4         14.6 
      1691.0          0.5         14.4 
      1692.0          0.4         13.5 
      1693.0          0.5         12.1 
      1694.0          0.5         10.2 
      1695.0          0.5         10.1 
      1696.0          0.3          8.8 
      1697.0          0.4         10.7 
      1698.0          0.3         10.6 
      1699.0          0.3          9.9 
      1700.0          0.2          8.6 
      1701.0          0.3          9.1 
      1702.0          0.2          9.2 
      1703.0          0.3          9.4 
      1704.0          0.3         10.5 
      1705.0          0.3         10.9 
      1706.0          0.3         12.6 
      1707.0          0.3         13.0 
      1708.0          0.3         12.3 
      1709.0          0.3         10.1 
      1710.0         12.4         18.2 
      1711.0          1.3         49.9 
      1712.0          0.3         56.4 
      1713.0          0.3         56.2 
      1714.0          0.3         48.2 
      1715.0          0.2         39.9 
      1716.0          0.2         33.9 
      1717.0          0.2         30.8 
      1718.0          0.2         27.7 
      1719.0          0.3         24.8 
      1720.0          0.5         21.2 
      1721.0          0.3         19.6 
      1722.0          0.4         19.7 
      1723.0          0.3         18.9 
      1724.0          0.3         17.7 
      1725.0          0.3         17.3 
      1726.0          0.3         17.1 
