~Version Information
 VERS.                                  2.0 : CWLS LAS VERSION
 WRAP.                                   NO : WRAPING MODE
 SWARE .                 MController 2.5.0E : SOFTWARE VERSION
~Well Information
 WELL.                                  N/A : WELL
 COMP.                                  N/A : COMPANY
 FLD.                                   N/A : FIELD
 LOC.                                   N/A : LOCATION
 DATE.                                  N/A : DATE(S) LOGGED
 SRVC.                                  N/A : SERVICE COMPANY
 STAT.                                  N/A : STATE
 CNTY.                                  N/A : COUNTY
 CTRY.                                  N/A : COUNTRY
 API.                                   N/A : API NUMBER
 STRT.FT                              94.00 : START DEPTH
 STOP.FT                            1931.00 : STOP DEPTH
 STEP.FT                               1.00 : DEPTH INCREMENT
 NULL.                                -9999 : NULL VALUE
~Curve information
 DEPTH.FT                                   :
 ROP.MIN/FT                                 :
 GAS.UNITS                                  :
~ASCII Log data
# ...
      694.00        0.267         84.9 
      695.00        0.267         60.2 
      696.00        0.233         52.3 
      697.00        0.267         47.4 
      698.00        0.200         44.0 
      699.00        0.233         39.6 
      700.00        0.167         37.5 
      701.00        0.267         34.7 
      702.00        0.233         32.9 
      703.00        0.233         31.8 
      704.00        0.233         31.1 
      705.00        0.233         30.9 
      706.00        0.250         31.0 
      707.00        0.267         30.2 
      708.00        0.233         30.8 
      709.00        0.233         30.1 
      710.00        0.267         30.0 
      711.00        0.400         32.8 
      712.00        0.333         33.6 
      713.00        0.267         34.3 
      714.00        0.200         34.3 
      715.00        0.167         34.6 
      716.00        0.167         34.9 
      717.00        1.983        183.3 
      718.00        0.100        183.3 
      719.00        0.167        188.7 
      720.00        0.100        186.2 
      721.00        0.300        184.0 
      722.00        0.400        149.8 
      723.00        0.267        101.5 
      724.00        0.267         82.8 
      725.00        0.300         69.6 
      726.00        0.350         59.7 
      727.00        0.367         47.9 
      728.00        0.267         44.1 
      729.00        0.233         43.6 
      730.00        0.267         40.8 
      731.00        0.267         38.9 
      732.00        0.333         38.4 
      733.00        0.433         39.2 
      734.00        0.333         39.6 
      735.00        0.400         39.9 
      736.00        0.317         40.1 
      737.00        0.333         41.0 
      738.00        0.333         40.9 
      739.00        0.267         41.4 
      740.00        0.200         41.6 
      741.00        0.100         41.6 
      742.00        0.133         40.5 
      743.00        0.300         40.0 
      744.00        0.267         39.9 
      745.00        0.333         39.6 
      746.00        0.267         38.7 
      747.00        2.217        127.5 
      748.00        0.133        116.4 
      749.00        0.167        116.4 
      750.00        0.167        107.5 
      751.00        0.133        103.3 
      752.00        0.167         88.7 
      753.00        0.167         84.4 
      754.00        0.167         69.9 
      755.00        0.133         59.3 
      756.00        0.133         55.6 
      757.00        0.200         50.6 
      758.00        0.200         49.9 
      759.00        0.283         45.1 
      760.00        0.267         42.2 
      761.00        0.233         40.5 
      762.00        0.333         40.1 
      763.00        0.200         38.8 
      764.00        0.200         38.5 
      765.00        0.133         38.5 
      766.00        0.100         37.5 
      767.00        0.167         36.5 
      768.00        0.200         36.2 
      769.00        0.200         35.9 
      770.00        0.133         38.4 
      771.00        0.100         38.4 
      772.00        0.133         37.6 
      773.00        0.133         37.6 
      774.00        0.167         37.1 
      775.00        0.167         35.6 
      776.00        0.200         35.6 
      777.00        2.317        176.4 
      778.00        0.333        191.4 
      779.00        0.267        165.1 
      780.00        0.167        140.8 
      781.00        0.133        113.3 
      782.00        0.133        110.6 
      783.00        0.117         93.0 
      784.00        0.133         93.0 
      785.00        0.100         78.9 
      786.00        0.100         78.9 
      787.00        0.233         71.9 
      788.00        0.333         62.7 
      789.00        0.433         55.0 
      790.00        0.300         44.7 
      791.00        0.267         44.6 
      792.00        0.133         43.4 
      793.00        0.200         41.8 
      794.00        0.267         40.8 
      795.00        0.267         39.9 
      796.00        0.267         39.4 
      797.00        0.317         39.2 
      798.00        0.200         38.1 
      799.00        0.200         37.1 
      800.00        0.200         37.1 
      801.00        0.200         36.9 
      802.00        0.133         35.9 
      803.00        0.167         35.5 
      804.00        0.200         34.7 
      805.00        0.200         34.7 
      806.00        0.133         34.2 
      807.00        2.150        131.4 
      808.00        0.333        123.3 
      809.00        0.233        107.9 
      810.00        0.233         98.7 
      811.00        0.267         84.9 
      812.00        0.267         67.0 
      813.00        0.200         59.5 
      814.00        0.167         51.5 
      815.00        0.167         45.9 
      816.00        0.133         45.6 
      817.00        0.167         42.0 
      818.00        0.200         40.3 
      819.00        0.167         35.9 
      820.00        0.200         35.1 
      821.00        0.183         33.9 
      822.00        0.167         32.3 
      823.00        0.233         33.1 
      824.00        0.200         32.3 
      825.00        0.200         32.1 
      826.00        0.167         31.8 
      827.00        0.167         31.3 
      828.00        0.167         31.3 
      829.00        0.167         28.9 
      830.00        0.133         28.9 
      831.00        0.167         27.6 
      832.00        0.200         26.9 
      833.00        0.200         27.9 
      834.00        0.133         27.9 
      835.00        0.133         28.8 
      836.00        0.167         28.8 
      837.00        2.117        140.6 
      838.00        0.300        128.1 
      839.00        0.200        117.3 
      840.00        0.200        111.3 
      841.00        0.133        108.4 
      842.00        0.167        105.9 
      843.00        0.100        105.4 
      844.00        0.133        105.6 
      845.00        0.167        107.8 
      846.00        0.133        110.6 
      847.00        0.133        113.4 
      848.00        0.133        113.4 
      849.00        0.150        115.7 
      850.00        0.167        117.3 
      851.00        0.200        117.3 
      852.00        0.133        120.3 
      853.00        0.167        121.0 
      854.00        0.133        123.9 
      855.00        0.100        123.9 
      856.00        0.167        125.8 
      857.00        0.167        125.8 
      858.00        0.200        127.6 
      859.00        0.233        131.3 
      860.00        0.267        132.5 
      861.00        0.333        136.2 
      862.00        0.300        138.2 
      863.00        0.267        139.7 
      864.00        0.300        142.5 
      865.00        0.383        144.0 
      866.00        0.233        140.9 
      867.00        2.067       1054.2 
      868.00        0.367       1012.6 
      869.00        0.367        940.3 
      870.00        0.383        805.0 
      871.00        0.300        667.6 
      872.00        0.267        560.9 
      873.00        0.267        507.2 
      874.00        0.300        502.4 
      875.00        0.233        455.2 
      876.00        0.167        452.2 
      877.00        0.233        440.0 
      878.00        0.267        160.1 
      879.00        0.233        154.8 
      880.00        0.200        155.4 
      881.00        0.167        152.1 
      882.00        0.200        152.1 
      883.00        0.200        145.6 
      884.00        0.217        143.2 
      885.00        0.200        136.7 
      886.00        0.233        135.5 
      887.00        0.267        135.0 
      888.00        0.233        134.9 
      889.00        0.267        135.3 
      890.00        0.233        135.8 
      891.00        0.267        168.3 
      892.00        0.233        165.5 
      893.00        0.200        189.2 
