~Version Information
VERS.                      2.0: CWLS Log ASCII Standard - VERSION 2.0
WRAP.                       NO: One line per depth step
~Well Information Block
STRT.FT               679.2000: 
STOP.FT              2289.5000: 
STEP.FT                 0.1000: 
NULL.                -999.2500: 
COMP.          Petrogulf Corporation: COMPANY
WELL.          Anderson 18-43V: WELL
FLD.           Purgatorie River: FIELD
LOC.           1782' FSL & 887' FEL: LOCATION
CNTY.               Las Animas: COUNTY
SRVC.                         : SERVICE COMPANY
DATE.          Thu Sep 02 08:33:50 2004: LOG DATE
UWI.           05 071 08156 00: UNIQUE WELL ID
STAT.                 Colorado: STATE
~Curve Information Block
DEPT.FT            0 000 00 00: Depth
GR.GAPI                       : Gamma Ray
DCAL.in                       : CDL Caliper
DPOR.pu                       : CDL Density Porosity
NPOR.pu                       : Neutron Porosity
RHOB.g/cc                     : CDL Bulk Density
RHOC.g/cc                     : CDL Density Correction
~Parameter Information Block
~A  Depth        GR         DCAL        DPOR        NPOR        RHOB        RHOC    
# ...
  1533.6000     65.8000      8.1356      9.8602     16.1302      2.4873      0.1050
  1533.7000     65.3707      8.1356     10.2611     16.5691      2.4807      0.0417
  1533.8000     64.7519      8.1354     10.5556     16.9814      2.4758      0.0275
  1533.9000     63.9976      8.1354     10.3837     17.0223      2.4787      0.0282
  1534.0000     63.1754      8.1367     10.3909     16.7104      2.4786      0.0473
  1534.1000     62.3613      8.1367     10.7047     16.6348      2.4734      0.0280
  1534.2000     61.6377      8.1367     10.8101     16.9752      2.4716      0.0252
  1534.3000     61.0933      8.1364     10.8669     17.2725      2.4707      0.0449
  1534.4000     60.8207      8.1364     11.0512     17.3983      2.4677      0.0167
  1534.5000     60.9168      8.1348     10.5370     17.5639      2.4761     -0.0184
  1534.6000     61.4846      8.1348      8.7989     17.9225      2.5048      0.0414
  1534.7000     62.6250      8.1348      6.5950     18.4728      2.5412      0.0675
  1534.8000     64.4317      8.1342      4.6246     19.1113      2.5737      0.0506
  1534.9000     66.9734      8.1342      3.1200     19.7456      2.5985      0.0736
  1535.0000     70.2820      8.1369      2.4394     20.3849      2.6097      0.0965
  1535.1000     74.3412      8.1369      2.7869     21.0205      2.6040      0.0849
  1535.2000     79.0802      8.1369      3.8817     21.6303      2.5860      0.0448
  1535.3000     84.3754      8.1355      4.9863     22.3633      2.5677      0.0070
  1535.4000     90.0595      8.1355      5.8173     23.2094      2.5540      0.0378
  1535.5000     95.9424      8.1338      6.3097     23.8137      2.5459     -0.0284
  1535.6000    101.8302      8.1338      6.1077     24.1251      2.5492      0.0061
  1535.7000    107.5432      8.1338      5.6615     24.4563      2.5566     -0.0116
  1535.8000    112.9325      8.1363      5.6668     24.8786      2.5565      0.0315
  1535.9000    117.8822      8.1363      5.7164     25.3640      2.5557     -0.0068
  1536.0000    122.3127      8.1380      4.8745     25.8109      2.5696      0.0211
  1536.1000    126.1755      8.1380      3.5435     26.0859      2.5915      0.0776
  1536.2000    129.4406      8.1380      2.9548     26.2661      2.6012      0.0553
  1536.3000    132.0981      8.1396      3.0843     26.6027      2.5991     -0.0059
  1536.4000    134.1518      8.1396      3.0580     27.3038      2.5995      0.0219
  1536.5000    135.6194      8.1388      2.8772     28.1179      2.6025      0.0634
  1536.6000    136.5404      8.1388      2.9971     28.4759      2.6005      0.0220
  1536.7000    136.9765      8.1388      3.3762     28.4035      2.5943      0.0436
  1536.8000    137.0133      8.1344      3.7809     28.1905      2.5876      0.0070
  1536.9000    136.7590      8.1344      3.8524     27.9524      2.5864      0.0194
  1537.0000    136.3359      8.1344      3.4403     28.0139      2.5932      0.0415
  1537.1000    135.8695      8.1344      2.9929     28.2026      2.6006      0.0176
  1537.2000    135.4727      8.1344      3.1057     28.1149      2.5988      0.0196
  1537.3000    135.2342      8.1334      3.5799     28.0471      2.5909     -0.0122
  1537.4000    135.2081      8.1334      3.7867     28.2348      2.5875      0.0166
  1537.5000    135.4063      8.1332      3.5486     28.5259      2.5914     -0.0246
  1537.6000    135.8018      8.1332      2.9661     28.8475      2.6011      0.0258
  1537.7000    136.3333      8.1332      2.6070     29.1319      2.6070      0.0023
  1537.8000    136.9190      8.1327      2.9025     29.1144      2.6021      0.0051
  1537.9000    137.4703      8.1327      3.7011     28.8873      2.5889      0.0213
  1538.0000    137.9019      8.1317      4.5806     28.7370      2.5744      0.0009
  1538.1000    138.1399      8.1317      5.2237     28.6742      2.5638      0.0312
  1538.2000    138.1300      8.1317      5.7616     28.7801      2.5549      0.0190
  1538.3000    137.8314      8.1301      5.9817     29.0035      2.5513     -0.0202
  1538.4000    137.2165      8.1301      5.5130     29.0871      2.5590      0.0058
  1538.5000    136.2660      8.1294      4.9115     28.8882      2.5690      0.0095
  1538.6000    134.9676      8.1294      4.8573     28.4361      2.5699      0.0274
  1538.7000    133.3113      8.1294      5.0738     28.1118      2.5663      0.0286
  1538.8000    131.2982      8.1280      4.8066     28.0991      2.5707     -0.0112
  1538.9000    128.9389      8.1280      4.0371     27.9576      2.5834      0.0193
  1539.0000    126.2616      8.1262      3.2307     27.2833      2.5967      0.0164
  1539.1000    123.3123      8.1262      2.4844     26.5202      2.6090      0.0452
  1539.2000    120.1547      8.1262      1.7658     26.2852      2.6209      0.0232
  1539.3000    116.8658      8.1278      1.2286     26.2294      2.6297      0.0498
  1539.4000    113.5292      8.1278      1.0984     25.8800      2.6319      0.0501
  1539.5000    110.2276      8.1278      1.3314     25.4806      2.6280      0.0386
  1539.6000    107.0299      8.1278      1.9817     25.2257      2.6173      0.0466
  1539.7000    103.9868      8.1278      3.1255     24.9984      2.5984     -0.0253
  1539.8000    101.1228      8.1285      4.1292     24.5618      2.5819     -0.0151
  1539.9000     98.4406      8.1285      4.2171     23.9841      2.5804     -0.0387
  1540.0000     95.9235      8.1281      3.5022     23.5284      2.5922      0.0090
  1540.1000     93.5451      8.1281      3.0855     23.2916      2.5991      0.0495
  1540.2000     91.2800      8.1281      3.3221     23.3779      2.5952      0.0199
  1540.3000     89.1169      8.1246      3.6362     23.6795      2.5900      0.0247
  1540.4000     87.0601      8.1246      4.2394     23.9154      2.5800      0.0210
  1540.5000     85.1346      8.1231      5.4121     24.0304      2.5607     -0.0178
  1540.6000     83.3816      8.1231      6.3294     24.0554      2.5456     -0.0215
  1540.7000     81.8492      8.1231      6.1954     23.9605      2.5478     -0.0024
  1540.8000     80.5851      8.1231      5.4556     23.8217      2.5600     -0.0006
  1540.9000     79.6241      8.1231      5.0987     23.7692      2.5659      0.0230
  1541.0000     78.9816      8.1247      5.3201     23.8418      2.5622     -0.0094
  1541.1000     78.6464      8.1247      5.8287     23.8724      2.5538      0.0227
  1541.2000     78.5818      8.1247      6.4041     23.6917      2.5443     -0.0120
  1541.3000     78.7280      8.1259      6.3947     23.3441      2.5445     -0.0001
  1541.4000     79.0044      8.1259      5.5721     23.0225      2.5581      0.0328
  1541.5000     79.3222      8.1238      4.7811     23.2322      2.5711      0.0274
  1541.6000     79.5927      8.1238      4.7024     24.2168      2.5724      0.0362
  1541.7000     79.7386      8.1238      4.9251     25.1767      2.5687     -0.0128
  1541.8000     79.7045      8.1186      4.8117     25.0962      2.5706      0.0472
  1541.9000     79.4641      8.1186      4.8295     24.0837      2.5703      0.0640
  1542.0000     79.0222      8.1223      5.4875     23.0242      2.5595      0.0204
  1542.1000     78.4144      8.1223      6.4687     22.2109      2.5433      0.0621
  1542.2000     77.7032      8.1223      7.2539     21.7051      2.5303      0.0375
  1542.3000     76.9664      8.1225      7.5485     21.8906      2.5254      0.0387
  1542.4000     76.2951      8.1225      7.5042     22.4532      2.5262      0.0514
  1542.5000     75.7796      8.1227      7.1632     22.6681      2.5318      0.0433
  1542.6000     75.5087      8.1227      6.2621     22.5600      2.5467      0.0462
  1542.7000     75.5635      8.1227      5.2396     22.4255      2.5635      0.0536
  1542.8000     76.0128      8.1242      5.0655     22.1702      2.5664      0.0783
  1542.9000     76.9110      8.1242      5.5427     21.8767      2.5585      0.0373
  1543.0000     78.2913      8.1223      5.3601     21.8806      2.5616      0.0141
  1543.1000     80.1620      8.1223      4.6385     22.2487      2.5735      0.0815
