~Version Information
VERS.                      2.0: CWLS Log ASCII Standard - VERSION 2.0
WRAP.                       NO: One line per depth step
~Well Information Block
STRT.FT               350.0000: 
STOP.FT              1390.0000: 
STEP.FT                 0.1000: 
NULL.                -999.2500: 
COMP.          Petrogulf Corporation: COMPANY
WELL.             Leier 17-42R: WELL
FLD.           Purgatorie River: FIELD
LOC.           2398' FNL & 1109' FEL: LOCATION
PROV.                 Colorado: PROVINCE
CNTY.               Las Animas: COUNTRY
SRVC.                Patterson: SERVICE COMPANY
DATE.          Tue Oct 18 07:06:44 2005: LOG DATE
UWI.                          : UNIQUE WELL ID
~Curve Information Block
DEPT.FT            0 000 00 00: Depth
DCAL.in                       : CDL Caliper
RHOB.g/cc                     : CDL Bulk Density
RHOC.g/cc                     : CDL Density Correction
DPOR.pu                       : CDL Density Porosity
GR.GAPI                       : Gamma Ray
NPOR.pu                       : Neutron Porosity
~Parameter Information Block
~A  Depth       DCAL        RHOB        RHOC        DPOR         GR         NPOR    
# ...
   897.2000      7.9097      2.5739      0.0108      4.6105     86.0974     20.1241
   897.3000      7.9174      2.5720      0.0306      4.7250     88.0902     20.3566
   897.4000      7.9174      2.5832      0.0369      4.0495     90.8522     20.4784
   897.5000      7.9069      2.5986      0.0684      3.1125     90.0908     20.1582
   897.6000      7.9069      2.6014      0.0733      2.9474     85.6223     19.5901
   897.7000      7.9069      2.5969      0.0569      3.2157     81.6492     19.4602
   897.8000      7.9079      2.6003      0.0701      3.0095     80.0162     20.0766
   897.9000      7.9079      2.6042      0.0755      2.7760     79.0787     20.7915
   898.0000      7.9034      2.6042      0.0435      2.7758     78.0724     20.7339
   898.1000      7.9034      2.6067      0.0784      2.6243     79.1293     20.2255
   898.2000      7.9034      2.6024      0.0943      2.8843     83.2476     20.2602
   898.3000      7.8973      2.5834      0.0380      4.0385     87.8709     20.9207
   898.4000      7.8973      2.5667      0.0217      5.0491     89.5025     21.4677
   898.5000      7.9023      2.5661      0.0376      5.0852     87.2380     21.3547
   898.6000      7.9023      2.5698      0.0463      4.8628     83.7973     20.8273
   898.7000      7.9023      2.5666     -0.0078      5.0520     81.3444     20.4209
   898.8000      7.9076      2.5639     -0.0123      5.2174     80.1338     20.1750
   898.9000      7.9076      2.5668      0.0233      5.0451     81.4781     19.9889
   899.0000      7.9056      2.5786     -0.0086      4.3261     85.4841     19.9377
   899.1000      7.9056      2.6078      0.0177      2.5581     88.2048     20.1166
   899.2000      7.9056      2.6439      0.0409      0.3670     89.2063     20.6387
   899.3000      7.9168      2.6605      0.0858     -0.6353     91.8060     21.3658
   899.4000      7.9168      2.6496      0.0357      0.0234     95.2030     21.8279
   899.5000      7.9274      2.6261      0.0268      1.4489     97.3765     21.8504
   899.6000      7.9274      2.6008      0.0470      2.9790     99.2748     21.7078
   899.7000      7.9274      2.5828      0.0215      4.0725    100.8781     21.4736
   899.8000      7.9210      2.5850      0.0132      3.9369    100.5240     21.0839
   899.9000      7.9210      2.6021      0.0462      2.9056     99.6712     20.9200
   900.0000      7.9227      2.6109      0.0868      2.3691    101.8913     21.6225
   900.1000      7.9227      2.6078      0.0036      2.5577    106.7139     23.0271
   900.2000      7.9227      2.6077      0.0417      2.5616    110.8273     23.8944
   900.3000      7.9223      2.6097      0.0810      2.4427    113.6293     23.7135
   900.4000      7.9223      2.6073      0.0329      2.5865    114.3422     23.3951
   900.5000      7.9299      2.6146      0.0293      2.1468    112.1830     23.5668
   900.6000      7.9299      2.6383      0.0996      0.7113    109.8207     24.0296
   900.7000      7.9299      2.6590      0.1116     -0.5439    106.6700     24.2362
   900.8000      7.9191      2.6643      0.0715     -0.8683    101.8165     23.8682
   900.9000      7.9191      2.6581      0.0939     -0.4898     98.7516     23.2144
   901.0000      7.9060      2.6433      0.0712      0.4063     99.2432     22.7146
   901.1000      7.9060      2.6260      0.0735      1.4552    101.5446     22.5672
   901.2000      7.9060      2.6191      0.0415      1.8723    101.7980     22.8535
   901.3000      7.9091      2.6340      0.0101      0.9697     99.4930     23.3260
   901.4000      7.9091      2.6651      0.0684     -0.9167     98.4930     23.4044
   901.5000      7.9025      2.6902      0.0952     -2.4339     99.5494     23.2445
   901.6000      7.9025      2.6943      0.1164     -2.6827    101.2451     23.3327
   901.7000      7.9025      2.6783      0.0975     -1.7141    101.9543     23.4068
   901.8000      7.8685      2.6487      0.1007      0.0790    101.1621     23.1175
   901.9000      7.8685      2.6202      0.0478      1.8078    101.8703     22.5477
   902.0000      7.8464      2.6138      0.0491      2.1968    106.2464     21.9752
   902.1000      7.8464      2.6324      0.0371      1.0669    111.5580     21.7508
   902.2000      7.8464      2.6584      0.1016     -0.5087    114.4363     21.8959
   902.3000      7.8527      2.6813      0.1042     -1.8951    115.0109     22.0828
   902.4000      7.8527      2.7032      0.1174     -3.2252    114.3998     22.1506
   902.5000      7.8759      2.7139      0.1790     -3.8700    111.9752     22.1995
   902.6000      7.8759      2.7045      0.1244     -3.3056    107.7332     22.4270
   902.7000      7.8759      2.6928      0.0966     -2.5931    105.1444     22.9126
   902.8000      7.8534      2.6948      0.1110     -2.7142    105.9698     23.3935
   902.9000      7.8534      2.7017      0.1136     -3.1335    105.9168     23.4867
   903.0000      7.8964      2.6961      0.0795     -2.7942    103.0811     23.2192
   903.1000      7.8964      2.6795      0.0603     -1.7852    102.1371     22.9463
   903.2000      7.8964      2.6706      0.0333     -1.2489    104.1644     22.9818
   903.3000      7.9304      2.6768      0.0523     -1.6267    104.3273     23.1748
   903.4000      7.9304      2.6875      0.0583     -2.2724    102.1415     23.2443
   903.5000      7.9288      2.6965      0.0579     -2.8197    102.9649     23.3946
   903.6000      7.9288      2.7095      0.0461     -3.6053    107.7960     23.8803
   903.7000      7.9288      2.7278     -0.0056     -4.7153    111.2857     24.3807
   903.8000      7.9336      2.7388      0.0599     -5.3845    111.0918     24.4566
   903.9000      7.9336      2.7268      0.0376     -4.6572    109.6723     24.4039
   904.0000      7.9370      2.6967     -0.0004     -2.8320    109.5570     24.6378
   904.1000      7.9370      2.6655      0.0303     -0.9386    110.7819     24.9656
   904.2000      7.9370      2.6414     -0.0345      0.5202    110.3240     25.0374
   904.3000      7.9336      2.6245     -0.0112      1.5429    106.8478     24.7714
   904.4000      7.9336      2.6074      0.0005      2.5819    103.4457     24.3382
   904.5000      7.9300      2.5878      0.0071      3.7673    102.7381     23.9293
   904.6000      7.9300      2.5779     -0.0151      4.3714    104.5598     23.6162
   904.7000      7.9300      2.5813      0.0376      4.1613    105.2167     23.5631
   904.8000      7.9443      2.5812      0.0224      4.1677    101.8584     23.7144
   904.9000      7.9443      2.5627      0.0101      5.2881     98.7163     23.6208
   905.0000      7.9483      2.5327     -0.0277      7.1063    100.7992     23.1603
   905.1000      7.9483      2.5120     -0.0492      8.3624    107.6175     22.5259
   905.2000      7.9483      2.5086     -0.0353      8.5707    115.4623     22.0465
   905.3000      7.9339      2.5156     -0.0084      8.1440    120.8617     22.1245
   905.4000      7.9339      2.5287     -0.0085      7.3500    122.4777     22.5234
   905.5000      7.9355      2.5435      0.0577      6.4569    122.1303     22.8428
   905.6000      7.9355      2.5547      0.0183      5.7779    122.6266     23.2005
   905.7000      7.9355      2.5669      0.0287      5.0375    124.9163     23.6888
   905.8000      7.9323      2.5807      0.0871      4.1990    127.2056     24.0532
   905.9000      7.9323      2.5870      0.0948      3.8154    128.3689     24.0588
   906.0000      7.9253      2.5809      0.0898      4.1895    131.3885     23.8799
   906.1000      7.9253      2.5647      0.0980      5.1673    137.4597     23.9170
   906.2000      7.9253      2.5476      0.0859      6.2071    141.1389     24.2947
   906.3000      7.9147      2.5306      0.0886      7.2384    140.3010     24.8628
   906.4000      7.9147      2.5004      0.0463      9.0643    139.7996     25.3648
   906.5000      7.9186      2.4575      0.0322     11.6663    139.9062     25.5997
   906.6000      7.9186      2.4184      0.0238     14.0345    137.1414     25.8029
   906.7000      7.9186      2.3917      0.0209     15.6547    134.0402     26.4228
