~Version Information
VERS.                      2.0: CWLS Log ASCII Standard - VERSION 2.0
WRAP.                       NO: One line per depth step
~Well Information Block
STRT.FT                 0.0000: 
STOP.FT              1390.5000: 
STEP.FT                 0.2500: 
NULL.                -999.2500: 
COMP.          Petrogulf Corporation: COMPANY
WELL.             Leier 17-42R: WELL
FLD.           Purgatorie River: FIELD
LOC.           2398' FNL & 1109' FEL: LOCATION
PROV.                 Colorado: PROVINCE
CNTY.               Las Animas: COUNTRY
SRVC.                Patterson: SERVICE COMPANY
DATE.          Thu Nov 10 14:34:29 2005: LOG DATE
UWI.                          : UNIQUE WELL ID
~Curve Information Block
DEPT.FT            0 000 00 00: Depth
CCL.                          : Casing Collar Locator
TT3.usec                      : CBL 3' Travel Time
AMP3.mV                       : CBL 3' Amplitude
GR.GAPI                       : Gamma Ray
~Parameter Information Block
~A  Depth       CCL         TT3         AMP3         GR     
# ...
  1206.0000      0.0000    660.2796      6.6213    122.6185
  1206.2500      0.0000    660.2626      6.5321    121.2021
  1206.5000      0.0000    660.1683      6.4697    121.8794
  1206.7500      0.0000    660.0415      6.3924    123.7405
  1207.0000      0.0000    659.8178      6.3164    125.0434
  1207.2500      0.0000    659.1284      6.3048    124.3208
  1207.5000      0.0000    657.4074      6.3658    121.4540
  1207.7500      0.0000    654.9651      6.4271    117.5956
  1208.0000      0.0000    653.7407      6.4257    114.0235
  1208.2500      0.0000    654.8689      6.3640    111.2692
  1208.5000      0.0000    655.8809      6.2815    109.3238
  1208.7500      0.0000    652.3751      6.2306    108.1985
  1209.0000      0.0000    642.2666      6.2557    107.9790
  1209.2500      0.0000    628.6901      6.3607    108.6377
  1209.5000      0.0000    617.7465      6.4978    110.1470
  1209.7500      0.0000    612.6686      6.5901    112.6346
  1210.0000      0.0000    612.8042      6.5682    116.0128
  1210.2500      0.0000    616.9814      6.4056    119.2952
  1210.5000      0.0000    623.6764      6.1515    120.6734
  1210.7500      0.0000    629.8524      5.9124    119.0404
  1211.0000      0.0000    634.6207      5.7701    115.7441
  1211.2500      0.0000    639.6522      5.7326    114.1495
  1211.5000      0.0000    642.6154      5.7583    116.7616
  1211.7500      0.0000    640.3981      5.8002    122.9864
  1212.0000      0.0000    636.1236      5.8394    129.9627
  1212.2500      0.0000    632.4415      5.8805    134.9789
  1212.5000      0.0000    627.8055      5.9242    136.7345
  1212.7500      0.0000    622.8859      5.9648    135.2540
  1213.0000      0.0000    620.9547      6.0188    131.7037
  1213.2500      0.0000    624.4130      6.1291    128.0563
  1213.5000      0.0000    633.8314      6.2915    125.8631
  1213.7500      0.0000    646.3345      6.4138    125.0351
  1214.0000      0.0000    656.8280      6.4206    124.3122
  1214.2500      0.0000    663.6594      6.3472    123.0724
  1214.5000      0.0000    670.1962      6.2676    122.1248
  1214.7500      0.0000    679.8297      6.1872    122.6067
  1215.0000      0.0000    691.2812      6.0808    124.7735
  1215.2500      0.0000    700.0718      5.9830    128.1888
  1215.5000      0.0000    703.1510      5.9584    132.4591
  1215.7500      0.0000    698.5634      6.0109    137.0778
  1216.0000      0.0000    682.9335      6.0928    140.6886
  1216.2500      0.0000    658.0825      6.1694    141.3339
  1216.5000      0.0000    638.5438      6.2179    137.8871
  1216.7500      0.0000    637.2818      6.2090    131.1355
  1217.0000      0.0000    648.0394      6.1421    123.4371
  1217.2500      0.0000    656.5289      6.0588    117.4642
  1217.5000      0.0000    657.3757      5.9857    114.8750
  1217.7500      0.0000    653.7514      5.9047    115.6931
  1218.0000      0.0000    651.5511      5.7865    118.8722
  1218.2500      0.0000    653.8434      5.6149    123.3292
  1218.5000      0.0000    658.1171      5.4040    128.0815
  1218.7500      0.0000    660.8721      5.2335    131.6321
  1219.0000      0.0000    661.7294      5.2131    132.1394
  1219.2500      0.0000    661.8604      5.3686    128.6655
  1219.5000      0.0000    661.9212      5.6312    122.0633
  1219.7500      0.0000    662.0588      5.9276    114.5545
  1220.0000      0.0000    662.3227      6.2039    108.5353
  1220.2500      0.0000    662.6677      6.4361    105.3683
  1220.5000      0.0000    662.9894      6.6774    104.5120
  1220.7500      0.0000    663.3260      6.9915    103.6768
  1221.0000      0.0000    663.7823      7.3609    100.6876
  1221.2500      0.0000    664.2528      7.7742     95.7904
  1221.5000      0.0000    664.5128      8.2730     91.7081
  1221.7500      0.0000    664.5546      8.7983     91.0703
  1222.0000      0.0000    664.5365      9.1572     94.2129
  1222.2500      0.0000    664.4807      9.2429     99.6348
  1222.5000      0.0000    664.2938      9.1260    105.6971
  1222.7500      0.0000    664.0110      8.8870    111.1739
  1223.0000      0.0000    663.7769      8.5569    114.9633
  1223.2500      0.0000    663.6020      8.1984    116.4579
  1223.5000      0.0000    663.3672      7.8596    116.1537
  1223.7500      0.0000    663.0691      7.5149    115.1283
  1224.0000      0.0000    662.8420      7.1424    113.9212
  1224.2500      0.0000    662.7592      6.7820    112.3663
  1224.5000      0.0000    662.7651      6.4876    110.3909
  1224.7500      0.0000    662.7648      6.2791    108.5613
  1225.0000      0.0000    662.5536      6.1487    107.8122
  1225.2500      0.0000    661.1149      6.1002    108.6014
  1225.5000      0.0000    655.1530      6.1544    110.2113
  1225.7500      0.0000    638.8326      6.2994    111.1758
  1226.0000      0.0000    608.3950      6.4964    110.8158
  1226.2500      0.0000    568.4666      6.7185    110.0889
  1226.5000      0.0000    530.2709      6.9420    110.4987
  1226.7500      0.0000    502.2552      7.1314    112.3955
  1227.0000      0.0000    484.8163      7.2717    114.6793
  1227.2500      0.0000    476.3689      7.3946    115.9261
  1227.5000      0.0000    478.0571      7.5172    115.5123
  1227.7500      0.0000    484.0946      7.5922    113.8443
  1228.0000      0.0000    481.1927      7.5678    111.7798
  1228.2500      0.0000    466.3980      7.4664    109.9369
  1228.5000      0.0000    450.2865      7.3694    108.5259
  1228.7500      0.0000    441.0469      7.3323    107.5305
  1229.0000      0.0000    437.9550      7.3421    106.7988
  1229.2500      0.0000    437.5194      7.3403    106.1455
  1229.5000      0.0000    437.7638      7.2696    105.6634
  1229.7500      0.0000    438.1382      7.1162    105.8647
  1230.0000      0.0000    439.3365      6.9211    107.2403
  1230.2500      0.0000    444.6483      6.7431    109.8025
  1230.5000      0.0000    460.7996      6.6008    113.3590
  1230.7500      0.0000    492.6567      6.4650    117.8632
  1231.0000      0.0000    534.5297      6.3212    122.7697
  1231.2500      0.0000    574.4331      6.1838    126.2575
  1231.5000      0.0000    607.1770      6.0565    126.1027
  1231.7500      0.0000    633.0138      5.9448    121.6264
  1232.0000      0.0000    650.2172      5.8612    114.3468
  1232.2500      0.0000    658.2714      5.7855    106.8957
  1232.5000      0.0000    660.6379      5.6844    101.6378
  1232.7500      0.0000    661.0081      5.5747     99.7479
  1233.0000      0.0000    660.9702      5.4995    100.6905
  1233.2500      0.0000    660.8346      5.4686    102.4805
  1233.5000      0.0000    660.6526      5.4682    103.1114
  1233.7500      0.0000    660.5367      5.4813    102.3666
  1234.0000      0.0000    660.5997      5.4833    102.2224
  1234.2500      0.0000    660.8214      5.4676    104.9914
  1234.5000      0.0000    661.0817      5.4677    110.8343
  1234.7500      0.0000    661.3567      5.5092    117.4611
  1235.0000      0.0000    661.7784      5.5804    122.4356
  1235.2500      0.0000    662.4272      5.6642    125.2445
  1235.5000      0.0000    663.1797      5.7472    126.7406
  1235.7500      0.0000    663.8439      5.8077    127.1571
  1236.0000      0.0000    664.3374      5.8212    125.7285
  1236.2500      0.0000    664.6913      5.7889    122.3500
  1236.5000      0.0000    664.9397      5.7225    118.5931
  1236.7500      0.0000    665.0025      5.6107    116.5891
  1237.0000      0.0000    664.6759      5.4510    117.2809
  1237.2500      0.0000    663.5272      5.2432    119.8716
  1237.5000      0.0000    660.4625      4.9382    122.6774
  1237.7500      0.0000    654.1113      4.4975    124.5503
  1238.0000      0.0000    646.1708      4.0206    125.6298
  1238.2500      0.0000    643.9520      3.7355    126.6641
  1238.5000      0.0000    653.7639      3.7615    127.7476
  1238.7500      0.0000    672.1074      3.9758    128.1044
  1239.0000      0.0000    689.9584      4.2093    127.1118
  1239.2500      0.0000    703.7999      4.3991    125.1789
