~Version Information
VERS.                      2.0: CWLS Log ASCII Standard - VERSION 2.0
WRAP.                       NO: One line per depth step
~Well Information Block
STRT.FT               823.7000: 
STOP.FT              2444.0000: 
STEP.FT                 0.1000: 
NULL.                -999.2500: 
COMP.          Petrogulf Corporation: COMPANY
WELL.            Kraft 17-23 V: WELL
FLD.           Purgatorie River: FIELD
LOC.           1500' FSL & 1773' FWL: LOCATION
CNTY.               Las Animas: COUNTY
SRVC.                         : SERVICE COMPANY
DATE.          Thu Nov 20 07:09:00 2003: LOG DATE
UWI.                          : UNIQUE WELL ID
STAT.                 Colorado: STATE
~Curve Information Block
DEPT.FT            0 000 00 00: Depth
DCAL.in                       : CDL Caliper
RHOB.g/cc                     : CDL Bulk Density
RHOC.g/cc                     : CDL Density Correction
DPOR.pu                       : CDL Density Porosity
GR.GAPI                       : Gamma Ray
NPOR.pu                       : Neutron Porosity
~Parameter Information Block
~A  Depth       DCAL        RHOB        RHOC        DPOR         GR         NPOR    
# ...
  1265.3000      8.3888      2.5978      0.1436      3.1661     84.6491     20.5646
  1265.4000      8.3888      2.6546      0.2127     -0.2771     87.5718     19.9778
  1265.5000      8.2768      2.6724      0.2177     -1.3603     91.5814     19.2401
  1265.6000      8.2768      2.6504      0.1287     -0.0212     93.1432     18.7945
  1265.7000      8.2768      2.6168      0.0979      2.0105     92.0791     18.7272
  1265.8000      8.1422      2.5858      0.0794      3.8912     91.7047     18.5711
  1265.9000      8.1422      2.5557      0.0057      5.7174     91.3809     18.2528
  1266.0000      8.1024      2.5284      0.0543      7.3688     88.0741     17.9400
  1266.1000      8.1024      2.5124     -0.0149      8.3372     82.4202     17.3621
  1266.2000      8.1024      2.5212     -0.0164      7.8036     77.4073     16.7391
  1266.3000      8.1529      2.5453      0.0874      6.3433     78.5187     16.6871
  1266.4000      8.1529      2.5580      0.0243      5.5749     85.1289     16.9195
  1266.5000      8.2301      2.5558     -0.0020      5.7061     87.9587     16.7760
  1266.6000      8.2301      2.5402      0.0116      6.6546     84.7579     16.2975
  1266.7000      8.2301      2.5095     -0.0044      8.5158     81.3818     16.2619
  1266.8000      8.2285      2.4853     -0.0411      9.9806     80.1675     16.8960
  1266.9000      8.2285      2.4874      0.0345      9.8521     79.0103     17.3073
  1267.0000      8.2092      2.5088      0.0089      8.5576     74.8009     17.3388
  1267.1000      8.2092      2.5343      0.0272      7.0151     67.1609     17.8695
  1267.2000      8.2092      2.5505      0.0504      6.0323     60.8489     18.8590
  1267.3000      8.2006      2.5614     -0.0158      5.3715     60.6309     19.5116
  1267.4000      8.2006      2.5923      0.0776      3.4947     62.5253     19.8370
  1267.5000      8.1814      2.6533      0.1087     -0.1978     59.3834     20.2512
  1267.6000      8.1814      2.7330      0.0994     -5.0318     54.0296     20.7637
  1267.7000      8.1814      2.8077      0.1638     -9.5595     51.5912     21.1335
  1267.8000      8.1601      2.8396      0.1967    -11.4925     50.1279     21.1912
  1267.9000      8.1601      2.8200      0.0452    -10.3012     48.2503     21.1937
  1268.0000      8.1511      2.7757      0.1014     -7.6164     47.6312     21.6127
  1268.1000      8.1511      2.7174      0.0375     -4.0827     48.3025     22.4145
  1268.2000      8.1511      2.6569     -0.1057     -0.4206     50.1471     23.2125
  1268.3000      8.1186      2.6134     -0.0365      2.2156     54.4594     23.9232
  1268.4000      8.1186      2.5703     -0.0420      4.8330     60.0882     24.7353
  1268.5000      8.0797      2.5163     -0.0993      8.1046     63.7300     25.8779
  1268.6000      8.0797      2.4781     -0.0850     10.4169     64.9728     27.0044
  1268.7000      8.0797      2.4668     -0.0556     11.1029     67.6991     27.7055
  1268.8000      8.1068      2.4625      0.0134     11.3641     75.3208     28.1407
  1268.9000      8.1068      2.4634      0.0047     11.3093     84.2232     28.5015
  1269.0000      8.1404      2.4912      0.0461      9.6216     89.3116     28.8004
  1269.1000      8.1404      2.5330      0.1709      7.0881     95.4975     28.8291
  1269.2000      8.1404      2.5426      0.2397      6.5120    107.9346     28.4931
  1269.3000      8.1688      2.5151      0.1316      8.1765    120.4910     28.1458
  1269.4000      8.1688      2.4929      0.1422      9.5225    126.0791     28.1732
  1269.5000      8.2120      2.4958      0.1201      9.3428    124.2631     28.6804
  1269.6000      8.2120      2.5030      0.1613      8.9081    118.2573     29.3343
  1269.7000      8.2120      2.4903      0.0806      9.6768    111.5758     29.6332
  1269.8000      8.2696      2.4539      0.1058     11.8874    106.4089     29.4015
  1269.9000      8.2696      2.4055      0.0387     14.8200    104.7302     28.9881
  1270.0000      8.3139      2.3717     -0.0085     16.8678    104.7081     28.8296
  1270.1000      8.3139      2.3761      0.0025     16.6018    104.5985     29.1253
  1270.2000      8.3139      2.4116      0.0390     14.4505    104.8879     29.7930
  1270.3000      8.3096      2.4470      0.0829     12.3047    103.8989     30.3534
  1270.4000      8.3096      2.4694      0.0699     10.9427    101.4526     30.4975
  1270.5000      8.2986      2.4883      0.0866      9.8009    101.3001     30.4508
  1270.6000      8.2986      2.4974      0.0998      9.2456    106.3774     30.5537
  1270.7000      8.2986      2.4845      0.0950     10.0322    113.9002     30.8120
  1270.8000      8.3016      2.4587      0.0642     11.5917    118.0666     31.0929
  1270.9000      8.3016      2.4326      0.1229     13.1753    115.4089     31.4708
  1271.0000      8.3101      2.4043      0.1175     14.8887    109.1487     31.6463
  1271.1000      8.3101      2.3821      0.0332     16.2376    105.0892     31.2860
  1271.2000      8.3101      2.3814      0.0510     16.2816    106.0408     30.8388
  1271.3000      8.3405      2.3897      0.0964     15.7766    112.8161     31.0124
  1271.4000      8.3405      2.3863      0.0967     15.9805    120.2348     31.8147
  1271.5000      8.3877      2.3821      0.0170     16.2372    119.9164     32.4460
  1271.6000      8.3877      2.3791      0.1626     16.4189    113.9943     32.3841
  1271.7000      8.3877      2.3439      0.1123     18.5505    110.6812     31.9622
  1271.8000      8.3919      2.2753      0.0139     22.7074    112.3420     31.8685
  1271.9000      8.3919      2.2107      0.0321     26.6261    117.1703     32.0911
  1272.0000      8.3451      2.1704     -0.0312     29.0647    119.5503     31.9341
  1272.1000      8.3451      2.1590     -0.0387     29.7558    113.6916     31.6686
  1272.2000      8.3451      2.1749      0.0788     28.7949    105.0680     32.0758
  1272.3000      8.3045      2.1950      0.1770     27.5751    101.2014     32.7311
  1272.4000      8.3045      2.2020      0.1321     27.1501     97.6317     32.8881
  1272.5000      8.3653      2.2213      0.1231     25.9795     90.1285     32.6386
  1272.6000      8.3653      2.2821      0.1971     22.2988     84.8755     32.2684
  1272.7000      8.3653      2.3606      0.3622     17.5366     89.5059     31.7710
  1272.8000      8.5941      2.4119      0.4234     14.4302     99.2724     31.2388
  1272.9000      8.5941      2.4386      0.3156     12.8114    103.0182     30.9693
  1273.0000      8.9153      2.4603      0.4140     11.4988     98.7033     30.6696
  1273.1000      8.9153      2.4653      0.2669     11.1938     95.2533     29.8273
  1273.2000      8.9153      2.4587      0.1832     11.5956     97.6893     28.6407
  1273.3000      9.0947      2.4706      0.1737     10.8710    100.3410     27.7825
  1273.4000      9.0947      2.5174      0.1841      8.0334    100.1585     27.6412
  1273.5000      8.9729      2.5877      0.2692      3.7769    101.1558     27.8089
  1273.6000      8.9729      2.6451      0.3378      0.2984    106.0757     27.7449
  1273.7000      8.9729      2.6623      0.2778     -0.7484    110.3872     27.4010
  1273.8000      8.7079      2.6496      0.1925      0.0226    109.3162     27.1567
  1273.9000      8.7079      2.6299      0.2010      1.2170    106.5228     27.3503
  1274.0000      8.4924      2.6147      0.1252      2.1416    108.1451     27.7782
  1274.1000      8.4924      2.6051      0.1097      2.7230    112.3294     27.9049
  1274.2000      8.4924      2.5838      0.1441      4.0132    113.7478     27.4513
  1274.3000      8.3573      2.5433      0.0352      6.4651    111.2105     26.8098
  1274.4000      8.3573      2.5148      0.0512      8.1958    106.0175     26.5309
  1274.5000      8.2960      2.5151      0.0089      8.1744    100.0543     26.4846
  1274.6000      8.2960      2.5281      0.0596      7.3902     96.7172     26.2590
  1274.7000      8.2960      2.5422     -0.0111      6.5320     99.2097     25.7484
  1274.8000      8.2687      2.5584      0.0264      5.5518    107.5794     25.3731
