~Version Information
VERS.                      2.0: CWLS Log ASCII Standard - VERSION 2.0
WRAP.                       NO: One line per depth step
~Well Information Block
STRT.FT               235.0000: 
STOP.FT              1633.0000: 
STEP.FT                 0.1000: 
NULL.                -999.2500: 
COMP.          Petrogulf Corporation: COMPANY
WELL.             State 16-41R: WELL
FLD.           Purgatorie River: FIELD
LOC.           280' FNL & 907' FEL: LOCATION
PROV.                 Colorado: PROVINCE
CNTY.               Las Animas: COUNTRY
SRVC.                Patterson: SERVICE COMPANY
DATE.          Wed Oct 19 07:05:20 2005: LOG DATE
API.           05-071-08345    : API
~Curve Information Block
DEPT.FT            0 000 00 00: Depth
DCAL.in                       : CDL Caliper
RHOB.g/cc                     : CDL Bulk Density
RHOC.g/cc                     : CDL Density Correction
DPOR.pu                       : CDL Density Porosity
GR.GAPI                       : Gamma Ray
NPOR.pu                       : Neutron Porosity
~Parameter Information Block
~A  Depth       DCAL        RHOB        RHOC        DPOR         GR         NPOR    
# ...
  1435.0000      7.8466      2.6180      0.0633      1.9396     95.2695     18.7498
  1435.1000      7.8466      2.6202      0.0856      1.8070     94.8933     19.1620
  1435.2000      7.8466      2.6172      0.0743      1.9860     93.3058     19.7098
  1435.3000      7.8504      2.6101      0.0512      2.4178     94.7046     19.9797
  1435.4000      7.8504      2.6021      0.0489      2.9021    100.0747     19.8651
  1435.5000      7.8439      2.5939      0.0650      3.4004    105.4529     19.4925
  1435.6000      7.8439      2.5841      0.0453      3.9927    107.1864     19.0562
  1435.7000      7.8439      2.5767      0.0285      4.4411    106.4539     19.0574
  1435.8000      7.8576      2.5785      0.0435      4.3342    106.7335     19.6602
  1435.9000      7.8576      2.5858      0.0563      3.8884    108.0011     20.3112
  1436.0000      7.9128      2.5861      0.0662      3.8741    106.0358     20.6146
  1436.1000      7.9128      2.5754      0.0560      4.5207    101.0247     20.7257
  1436.2000      7.9128      2.5634      0.0061      5.2480     98.6636     20.8330
  1436.3000      7.9063      2.5557      0.0110      5.7162    100.0889     20.8875
  1436.4000      7.9063      2.5493     -0.0006      6.1028    102.9239     20.9402
  1436.5000      7.8937      2.5451      0.0093      6.3581    105.3697     21.2366
  1436.6000      7.8937      2.5480      0.0074      6.1826    104.4610     21.7140
  1436.7000      7.8937      2.5613      0.0444      5.3753    101.7792     21.8993
  1436.8000      7.8957      2.5812      0.0575      4.1716    101.3650     21.5386
  1436.9000      7.8957      2.5978      0.0736      3.1626    102.1455     21.0166
  1437.0000      7.8386      2.6039      0.0609      2.7920    101.8498     20.8234
  1437.1000      7.8386      2.6027      0.0850      2.8675    102.2404     20.8874
  1437.2000      7.8386      2.6039      0.0602      2.7916    104.4453     21.0179
  1437.3000      7.8162      2.6045      0.1202      2.7570    106.7096     21.3805
  1437.4000      7.8162      2.5921      0.1154      3.5121    108.4479     21.8432
  1437.5000      7.7966      2.5742      0.0771      4.5914    108.3238     22.0519
  1437.6000      7.7966      2.5682      0.0834      4.9590    105.5769     22.0620
  1437.7000      7.7966      2.5790      0.0529      4.3025    104.3845     21.8073
  1437.8000      7.7934      2.6014      0.0822      2.9433    107.3303     21.3772
  1437.9000      7.7934      2.6140      0.1430      2.1811    110.0966     21.2490
  1438.0000      7.8042      2.6036      0.0634      2.8141    107.8925     21.4168
  1438.1000      7.8042      2.5940      0.0447      3.3968    101.4596     21.6319
  1438.2000      7.8042      2.6045      0.0726      2.7577     94.8703     21.6953
  1438.3000      7.8146      2.6222      0.1168      1.6850     88.6283     21.5908
  1438.4000      7.8146      2.6307      0.1085      1.1702     82.6385     21.6182
  1438.5000      7.7844      2.6270      0.1403      1.3948     81.3310     21.8583
  1438.6000      7.7844      2.6173      0.0958      1.9799     86.1578     22.0067
  1438.7000      7.7844      2.6153      0.1257      2.1012     91.5149     21.8637
  1438.8000      7.7819      2.6202      0.1164      1.8034     91.6182     21.4778
  1438.9000      7.7819      2.6179      0.0780      1.9479     87.1731     20.8683
  1439.0000      7.8001      2.6065      0.0399      2.6387     83.5641     20.1021
  1439.1000      7.8001      2.5973      0.0733      3.1916     83.6963     19.3723
  1439.2000      7.8001      2.5997      0.0733      3.0508     86.5741     18.8421
  1439.3000      7.8335      2.6093      0.0948      2.4662     89.9224     18.6381
  1439.4000      7.8335      2.6126      0.1070      2.2695     92.3827     18.7879
  1439.5000      7.8087      2.5999      0.1389      3.0339     95.7723     19.0852
  1439.6000      7.8087      2.5784      0.0943      4.3414    101.8193     19.3490
  1439.7000      7.8087      2.5688      0.0663      4.9238    109.6356     19.5122
  1439.8000      7.7789      2.5725      0.0759      4.6978    115.9196     19.5266
  1439.9000      7.7789      2.5530      0.1505      5.8762    119.2829     19.5855
  1440.0000      7.7877      2.4824      0.0868     10.1586    123.1687     19.7970
  1440.1000      7.7877      2.3728      0.0941     16.8007    130.2616     20.0354
  1440.2000      7.7877      2.2463     -0.0266     24.4659    138.9550     20.3206
  1440.3000      7.7936      2.1270     -0.0622     31.6943    144.7327     20.9126
  1440.4000      7.7936      2.0440     -0.1119     36.7268    146.0663     21.8944
  1440.5000      7.8277      2.0157     -0.1090     38.4420    146.5191     22.9173
  1440.6000      7.8277      2.0358     -0.0777     37.2267    149.7334     23.8463
  1440.7000      7.8277      2.0763      0.0233     34.7689    153.7935     24.9659
  1440.8000      7.9087      2.1220      0.0004     31.9987    153.6830     26.2814
  1440.9000      7.9087      2.1904      0.0861     27.8538    150.6406     27.4197
  1441.0000      7.9453      2.2924      0.2329     21.6724    150.7817     28.0539
  1441.1000      7.9453      2.4059      0.2663     14.7943    155.3788     28.1857
  1441.2000      7.9453      2.4951      0.2626      9.3882    161.0169     28.2116
  1441.3000      7.9571      2.5418      0.1264      6.5570    165.6799     28.3687
  1441.4000      7.9571      2.5585      0.1115      5.5429    169.1189     28.5114
  1441.5000      7.9301      2.5677      0.0692      4.9882    171.3837     28.5772
  1441.6000      7.9301      2.5795      0.0807      4.2752    171.4819     28.4494
  1441.7000      7.9301      2.5841      0.1112      3.9943    168.9153     27.9438
  1441.8000      7.9353      2.5720      0.0731      4.7250    166.8232     27.2227
  1441.9000      7.9353      2.5477      0.0641      6.2010    166.6769     26.7808
  1442.0000      7.9283      2.5220      0.0225      7.7605    165.4956     26.8748
  1442.1000      7.9283      2.5078      0.0204      8.6186    162.0445     27.1705
  1442.2000      7.9283      2.5135      0.0080      8.2726    158.7146     27.2015
  1442.3000      7.9261      2.5315      0.0659      7.1820    159.0999     27.0104
  1442.4000      7.9261      2.5440      0.0341      6.4218    163.9409     26.7374
  1442.5000      7.9291      2.5413      0.0521      6.5885    170.6101     26.3101
  1442.6000      7.9291      2.5257      0.0229      7.5341    174.6113     25.9404
  1442.7000      7.9291      2.5119      0.0235      8.3727    171.5474     25.8226
  1442.8000      7.9556      2.5057      0.0522      8.7434    164.5010     25.8981
  1442.9000      7.9556      2.5017      0.0381      8.9883    161.1583     26.2282
  1443.0000      7.9838      2.5011      0.0313      9.0228    164.8557     26.6840
  1443.1000      7.9838      2.5016      0.0293      8.9917    172.1202     26.9258
  1443.2000      7.9838      2.4999     -0.0013      9.0985    173.7257     26.9322
  1443.3000      7.9723      2.5006      0.0496      9.0534    168.1766     26.7845
  1443.4000      7.9723      2.5056      0.0795      8.7533    162.2953     26.4758
  1443.5000      8.0106      2.5159      0.0686      8.1258    158.2033     26.1393
  1443.6000      8.0106      2.5343      0.0927      7.0110    155.3889     26.1617
  1443.7000      8.0106      2.5591      0.1116      5.5107    153.4616     26.5999
  1443.8000      8.0237      2.5864      0.1037      3.8563    152.0174     27.0308
  1443.9000      8.0237      2.6082      0.1371      2.5355    151.2337     27.2756
  1444.0000      7.9737      2.6149      0.1150      2.1296    151.2524     27.2376
  1444.1000      7.9737      2.6090      0.1169      2.4856    152.6331     26.7693
  1444.2000      7.9737      2.6012      0.1154      2.9554    155.3984     26.3002
  1444.3000      7.8883      2.5950      0.0924      3.3324    156.2074     26.2056
  1444.4000      7.8883      2.5843      0.1319      3.9793    151.1454     26.0274
  1444.5000      7.8628      2.5679      0.0724      4.9786    143.3061     25.4058
