~Version Information
VERS.                      2.0: CWLS Log ASCII Standard - VERSION 2.0
WRAP.                       NO: One line per depth step
~Well Information Block
STRT.FT               555.5000: 
STOP.FT              2179.0000: 
STEP.FT                 0.2500: 
NULL.                -999.2500: 
COMP.          Petrogulf Corporation: COMPANY
WELL.            Montoya 6-14R: WELL
FLD.           Purgatorie River: FIELD
LOC.           867' FSL & 751' FWL: LOCATION
CNTY.               Las Animas: COUNTY
SRVC.                         : SERVICE COMPANY
DATE.          Mon Nov 15 07:02:23 2004: LOG DATE
UWI.           05 071 08242 00: UNIQUE WELL ID
STAT.                 Colorado: STATE
~Curve Information Block
DEPT.FT            0 000 00 00: Depth
SP.mV                         : DIL Spontaneous Potential
RILD.Ohm-m                    : DIL Deep Resistivity
RILM.Ohm-m                    : DIL Medium Resistivity
RLL3.Ohm-m                    : DIL Shallow Resistivity
GR.GAPI                       : Gamma Ray
~Parameter Information Block
~A  Depth        SP         RILD        RILM        RLL3         GR     
# ...
  1619.5000   -153.3056     28.4351     38.5582     62.3982     58.5417
  1619.7500   -154.8079     27.8430     38.2520     62.3946     58.6620
  1620.0000   -156.1511     26.9641     37.4714     61.8103     59.5765
  1620.2500   -157.2258     25.8716     36.2782     60.4716     60.6946
  1620.5000   -157.9550     24.6481     34.7438     58.3301     63.5148
  1620.7500   -158.2997     23.3693     32.9400     55.4930     66.1559
  1621.0000   -158.2664     22.0953     30.9373     52.1754     70.3624
  1621.2500   -157.9044     20.8663     28.8082     48.6024     72.5802
  1621.5000   -157.2967     19.7054     26.6261     44.9217     74.6298
  1621.7500   -156.5460     18.6232     24.4651     41.1764     75.8173
  1622.0000   -155.7501     17.6224     22.3916     37.3475     79.2603
  1622.2500   -154.9877     16.7021     20.4589     33.4311     83.3810
  1622.5000   -154.3060     15.8601     18.7031     29.4963     91.9220
  1622.7500   -153.7247     15.0946     17.1430     25.6925     98.1777
  1623.0000   -153.2448     14.4045     15.7835     22.2074    106.2864
  1623.2500   -152.8641     13.7897     14.6190     19.2056    109.9970
  1623.5000   -152.5894     13.2503     13.6386     16.7830    112.9371
  1623.7500   -152.4393     12.7865     12.8289     14.9541    113.7939
  1624.0000   -152.4337     12.3981     12.1763     13.6735    114.8783
  1624.2500   -152.5882     12.0840     11.6688     12.8737    116.0615
  1624.5000   -152.8981     11.8416     11.2961     12.5060    118.7078
  1624.7500   -153.3437     11.6667     11.0498     12.5722    120.7228
  1625.0000   -153.8916     11.5529     10.9232     13.1372    123.2642
  1625.2500   -154.5107     11.4918     10.9100     14.3195    124.1687
  1625.5000   -155.1769     11.4728     11.0029     16.2511    123.6367
  1625.7500   -155.8757     11.4834     11.1922     19.0135    121.6958
  1626.0000   -156.5915     11.5104     11.4629     22.5590    116.2855
  1626.2500   -157.3006     11.5407     11.7925     26.6490    111.3164
  1626.5000   -157.9600     11.5627     12.1491     30.8378    102.7280
  1626.7500   -158.5045     11.5671     12.4918     34.5309     96.7347
  1627.0000   -158.8591     11.5473     12.7745     37.1103     87.9540
  1627.2500   -158.9525     11.4995     12.9536     38.0959     82.7190
  1627.5000   -158.7382     11.4218     12.9981     37.2846     77.4057
  1627.7500   -158.2081     11.3140     12.8974     34.8104     76.8237
  1628.0000   -157.3887     11.1765     12.6633     31.1032     81.8418
  1628.2500   -156.3303     11.0108     12.3247     26.7621     88.7952
  1628.5000   -155.0870     10.8194     11.9192     22.3960    101.8838
  1628.7500   -153.7009     10.6066     11.4831     18.4880    110.1970
  1629.0000   -152.1994     10.3782     11.0468     15.3250    119.1823
  1629.2500   -150.6073     10.1415     10.6316     12.9968    122.2968
  1629.5000   -148.9682      9.9045     10.2512     11.4464    123.4941
  1629.7500   -147.3580      9.6746      9.9126     10.5362    123.0715
  1630.0000   -145.8901      9.4585      9.6185     10.1052    122.6422
  1630.2500   -144.6926      9.2609      9.3688     10.0040    123.2771
  1630.5000   -143.8778      9.0848      9.1618     10.1091    125.6066
  1630.7500   -143.5093      8.9314      8.9942     10.3237    127.3929
  1631.0000   -143.5802      8.8007      8.8623     10.5742    129.0785
  1631.2500   -144.0142      8.6915      8.7615     10.8058    129.1010
  1631.5000   -144.6871      8.6025      8.6869     10.9820    127.4881
  1631.7500   -145.4597      8.5317      8.6337     11.0838    125.7297
  1632.0000   -146.2208      8.4773      8.5978     11.1084    123.3023
  1632.2500   -146.9157      8.4373      8.5757     11.0668    122.4941
  1632.5000   -147.5544      8.4097      8.5647     10.9798    122.8527
  1632.7500   -148.2004      8.3923      8.5627     10.8721    123.8816
  1633.0000   -148.9299      8.3828      8.5677     10.7668    125.9779
  1633.2500   -149.7970      8.3788      8.5775     10.6812    127.4909
  1633.5000   -150.7921      8.3779      8.5894     10.6248    129.5627
  1633.7500   -151.8347      8.3783      8.6004     10.5994    130.4672
  1634.0000   -152.7875      8.3785      8.6079     10.6012    130.3876
  1634.2500   -153.4976      8.3782      8.6104     10.6244    129.1788
  1634.5000   -153.8473      8.3779      8.6076     10.6639    126.1509
  1634.7500   -153.7926      8.3789      8.6008     10.7179    124.0507
  1635.0000   -153.3823      8.3829      8.5922     10.7864    121.9638
  1635.2500   -152.7455      8.3921      8.5845     10.8696    121.4313
  1635.5000   -152.0554      8.4084      8.5803     10.9646    120.9027
  1635.7500   -151.4783      8.4332      8.5810     11.0653    119.7333
  1636.0000   -151.1230      8.4670      8.5875     11.1631    115.5693
  1636.2500   -151.0159      8.5098      8.5999     11.2519    111.2779
  1636.5000   -151.0855      8.5605      8.6180     11.3297    103.9528
  1636.7500   -151.1856      8.6180      8.6415     11.3999     99.5087
  1637.0000   -151.1281      8.6809      8.6704     11.4673     94.6330
  1637.2500   -150.7431      8.7482      8.7053     11.5336     92.6044
  1637.5000   -149.9177      8.8193      8.7468     11.5950     90.7136
  1637.7500   -148.6394      8.8944      8.7957     11.6448     89.8438
  1638.0000   -147.0094      8.9742      8.8527     11.6796     89.0329
  1638.2500   -145.2276      9.0596      8.9183     11.7073     89.0722
  1638.5000   -143.5578      9.1518      8.9934     11.7511     90.6225
  1638.7500   -142.2671      9.2520      9.0788     11.8458     92.8419
  1639.0000   -141.5690      9.3615      9.1760     12.0269     97.4318
  1639.2500   -141.5807      9.4824      9.2871     12.3152    100.5828
  1639.5000   -142.3007      9.6169      9.4150     12.7038    104.2231
  1639.7500   -143.6214      9.7684      9.5634     13.1543    105.6148
  1640.0000   -145.3672      9.9410      9.7368     13.6056    106.3035
  1640.2500   -147.3381     10.1396      9.9404     13.9944    106.2109
  1640.5000   -149.3534     10.3690     10.1803     14.2800    106.2871
  1640.7500   -151.2766     10.6335     10.4637     14.4655    107.0549
  1641.0000   -153.0215     10.9368     10.7991     14.6077    109.3902
  1641.2500   -154.5453     11.2808     11.1967     14.8158    111.2004
  1641.5000   -155.8345     11.6660     11.6682     15.2425    113.2925
  1641.7500   -156.8999     12.0917     12.2271     16.0700    114.1560
  1642.0000   -157.7681     12.5564     12.8884     17.4956    114.9512
  1642.2500   -158.4801     13.0584     13.6677     19.7132    115.0108
  1642.5000   -159.0883     13.5974     14.5804     22.8852    113.3145
  1642.7500   -159.6381     14.1737     15.6397     27.1023    110.3379
  1643.0000   -160.1638     14.7884     16.8534     32.3407    102.8067
  1643.2500   -160.6746     15.4413     18.2197     38.4256     96.0576
  1643.5000   -161.1570     16.1290     19.7214     45.0180     84.3712
  1643.7500   -161.5829     16.8422     21.3185     51.6324     76.3336
  1644.0000   -161.9182     17.5645     22.9426     57.6845     65.4247
  1644.2500   -162.1346     18.2726     24.4969     62.5659     59.6590
  1644.5000   -162.2092     18.9390     25.8646     65.7329     53.9361
  1644.7500   -162.1230     19.5369     26.9307     66.8006     52.1631
  1645.0000   -161.8597     20.0462     27.6103     65.6217     52.5764
  1645.2500   -161.4014     20.4567     27.8730     62.3319     54.9284
  1645.5000   -160.7332     20.7693     27.7513     57.3399     61.5203
  1645.7500   -159.8514     20.9929     27.3273     51.2561     67.6696
  1646.0000   -158.7656     21.1389     26.7072     44.7742     78.3193
  1646.2500   -157.5010     21.2169     25.9961     38.5427     85.3463
  1646.5000   -156.0967     21.2308     25.2803     33.0636     94.2778
  1646.7500   -154.6001     21.1797     24.6196     28.6444     98.8730
  1647.0000   -153.0673     21.0594     24.0474     25.4035    104.1241
  1647.2500   -151.5549     20.8662     23.5733     23.3103    106.7373
