~Version Information
VERS.                      2.0: CWLS Log ASCII Standard - VERSION 2.0
WRAP.                       NO: One line per depth step
~Well Information Block
STRT.FT               240.0000: 
STOP.FT              1709.2000: 
STEP.FT                 0.1000: 
NULL.                -999.2500: 
COMP.          Pioneer Natural Resources: COMPANY
WELL.              Patten 22-2: WELL
FLD.           Purgatoire River: FIELD
LOC.           2157' FNL & 1528' FWL: LOCATION
PROV.                 Colorado: PROVINCE
CNTY.               Las Animas: COUNTRY
SRVC.                Patterson: SERVICE COMPANY
DATE.          Fri Dec 10 09:15:13 2004: LOG DATE
UWI.           05 071 08168 00: UNIQUE WELL ID
~Curve Information Block
DEPT.FT            0 000 00 00: Depth
DCAL.in                       : CDL Caliper
RHOB.g/cc                     : CDL Bulk Density
RHOC.g/cc                     : CDL Density Correction
DPOR.pu                       : CDL Density Porosity
NPOR.pu                       : Neutron Porosity
GR.GAPI                       : Gamma Ray
~Parameter Information Block
~A  Depth       DCAL        RHOB        RHOC        DPOR        NPOR         GR     
# ...
   816.0000      8.0105      2.5318      0.0587      7.1647     28.4274    128.8963
   816.1000      8.0105      2.5246      0.0652      7.5970     27.9115    130.6043
   816.2000      8.0105      2.4844      0.0380     10.0385     27.2283    128.4078
   816.3000      8.0187      2.4278     -0.0165     13.4674     26.5097    129.5150
   816.4000      8.0187      2.3859     -0.0309     16.0075     25.6152    135.5323
   816.5000      8.0335      2.3756     -0.0261     16.6284     24.5304    141.5421
   816.6000      8.0335      2.3947     -0.0037     15.4746     23.5993    145.0842
   816.7000      8.0335      2.4298      0.0567     13.3434     22.8932    142.5423
   816.8000      8.0465      2.4615      0.0944     11.4213     21.9637    135.8785
   816.9000      8.0465      2.4707      0.1177     10.8685     20.7262    134.8404
   817.0000      8.0519      2.4610      0.0545     11.4568     19.6633    137.7995
   817.1000      8.0519      2.4597      0.1006     11.5315     19.2185    136.1410
   817.2000      8.0519      2.4795      0.1334     10.3349     19.3975    131.9327
   817.3000      8.0504      2.5138      0.1631      8.2519     19.9705    132.0869
   817.4000      8.0504      2.5577      0.1681      5.5953     20.5759    134.5321
   817.5000      8.0408      2.6024      0.2174      2.8879     20.8641    132.0058
   817.6000      8.0408      2.6267      0.2347      1.4141     21.0341    123.8489
   817.7000      8.0408      2.6209      0.1631      1.7613     21.5916    116.8341
   817.8000      8.0223      2.6027      0.1108      2.8690     22.5049    115.8566
   817.9000      8.0223      2.5958      0.0970      3.2828     23.3358    117.5141
   818.0000      8.0067      2.6068      0.1292      2.6157     23.7331    115.8628
   818.1000      8.0067      2.6203      0.1399      1.8026     23.8914    113.6015
   818.2000      8.0067      2.6220      0.1291      1.6947     24.3384    116.5393
   818.3000      8.0019      2.6193      0.0857      1.8584     25.0426    119.5574
   818.4000      8.0019      2.6219      0.1157      1.7023     25.5650    116.6153
   818.5000      8.0084      2.6228      0.1224      1.6496     25.7213    111.3666
   818.6000      8.0084      2.6167      0.0745      2.0204     25.6051    108.4262
   818.7000      8.0084      2.6110      0.0635      2.3623     25.4108    107.6028
   818.8000      8.0199      2.6057      0.0757      2.6870     25.1101    107.2797
   818.9000      8.0199      2.5892      0.0686      3.6858     24.8290    107.8364
   819.0000      8.0269      2.5632      0.0123      5.2608     24.9043    110.1031
   819.1000      8.0269      2.5494     -0.0383      6.0981     25.1643    113.0251
   819.2000      8.0269      2.5576      0.0133      5.6014     25.1015    113.5641
   819.3000      8.0285      2.5704      0.0685      4.8229     24.6073    112.5739
   819.4000      8.0285      2.5758      0.0465      4.4985     24.0903    112.7797
   819.5000      8.0281      2.5810      0.0527      4.1822     23.9478    113.0756
   819.6000      8.0281      2.5907      0.0806      3.5923     23.9889    111.5117
   819.7000      8.0281      2.6030      0.0817      2.8508     23.8290    109.7564
   819.8000      8.0276      2.6200      0.0732      1.8153     23.5447    110.0954
   819.9000      8.0276      2.6367      0.1042      0.8089     23.4684    113.4290
   820.0000      8.0271      2.6398      0.1055      0.6178     23.6756    118.0181
   820.1000      8.0271      2.6326      0.0600      1.0564     24.1007    120.2054
   820.2000      8.0271      2.6240      0.1017      1.5774     24.5531    120.9877
   820.3000      8.0274      2.6107      0.0749      2.3808     24.7170    122.2566
   820.4000      8.0274      2.5949      0.0275      3.3376     24.7458    121.2293
   820.5000      8.0280      2.5850      0.0297      3.9420     24.8541    117.5657
   820.6000      8.0280      2.5756      0.0550      4.5078     24.8816    113.8779
   820.7000      8.0280      2.5649      0.0102      5.1577     24.6788    112.0168
   820.8000      8.0282      2.5639      0.0330      5.2199     24.2432    113.0268
   820.9000      8.0282      2.5727      0.0364      4.6819     23.6546    112.9357
   821.0000      8.0276      2.5751      0.0727      4.5417     23.2788    109.8760
   821.1000      8.0276      2.5581      0.0432      5.5727     23.2924    110.0548
   821.2000      8.0276      2.5345     -0.0081      7.0004     23.2594    113.5830
   821.3000      8.0253      2.5276     -0.0237      7.4188     23.0325    113.7320
   821.4000      8.0253      2.5418     -0.0113      6.5605     23.1140    111.2918
   821.5000      8.0184      2.5647      0.0171      5.1707     23.6625    111.0705
   821.6000      8.0184      2.5804      0.0607      4.2185     24.1095    111.9452
   821.7000      8.0184      2.5812      0.0360      4.1685     24.1266    112.0179
   821.8000      8.0079      2.5720      0.0558      4.7274     23.8667    113.8148
   821.9000      8.0079      2.5599      0.0534      5.4606     23.5503    118.3267
   822.0000      8.0012      2.5494      0.0707      6.0959     23.2649    122.0332
   822.1000      8.0012      2.5421      0.0637      6.5387     23.0935    121.3817
   822.2000      8.0012      2.5414      0.0336      6.5797     23.3123    115.7000
   822.3000      7.9991      2.5490      0.0563      6.1205     23.9297    108.0604
   822.4000      7.9991      2.5548      0.0447      5.7690     24.4698    102.3293
   822.5000      7.9966      2.5517      0.0302      5.9586     24.7740    100.1840
   822.6000      7.9966      2.5450      0.0694      6.3638     25.1002    102.9592
   822.7000      7.9966      2.5409      0.0512      6.6096     25.4484    108.9283
   822.8000      7.9912      2.5407      0.0501      6.6260     25.5417    112.5677
   822.9000      7.9912      2.5480      0.0193      6.1802     25.4683    112.4493
   823.0000      7.9861      2.5691      0.0051      4.9045     25.6089    111.4212
   823.1000      7.9861      2.5936      0.0935      3.4153     25.8479    110.8771
   823.2000      7.9861      2.6067      0.0598      2.6252     25.7384    111.0890
   823.3000      7.9847      2.6105      0.0769      2.3934     25.3094    111.3841
   823.4000      7.9847      2.6104      0.0684      2.3984     24.8824    109.6963
   823.5000      7.9844      2.6068      0.0511      2.6196     24.6402    107.0559
   823.6000      7.9844      2.6025      0.0604      2.8810     24.6455    107.2911
   823.7000      7.9844      2.6068      0.0325      2.6173     24.7597    110.4425
   823.8000      7.9840      2.6177      0.0947      1.9597     24.9148    114.7355
   823.9000      7.9840      2.6182      0.0725      1.9282     25.3359    119.5419
   824.0000      7.9846      2.6084      0.0508      2.5189     25.9638    121.8154
   824.1000      7.9846      2.6001      0.0657      3.0236     26.2291    119.9643
   824.2000      7.9846      2.5937      0.0593      3.4145     26.0236    116.7337
   824.3000      7.9835      2.5848      0.0718      3.9524     25.8514    115.0722
   824.4000      7.9835      2.5771      0.0355      4.4155     25.8294    113.9549
   824.5000      7.9815      2.5785      0.0665      4.3344     25.7191    114.2182
   824.6000      7.9815      2.5825      0.0899      4.0887     25.5559    118.7313
   824.7000      7.9815      2.5813      0.0499      4.1659     25.4485    123.7355
   824.8000      7.9804      2.5809      0.0420      4.1855     25.2094    121.7974
   824.9000      7.9804      2.5803      0.0645      4.2220     24.8184    113.5343
   825.0000      7.9800      2.5714      0.0586      4.7665     24.4615    107.7026
   825.1000      7.9800      2.5670      0.0111      5.0300     24.3049    105.7949
   825.2000      7.9800      2.5824      0.0621      4.0964     24.4447    102.7349
   825.3000      7.9804      2.5946      0.1179      3.3576     24.6866     98.3528
   825.4000      7.9804      2.5758      0.0782      4.4998     24.7050     96.8653
   825.5000      7.9799      2.5445      0.0222      6.3910     24.4653     99.3684
