~Version Information
VERS.                      2.0: CWLS Log ASCII Standard - VERSION 2.0
WRAP.                       NO: One line per depth step
~Well Information Block
STRT.FT               235.0000: 
STOP.FT              1633.0000: 
STEP.FT                 0.1000: 
NULL.                -999.2500: 
COMP.          Petrogulf Corporation: COMPANY
WELL.             State 16-41R: WELL
FLD.           Purgatorie River: FIELD
LOC.           280' FNL & 907' FEL: LOCATION
PROV.                 Colorado: PROVINCE
CNTY.               Las Animas: COUNTRY
SRVC.                Patterson: SERVICE COMPANY
DATE.          Wed Oct 19 07:05:20 2005: LOG DATE
API.           05-071-08345    : API
~Curve Information Block
DEPT.FT            0 000 00 00: Depth
DCAL.in                       : CDL Caliper
RHOB.g/cc                     : CDL Bulk Density
RHOC.g/cc                     : CDL Density Correction
DPOR.pu                       : CDL Density Porosity
GR.GAPI                       : Gamma Ray
NPOR.pu                       : Neutron Porosity
~Parameter Information Block
~A  Depth       DCAL        RHOB        RHOC        DPOR         GR         NPOR    
# ...
   695.8000      8.1130      2.6393      0.0553      0.6480    119.2589     23.9412
   695.9000      8.1130      2.6457      0.0671      0.2581    118.6475     23.8196
   696.0000      8.1179      2.6539      0.0582     -0.2375    120.5718     23.4724
   696.1000      8.1179      2.6567      0.0765     -0.4049    121.6482     23.0785
   696.2000      8.1179      2.6461      0.0392      0.2383    120.6868     22.7189
   696.3000      8.1244      2.6238      0.0372      1.5903    119.3262     22.4948
   696.4000      8.1244      2.6023     -0.0015      2.8908    116.5785     22.3922
   696.5000      8.1372      2.5949      0.0150      3.3391    110.6237     22.2810
   696.6000      8.1372      2.5964      0.0572      3.2505    104.2506     22.1848
   696.7000      8.1372      2.5873      0.0727      3.8018     99.4473     22.2673
   696.8000      8.1373      2.5610      0.0643      5.3945     96.0140     22.4458
   696.9000      8.1373      2.5309      0.0333      7.2188     93.9033     22.3475
   697.0000      8.1325      2.5069      0.0368      8.6711     92.4513     21.8244
   697.1000      8.1325      2.4911      0.0122      9.6319     90.2355     21.0936
   697.2000      8.1325      2.4909      0.0209      9.6399     85.6444     20.2742
   697.3000      8.1285      2.5061      0.0310      8.7206     80.3803     19.4257
   697.4000      8.1285      2.5159      0.0591      8.1263     78.3400     18.7979
   697.5000      8.1332      2.5029      0.0534      8.9122     79.1521     18.3916
   697.6000      8.1332      2.4817      0.0066     10.2016     79.7074     18.1397
   697.7000      8.1332      2.4847      0.0263     10.0152     78.5690     18.1120
   697.8000      8.1350      2.5204      0.0682      7.8554     75.4916     18.3491
   697.9000      8.1350      2.5671      0.0488      5.0246     71.1724     18.8924
   698.0000      8.1335      2.6007      0.0874      2.9900     68.5403     19.4099
   698.1000      8.1335      2.6040      0.1086      2.7864     69.5897     19.5016
   698.2000      8.1335      2.5757      0.0891      4.5013     71.8660     19.2560
   698.3000      8.1071      2.5380      0.0555      6.7855     72.8051     18.7523
   698.4000      8.1071      2.5183     -0.0056      7.9823     71.6014     18.1218
   698.5000      7.9897      2.5301     -0.0134      7.2660     68.0974     17.6663
   698.6000      7.9897      2.5609      0.0180      5.4025     64.6248     17.5119
   698.7000      7.9897      2.5818      0.0531      4.1356     63.8920     17.5276
   698.8000      7.9328      2.5846      0.0197      3.9664     66.6361     17.4372
   698.9000      7.9328      2.5822      0.1269      4.1114     72.0963     17.3047
   699.0000      7.8961      2.5830      0.0889      4.0577     76.4697     17.4986
   699.1000      7.8961      2.5981      0.0599      3.1458     76.4886     17.8354
   699.2000      7.8961      2.6319      0.1325      1.0957     75.2690     18.0105
   699.3000      7.8603      2.6663      0.1927     -0.9875     77.1016     17.9723
   699.4000      7.8603      2.6817      0.1552     -1.9223     80.9000     17.6448
   699.5000      7.8672      2.6703      0.2274     -1.2299     84.3045     17.3079
   699.6000      7.8672      2.6372      0.0989      0.7775     86.1723     17.2417
   699.7000      7.8672      2.6028      0.0990      2.8596     86.4179     17.4275
   699.8000      7.8477      2.5819      0.0334      4.1297     87.2067     17.7968
   699.9000      7.8477      2.5819      0.0283      4.1281     90.6946     18.3342
   700.0000      7.8606      2.5968      0.0819      3.2261     95.2842     18.9362
   700.1000      7.8606      2.6041      0.0909      2.7834     97.9189     19.2324
   700.2000      7.8606      2.5920      0.0683      3.5146     96.8914     19.0448
   700.3000      7.9608      2.5715      0.0473      4.7573     93.6436     18.6444
   700.4000      7.9608      2.5601      0.0307      5.4494     90.6716     18.3521
   700.5000      7.9643      2.5569      0.0962      5.6439     87.4463     18.1779
   700.6000      7.9643      2.5485      0.0657      6.1495     85.6809     17.9544
   700.7000      7.9643      2.5349      0.0420      6.9742     89.3287     17.8672
   700.8000      7.9647      2.5185      0.0433      7.9724     94.1499     18.0255
   700.9000      7.9647      2.5012      0.0277      9.0198     92.6582     18.1855
   701.0000      7.9673      2.5015      0.0031      8.9974     85.9651     18.2974
   701.1000      7.9673      2.5269      0.0741      7.4622     80.4728     18.4403
   701.2000      7.9673      2.5531      0.0521      5.8708     80.5330     18.5194
   701.3000      7.9503      2.5616      0.0734      5.3549     83.8259     18.4144
   701.4000      7.9503      2.5592      0.0154      5.5005     85.2241     18.0156
   701.5000      7.9580      2.5637      0.0415      5.2285     84.8326     17.6331
   701.6000      7.9580      2.5840      0.0767      3.9985     85.4904     17.8575
   701.7000      7.9580      2.6182      0.0718      1.9250     88.0984     18.4249
   701.8000      7.9286      2.6506      0.1438     -0.0389     92.3797     18.5702
   701.9000      7.9286      2.6628      0.1310     -0.7774     98.0793     18.2098
   702.0000      7.9232      2.6591      0.1480     -0.5500    102.4312     17.8002
   702.1000      7.9232      2.6495      0.1142      0.0303    102.0928     17.7420
   702.2000      7.9232      2.6357      0.0724      0.8667     99.2803     18.0176
   702.3000      7.9281      2.6216      0.0619      1.7184     99.1115     18.2557
   702.4000      7.9281      2.6123      0.0813      2.2865    103.5691     18.5394
   702.5000      7.9213      2.6125      0.0335      2.2711    112.0720     19.3210
   702.6000      7.9213      2.6303      0.0469      1.1930    121.0630     20.4880
   702.7000      7.9213      2.6675      0.0967     -1.0585    126.7629     21.5653
   702.8000      7.9185      2.7188      0.1057     -4.1714    130.5119     22.4168
   702.9000      7.9185      2.7735      0.0994     -7.4823    135.4947     23.3236
   703.0000      7.9282      2.8167      0.1430    -10.1057    139.1847     24.5565
   703.1000      7.9282      2.8405      0.1750    -11.5472    139.1117     25.5672
   703.2000      7.9282      2.8388      0.1884    -11.4428    140.6494     25.7870
   703.3000      7.9348      2.8079      0.1114     -9.5724    146.4935     25.6761
   703.4000      7.9348      2.7626      0.0020     -6.8250    151.7407     25.8154
   703.5000      7.9340      2.7225     -0.0323     -4.3968    152.1453     26.1966
   703.6000      7.9340      2.6928     -0.0407     -2.5961    148.7158     26.5423
   703.7000      7.9340      2.6713     -0.0863     -1.2884    146.2575     26.6702
   703.8000      7.9671      2.6597     -0.0062     -0.5872    148.7587     26.6250
   703.9000      7.9671      2.6587      0.0542     -0.5267    155.9643     26.5213
   704.0000      7.9785      2.6612      0.0678     -0.6764    163.4754     26.4885
   704.1000      7.9785      2.6634      0.0616     -0.8122    166.6399     26.6677
   704.2000      7.9785      2.6627      0.0772     -0.7707    166.9336     26.9853
   704.3000      7.9901      2.6492      0.0588      0.0512    168.2336     27.2171
   704.4000      7.9901      2.6278     -0.0251      1.3440    170.0679     27.4446
   704.5000      8.0340      2.6193     -0.0296      1.8601    170.1924     27.7484
   704.6000      8.0340      2.6260     -0.0003      1.4537    168.7546     27.6181
   704.7000      8.0340      2.6328      0.0434      1.0418    166.7258     26.7778
   704.8000      8.0470      2.6303      0.0551      1.1910    163.7552     25.7074
   704.9000      8.0470      2.6204      0.0887      1.7941    160.2933     24.9972
   705.0000      8.0103      2.6061      0.0982      2.6608    159.6394     24.9058
   705.1000      8.0103      2.5929      0.0372      3.4582    160.8121     25.1560
   705.2000      8.0103      2.5877      0.0363      3.7746    158.5956     25.2460
   705.3000      8.0508      2.5836      0.0226      4.0212    154.7914     25.0508
