~Version Information
VERS.                      2.0: CWLS Log ASCII Standard - VERSION 2.0
WRAP.                       NO: One line per depth step
~Well Information Block
STRT.FT               -10.3000: 
STOP.FT              1936.7000: 
STEP.FT                 0.1000: 
NULL.                -999.2500: 
COMP.          Petrogulf Corporation: COMPANY
WELL.              Graff 9-31R: WELL
FLD.           Purgatorie River: FIELD
LOC.           707' FNL & 1713' FEL------: LOCATION
CNTY.               Las Animas: COUNTY
SRVC.                         : SERVICE COMPANY
DATE.          Wed Nov 17 13:41:51 2004: LOG DATE
UWI.                          : UNIQUE WELL ID
STAT.                       CO: STATE
~Curve Information Block
DEPT.FT            0 000 00 00: Depth
GR.GAPI                       : Gamma Ray
CCL.                          : Casing Collar Locator
TT3.usec                      : CBL 3' Travel Time
AMP3.mV                       : CBL 3' Amplitude
~Parameter Information Block
~A  Depth        GR         CCL         TT3         AMP3    
# ...
   378.3000     50.8818      0.0000    597.6918     23.7383
   378.4000     50.8818      0.0000    597.6918     23.7383
   378.5000     55.8293      0.0000    694.6710     23.2821
   378.6000     55.8293      0.0000    694.6710     23.2821
   378.7000     55.8293      0.0000    694.6710     23.2821
   378.8000     63.2353      0.0000    761.5703     23.0471
   378.9000     63.2353      0.0000    761.5703     23.0471
   379.0000     72.7784      0.0000    789.6275     23.0456
   379.1000     72.7784      0.0000    789.6275     23.0456
   379.2000     72.7784      0.0000    789.6275     23.0456
   379.3000     83.4508      0.0000    780.0360     23.2369
   379.4000     83.4508      0.0000    780.0360     23.2369
   379.5000     92.8429      0.0000    735.5026     23.5654
   379.6000     92.8429      0.0000    735.5026     23.5654
   379.7000     92.8429      0.0000    735.5026     23.5654
   379.8000     97.9784      0.0000    659.9073     23.9982
   379.9000     97.9784      0.0000    659.9073     23.9982
   380.0000     97.5540      0.0000    564.4424     24.5391
   380.1000     97.5540      0.0000    564.4424     24.5391
   380.2000     97.5540      0.0000    564.4424     24.5391
   380.3000     93.5145      0.0000    468.5951     25.2064
   380.4000     93.5145      0.0000    468.5951     25.2064
   380.5000     89.9812      0.0000    391.5141     25.9984
   380.6000     89.9812      0.0000    391.5141     25.9984
   380.7000     89.9812      0.0000    391.5141     25.9984
   380.8000     90.0633      0.0000    341.9597     26.8793
   380.9000     90.0633      0.0000    341.9597     26.8793
   381.0000     93.4744      0.0000    316.5461     27.7980
   381.1000     93.4744      0.0000    316.5461     27.7980
   381.2000     93.4744      0.0000    316.5461     27.7980
   381.3000     97.0675      0.0000    306.0959     28.7298
   381.4000     97.0675      0.0000    306.0959     28.7298
   381.5000     97.4509      0.0000    302.5188     29.7125
   381.6000     97.4509      0.0000    302.5188     29.7125
   381.7000     97.4509      0.0000    302.5188     29.7125
   381.8000     93.4137      0.0000    301.3094     30.8276
   381.9000     93.4137      0.0000    301.3094     30.8276
   382.0000     86.4716      0.0000    300.7164     32.1221
   382.1000     86.4716      0.0000    300.7164     32.1221
   382.2000     86.4716      0.0000    300.7164     32.1221
   382.3000     79.3746      0.0000    300.2678     33.5321
   382.4000     79.3746      0.0000    300.2678     33.5321
   382.5000     74.0596      0.0000    299.9114     34.8861
   382.6000     74.0596      0.0000    299.9114     34.8861
   382.7000     74.0596      0.0000    299.9114     34.8861
   382.8000     70.8344      0.0000    299.6664     35.9870
   382.9000     70.8344      0.0000    299.6664     35.9870
   383.0000     69.0998      0.0000    299.5503     36.7021
   383.1000     69.0998      0.0000    299.5503     36.7021
   383.2000     69.0998      0.0000    299.5503     36.7021
   383.3000     68.5140      0.0000    299.5598     36.9982
   383.4000     68.5140      0.0000    299.5598     36.9982
   383.5000     69.5712      0.0000    299.6803     36.9258
   383.6000     69.5712      0.0000    299.6803     36.9258
   383.7000     69.5712      0.0000    299.6803     36.9258
   383.8000     73.1227      0.0000    299.8907     36.5786
   383.9000     73.1227      0.0000    299.8907     36.5786
   384.0000     79.1836      0.0000    300.1637     36.0509
   384.1000     79.1836      0.0000    300.1637     36.0509
   384.2000     79.1836      0.0000    300.1637     36.0509
   384.3000     86.2341      0.0000    300.4636     35.4208
   384.4000     86.2341      0.0000    300.4636     35.4208
   384.5000     92.0126      0.0000    300.7471     34.7716
   384.6000     92.0126      0.0000    300.7471     34.7716
   384.7000     92.0126      0.0000    300.7471     34.7716
   384.8000     95.1060      0.0000    300.9697     34.2185
   384.9000     95.1060      0.0000    300.9697     34.2185
   385.0000     95.6402      0.0000    301.0987     33.8942
   385.1000     95.6402      0.0000    301.0987     33.8942
   385.2000     95.6402      0.0000    301.0987     33.8942
   385.3000     94.5836      0.0000    301.1256     33.8902
   385.4000     94.5836      0.0000    301.1256     33.8902
   385.5000     92.7503      0.0000    301.0683     34.1967
   385.6000     92.7503      0.0000    301.0683     34.1967
   385.7000     92.7503      0.0000    301.0683     34.1967
   385.8000     90.5029      0.0000    300.9592     34.6926
   385.9000     90.5029      0.0000    300.9592     34.6926
   386.0000     88.1377      0.0000    300.8280     35.2002
   386.1000     88.1377      0.0000    300.8280     35.2002
   386.2000     88.1377      0.0000    300.8280     35.2002
   386.3000     86.2875      0.0000    300.6902     35.5734
   386.4000     86.2875      0.0000    300.6902     35.5734
   386.5000     85.7254      0.0000    300.5462     35.7653
   386.6000     85.7254      0.0000    300.5462     35.7653
   386.7000     85.7254      0.0000    300.5462     35.7653
   386.8000     86.7050      0.0000    300.3894     35.8373
   386.9000     86.7050      0.0000    300.3894     35.8373
   387.0000     88.6630      0.0000    300.2157     35.9117
   387.1000     88.6630      0.0000    300.2157     35.9117
   387.2000     88.6630      0.0000    300.2157     35.9117
   387.3000     90.6807      0.0000    300.0298     36.1024
   387.4000     90.6807      0.0000    300.0298     36.1024
   387.5000     92.1662      0.0000    299.8496     36.4641
   387.6000     92.1662      0.0000    299.8496     36.4641
   387.7000     92.1662      0.0000    299.8496     36.4641
   387.8000     93.1414      0.0000    299.7014     36.9808
   387.9000     93.1414      0.0000    299.7014     36.9808
   388.0000     94.0650      0.0000    299.6058     37.5828
   388.1000     94.0650      0.0000    299.6058     37.5828
   388.2000     94.0650      0.0000    299.6058     37.5828
   388.3000     95.3155      0.0000    299.5386     38.1739
   388.4000     95.3155      0.0000    299.5386     38.1739
   388.5000     96.6483      0.0000    299.3433     38.6611
   388.6000     96.6483      0.0000    299.3433     38.6611
   388.7000     96.6483      0.0000    299.3433     38.6611
   388.8000     97.2550      0.0000    298.6181     38.9872
   388.9000     97.2550      0.0000    298.6181     38.9872
   389.0000     96.5590      0.0000    296.7617     39.1497
   389.1000     96.5590      0.0000    296.7617     39.1497
   389.2000     96.5590      0.0000    296.7617     39.1497
   389.3000     94.7638      0.0000    293.4555     39.1807
   389.4000     94.7638      0.0000    293.4555     39.1807
   389.5000     92.3746      0.0000    289.4184     39.0937
   389.6000     92.3746      0.0000    289.4184     39.0937
   389.7000     92.3746      0.0000    289.4184     39.0937
   389.8000     89.5532      0.0000    286.4941     38.8512
   389.9000     89.5532      0.0000    286.4941     38.8512
   390.0000     86.4973      0.0000    286.4008     38.4059
   390.1000     86.4973      0.0000    286.4008     38.4059
   390.2000     86.4973      0.0000    286.4008     38.4059
   390.3000     84.1488      0.0000    289.1893     37.7792
   390.4000     84.1488      0.0000    289.1893     37.7792
   390.5000     83.8017      0.0000    293.2231     37.0815
   390.6000     83.8017      0.0000    293.2231     37.0815
   390.7000     83.8017      0.0000    293.2231     37.0815
   390.8000     85.9292      0.0000    296.6873     36.4386
   390.9000     85.9292      0.0000    296.6873     36.4386
   391.0000     89.7335      0.0000    298.8299     35.9106
   391.1000     89.7335      0.0000    298.8299     35.9106
   391.2000     89.7335      0.0000    298.8299     35.9106
   391.3000     93.7811      0.0000    299.8987     35.4821
   391.4000     93.7811      0.0000    299.8987     35.4821
   391.5000     96.8680      0.0000    300.4264     35.1049
   391.6000     96.8680      0.0000    300.4264     35.1049
