~Version Information
VERS.                      2.0: CWLS Log ASCII Standard - VERSION 2.0
WRAP.                       NO: One line per depth step
~Well Information Block
STRT.FT               250.0000: 
STOP.FT              1573.7500: 
STEP.FT                 0.2500: 
NULL.                -999.2500: 
COMP.          Pioneer Natural Resources: COMPANY
WELL.          Big Cat Federal 44-1: WELL
FLD.           Purgatoire River: FIELD
LOC.           197' FSL & 973' FEL--: LOCATION
CNTY.               Las Animas: COUNTY
SRVC.                Patterson: SERVICE COMPANY
DATE.          Sun Apr 23 14:54:11 2006: LOG DATE
UWI.           05 071 08042 00: UNIQUE WELL ID
STAT.                 Colorado: STATE
~Curve Information Block
DEPT.FT            0 000 00 00: Depth
DIR.Ohm-m                     : IEL Induction Resistivity
GR.GAPI                       : Gamma Ray
~Parameter Information Block
~A  Depth       DIR          GR     
# ...
   919.0000      9.7130    156.3394
   919.2500      9.7431    154.7715
   919.5000      9.8134    152.4821
   919.7500      9.9419    151.1719
   920.0000     10.1422    148.9142
   920.2500     10.4225    146.4187
   920.5000     10.7859    140.2355
   920.7500     11.2318    134.5588
   921.0000     11.7560    124.5502
   921.2500     12.3530    117.4289
   921.5000     13.0178    106.8259
   921.7500     13.7474    100.1680
   922.0000     14.5374     91.3921
   922.2500     15.3761     86.6632
   922.5000     16.2396     81.4537
   922.7500     17.0945     79.0999
   923.0000     17.9036     76.9385
   923.2500     18.6287     76.4766
   923.5000     19.2306     77.8907
   923.7500     19.6717     80.5754
   924.0000     19.9248     86.8166
   924.2500     19.9831     91.5387
   924.5000     19.8620     97.7888
   924.7500     19.5930    101.1784
   925.0000     19.2143    106.3412
   925.2500     18.7650    110.7881
   925.5000     18.2825    119.2770
   925.7500     17.8015    125.2311
   926.0000     17.3505    132.0763
   926.2500     16.9507    134.1439
   926.5000     16.6167    133.5673
   926.7500     16.3618    131.8948
   927.0000     16.2011    129.8648
   927.2500     16.1505    129.5019
   927.5000     16.2218    129.7984
   927.7500     16.4162    129.6556
   928.0000     16.7203    127.6713
   928.2500     17.1064    124.8096
   928.5000     17.5392    118.2589
   928.7500     17.9869    112.8734
   929.0000     18.4307    104.6422
   929.2500     18.8653     99.6907
   929.5000     19.2910     93.2988
   929.7500     19.6994     89.5671
   930.0000     20.0643     84.6704
   930.2500     20.3394     82.1150
   930.5000     20.4693     80.0885
   930.7500     20.4084     80.2225
   931.0000     20.1373     82.3341
   931.2500     19.6684     84.5797
   931.5000     19.0378     89.0649
   931.7500     18.2928     93.2061
   932.0000     17.4797    101.6482
   932.2500     16.6352    108.3952
   932.5000     15.7841    118.7308
   932.7500     14.9427    125.0570
   933.0000     14.1264    133.3134
   933.2500     13.3535    138.0346
   933.5000     12.6452    143.9504
   933.7500     12.0226    147.0324
   934.0000     11.5007    150.0888
   934.2500     11.0848    150.9017
   934.5000     10.7688    150.3063
   934.7500     10.5378    148.9760
   935.0000     10.3724    146.1381
   935.2500     10.2555    143.9773
   935.5000     10.1775    141.1510
   935.7500     10.1387    140.1738
   936.0000     10.1470    140.5285
   936.2500     10.2136    141.5377
   936.5000     10.3471    142.6466
   936.7500     10.5498    142.2908
   937.0000     10.8154    139.6960
   937.2500     11.1292    136.9792
   937.5000     11.4716    132.5160
   937.7500     11.8229    129.7707
   938.0000     12.1679    126.5242
   938.2500     12.4956    125.2563
   938.5000     12.7956    125.1807
   938.7500     13.0558    126.2748
   939.0000     13.2651    128.7742
   939.2500     13.4175    130.5197
   939.5000     13.5169    133.1232
   939.7500     13.5776    134.9553
   940.0000     13.6217    137.5615
   940.2500     13.6747    138.8038
   940.5000     13.7597    139.4816
   940.7500     13.8942    139.1432
   941.0000     14.0904    137.5875
   941.2500     14.3567    135.8149
   941.5000     14.6978    131.6216
   941.7500     15.1089    127.4296
   942.0000     15.5717    118.9548
   942.2500     16.0551    112.6097
   942.5000     16.5267    104.5871
   942.7500     16.9676    101.6007
   943.0000     17.3794    101.3746
   943.2500     17.7742    103.5027
   943.5000     18.1563    108.3503
   943.7500     18.5111    111.5427
   944.0000     18.8088    114.4910
   944.2500     19.0214    114.6112
   944.5000     19.1382    112.3174
   944.7500     19.1712    110.0209
   945.0000     19.1489    106.9374
   945.2500     19.1069    105.3879
   945.5000     19.0777    103.5413
   945.7500     19.0837    102.6980
   946.0000     19.1328    102.7289
   946.2500     19.2187    103.7696
   946.5000     19.3236    105.8460
   946.7500     19.4252    106.4930
   947.0000     19.5045    105.0217
   947.2500     19.5513    102.5969
   947.5000     19.5628     98.6902
   947.7500     19.5365     97.0086
   948.0000     19.4635     96.1049
   948.2500     19.3326     96.0344
   948.5000     19.1397     96.6017
   948.7500     18.8974     98.1686
   949.0000     18.6300    103.1892
   949.2500     18.3595    107.6633
   949.5000     18.0911    113.6518
   949.7500     17.8113    116.2055
   950.0000     17.4997    118.0956
   950.2500     17.1442    118.8446
   950.5000     16.7501    120.3668
   950.7500     16.3355    121.8446
   951.0000     15.9215    124.3152
   951.2500     15.5235    125.7141
   951.5000     15.1478    126.9257
   951.7500     14.7935    127.0624
   952.0000     14.4563    126.6132
   952.2500     14.1353    126.3184
   952.5000     13.8351    126.5005
   952.7500     13.5640    127.0636
   953.0000     13.3286    128.3291
   953.2500     13.1299    129.3993
   953.5000     12.9629    131.2079
   953.7500     12.8180    132.1924
   954.0000     12.6850    132.4797
   954.2500     12.5558    131.7259
   954.5000     12.4277    130.1147
   954.7500     12.3053    129.6876
   955.0000     12.2001    131.0269
   955.2500     12.1266    132.9278
   955.5000     12.0969    135.7498
   955.7500     12.1162    136.9663
   956.0000     12.1815    137.9103
   956.2500     12.2824    138.3121
   956.5000     12.4060    138.5381
   956.7500     12.5408    138.0476
   957.0000     12.6817    136.0715
   957.2500     12.8293    134.3528
   957.5000     12.9873    132.3331
   957.7500     13.1559    131.6186
   958.0000     13.3294    130.7837
   958.2500     13.4984    129.7431
   958.5000     13.6571    126.9978
   958.7500     13.8096    124.6207
   959.0000     13.9692    121.0619
   959.2500     14.1519    119.1373
   959.5000     14.3701    117.3196
   959.7500     14.6309    116.7297
   960.0000     14.9389    115.8141
   960.2500     15.3011    114.2026
   960.5000     15.7294    108.8602
   960.7500     16.2415    103.3973
   961.0000     16.8584     94.3296
   961.2500     17.5996     89.3239
   961.5000     18.4787     85.0359
   961.7500     19.4959     84.0542
   962.0000     20.6293     83.4664
   962.2500     21.8294     82.5986
   962.5000     23.0250     80.0072
   962.7500     24.1420     77.7335
   963.0000     25.1234     74.3788
   963.2500     25.9364     72.6145
   963.5000     26.5683     71.1524
   963.7500     27.0225     71.0029
   964.0000     27.3174     71.5265
   964.2500     27.4840     71.8721
   964.5000     27.5618     71.6302
   964.7500     27.5913     70.8201
   965.0000     27.6063     69.0129
   965.2500     27.6264     67.8178
   965.5000     27.6591     66.5639
   965.7500     27.7083     66.1751
   966.0000     27.7796     66.0689
   966.2500     27.8709     66.0807
   966.5000     27.9582     65.9897
   966.7500     27.9954     66.0458
   967.0000     27.9347     66.9629
   967.2500     27.7512     68.2785
   967.5000     27.4517     70.7737
   967.7500     27.0648     72.2828
   968.0000     26.6243     73.8801
   968.2500     26.1589     74.6018
   968.5000     25.6902     75.5178
   968.7500     25.2359     76.0990
   969.0000     24.8138     76.9552
   969.2500     24.4408     77.5494
   969.5000     24.1276     78.2985
   969.7500     23.8736     78.3848
   970.0000     23.6674     77.5546
   970.2500     23.4925     76.6140
   970.5000     23.3299     75.5757
   970.7500     23.1572     75.6122
   971.0000     22.9456     77.1879
   971.2500     22.6632     79.3615
   971.5000     22.2880     84.2361
   971.7500     21.8200     88.2511
   972.0000     21.2840     94.5117
   972.2500     20.7185     98.3933
   972.5000     20.1596    103.6721
   972.7500     19.6299    107.1119
   973.0000     19.1384    112.5073
   973.2500     18.6874    116.0548
   973.5000     18.2804    120.3451
   973.7500     17.9229    121.9929
   974.0000     17.6166    122.4463
   974.2500     17.3536    121.7323
   974.5000     17.1179    120.0400
