~Version Information
VERS.                      2.0: CWLS Log ASCII Standard - VERSION 2.0
WRAP.                       NO: One line per depth step
~Well Information Block
STRT.FT               840.0000: 
STOP.FT              2450.0000: 
STEP.FT                 0.1000: 
NULL.                -999.2500: 
COMP.          Petrogulf Corporation: COMPANY
WELL.             Leier 17-42V: WELL
FLD.           Purgatorie River: FIELD
LOC.           2309' FNL & 1062' FEL SENE 17 33S 67W: LOCATION
PROV.                 Colorado: PROVINCE
CNTY.               Las Animas: COUNTRY
SRVC.                Patterson: SERVICE COMPANY
DATE.          Thu Sep 22 09:35:36 2005: LOG DATE
UWI.           071 08409 : UNIQUE WELL ID
~Curve Information Block
DEPT.FT            0 000 00 00: Depth
DCAL.in                       : CDL Caliper
RHOB.g/cc                     : CDL Bulk Density
RHOC.g/cc                     : CDL Density Correction
DPOR.pu                       : CDL Density Porosity
GR.GAPI                       : Gamma Ray
NPOR.pu                       : Neutron Porosity
~Parameter Information Block
~A  Depth       DCAL        RHOB        RHOC        DPOR         GR         NPOR    
# ...
  2222.4000      7.9019      2.5067      0.0692      8.6869    103.1225     28.3573
  2222.5000      7.9156      2.5024      0.0619      8.9484    103.1743     28.8544
  2222.6000      7.9156      2.4990      0.0579      9.1488    105.7012     29.2771
  2222.7000      7.9156      2.4883      0.0772      9.7987    104.6718     29.6147
  2222.8000      7.9356      2.4713      0.0206     10.8290    101.4382     29.9978
  2222.9000      7.9356      2.4680     -0.0151     11.0289    103.6689     30.3474
  2223.0000      7.9318      2.4860      0.0378      9.9386    110.7079     30.4332
  2223.1000      7.9318      2.5047      0.0346      8.8044    113.8674     30.3218
  2223.2000      7.9318      2.5121      0.0520      8.3563    111.6305     30.2522
  2223.3000      7.9275      2.5185      0.0252      7.9716    108.5853     30.2260
  2223.4000      7.9275      2.5301      0.0865      7.2692    103.6810     30.0073
  2223.5000      7.9107      2.5395      0.0869      6.6996     94.9497     29.6832
  2223.6000      7.9107      2.5395      0.0934      6.6970     87.9572     29.6110
  2223.7000      7.9107      2.5288      0.0182      7.3478     87.5237     29.7787
  2223.8000      7.8639      2.5100      0.0484      8.4832     90.6293     29.9298
  2223.9000      7.8639      2.4884      0.0027      9.7918     94.1927     29.8652
  2224.0000      7.8589      2.4695      0.0554     10.9381     97.3436     29.6756
  2224.1000      7.8589      2.4559      0.0115     11.7636     98.5055     29.6543
  2224.2000      7.8589      2.4561     -0.0242     11.7537     97.5081     29.7402
  2224.3000      7.8587      2.4785      0.0034     10.3938     96.2817     29.6136
  2224.4000      7.8587      2.5116      0.0523      8.3879     95.3767     29.2983
  2224.5000      7.8514      2.5265      0.0878      7.4846     94.7990     28.9625
  2224.6000      7.8514      2.5073      0.0507      8.6469     94.4977     28.7585
  2224.7000      7.8514      2.4735      0.0065     10.6991     94.3961     28.9028
  2224.8000      7.8716      2.4471      0.0097     12.2997     94.6357     29.3124
  2224.9000      7.8716      2.4151      0.0344     14.2393     94.7869     29.5284
  2225.0000      7.8696      2.3578      0.0175     17.7061     96.5700     29.2836
  2225.1000      7.8696      2.2898     -0.0364     21.8316    100.4551     28.9684
  2225.2000      7.8696      2.2413     -0.0543     24.7691    102.7091     29.0375
  2225.3000      7.8482      2.2212     -0.0128     25.9868    103.7283     29.3355
  2225.4000      7.8482      2.2231     -0.0093     25.8711    108.2885     29.5715
  2225.5000      7.9012      2.2488     -0.0022     24.3181    115.2827     29.9515
  2225.6000      7.9012      2.3013      0.0827     21.1306    118.3482     30.5593
  2225.7000      7.9012      2.3633      0.2624     17.3745    116.4466     30.9736
  2225.8000      7.8986      2.4053      0.3107     14.8314    114.4129     31.0475
  2225.9000      7.8986      2.4219      0.2710     13.8247    116.1056     30.9855
  2226.0000      7.8247      2.4303      0.2599     13.3156    119.7269     30.7737
  2226.1000      7.8247      2.4359      0.2433     12.9753    122.1057     30.3823
  2226.2000      7.8247      2.4322      0.1891     13.1982    123.3039     30.1210
  2226.3000      7.8362      2.4228      0.1322     13.7692    121.0756     30.2540
  2226.4000      7.8362      2.4225      0.0938     13.7861    113.7505     30.6094
  2226.5000      7.9144      2.4410      0.1100     12.6646    105.7645     30.6879
  2226.6000      7.9144      2.4654      0.1251     11.1904    102.5243     30.2594
  2226.7000      7.9144      2.4791      0.1259     10.3569    103.7176     29.7608
  2226.8000      7.9251      2.4907      0.0877      9.6556    103.6596     29.5489
  2226.9000      7.9251      2.5124      0.0916      8.3365    100.1305     29.2234
  2227.0000      7.9204      2.5311      0.0888      7.2069     95.1409     28.5996
  2227.1000      7.9204      2.5366      0.0705      6.8737     89.6834     28.1990
  2227.2000      7.9204      2.5439      0.0739      6.4285     83.9463     28.0939
  2227.3000      7.9184      2.5607      0.0593      5.4109     78.6217     27.7484
  2227.4000      7.9184      2.5759      0.0453      4.4923     75.1932     27.1305
  2227.5000      7.8930      2.5834      0.0456      4.0389     73.2007     26.6053
  2227.6000      7.8930      2.5864      0.0324      3.8517     70.5740     26.2835
  2227.7000      7.8930      2.5866      0.0535      3.8447     68.1911     26.1134
  2227.8000      7.8827      2.5881      0.0428      3.7515     68.3699     26.1156
  2227.9000      7.8827      2.5981      0.0876      3.1439     71.0821     26.1793
  2228.0000      7.8759      2.6132      0.0848      2.2292     73.9550     26.2260
  2228.1000      7.8759      2.6199      0.1093      1.8273     75.9164     26.1659
  2228.2000      7.8759      2.6088      0.0749      2.4963     76.4826     25.8378
  2228.3000      7.8686      2.5825      0.0592      4.0925     75.6880     25.5601
  2228.4000      7.8686      2.5500      0.0179      6.0617     76.2194     25.5805
  2228.5000      7.8681      2.5235      0.0117      7.6692     79.5028     25.6692
  2228.6000      7.8681      2.5119      0.0073      8.3697     83.2322     25.4579
  2228.7000      7.8681      2.5105      0.0406      8.4564     85.6402     24.9661
  2228.8000      7.8940      2.5101      0.0344      8.4795     86.8482     24.7193
  2228.9000      7.8940      2.5222     -0.0153      7.7477     86.9022     24.8365
  2229.0000      7.9016      2.5520      0.0937      5.9367     85.9086     24.8425
  2229.1000      7.9016      2.5716      0.0914      4.7542     84.2277     24.6157
  2229.2000      7.9016      2.5604      0.0546      5.4318     81.9111     24.5211
  2229.3000      7.9091      2.5287      0.0452      7.3491     80.3018     24.7574
  2229.4000      7.9091      2.5034     -0.0029      8.8866     81.8870     25.1598
  2229.5000      7.9097      2.5033      0.0235      8.8888     84.9038     25.4984
  2229.6000      7.9097      2.5149      0.0531      8.1884     86.0466     25.5574
  2229.7000      7.9097      2.5179      0.0324      8.0062     86.1963     25.2651
  2229.8000      7.9149      2.5141      0.0055      8.2352     86.1086     24.7570
  2229.9000      7.9149      2.5097      0.0292      8.5055     84.6840     24.2652
  2230.0000      7.9137      2.5071      0.0314      8.6588     83.7567     23.9067
  2230.1000      7.9137      2.5078      0.0363      8.6180     85.4514     23.7314
  2230.2000      7.9137      2.5073      0.0841      8.6469     87.2980     23.9939
  2230.3000      7.8939      2.5105      0.0126      8.4520     86.9651     24.5860
  2230.4000      7.8939      2.5337      0.0630      7.0515     86.6674     24.8469
  2230.5000      7.9042      2.5719      0.0855      4.7331     88.2580     24.6575
  2230.6000      7.9042      2.5982      0.1607      3.1393     90.1978     24.6400
  2230.7000      7.9042      2.5940      0.1482      3.3960     91.1807     24.8922
  2230.8000      7.9035      2.5697      0.0606      4.8639     91.0499     25.0252
  2230.9000      7.9035      2.5493      0.0550      6.1041     90.6133     25.0270
  2231.0000      7.9001      2.5383      0.0816      6.7691     90.6619     25.1091
  2231.1000      7.9001      2.5338      0.0299      7.0451     91.1944     25.2313
  2231.2000      7.9001      2.5423      0.0378      6.5282     91.9109     25.2456
  2231.3000      7.9004      2.5613      0.1111      5.3760     92.1827     25.2073
  2231.4000      7.9004      2.5717      0.0876      4.7449     91.9871     25.1500
  2231.5000      7.9046      2.5726      0.0718      4.6892     91.4049     24.8298
  2231.6000      7.9046      2.5890      0.0625      3.6994     90.2464     24.2774
  2231.7000      7.9046      2.6267      0.1257      1.4137     88.4103     23.9535
  2231.8000      7.8927      2.6557      0.1986     -0.3462     84.5791     24.1237
  2231.9000      7.8927      2.6585      0.1486     -0.5162     79.4134     24.3552
