~Version Information
VERS.                      2.0: CWLS Log ASCII Standard - VERSION 2.0
WRAP.                       NO: One line per depth step
~Well Information Block
STRT.FT                -4.0000: 
STOP.FT              2464.0000: 
STEP.FT                 0.2500: 
NULL.                -999.2500: 
COMP.          Pioneer Natural Resources: COMPANY
WELL.            Rancher 12-35: WELL
FLD.           Purgatorie River: FIELD
LOC.           2131' FNL & 297' FWL--: LOCATION
PROV.                       CO: PROVINCE
CNTY.               Las Animas: COUNTRY
SRVC.                         : SERVICE COMPANY
DATE.          Wed Oct 20 13:17:53 2004: LOG DATE
UWI.                          : UNIQUE WELL ID
~Curve Information Block
DEPT.FT            0 000 00 00: Depth
GR.GAPI                       : Gamma Ray
CCL.                          : Casing Collar Locator
TT3.usec                      : CBL 3' Travel Time
AMP3.mV                       : CBL 3' Amplitude
~Parameter Information Block
~A  Depth        GR         CCL         TT3         AMP3    
# ...
  2106.5000     56.2538      0.0000    681.8042     18.9459
  2106.7500     57.7397      0.0000    690.1761     18.4865
  2107.0000     61.2087      0.0000    695.1826     17.9590
  2107.2500     65.8534      0.0000    697.3170     17.5249
  2107.5000     70.2840      0.0000    698.4220     17.3056
  2107.7500     72.8015      0.0000    699.8522     17.3560
  2108.0000     72.1352      0.0000    701.9875     17.6704
  2108.2500     68.4879      0.0000    704.3250     18.1994
  2108.5000     63.6002      0.0000    705.7377     18.8664
  2108.7500     59.3187      0.0000    704.7321     19.5984
  2109.0000     56.1958      0.0000    699.7280     20.3637
  2109.2500     53.5595      0.0000    690.3065     21.1829
  2109.5000     50.5820      0.0000    679.3352     22.0968
  2109.7500     47.1188      0.0000    672.2943     23.1192
  2110.0000     43.7467      0.0000    671.4477     24.2184
  2110.2500     41.1577      0.0000    670.0541     25.3400
  2110.5000     39.5879      0.0000    654.4809     26.4318
  2110.7500     38.8591      0.0000    614.3421     27.4403
  2111.0000     38.7302      0.0000    553.0953     28.3019
  2111.2500     39.0438      0.0000    489.0710     28.9742
  2111.5000     39.7625      0.0000    442.2971     29.4809
  2111.7500     41.0007      0.0000    417.3147     29.8909
  2112.0000     42.7934      0.0000    401.2201     30.2230
  2112.2500     44.7889      0.0000    380.0144     30.3901
  2112.5000     46.3987      0.0000    353.2534     30.2592
  2112.7500     47.2706      0.0000    331.7172     29.7564
  2113.0000     47.4913      0.0000    327.1731     28.8957
  2113.2500     47.3288      0.0000    347.9868     27.7343
  2113.5000     46.9077      0.0000    398.5659     26.3515
  2113.7500     46.2420      0.0000    475.1071     24.8851
  2114.0000     45.5492      0.0000    561.8301     23.5500
  2114.2500     45.3737      0.0000    637.0643     22.5745
  2114.5000     46.3353      0.0000    686.4445     22.0905
  2114.7500     48.6833      0.0000    709.8771     22.0799
  2115.0000     51.9067      0.0000    716.4318     22.4211
  2115.2500     54.9148      0.0000    713.9297     22.9886
  2115.5000     56.9862      0.0000    702.2159     23.7211
  2115.7500     58.5074      0.0000    673.8036     24.6227
  2116.0000     60.4041      0.0000    621.0958     25.7256
  2116.2500     62.9220      0.0000    545.6569     27.0481
  2116.5000     65.2826      0.0000    461.6834     28.5601
  2116.7500     66.5194      0.0000    388.6208     30.1665
  2117.0000     66.4853      0.0000    338.8652     31.7319
  2117.2500     65.8976      0.0000    312.3338     33.1339
  2117.5000     65.3152      0.0000    301.2220     34.3050
  2117.7500     64.3609      0.0000    297.5060     35.2480
  2118.0000     62.4434      0.0000    296.4327     36.0254
  2118.2500     59.9883      0.0000    296.0655     36.7143
  2118.5000     58.1991      0.0000    295.7937     37.3430
  2118.7500     57.6483      0.0000    295.3389     37.8811
  2119.0000     57.7751      0.0000    294.2544     38.3021
  2119.2500     57.7698      0.0000    291.7972     38.6397
  2119.5000     57.3875      0.0000    287.2318     38.9676
  2119.7500     56.9300      0.0000    280.5619     39.3379
  2120.0000     57.0395      0.0000    272.9763     39.7496
  2120.2500     58.6019      0.0000    266.3149     40.1538
  2120.5000     62.0382      0.0000    261.9835     40.4683
  2120.7500     66.2592      0.0000    260.4959     40.5935
  2121.0000     69.0057      0.0000    261.9430     40.4369
  2121.2500     68.8855      0.0000    266.4146     39.9535
  2121.5000     66.7195      0.0000    274.0446     39.1879
  2121.7500     64.5116      0.0000    285.3509     38.2841
  2122.0000     63.5028      0.0000    302.6255     37.4199
  2122.2500     63.4772      0.0000    330.1720     36.6903
  2122.5000     63.6165      0.0000    370.4043     35.9983
  2122.7500     63.7211      0.0000    417.9935     35.0304
  2123.0000     64.6202      0.0000    460.1143     33.4245
  2123.2500     67.3630      0.0000    484.7248     31.1323
  2123.5000     71.9283      0.0000    487.2446     28.6431
  2123.7500     76.8230      0.0000    469.2531     26.7091
  2124.0000     80.0583      0.0000    435.4590     25.7938
  2124.2500     80.5525      0.0000    394.0170     25.8351
  2124.5000     78.7213      0.0000    355.4966     26.4842
  2124.7500     75.8983      0.0000    327.6518     27.4593
  2125.0000     73.2217      0.0000    311.4005     28.7319
  2125.2500     71.0743      0.0000    302.3957     30.4962
  2125.5000     69.6069      0.0000    295.6525     32.9129
  2125.7500     69.3480      0.0000    288.6701     35.7851
  2126.0000     70.6366      0.0000    281.6252     38.5855
  2126.2500     72.5482      0.0000    275.4914     40.9230
  2126.5000     73.1013      0.0000    270.4606     42.8416
  2126.7500     70.8487      0.0000    266.0619     44.5303
  2127.0000     66.2178      0.0000    262.1863     45.9374
  2127.2500     61.3645      0.0000    259.2382     46.8486
  2127.5000     58.7181      0.0000    257.4786     47.2018
  2127.7500     59.3459      0.0000    256.6943     47.1627
  2128.0000     62.4262      0.0000    256.4619     46.9429
  2128.2500     66.1439      0.0000    256.4696     46.6296
  2128.5000     69.0080      0.0000    256.6194     46.1840
  2128.7500     70.4896      0.0000    257.0439     45.5502
  2129.0000     70.7493      0.0000    258.1762     44.7162
  2129.2500     69.9352      0.0000    260.7519     43.6762
  2129.5000     68.0790      0.0000    265.4631     42.4058
  2129.7500     65.8840      0.0000    272.2550     40.9174
  2130.0000     64.8905      0.0000    279.9315     39.3123
  2130.2500     65.9906      0.0000    286.7415     37.7462
  2130.5000     68.2302      0.0000    291.5571     36.3402
  2130.7500     69.8750      0.0000    294.4723     35.1221
  2131.0000     70.2760      0.0000    296.6873     34.0428
  2131.2500     70.0207      0.0000    300.4005     33.0484
  2131.5000     69.7498      0.0000    309.0476     32.1356
  2131.7500     69.8438      0.0000    326.2114     31.3347
  2132.0000     71.1673      0.0000    351.4372     30.6697
  2132.2500     74.9874      0.0000    376.0362     30.1639
  2132.5000     81.5831      0.0000    386.5319     29.8463
  2132.7500     89.4870      0.0000    376.1622     29.6944
  2133.0000     96.7454      0.0000    351.7441     29.5926
  2133.2500    102.6632      0.0000    326.9310     29.3934
  2133.5000    107.7301      0.0000    311.0914     29.0057
  2133.7500    112.0231      0.0000    306.8535     28.4087
  2134.0000    114.4613      0.0000    315.9348     27.6173
  2134.2500    113.9421      0.0000    343.7582     26.6616
  2134.5000    110.7100      0.0000    396.4173     25.5810
  2134.7500    106.1589      0.0000    471.5636     24.4288
  2135.0000    101.4822      0.0000    552.8885     23.2964
  2135.2500     96.9456      0.0000    616.7658     22.3279
  2135.5000     92.4215      0.0000    645.7441     21.6845
  2135.7500     88.1243      0.0000    634.8473     21.4787
  2136.0000     84.5678      0.0000    588.5209     21.7235
  2136.2500     82.0746      0.0000    517.9514     22.3106
  2136.5000     80.7408      0.0000    440.7110     23.0304
  2136.7500     80.7963      0.0000    375.4088     23.6504
  2137.0000     82.4117      0.0000    332.3793     24.0172
  2137.2500     84.9607      0.0000    310.3262     24.1166
  2137.5000     87.0566      0.0000    301.6052     24.0634
  2137.7500     87.7351      0.0000    298.9788     24.0315
  2138.0000     87.3145      0.0000    298.3573     24.1650
  2138.2500     86.7496      0.0000    298.1546     24.5145
  2138.5000     86.1968      0.0000    297.9634     25.0288
  2138.7500     84.5142      0.0000    297.7286     25.5914
  2139.0000     80.5126      0.0000    297.4635     26.0758
  2139.2500     74.7666      0.0000    297.2024     26.3877
  2139.5000     69.6950      0.0000    297.0092     26.4730
  2139.7500     67.4695      0.0000    297.0246     26.2977
