~Version Information
VERS.                      2.0: CWLS Log ASCII Standard - VERSION 2.0
WRAP.                       NO: One line per depth step
~Well Information Block
STRT.FT               395.0000: 
STOP.FT              1998.0000: 
STEP.FT                 0.2500: 
NULL.                -999.2500: 
COMP.          Pioneer Natural Resources: COMPANY
WELL.          Easton 12-30 Tr: WELL
FLD.           Purgatoire River: FIELD
LOC.           549' FWL & 2416' FNL--: LOCATION
PROV.                 Colorado: PROVINCE
CNTY.               Las Animas: COUNTRY
SRVC.                Patterson: SERVICE COMPANY
DATE.          Wed Jun 01 17:36:02 2005: LOG DATE
UWI.           05 071 08379 00: UNIQUE WELL ID
~Curve Information Block
DEPT.FT            0 000 00 00: Depth
SN.Ohm-m                      : IEL Short Normal
SP.mV                         : IEL Spontaneous Potential
DIR.Ohm-m                     : IEL Induction Resistivity
GR.GAPI                       : Gamma Ray
~Parameter Information Block
~A  Depth        SN          SP         DIR          GR     
# ...
  1869.0000     10.1312     28.7835      7.2064    145.3717
  1869.2500      9.9343     29.6372      7.1323    146.0745
  1869.5000      9.7647     30.6832      7.0773    147.9457
  1869.7500      9.6267     31.8237      7.0403    149.7208
  1870.0000      9.5010     32.8899      7.0173    152.8755
  1870.2500      9.3767     33.7209      7.0020    154.7885
  1870.5000      9.2667     34.2374      6.9879    156.1973
  1870.7500      9.1906     34.4566      6.9704    155.7529
  1871.0000      9.1547     34.4529      6.9484    153.2476
  1871.2500      9.1430     34.3143      6.9237    150.9983
  1871.5000      9.1201     34.1169      6.9001    148.1720
  1871.7500      9.0656     33.9168      6.8816    147.1826
  1872.0000      9.0020     33.7483      6.8719    146.9191
  1872.2500      8.9674     33.6208      6.8740    147.1497
  1872.5000      8.9725     33.5188      6.8904    147.8734
  1872.7500      9.0056     33.4119      6.9220    148.9006
  1873.0000      9.0531     33.2765      6.9668    151.6686
  1873.2500      9.1029     33.1133      7.0201    154.0252
  1873.5000      9.1405     32.9440      7.0750    156.9353
  1873.7500      9.1528     32.7954      7.1250    157.6111
  1874.0000      9.1371     32.6849      7.1667    156.0732
  1874.2500      9.1073     32.6125      7.2008    153.5359
  1874.5000      9.0912     32.5610      7.2319    148.2377
  1874.7500      9.1179     32.5050      7.2649    144.1802
  1875.0000      9.2035     32.4267      7.3034    138.4259
  1875.2500      9.3369     32.3255      7.3476    135.7568
  1875.5000      9.4757     32.2151      7.3958    134.7627
  1875.7500      9.5748     32.1124      7.4449    135.9686
  1876.0000      9.6217     32.0258      7.4910    138.7107
  1876.2500      9.6328     31.9481      7.5301    139.8107
  1876.5000      9.6244     31.8616      7.5575    139.3427
  1876.7500      9.6022     31.7570      7.5702    138.1949
  1877.0000      9.5661     31.6473      7.5678    137.4018
  1877.2500      9.5198     31.5602      7.5529    138.5035
  1877.5000      9.4705     31.5159      7.5303    142.5501
  1877.7500      9.4219     31.5160      7.5047    145.7911
  1878.0000      9.3767     31.5463      7.4805    149.2319
  1878.2500      9.3434     31.5865      7.4608    149.8878
  1878.5000      9.3369     31.6201      7.4472    148.9847
  1878.7500      9.3687     31.6444      7.4391    148.2521
  1879.0000      9.4264     31.6714      7.4340    148.9899
  1879.2500      9.4677     31.7149      7.4284    151.1600
  1879.5000      9.4455     31.7726      7.4199    155.8170
  1879.7500      9.3233     31.8246      7.4090    158.5342
  1880.0000      9.0653     31.8473      7.3991    160.2118
  1880.2500      8.6642     31.8320      7.3954    159.4176
  1880.5000      8.2077     31.7944      7.4034    155.7738
  1880.7500      7.8704     31.7668      7.4276    152.1685
  1881.0000      7.8058     31.7772      7.4711    146.1315
  1881.2500      8.0769     31.8326      7.5346    142.6191
  1881.5000      8.6393     31.9224      7.6163    139.5555
  1881.7500      9.3031     32.0331      7.7112    139.1956
  1882.0000      9.8025     32.1567      7.8110    140.2804
  1882.2500     10.0155     32.2880      7.9046    141.2914
  1882.5000     10.0504     32.4278      7.9816    142.4793
  1882.7500     10.0924     32.5874      8.0367    143.0989
  1883.0000     10.2596     32.7809      8.0718    143.9724
  1883.2500     10.5752     33.0070      8.0950    144.2799
  1883.5000     10.9664     33.2425      8.1160    143.5488
  1883.7500     11.3109     33.4587      8.1419    142.1291
  1884.0000     11.5295     33.6400      8.1762    139.3145
  1884.2500     11.6183     33.7891      8.2201    137.5733
  1884.5000     11.6156     33.9184      8.2748    135.7038
  1884.7500     11.5663     34.0406      8.3411    135.1017
  1885.0000     11.4875     34.1621      8.4184    135.6896
  1885.2500     11.3611     34.2833      8.5029    137.2917
  1885.5000     11.1680     34.4061      8.5888    140.7038
  1885.7500     10.9171     34.5413      8.6711    142.6284
  1886.0000     10.6557     34.7035      8.7487    143.8145
  1886.2500     10.4702     34.8970      8.8249    143.6190
  1886.5000     10.4515     35.1110      8.9057    142.8739
  1886.7500     10.6385     35.3277      8.9972    142.5224
  1887.0000     10.9814     35.5326      9.1058    142.3587
  1887.2500     11.3308     35.7175      9.2397    142.4034
  1887.5000     11.4879     35.8820      9.4101    142.4391
  1887.7500     11.3649     36.0326      9.6304    142.1470
  1888.0000     11.1165     36.1757      9.9121    140.7211
  1888.2500     11.0565     36.3106     10.2619    139.2457
  1888.5000     11.4639     36.4311     10.6784    137.4711
  1888.7500     12.4740     36.5377     11.1536    137.3520
  1889.0000     14.0379     36.6499     11.6737    138.9630
  1889.2500     15.8952     36.8110     12.2221    140.4968
  1889.5000     17.6911     37.0773     12.7807    141.3977
  1889.7500     19.2483     37.4936     13.3321    139.9510
  1890.0000     20.6836     38.0612     13.8628    133.9874
  1890.2500     22.2499     38.7253     14.3685    127.9359
  1890.5000     24.0767     39.3943     14.8552    117.7049
  1890.7500     25.9936     39.9838     15.3328    111.5721
  1891.0000     27.6206     40.4527     15.8004    105.4203
  1891.2500     28.6348     40.8060     16.2315    103.6318
  1891.5000     28.9105     41.0675     16.5706    103.1828
  1891.7500     28.4767     41.2491     16.7501    103.2977
  1892.0000     27.4047     41.3486     16.7176    103.0016
  1892.2500     25.7696     41.3698     16.4613    102.4758
  1892.5000     23.7415     41.3400     16.0118    101.8345
  1892.7500     21.6133     41.3076     15.4245    102.0731
  1893.0000     19.6614     41.3225     14.7583    104.4306
  1893.2500     18.0449     41.4146     14.0615    107.7139
  1893.5000     16.7867     41.5802     13.3692    115.2542
  1893.7500     15.7772     41.7870     12.7036    121.6878
  1894.0000     14.8749     41.9969     12.0766    132.1793
  1894.2500     14.0287     42.1865     11.4921    138.6313
  1894.5000     13.2658     42.3490     10.9507    145.6607
  1894.7500     12.6035     42.4821     10.4530    148.1510
  1895.0000     12.0269     42.5781     10.0006    149.4171
  1895.2500     11.5172     42.6289      9.5958    149.5401
  1895.5000     11.0610     42.6341      9.2404    149.7307
  1895.7500     10.6622     42.6023      8.9347    150.0355
  1896.0000     10.3404     42.5448      8.6773    150.8634
  1896.2500     10.0989     42.4739      8.4642    151.7901
  1896.5000      9.9170     42.4031      8.2888    153.6798
  1896.7500      9.7856     42.3435      8.1420    154.8984
  1897.0000      9.7197     42.2990      8.0133    155.9061
  1897.2500      9.7182     42.2650      7.8924    155.9680
  1897.5000      9.7424     42.2377      7.7727    155.9014
  1897.7500      9.7502     42.2245      7.6536    156.2433
  1898.0000      9.7265     42.2457      7.5418    157.1696
  1898.2500      9.6714     42.3197      7.4490    157.3412
  1898.5000      9.5859     42.4425      7.3878    156.0566
  1898.7500      9.4801     42.5810      7.3679    154.6410
  1899.0000      9.3698     42.6924      7.3950    153.7169
  1899.2500      9.2670     42.7484      7.4712    154.7256
  1899.5000      9.1905     42.7406      7.5967    157.9730
  1899.7500      9.1666     42.6683      7.7703    159.8902
  1900.0000      9.2127     42.5297      7.9888    160.3203
  1900.2500      9.3427     42.3280      8.2472    158.9400
  1900.5000      9.5849     42.0782      8.5382    156.0154
  1900.7500      9.9776     41.8040      8.8546    154.2879
  1901.0000     10.5435     41.5272      9.1917    151.5323
  1901.2500     11.2671     41.2606      9.5509    148.5193
  1901.5000     12.1118     41.0105      9.9405    140.7219
  1901.7500     13.0566     40.7931     10.3752    133.2763
  1902.0000     14.1001     40.6491     10.8718    120.2723
  1902.2500     15.2467     40.6278     11.4472    111.9014
