~Version Information
VERS.                      2.0: CWLS Log ASCII Standard - VERSION 2.0
WRAP.                       NO: One line per depth step
~Well Information Block
STRT.FT                15.0000: 
STOP.FT              2409.7500: 
STEP.FT                 0.2500: 
NULL.                -999.2500: 
COMP.          Pioneer Natural Resources: COMPANY
WELL.          Oink Oink 14-36: WELL
FLD.           Purgatoire River: FIELD
LOC.           216' FSL & 263' FWL: LOCATION
PROV.                 Colorado: PROVINCE
CNTY.               Las Animas: COUNTRY
SRVC.                Patterson: SERVICE COMPANY
DATE.          Wed Jun 22 11:05:26 2005: LOG DATE
UWI.           05 071 08394 00: UNIQUE WELL ID
~Curve Information Block
DEPT.FT            0 000 00 00: Depth
GR.GAPI                       : Gamma Ray
CCL.                          : Casing Collar Locator
TT3.usec                      : CBL 3' Travel Time
AMP3.mV                       : CBL 3' Amplitude
~Parameter Information Block
~A  Depth        GR         CCL         TT3         AMP3    
# ...
  1723.5000    131.5938      0.0000    636.8574      3.1195
  1723.7500    135.8696      0.0000    633.3698      3.0816
  1724.0000    139.9423      0.0000    632.8997      3.0374
  1724.2500    142.6941      0.0000    633.5176      2.9836
  1724.5000    143.8233      0.0000    633.9995      2.9202
  1724.7500    143.8111      0.0000    634.0168      2.8519
  1725.0000    143.1788      0.0000    633.6860      2.7855
  1725.2500    142.1679      0.0000    633.2242      2.7248
  1725.5000    140.9721      0.0000    632.8403      2.6691
  1725.7500    139.9203      0.0000    632.6523      2.6172
  1726.0000    139.4861      0.0000    632.6183      2.5726
  1726.2500    140.1267      0.0000    632.6348      2.5415
  1726.5000    141.6832      0.0000    632.7664      2.5276
  1726.7500    142.8417      0.0000    633.4143      2.5309
  1727.0000    141.7367      0.0000    635.1777      2.5483
  1727.2500    137.4523      0.0000    638.2645      2.5752
  1727.5000    130.8188      0.0000    641.7818      2.6042
  1727.7500    123.8147      0.0000    643.8198      2.6292
  1728.0000    118.4252      0.0000    642.7972      2.6503
  1728.2500    115.7568      0.0000    638.9226      2.6738
  1728.5000    115.3185      0.0000    634.0911      2.7020
  1728.7500    114.9654      0.0000    630.3206      2.7241
  1729.0000    112.4168      0.0000    628.4680      2.7192
  1729.2500    107.3964      0.0000    628.1896      2.6772
  1729.5000    102.0303      0.0000    628.6777      2.6162
  1729.7500     99.1089      0.0000    629.4642      2.5736
  1730.0000    100.2367      0.0000    630.7157      2.5739
  1730.2500    105.2666      0.0000    632.5365      2.6109
  1730.5000    112.6724      0.0000    634.0380      2.6613
  1730.7500    120.2726      0.0000    633.9918      2.7066
  1731.0000    126.1924      0.0000    632.7617      2.7381
  1731.2500    129.6249      3.0000    632.4868      2.7522
  1731.5000    130.7107      3.0000    634.5468      2.7486
  1731.7500    129.7085      3.0000    637.6797      2.7317
  1732.0000    126.6341      0.0000    639.4188      2.7103
  1732.2500    121.9335      0.0000    638.6542      2.6927
  1732.5000    117.0816      0.0000    635.9913      2.6779
  1732.7500    113.9356      0.0000    632.4575      2.6567
  1733.0000    113.5230      0.0000    629.0710      2.6226
  1733.2500    115.7997      0.0000    627.2426      2.5825
  1733.5000    120.3076      0.0000    628.4011      2.5506
  1733.7500    126.4595      0.0000    632.9641      2.5369
  1734.0000    133.2307      0.0000    639.9373      2.5437
  1734.2500    139.1879      0.0000    647.3617      2.5681
  1734.5000    143.1030      0.0000    653.1701      2.6065
  1734.7500    144.5449      0.0000    656.1384      2.6570
  1735.0000    144.0491      0.0000    656.3504      2.7203
  1735.2500    142.6214      0.0000    654.7681      2.7978
  1735.5000    140.6809      0.0000    652.2142      2.8877
  1735.7500    137.4757      0.0000    648.3985      2.9829
  1736.0000    131.9803      0.0000    641.0322      3.0734
  1736.2500    124.4874      0.0000    625.5596      3.1558
  1736.5000    116.8217      0.0000    597.4586      3.2383
  1736.7500    110.7084      0.0000    557.4810      3.3361
  1737.0000    106.2617      0.0000    515.5510      3.4566
  1737.2500    102.2747      0.0000    487.6335      3.5911
  1737.5000     97.7377      0.0000    486.1175      3.7218
  1737.7500     92.8773      0.0000    511.1938      3.8375
  1738.0000     88.8447      0.0000    550.2496      3.9412
  1738.2500     86.6393      0.0000    585.5231      4.0412
  1738.5000     86.3269      0.0000    604.3341      4.1360
  1738.7500     87.1733      0.0000    605.0549      4.2100
  1739.0000     88.4870      0.0000    595.8619      4.2472
  1739.2500     90.2791      0.0000    587.3882      4.2455
  1739.5000     93.0819      0.0000    584.4476      4.2161
  1739.7500     97.1806      0.0000    584.8821      4.1697
  1740.0000    102.0398      0.0000    586.6385      4.1055
  1740.2500    106.4521      0.0000    592.4865      4.0149
  1740.5000    109.2744      0.0000    605.1670      3.8934
  1740.7500    110.2252      0.0000    621.2719      3.7487
  1741.0000    110.0326      0.0000    633.7660      3.5994
  1741.2500    109.8108      0.0000    638.9795      3.4668
  1741.5000    110.5498      0.0000    638.6642      3.3631
  1741.7500    113.1556      0.0000    636.5335      3.2849
  1742.0000    118.3071      0.0000    635.0146      3.2179
  1742.2500    125.8553      0.0000    634.9030      3.1501
  1742.5000    134.5989      0.0000    636.5182      3.0777
  1742.7500    142.8155      0.0000    640.3232      3.0030
  1743.0000    148.8812      0.0000    646.6401      2.9310
  1743.2500    151.5028      0.0000    655.0343      2.8689
  1743.5000    149.9477      0.0000    664.0795      2.8253
  1743.7500    144.4919      0.0000    671.5258      2.8069
  1744.0000    136.4377      0.0000    674.9385      2.8158
  1744.2500    127.2102      0.0000    672.9994      2.8496
  1744.5000    117.3216      0.0000    666.6745      2.9022
  1744.7500    106.4713      0.0000    658.8528      2.9673
  1745.0000     94.7484      0.0000    652.3619      3.0395
  1745.2500     83.4549      0.0000    648.2373      3.1133
  1745.5000     74.4453      0.0000    645.9662      3.1839
  1745.7500     68.6848      0.0000    645.1203      3.2520
  1746.0000     65.6729      0.0000    645.9516      3.3230
  1746.2500     64.3256      0.0000    647.9830      3.4020
  1746.5000     64.1806      0.0000    648.9669      3.4902
  1746.7500     65.5183      0.0000    646.4507      3.5879
  1747.0000     68.5139      0.0000    640.2072      3.6934
  1747.2500     72.7550      0.0000    632.5568      3.7976
  1747.5000     77.7717      0.0000    626.7808      3.8816
  1747.7500     83.7633      0.0000    625.4371      3.9257
  1748.0000     91.4062      0.0000    629.2375      3.9221
  1748.2500    100.6884      0.0000    636.8264      3.8805
  1748.5000    110.0898      0.0000    645.9142      3.8240
  1748.7500    117.3081      0.0000    654.8465      3.7779
  1749.0000    120.9836      0.0000    662.9479      3.7560
  1749.2500    121.7240      0.0000    669.7047      3.7535
  1749.5000    121.5250      0.0000    674.1021      3.7541
  1749.7500    122.1368      0.0000    675.2504      3.7450
  1750.0000    123.8460      0.0000    674.2043      3.7254
  1750.2500    125.7034      0.0000    674.6965      3.7021
  1750.5000    126.7493      0.0000    680.5047      3.6826
  1750.7500    127.0327      0.0000    691.4305      3.6704
  1751.0000    127.6020      0.0000    702.5444      3.6632
  1751.2500    129.4955      0.0000    707.7469      3.6526
  1751.5000    132.7471      0.0000    704.0430      3.6300
  1751.7500    136.4507      0.0000    693.1179      3.5959
  1752.0000    139.4841      0.0000    679.9160      3.5641
  1752.2500    140.9723      0.0000    669.8561      3.5564
  1752.5000    140.5433      0.0000    666.3363      3.5896
  1752.7500    138.3929      0.0000    669.4016      3.6656
  1753.0000    134.7677      0.0000    675.8416      3.7708
  1753.2500    129.5825      0.0000    681.0491      3.8851
  1753.5000    123.0698      0.0000    682.1290      3.9922
  1753.7500    116.4614      0.0000    679.8953      4.0845
  1754.0000    111.4614      0.0000    677.4218      4.1587
  1754.2500    109.2221      0.0000    676.4005      4.2098
  1754.5000    110.0652      0.0000    675.5385      4.2315
  1754.7500    113.9118      0.0000    672.6746      4.2236
  1755.0000    120.5761      0.0000    667.4297      4.1988
  1755.2500    129.4279      0.0000    661.0834      4.1775
  1755.5000    138.8123      0.0000    654.6062      4.1763
  1755.7500    146.2251      0.0000    647.8262      4.1990
  1756.0000    149.5643      0.0000    640.4786      4.2386
  1756.2500    148.4425      0.0000    633.3172      4.2834
  1756.5000    144.3999      0.0000    627.8325      4.3222
  1756.7500    139.9344      0.0000    625.1968      4.3461
