~Version Information
VERS.                      2.0: CWLS Log ASCII Standard - VERSION 2.0
WRAP.                       NO: One line per depth step
~Well Information Block
STRT.FT               472.0000: 
STOP.FT              2428.5000: 
STEP.FT                 0.1000: 
NULL.                -999.2500: 
COMP.          Pioneer Natural Resources: COMPANY
WELL.          Flying Horse 12-11: WELL
FLD.           Purgatoire River: FIELD
LOC.           2428' FNL & 308' FWL: LOCATION
PROV.                 Colorado: PROVINCE
CNTY.               Las Animas: COUNTRY
SRVC.                Patterson: SERVICE COMPANY
DATE.          Mon May 30 06:06:20 2005: LOG DATE
UWI.           05 071 08378 00: UNIQUE WELL ID
~Curve Information Block
DEPT.FT            0 000 00 00: Depth
DCAL.in                       : CDL Caliper
RHOB.g/cc                     : CDL Bulk Density
RHOC.g/cc                     : CDL Density Correction
DPOR.pu                       : CDL Density Porosity
GR.GAPI                       : Gamma Ray
NPOR.pu                       : Neutron Porosity
~Parameter Information Block
~A  Depth       DCAL        RHOB        RHOC        DPOR         GR         NPOR    
# ...
  2152.0000      8.0522      2.5260      0.0664      7.5173    112.9471     25.3611
  2152.1000      8.0522      2.5302      0.0719      7.2612    103.4693     26.2578
  2152.2000      8.0522      2.5345      0.0225      6.9992     95.9115     26.1400
  2152.3000      8.0610      2.5434      0.0247      6.4623     91.7542     25.2686
  2152.4000      8.0610      2.5687      0.0642      4.9250     91.5871     24.5336
  2152.5000      8.0293      2.6089      0.0907      2.4920     94.0873     24.4560
  2152.6000      8.0293      2.6435      0.1099      0.3936     97.8572     24.4172
  2152.7000      8.0293      2.6517      0.0696     -0.1058     99.9319     23.9812
  2152.8000      8.0137      2.6375      0.0428      0.7580     94.8178     23.0584
  2152.9000      8.0137      2.6196      0.0681      1.8423     81.3652     21.4528
  2153.0000      7.9745      2.6041      0.0416      2.7819     66.9284     19.7231
  2153.1000      7.9745      2.5937      0.0233      3.4142     58.8835     18.8728
  2153.2000      7.9745      2.5989      0.0176      3.0955     56.4283     18.8551
  2153.3000      7.9217      2.6144      0.0645      2.1589     54.5245     18.6916
  2153.4000      7.9217      2.6229      0.0513      1.6432     51.5473     18.1565
  2153.5000      7.9252      2.6285      0.0514      1.3054     49.7561     18.0689
  2153.6000      7.9252      2.6342      0.0694      0.9585     49.0859     19.0512
  2153.7000      7.9252      2.6110      0.1081      2.3639     48.0864     20.8474
  2153.8000      7.9134      2.5398      0.0341      6.6811     48.1899     22.3381
  2153.9000      7.9134      2.4343      0.0225     13.0718     49.7455     22.8447
  2154.0000      7.9188      2.2904      0.0125     21.7909     49.6719     23.0735
  2154.1000      7.9188      2.1087     -0.0741     32.8064     46.8808     23.7596
  2154.2000      7.9188      1.9522     -0.1647     42.2925     43.7738     24.9328
  2154.3000      7.9089      1.8839     -0.1835     46.4319     41.7052     26.3339
  2154.4000      7.9089      1.8856     -0.0237     46.3256     43.7139     27.4597
  2154.5000      7.9130      1.9048     -0.0440     45.1639     50.8251     27.8139
  2154.6000      7.9130      1.9375     -0.0128     43.1799     56.1809     27.4732
  2154.7000      7.9130      1.9987      0.1386     39.4735     56.4967     27.1257
  2154.8000      7.9222      2.0690      0.1890     35.2138     58.2515     27.7188
  2154.9000      7.9222      2.1316      0.1629     31.4170     64.6982     29.4591
  2155.0000      7.9304      2.2057      0.1840     26.9283     71.4150     31.0781
  2155.1000      7.9304      2.3050      0.1636     20.9104     76.5589     31.7910
  2155.2000      7.9304      2.3964      0.1758     15.3668     82.1013     32.3048
  2155.3000      7.9387      2.4394      0.0851     12.7624     88.5420     33.0666
  2155.4000      7.9387      2.4471      0.0397     12.2977     95.1396     33.2853
  2155.5000      8.0034      2.4625      0.0333     11.3644    102.2796     32.0906
  2155.6000      8.0034      2.4945      0.0862      9.4258    110.2043     30.1087
  2155.7000      8.0034      2.5172      0.0802      8.0514    118.1199     28.8975
  2155.8000      7.9649      2.5240      0.0252      7.6341    122.1944     28.7627
  2155.9000      7.9649      2.5268      0.0919      7.4654    119.0326     28.6723
  2156.0000      7.9503      2.5197      0.0817      7.8983    110.9015     28.4018
  2156.1000      7.9503      2.5049      0.0543      8.7949    103.1871     28.4779
  2156.2000      7.9503      2.5031      0.0300      8.9043    100.6320     28.9890
  2156.3000      7.9803      2.5146      0.0864      8.2057    102.4867     29.4533
  2156.4000      7.9803      2.5242      0.0446      7.6261    103.7031     29.4743
  2156.5000      7.9831      2.5318      0.0457      7.1653    102.3134     29.2185
  2156.6000      7.9831      2.5403      0.0576      6.6508     99.9800     28.9843
  2156.7000      7.9831      2.5403      0.0815      6.6467     98.6946     29.0712
  2156.8000      7.9825      2.5278      0.0328      7.4031     99.3596     29.1888
  2156.9000      7.9825      2.5114      0.0233      8.3988     99.0841     28.4617
  2157.0000      7.9850      2.4935      0.0205      9.4845     95.2727     27.2135
  2157.1000      7.9850      2.4745      0.0181     10.6383     90.8902     26.6393
  2157.2000      7.9850      2.4632      0.0048     11.3214     92.1611     26.6627
  2157.3000      7.9775      2.4613      0.0466     11.4344     98.9440     26.7544
  2157.4000      7.9775      2.4613      0.0211     11.4343    104.0748     26.7335
  2157.5000      7.9746      2.4572      0.0448     11.6826    104.9079     26.3950
  2157.6000      7.9746      2.4443      0.0470     12.4688    104.0002     26.2387
  2157.7000      7.9746      2.4314     -0.0004     13.2504    103.4071     26.7047
  2157.8000      7.9646      2.4262      0.0658     13.5638    103.4362     27.2829
  2157.9000      7.9646      2.4179      0.0579     14.0695    103.3052     27.3630
  2158.0000      7.9625      2.4120     -0.0461     14.4243    102.7254     27.0089
  2158.1000      7.9625      2.4279      0.0711     13.4594    102.7938     26.7614
  2158.2000      7.9625      2.4581      0.0222     11.6316    104.2755     27.1866
  2158.3000      7.9656      2.4816      0.0596     10.2069    105.9188     28.1802
  2158.4000      7.9656      2.4902      0.0605      9.6874    107.2911     28.6710
  2158.5000      7.9802      2.4826      0.0736     10.1464    108.6912     28.1815
  2158.6000      7.9802      2.4566      0.0227     11.7185    107.7554     27.4921
  2158.7000      7.9802      2.4230      0.0395     13.7604    102.3585     27.3000
  2158.8000      7.9888      2.4083      0.0068     14.6465     95.9213     27.4651
  2158.9000      7.9888      2.4237      0.0364     13.7130     95.3578     27.3230
  2159.0000      7.9911      2.4444      0.0289     12.4578    102.5456     27.0440
  2159.1000      7.9911      2.4522      0.0076     11.9866    110.6636     27.3694
  2159.2000      7.9911      2.4607      0.0299     11.4747    111.9956     27.8833
  2159.3000      7.9671      2.4809      0.0296     10.2498    108.1492     27.6540
  2159.4000      7.9671      2.5003      0.0727      9.0745    106.7556     27.0510
  2159.5000      7.9527      2.5110      0.0569      8.4239    107.5205     26.7628
  2159.6000      7.9527      2.5286      0.0822      7.3592    104.3113     26.6245
  2159.7000      7.9527      2.5547      0.1375      5.7769     98.8248     26.5278
  2159.8000      7.9357      2.5704      0.1267      4.8234     96.7939     26.4022
  2159.9000      7.9357      2.5699      0.0973      4.8533     98.2376     26.1474
  2160.0000      7.9146      2.5623      0.0865      5.3162    101.5833     26.0270
  2160.1000      7.9146      2.5581      0.0549      5.5686    104.2373     26.3965
  2160.2000      7.9146      2.5652      0.0531      5.1396    104.4193     26.8294
  2160.3000      7.9142      2.5759      0.0675      4.4908    104.3248     26.8530
  2160.4000      7.9142      2.5751      0.0973      4.5391    103.4185     26.8012
  2160.5000      7.9423      2.5663      0.0257      5.0719    100.1729     26.6455
  2160.6000      7.9423      2.5641      0.0477      5.2089     95.6210     25.8620
  2160.7000      7.9423      2.5694      0.0399      4.8834     88.9294     24.5118
  2160.8000      7.9728      2.5801      0.0466      4.2371     79.2378     23.1276
  2160.9000      7.9728      2.5966      0.0559      3.2384     68.6454     22.1386
  2161.0000      7.9199      2.6089      0.0660      2.4911     59.7653     21.1638
  2161.1000      7.9199      2.6079      0.0634      2.5512     54.3520     19.9722
  2161.2000      7.9199      2.5963      0.0114      3.2523     50.3559     18.8952
  2161.3000      7.9440      2.5828      0.0004      4.0721     44.6819     17.7738
  2161.4000      7.9440      2.5805     -0.0042      4.2128     38.7039     16.5391
  2161.5000      7.9530      2.5994      0.0172      3.0697     34.6654     15.5582
