~Version Information
VERS.                      2.0: CWLS Log ASCII Standard - VERSION 2.0
WRAP.                       NO: One line per depth step
~Well Information Block
STRT.FT                -8.0000: 
STOP.FT               973.2500: 
STEP.FT                 0.2500: 
NULL.                -999.2500: 
COMP.          Pioneer Natural Resources: COMPANY
WELL.              Oscar 41-31: WELL
FLD.           Purgatorie River: FIELD
LOC.           412' FNL & 1216' FEL--: LOCATION
PROV.                       CO: PROVINCE
CNTY.               Las Animas: COUNTRY
SRVC.          Patterson Wireline: SERVICE COMPANY
DATE.          Wed Mar 02 12:29:08 2005: LOG DATE
UWI.           05 071 08290 00: UNIQUE WELL ID
~Curve Information Block
DEPT.FT            0 000 00 00: Depth
CCL.                          : Casing Collar Locator
TT5.usec                      : CBL 5' Travel Time
AMP3.mV                       : CBL 3' Amplitude
GR.GAPI                       : Gamma Ray
~Parameter Information Block
~A  Depth       CCL         TT5         AMP3         GR     
# ...
   126.0000      0.0000   1200.0000      6.3004     69.2861
   126.2500      0.0000   1200.0000      6.3010     65.8771
   126.5000      0.0000   1200.0000      6.3095     64.0243
   126.7500      0.0000   1200.0000      6.3344     65.4409
   127.0000      0.0000   1200.0000      6.3742     70.1545
   127.2500      0.0000   1200.0000      6.4215     76.4661
   127.5000      0.0000   1200.0000      6.4714     81.8370
   127.7500      0.0000   1200.0000      6.5261     84.2084
   128.0000      0.0000   1200.0000      6.5860     83.0337
   128.2500      0.0000   1200.0000      6.6360     79.2925
   128.5000      0.0000   1200.0000      6.6536     74.5215
   128.7500      0.0000   1200.0000      6.6316     69.8612
   129.0000      0.0000   1200.0000      6.5854     65.9644
   129.2500      0.0000   1200.0000      6.5356     63.3725
   129.5000      0.0000   1200.0000      6.4925     62.4605
   129.7500      0.0000   1200.0000      6.4604     63.1542
   130.0000      0.0000   1200.0000      6.4466     65.2348
   130.2500      0.0000   1200.0000      6.4590     68.8365
   130.5000      0.0000   1200.0000      6.4942     74.1818
   130.7500      0.0000   1200.0000      6.5345     80.9083
   131.0000      0.0000   1200.0000      6.5604     88.0803
   131.2500      0.0000   1200.0000      6.5628     94.7092
   131.5000      0.0000   1200.0000      6.5427     99.9587
   131.7500      0.0000   1200.0000      6.5050    103.1996
   132.0000      0.0000   1200.0000      6.4593    104.3195
   132.2500      0.0000   1200.0000      6.4224    103.8013
   132.5000      0.0000   1200.0000      6.4150    102.2233
   132.7500      0.0000   1200.0000      6.4497     99.8105
   133.0000      0.0000   1200.0000      6.5225     96.5498
   133.2500      0.0000   1200.0000      6.6145     92.6152
   133.5000      0.0000   1200.0000      6.7034     88.6124
   133.7500      0.0000   1200.0000      6.7748     85.4442
   134.0000      0.0000   1200.0000      6.8248     83.9732
   134.2500      0.0000   1200.0000      6.8562     84.6435
   134.5000      0.0000   1200.0000      6.8726     87.1053
   134.7500      0.0000   1200.0000      6.8749     90.1353
   135.0000      0.0000   1200.0000      6.8671     92.3258
   135.2500      0.0000   1200.0000      6.8617     93.1699
   135.5000      0.0000   1200.0000      6.8713     93.2696
   135.7500      0.0000   1200.0000      6.8884     93.3343
   136.0000      0.0000   1200.0000      6.8743     93.3192
   136.2500      0.0000   1200.0000      6.7733     92.7556
   136.5000      0.0000   1200.0000      6.5537     91.7411
   136.7500      0.0000   1200.0000      6.2488     91.1738
   137.0000      0.0000   1200.0000      5.9460     91.6009
   137.2500      0.0000   1200.0000      5.7088     92.0063
   137.5000      0.0000   1200.0000      5.5189     90.4062
   137.7500      0.0000   1200.0000      5.3266     85.7379
   138.0000      0.0000   1200.0000      5.1329     78.8032
   138.2500      0.0000   1200.0000      4.9841     71.5539
   138.5000      0.0000   1200.0000      4.9042     65.8855
   138.7500     -2.0000   1200.0000      4.8762     62.8668
   139.0000     -2.0000   1200.0000      4.8839     62.5865
   139.2500      0.0000   1200.0000      4.9537     64.5199
   139.5000      0.0000   1200.0000      5.1502     67.9662
   139.7500      0.0000   1200.0000      5.5194     72.2073
   140.0000      0.0000   1200.0000      6.0150     76.7127
   140.2500      0.0000   1200.0000      6.4983     81.4985
   140.5000      0.0000   1200.0000      6.8400     86.9496
   140.7500      0.0000   1200.0000      7.0119     92.9215
   141.0000      0.0000   1200.0000      7.0666     98.1408
   141.2500      0.0000   1200.0000      7.0626    100.8738
   141.5000      0.0000   1200.0000      7.0329    100.4281
   141.7500      0.0000   1200.0000      6.9977     97.9690
   142.0000      0.0000   1200.0000      6.9731     95.7073
   142.2500      0.0000   1200.0000      6.9662     95.0659
   142.5000      0.0000   1200.0000      6.9698     95.4721
   142.7500      0.0000   1200.0000      6.9702     94.9647
   143.0000      0.0000   1200.0000      6.9617     92.0457
   143.2500      0.0000   1200.0000      6.9507     86.9051
   143.5000      0.0000   1200.0000      6.9409     80.9071
   143.7500      0.0000   1200.0000      6.9199     75.3022
   144.0000      0.0000   1200.0000      6.8714     70.7679
   144.2500      0.0000   1200.0000      6.8005     67.7596
   144.5000      0.0000   1200.0000      6.7383     66.5372
   144.7500      0.0000   1200.0000      6.7199     66.7926
   145.0000      0.0000   1200.0000      6.7558     67.6550
   145.2500      0.0000   1200.0000      6.8248     68.1845
   145.5000      0.0000   1200.0000      6.8931     67.7350
   145.7500      0.0000   1200.0000      6.9435     65.9428
   146.0000      0.0000   1200.0000      6.9829     62.7158
   146.2500      0.0000   1200.0000      7.0227     58.5539
   146.5000      0.0000   1200.0000      7.0583     54.8697
   146.7500      0.0000   1200.0000      7.0708     53.5770
   147.0000      0.0000   1200.0000      7.0476     55.8265
   147.2500      0.0000   1200.0000      6.9947     61.0167
   147.5000      0.0000   1200.0000      6.9309     67.2575
   147.7500      0.0000   1200.0000      6.8722     72.9013
   148.0000      0.0000   1200.0000      6.8230     77.4840
   148.2500      0.0000   1200.0000      6.7808     81.2891
   148.5000      0.0000   1200.0000      6.7479     84.4747
   148.7500      0.0000   1200.0000      6.7326     86.8964
   149.0000      0.0000   1200.0000      6.7411     88.4974
   149.2500      0.0000   1200.0000      6.7731     89.5665
   149.5000      0.0000   1200.0000      6.8253     90.5911
   149.7500      0.0000   1200.0000      6.8952     91.7553
   150.0000      0.0000   1200.0000      6.9741     92.5341
   150.2500      0.0000   1200.0000      7.0428     92.1426
   150.5000      0.0000   1200.0000      7.0795     90.6041
   150.7500      0.0000   1200.0000      7.0745     89.0667
   151.0000      0.0000   1200.0000      7.0366     88.8463
   151.2500      0.0000   1200.0000      6.9889     90.3922
   151.5000      0.0000   1200.0000      6.9582     93.2995
   151.7500      0.0000   1200.0000      6.9601     97.0302
   152.0000      0.0000   1200.0000      6.9920    101.2796
   152.2500      0.0000   1200.0000      7.0395    105.5802
   152.5000      0.0000   1200.0000      7.0890    108.7418
   152.7500      0.0000   1200.0000      7.1333    109.1611
   153.0000      0.0000   1200.0000      7.1685    106.1653
   153.2500      0.0000   1200.0000      7.1893    101.0049
   153.5000      0.0000   1200.0000      7.1884     96.1227
   153.7500      0.0000   1200.0000      7.1597     93.3355
   154.0000      0.0000   1200.0000      7.1054     92.7451
   154.2500      0.0000   1200.0000      7.0403     93.1595
   154.5000      0.0000   1200.0000      6.9872     93.3064
   154.7500      0.0000   1200.0000      6.9613     92.6438
   155.0000      0.0000   1200.0000      6.9594     91.4104
   155.2500      0.0000   1200.0000      6.9645     90.4855
   155.5000      0.0000   1200.0000      6.9619     91.1654
   155.7500      0.0000   1200.0000      6.9457     94.3012
   156.0000      0.0000   1200.0000      6.9117     99.2086
   156.2500      0.0000   1200.0000      6.8499    103.7118
   156.5000      0.0000   1200.0000      6.7497    105.5868
   156.7500      0.0000   1200.0000      6.6151    104.0766
   157.0000      0.0000   1200.0000      6.4713    100.2202
   157.2500      0.0000   1200.0000      6.3534     95.9582
   157.5000      0.0000   1200.0000      6.2855     92.7963
   157.7500      0.0000   1200.0000      6.2668     90.8669
   158.0000      0.0000   1200.0000      6.2746     89.0289
   158.2500      0.0000   1200.0000      6.2793     86.1276
   158.5000      0.0000   1200.0000      6.2614     82.4484
   158.7500      0.0000   1200.0000      6.2158     79.8023
   159.0000      0.0000   1200.0000      6.1459     79.8672
   159.2500      0.0000   1200.0000      6.0593     82.4722
