~Version Information
VERS.                      2.0: CWLS Log ASCII Standard - VERSION 2.0
WRAP.                       NO: One line per depth step
~Well Information Block
STRT.FT               270.0000: 
STOP.FT              1771.7000: 
STEP.FT                 0.1000: 
NULL.                -999.2500: 
COMP.          Pioneer Natural Resources: COMPANY
WELL.           Labrador 34-30: WELL
FLD.           Purgatoire River: FIELD
LOC.           926' FSL & 2080' FEL: LOCATION
PROV.                 Colorado: PROVINCE
CNTY.               Las Animas: COUNTRY
SRVC.                Patterson: SERVICE COMPANY
DATE.          Mon Dec 06 08:24:34 2004: LOG DATE
UWI.           05 071 08202 00: UNIQUE WELL ID
~Curve Information Block
DEPT.FT            0 000 00 00: Depth
DCAL.in                       : CDL Caliper
RHOB.g/cc                     : CDL Bulk Density
RHOC.g/cc                     : CDL Density Correction
DPOR.pu                       : CDL Density Porosity
NPOR.pu                       : Neutron Porosity
GR.GAPI                       : Gamma Ray
~Parameter Information Block
~A  Depth       DCAL        RHOB        RHOC        DPOR        NPOR         GR     
# ...
   366.0000      8.1642      2.4206      0.0871     13.9058     18.5311     83.3115
   366.1000      8.1642      2.4324      0.1101     13.1879     18.1195     80.1530
   366.2000      8.1642      2.4464      0.0802     12.3418     17.9321     78.1873
   366.3000      8.1645      2.4588      0.0959     11.5852     17.7508     78.2260
   366.4000      8.1645      2.4637      0.0784     11.2933     17.5250     80.3062
   366.5000      8.1648      2.4606      0.1053     11.4808     17.5848     83.1821
   366.6000      8.1648      2.4509      0.0765     12.0667     17.8126     84.0629
   366.7000      8.1648      2.4380      0.0680     12.8495     17.8365     81.0539
   366.8000      8.1632      2.4337      0.0090     13.1085     17.6619     76.2536
   366.9000      8.1632      2.4450      0.0668     12.4214     17.3798     73.3290
   367.0000      8.1614      2.4628      0.0452     11.3464     17.1701     72.7642
   367.1000      8.1614      2.4746      0.0636     10.6311     17.1012     73.5876
   367.2000      8.1614      2.4735      0.0618     10.6940     16.9423     75.2984
   367.3000      8.1608      2.4611      0.0614     11.4487     16.7049     75.6308
   367.4000      8.1608      2.4493      0.0082     12.1624     16.5814     73.5547
   367.5000      8.1611      2.4472      0.0598     12.2892     16.5540     72.7832
   367.6000      8.1611      2.4489      0.0604     12.1852     16.6641     75.0980
   367.7000      8.1611      2.4502      0.0507     12.1106     16.7536     75.0790
   367.8000      8.1620      2.4523      0.0772     11.9790     16.6008     70.8251
   367.9000      8.1620      2.4585      0.0510     11.6078     16.4000     67.5582
   368.0000      8.1621      2.4729      0.0654     10.7320     16.4298     66.9289
   368.1000      8.1621      2.4939      0.0725      9.4624     16.7387     66.4760
   368.2000      8.1621      2.5120      0.1279      8.3626     17.1158     65.1788
   368.3000      8.1611      2.5194      0.0872      7.9168     17.2885     64.4788
   368.4000      8.1611      2.5201      0.0633      7.8750     17.3348     66.8655
   368.5000      8.1616      2.5220      0.0654      7.7595     17.4441     71.0696
   368.6000      8.1616      2.5264      0.0692      7.4928     17.5077     73.7647
   368.7000      8.1616      2.5288      0.0701      7.3454     17.6481     73.5780
   368.8000      8.1627      2.5225      0.0610      7.7266     18.3063     70.7028
   368.9000      8.1627      2.5053      0.0502      8.7684     19.3264     68.6385
   369.0000      8.1639      2.4860      0.0278      9.9399     20.0418     70.4246
   369.1000      8.1639      2.4714      0.0610     10.8260     20.2700     74.8383
   369.2000      8.1639      2.4574      0.0577     11.6708     20.4053     78.4683
   369.3000      8.1644      2.4434      0.0216     12.5197     20.7834     79.7577
   369.4000      8.1644      2.4342      0.0025     13.0805     21.3167     82.4220
   369.5000      8.1634      2.4291      0.0275     13.3901     21.6632     88.2362
   369.6000      8.1634      2.4278     -0.0270     13.4692     21.6299     92.6113
   369.7000      8.1634      2.4436     -0.0201     12.5068     21.3970     95.0232
   369.8000      8.1629      2.4763      0.0673     10.5268     21.3537    100.0610
   369.9000      8.1629      2.5031      0.0942      8.9022     21.6056    107.7333
   370.0000      8.1613      2.5239      0.0949      7.6417     21.8977    111.9154
   370.1000      8.1613      2.5602      0.1310      5.4448     21.9799    110.3095
   370.2000      8.1613      2.6146      0.1780      2.1472     21.9516    109.4264
   370.3000      8.1615      2.6610      0.1807     -0.6681     22.0911    113.4934
   370.4000      8.1615      2.6641      0.2221     -0.8569     22.4457    116.7113
   370.5000      8.1647      2.6224      0.1310      1.6723     23.0661    115.4820
   370.6000      8.1647      2.5742      0.0573      4.5926     23.9219    114.4932
   370.7000      8.1647      2.5438      0.0574      6.4374     24.7097    114.7870
   370.8000      8.1663      2.5305     -0.0026      7.2410     25.3655    113.4478
   370.9000      8.1663      2.5295      0.0192      7.3051     25.9669    110.6077
   371.0000      8.1648      2.5250      0.0819      7.5742     26.3501    109.3180
   371.1000      8.1648      2.5116     -0.0011      8.3874     26.4510    110.3837
   371.2000      8.1648      2.5118     -0.0251      8.3748     26.4527    111.9866
   371.3000      8.1633      2.5345      0.0290      7.0025     26.4167    114.4513
   371.4000      8.1633      2.5649      0.0306      5.1567     26.4431    119.1175
   371.5000      8.1622      2.5980      0.0804      3.1525     26.6191    121.5813
   371.6000      8.1622      2.6230      0.1047      1.6374     26.8158    118.1184
   371.7000      8.1622      2.6228      0.0513      1.6506     26.8074    113.0816
   371.8000      8.1595      2.6027      0.0684      2.8659     26.5457    112.3382
   371.9000      8.1595      2.5773      0.0620      4.4047     26.3318    115.3536
   372.0000      8.1566      2.5573      0.0148      5.6188     26.4653    116.2546
   372.1000      8.1566      2.5518      0.0375      5.9486     26.7119    112.4672
   372.2000      8.1566      2.5552      0.0552      5.7465     26.5858    109.7103
   372.3000      8.1623      2.5485      0.0503      6.1503     26.1121    113.7864
   372.4000      8.1623      2.5253      0.0550      7.5567     25.6273    120.6321
   372.5000      8.1851      2.4931      0.0304      9.5110     25.2785    124.9647
   372.6000      8.1851      2.4514      0.0825     12.0368     24.9109    127.8863
   372.7000      8.1851      2.4072     -0.0286     14.7131     24.5651    131.8332
   372.8000      8.2351      2.3925     -0.0047     15.6079     24.6330    136.6625
   372.9000      8.2351      2.4189      0.0151     14.0042     25.0324    139.4501
   373.0000      8.2933      2.4579      0.0992     11.6449     25.2369    138.1537
   373.1000      8.2933      2.4757      0.0889     10.5613     24.9391    134.1218
   373.2000      8.2933      2.4642      0.0827     11.2584     24.3273    132.1694
   373.3000      8.3228      2.4379      0.0542     12.8528     23.9092    137.2004
   373.4000      8.3228      2.4202      0.0280     13.9248     23.8461    146.0566
   373.5000      8.3271      2.4224      0.0785     13.7940     23.8987    148.1794
   373.6000      8.3271      2.4328      0.1132     13.1631     23.9196    142.6110
   373.7000      8.3271      2.4399      0.0811     12.7347     23.9812    139.7557
   373.8000      8.3262      2.4468      0.0498     12.3178     24.2761    142.6419
   373.9000      8.3262      2.4533      0.0662     11.9214     24.8131    146.3840
   374.0000      8.3284      2.4511      0.0751     12.0543     25.2119    149.4447
   374.1000      8.3284      2.4449      0.0100     12.4311     25.3167    151.5345
   374.2000      8.3284      2.4486      0.0201     12.2037     25.4522    151.3542
   374.3000      8.3339      2.4524      0.0753     11.9771     25.5371    149.7183
   374.4000      8.3339      2.4339      0.0468     13.0999     25.2507    146.1959
   374.5000      8.3448      2.3993      0.0320     15.1951     24.7197    142.4387
   374.6000      8.3448      2.3770      0.0230     16.5428     24.3230    144.0541
   374.7000      8.3448      2.3789      0.0930     16.4281     24.2257    150.2849
   374.8000      8.3532      2.3883      0.0855     15.8612     24.1645    154.7128
   374.9000      8.3532      2.3906      0.0808     15.7216     24.0014    153.2946
   375.0000      8.3434      2.3891      0.0690     15.8135     23.8836    147.1815
   375.1000      8.3434      2.3879      0.0923     15.8857     23.6904    141.9946
   375.2000      8.3434      2.3827      0.0963     16.1998     23.4315    140.9693
   375.3000      8.3320      2.3760      0.0836     16.6051     23.2947    140.4591
   375.4000      8.3320      2.3807      0.1036     16.3203     23.1919    137.7320
   375.5000      8.3303      2.4013      0.1535     15.0711     23.0550    136.6865
