~Version Information
VERS.                      2.0: CWLS Log ASCII Standard - VERSION 2.0
WRAP.                       NO: One line per depth step
~Well Information Block
STRT.FT               732.2500: 
STOP.FT              2476.0000: 
STEP.FT                 0.2500: 
NULL.                -999.2500: 
COMP.          Petrogulf Corporation: COMPANY
WELL.            Montoya 7-14V: WELL
FLD.           Purgatorie River: FIELD
LOC.           535' FSL & 491' FWL: LOCATION
CNTY.               Las Animas: COUNTY
SRVC.                         : SERVICE COMPANY
DATE.          Mon Aug 23 05:51:43 2004: LOG DATE
UWI.           05 071 08019 00: UNIQUE WELL ID
STAT.                 Colorado: STATE
~Curve Information Block
DEPT.FT            0 000 00 00: Depth
SP.mV                         : DIL Spontaneous Potential
RILD.Ohm-m                    : DIL Deep Resistivity
RILM.Ohm-m                    : DIL Medium Resistivity
RLL3.Ohm-m                    : DIL Shallow Resistivity
GR.GAPI                       : Gamma Ray
~Parameter Information Block
~A  Depth        SP         RILD        RILM        RLL3         GR     
# ...
  2216.2500    -18.0994     34.9580     31.7274     35.8420     48.1618
  2216.5000    -18.5584     36.2228     32.8070     37.5643     48.1646
  2216.7500    -19.0301     37.4494     34.0605     41.1535     48.1425
  2217.0000    -19.4073     38.5449     35.4625     48.6289     48.1095
  2217.2500    -19.5991     39.4241     36.9502     63.8331     48.4757
  2217.5000    -19.5760     40.0171     38.4040     92.9375     49.8918
  2217.7500    -19.3932     40.2787     39.6370    143.7959     50.8817
  2218.0000    -19.1709     40.2027     40.4117    223.2028     50.8574
  2218.2500    -19.0411     39.8325     40.5007    331.7406     49.3585
  2218.5000    -19.0886     39.2534     39.7727    458.0151     45.8006
  2218.7500    -19.3174     38.5618     38.2641    576.5886     43.7712
  2219.0000    -19.6559     37.8264     36.1764    654.1375     42.9700
  2219.2500    -19.9950     37.0666     33.7955    663.7209     44.2043
  2219.5000    -20.2368     36.2653     31.3972    599.5085     48.2436
  2219.7500    -20.3265     35.3983     29.1842    481.2053     52.1118
  2220.0000    -20.2626     34.4661     27.2724    343.9597     59.6353
  2220.2500    -20.0849     33.5010     25.7070    220.8823     65.8182
  2220.5000    -19.8513     32.5507     24.4880    130.2928     76.2706
  2220.7500    -19.6181     31.6582     23.5903     74.0911     83.2068
  2221.0000    -19.4259     30.8507     22.9784     44.2965     91.8554
  2221.2500    -19.2963     30.1426     22.6139     30.7714     95.8428
  2221.5000    -19.2359     29.5408     22.4592     25.6743     99.4059
  2221.7500    -19.2406     29.0486     22.4788     24.3873    100.7228
  2222.0000    -19.3021     28.6623     22.6397     24.6843    101.3944
  2222.2500    -19.4127     28.3741     22.9104     25.6728    100.5386
  2222.5000    -19.5648     28.1773     23.2614     27.0358     96.7775
  2222.7500    -19.7544     28.0752     23.6649     28.6599     93.2083
  2223.0000    -19.9767     28.0848     24.0958     30.4854     88.3511
  2223.2500    -20.2291     28.2322     24.5338     32.4240     86.2415
  2223.5000    -20.5080     28.5425     24.9642     34.3649     84.3357
  2223.7500    -20.8086     29.0303     25.3791     36.1943     83.1250
  2224.0000    -21.1220     29.6953     25.7769     37.7929     80.7174
  2224.2500    -21.4316     30.5229     26.1607     39.0210     78.8923
  2224.5000    -21.7084     31.4826     26.5371     39.7295     76.3938
  2224.7500    -21.9083     32.5237     26.9136     39.8144     75.0039
  2225.0000    -21.9759     33.5738     27.2967     39.2748     73.0984
  2225.2500    -21.8571     34.5496     27.6905     38.2286     71.7472
  2225.5000    -21.5221     35.3865     28.0961     36.8839     69.5702
  2225.7500    -20.9892     36.0699     28.5106     35.4969     68.2253
  2226.0000    -20.3381     36.6405     28.9273     34.3334     66.6380
  2226.2500    -19.7017     37.1630     29.3360     33.6178     65.6864
  2226.5000    -19.2364     37.6790     29.7230     33.4697     63.7056
  2226.7500    -19.0753     38.1823     30.0739     33.8587     61.7935
  2227.0000    -19.2903     38.6323     30.3732     34.6175     58.4219
  2227.2500    -19.8694     38.9893     30.6068     35.5125     56.2616
  2227.5000    -20.7246     39.2274     30.7633     36.3269     53.5451
  2227.7500    -21.7126     39.3223     30.8343     36.9128     52.0406
  2228.0000    -22.6667     39.2336     30.8149     37.1997     50.1464
  2228.2500    -23.4275     38.9251     30.7035     37.1819     49.2651
  2228.5000    -23.8693     38.4122     30.5016     36.9075     48.8289
  2228.7500    -23.9251     37.7844     30.2133     36.4668     49.0735
  2229.0000    -23.6039     37.1605     29.8446     35.9661     49.7897
  2229.2500    -22.9938     36.6081     29.4022     35.4834     50.3674
  2229.5000    -22.2398     36.0841     28.8930     35.0254     51.7214
  2229.7500    -21.5088     35.4463     28.3243     34.5141     53.3055
  2230.0000    -20.9432     34.5344     27.7035     33.8228     57.0331
  2230.2500    -20.6328     33.2767     27.0398     32.8566     60.1762
  2230.5000    -20.6026     31.7399     26.3454     31.6349     64.6081
  2230.7500    -20.8276     30.0925     25.6369     30.3139     66.4931
  2231.0000    -21.2501     28.5189     24.9358     29.1212     66.9985
  2231.2500    -21.7989     27.1582     24.2668     28.2459     66.0430
  2231.5000    -22.3972     26.0887     23.6560     27.7644     63.6769
  2231.7500    -22.9693     25.3400     23.1284     27.6452     61.9869
  2232.0000    -23.4425     24.9084     22.7050     27.8031     59.7957
  2232.2500    -23.7524     24.7683     22.4011     28.1430     58.7769
  2232.5000    -23.8547     24.8765     22.2248     28.5674     58.2337
  2232.7500    -23.7361     25.1741     22.1760     28.9694     58.5451
  2233.0000    -23.4269     25.5856     22.2465     29.2477     59.6506
  2233.2500    -23.0020     26.0219     22.4195     29.3547     60.5687
  2233.5000    -22.5669     26.3912     22.6714     29.3480     62.0046
  2233.7500    -22.2248     26.6240     22.9731     29.3983     62.7936
  2234.0000    -22.0328     26.6999     23.2940     29.7266     62.9317
  2234.2500    -21.9675     26.6586     23.6056     30.4909     61.9186
  2234.5000    -21.9282     26.5785     23.8857     31.6924     58.9974
  2234.7500    -21.7725     26.5371     24.1209     33.1678     56.8009
  2235.0000    -21.3867     26.5812     24.3067     34.6745     54.2681
  2235.2500    -20.7423     26.7233     24.4480     36.0028     53.3545
  2235.5000    -19.9198     26.9604     24.5563     37.0327     53.2071
  2235.7500    -19.0803     27.2990     24.6481     37.7084     53.9329
  2236.0000    -18.4014     27.7660     24.7442     37.9766     55.9028
  2236.2500    -18.0137     28.3983     24.8663     37.7581     57.2280
  2236.5000    -17.9651     29.2176     25.0360     36.9892     58.3028
  2236.7500    -18.2273     30.2090     25.2735     35.7070     58.4161
  2237.0000    -18.7195     31.3239     25.5980     34.1119     58.4935
  2237.2500    -19.3390     32.5109     26.0303     32.5481     58.8322
  2237.5000    -19.9768     33.7569     26.5949     31.4096     59.4142
  2237.7500    -20.5269     35.1080     27.3241     31.0578     59.3619
  2238.0000    -20.8996     36.6510     28.2593     31.8874     58.3103
  2238.2500    -21.0454     38.4681     29.4519     34.6437     57.1501
  2238.5000    -20.9787     40.5892     30.9619     40.9906     54.8522
  2238.7500    -20.7854     42.9571     32.8530     54.1407     52.7173
  2239.0000    -20.5990     45.4228     35.1848     79.1579     48.4766
  2239.2500    -20.5561     47.7705     37.9927    122.4120     45.4376
  2239.5000    -20.7419     49.7675     41.2548    189.7741     41.8631
  2239.7500    -21.1521     51.2177     44.8335    284.1543     40.5655
  2240.0000    -21.6926     51.9778     48.4014    403.2464     39.8879
  2240.2500    -22.2102     51.9224     51.3933    538.8964     39.6772
  2240.5000    -22.5495     50.9119     53.0690    678.0090     38.8110
  2240.7500    -22.6064     48.8310     52.7737    803.7100     37.6689
  2241.0000    -22.3587     45.7112     50.3027    896.0818     35.3801
  2241.2500    -21.8621     41.8207     46.0686    934.3283     33.8715
  2241.5000    -21.2130     37.6075     40.8926    903.1252     32.4538
  2241.7500    -20.5018     33.5242     35.6016    801.8748     32.4407
  2242.0000    -19.7827     29.8840     30.7654    649.7678     34.0215
  2242.2500    -19.0683     26.8246     26.6553    480.0316     35.9891
  2242.5000    -18.3495     24.3520     23.3291    325.5235     39.8222
  2242.7500    -17.6206     22.4003     20.7309    205.8593     42.7959
  2243.0000    -16.8981     20.8770     18.7609    124.3214     48.0626
  2243.2500    -16.2194     19.6881     17.3128     73.6684     52.3119
  2243.5000    -15.6307     18.7499     16.2901     43.9895     59.7034
  2243.7500    -15.1708     17.9946     15.6103     27.3338     64.9503
  2244.0000    -14.8589     17.3720     15.2051     18.5969     72.4902
