~Version Information
VERS.                      2.0: CWLS Log ASCII Standard - VERSION 2.0
WRAP.                       NO: One line per depth step
~Well Information Block
STRT.FT               480.1000: 
STOP.FT              2029.0000: 
STEP.FT                 0.1000: 
NULL.                -999.2500: 
COMP.          Petrogulf Corporation: COMPANY
WELL.            Montoya 7-12R: WELL
FLD.           Purgatorie River: FIELD
LOC.           1769' FNL & 658' FWL: LOCATION
CNTY.               Las Animas: COUNTY
SRVC.                         : SERVICE COMPANY
DATE.          Mon Nov 22 07:21:54 2004: LOG DATE
UWI.           05 071 08240 00: UNIQUE WELL ID
STAT.                 Colorado: STATE
~Curve Information Block
DEPT.FT            0 000 00 00: Depth
DCAL.in                       : CDL Caliper
RHOB.g/cc                     : CDL Bulk Density
RHOC.g/cc                     : CDL Density Correction
DPOR.pu                       : CDL Density Porosity
GR.GAPI                       : Gamma Ray
NPOR.pu                       : Neutron Porosity
~Parameter Information Block
~A  Depth       DCAL        RHOB        RHOC        DPOR         GR         NPOR    
# ...
  1612.9000      7.9362      2.6101      0.0233      2.4171    126.9001     26.8937
  1613.0000      7.9335      2.6224      0.0492      1.6732    126.5235     27.9038
  1613.1000      7.9335      2.6316      0.1061      1.1153    130.8042     28.9977
  1613.2000      7.9335      2.6091      0.0818      2.4774    135.7372     29.6822
  1613.3000      7.9746      2.5712     -0.0170      4.7746    136.2171     29.8673
  1613.4000      7.9746      2.5529      0.0716      5.8871    135.2660     29.8991
  1613.5000      7.9843      2.5493      0.0306      6.1034    134.8592     30.2710
  1613.6000      7.9843      2.5480     -0.0005      6.1822    133.2937     30.8795
  1613.7000      7.9843      2.5615      0.0153      5.3659    132.1391     30.9052
  1613.8000      7.9798      2.5908      0.0425      3.5867    134.8446     30.1672
  1613.9000      7.9798      2.6103      0.0736      2.4077    141.2068     29.5150
  1614.0000      7.9680      2.6053      0.0481      2.7089    145.4983     29.0867
  1614.1000      7.9680      2.5904      0.0186      3.6113    143.9378     29.1740
  1614.2000      7.9680      2.5771      0.0945      4.4153    138.7537     30.5336
  1614.3000      8.0023      2.5592      0.0656      5.5001    132.7803     31.9861
  1614.4000      8.0023      2.5305      0.0168      7.2412    128.3212     32.0223
  1614.5000      8.0241      2.4837      0.0114     10.0816    127.2009     31.3695
  1614.6000      8.0241      2.4146      0.0029     14.2689    131.0332     31.4572
  1614.7000      8.0241      2.3452     -0.0677     18.4732    138.4064     32.3069
  1614.8000      7.9862      2.2978      0.0032     21.3451    142.6103     32.8300
  1614.9000      7.9862      2.2517      0.0296     24.1400    139.2138     32.5010
  1615.0000      8.0021      2.1731      0.0440     28.9050    130.6930     32.2249
  1615.1000      8.0021      2.0608     -0.0128     35.7071    121.7930     32.8063
  1615.2000      8.0021      1.9454      0.0045     42.7035    116.3903     33.9185
  1615.3000      8.0610      1.8603     -0.0762     47.8610    114.2779     34.8306
  1615.4000      8.0610      1.8180     -0.0248     50.4261    111.7054     34.8916
  1615.5000      8.0444      1.8135      0.0044     50.6982    106.3682     34.0573
  1615.6000      8.0444      1.8465      0.0650     48.6988     97.5976     33.2876
  1615.7000      8.0444      1.9247      0.0760     43.9568     88.5513     33.6012
  1615.8000      8.0613      2.0443      0.1479     36.7063     85.2455     34.6573
  1615.9000      8.0613      2.1714      0.2075     29.0070     88.4813     35.3087
  1616.0000      8.0719      2.2768      0.1972     22.6199     92.8162     35.3447
  1616.1000      8.0719      2.3721      0.1267     16.8398     94.4086     35.2423
  1616.2000      8.0719      2.4624      0.1996     11.3686     95.5398     34.6868
  1616.3000      8.0570      2.5241      0.1426      7.6277     99.1734     33.3355
  1616.4000      8.0570      2.5613      0.0771      5.3762    103.7551     31.9897
  1616.5000      8.0219      2.5970      0.0816      3.2133    106.6791     31.3177
  1616.6000      8.0219      2.6184      0.1512      1.9137    109.3265     31.2701
  1616.7000      8.0219      2.6056      0.0599      2.6903    112.7874     31.1735
  1616.8000      8.0193      2.5830     -0.0177      4.0618    117.2768     30.1020
  1616.9000      8.0193      2.5750      0.0253      4.5433    123.0851     28.6363
  1617.0000      8.0028      2.5676      0.0405      4.9963    128.3426     28.4823
  1617.1000      8.0028      2.5549     -0.0092      5.7655    130.3761     30.0482
  1617.2000      8.0028      2.5563      0.0060      5.6771    129.5765     31.9340
  1617.3000      8.0454      2.5720      0.0374      4.7284    131.7466     32.6414
  1617.4000      8.0454      2.5761      0.0697      4.4767    137.5447     31.8344
  1617.5000      7.9870      2.5596      0.0256      5.4771    140.2651     30.4862
  1617.6000      7.9870      2.5336      0.0511      7.0534    138.0424     29.7289
  1617.7000      7.9870      2.5046     -0.0017      8.8140    134.1274     29.7264
  1617.8000      8.0187      2.4898     -0.0301      9.7089    131.1344     30.0440
  1617.9000      8.0187      2.5087     -0.0196      8.5650    130.5468     30.5184
  1618.0000      8.0561      2.5439      0.0456      6.4313    131.1787     30.8547
  1618.1000      8.0561      2.5685     -0.0147      4.9404    130.1058     30.7002
  1618.2000      8.0561      2.5845      0.0629      3.9707    126.6428     30.3631
  1618.3000      8.0650      2.5971      0.0676      3.2033    123.9254     30.3989
  1618.4000      8.0650      2.5979      0.1047      3.1582    125.2531     30.7693
  1618.5000      7.9936      2.5852      0.0626      3.9289    128.9601     30.7726
  1618.6000      7.9936      2.5691      0.0696      4.9046    130.9294     30.1589
  1618.7000      7.9936      2.5532      0.0121      5.8654    130.8923     29.7665
  1618.8000      7.9981      2.5417      0.0128      6.5655    130.6907     30.3908
  1618.9000      7.9981      2.5400      0.0116      6.6655    130.0488     31.4397
  1619.0000      8.0103      2.5433      0.0350      6.4645    129.4827     31.9498
  1619.1000      8.0103      2.5420      0.0648      6.5465    133.1731     31.8644
  1619.2000      8.0103      2.5337      0.0714      7.0493    143.0938     31.3399
  1619.3000      8.0307      2.5325      0.0197      7.1199    151.9763     30.9254
  1619.4000      8.0307      2.5510      0.0349      5.9991    152.7853     31.0839
  1619.5000      8.0536      2.5709      0.0945      4.7958    148.4896     31.3729
  1619.6000      8.0536      2.5684      0.0482      4.9458    144.0404     31.5231
  1619.7000      8.0536      2.5520      0.0181      5.9397    141.0105     31.5253
  1619.8000      8.0494      2.5435      0.0438      6.4533    140.6286     31.4459
  1619.9000      8.0494      2.5455      0.0799      6.3333    142.1874     31.4438
  1620.0000      8.0273      2.5515      0.0566      5.9706    142.4837     31.2521
  1620.1000      8.0273      2.5590      0.0624      5.5181    139.5082     30.7288
  1620.2000      8.0273      2.5576      0.0713      5.6011    137.4753     30.3737
  1620.3000      8.0421      2.5453      0.0206      6.3426    140.2746     30.4863
  1620.4000      8.0421      2.5359      0.0363      6.9177    143.9880     30.9515
  1620.5000      8.0381      2.5369      0.0508      6.8562    144.2569     31.5421
  1620.6000      8.0381      2.5468      0.0317      6.2533    142.6224     31.8188
  1620.7000      8.0381      2.5562      0.0652      5.6825    140.4888     31.8755
  1620.8000      8.0508      2.5575      0.0639      5.6074    139.1513     32.0834
  1620.9000      8.0508      2.5452      0.1075      6.3529    142.0957     32.2471
  1621.0000      7.9896      2.4979      0.0880      9.2160    148.1452     32.0896
  1621.1000      7.9896      2.3990      0.1059     15.2147    148.8026     31.7788
  1621.2000      7.9896      2.2722      0.0101     22.8999    140.9576     31.7011
  1621.3000      7.9755      2.1663     -0.0468     29.3172    131.1633     31.7550
  1621.4000      7.9755      2.1013     -0.0034     33.2529    126.4706     31.7023
  1621.5000      7.9416      2.0703     -0.0848     35.1328    128.2771     31.8431
  1621.6000      7.9416      2.0766     -0.0515     34.7496    130.9869     32.3462
  1621.7000      7.9416      2.1208     -0.0260     32.0738    130.0399     32.6532
  1621.8000      7.9574      2.1877      0.0367     28.0167    126.8313     32.2513
  1621.9000      7.9574      2.2705      0.0985     23.0024    124.5237     31.4297
  1622.0000      7.9948      2.3713      0.1592     16.8932    124.6920     30.8521
  1622.1000      7.9948      2.4677      0.2285     11.0479    126.7368     30.4134
  1622.2000      7.9948      2.5273      0.1898      7.4380    128.4172     29.5826
  1622.3000      8.0870      2.5565      0.0300      5.6670    128.7832     28.7397
  1622.4000      8.0870      2.5831      0.0771      4.0519    128.7146     28.1376
