~Version Information
VERS.                      2.0: CWLS Log ASCII Standard - VERSION 2.0
WRAP.                       NO: One line per depth step
~Well Information Block
STRT.FT                -8.2500: 
STOP.FT               871.5000: 
STEP.FT                 0.2500: 
NULL.                -999.2500: 
COMP.          Pioneer Natural Resources: COMPANY
WELL.             Tomcat 32-10: WELL
FLD.           Purgatorie River: FIELD
LOC.           2286' FNL & 2463' FEL------: LOCATION
PROV.                       CO: PROVINCE
CNTY.               Las Animas: COUNTRY
SRVC.          Patterson Wireline: SERVICE COMPANY
DATE.          Mon Mar 28 09:03:25 2005: LOG DATE
UWI.           05 071 08301 00: UNIQUE WELL ID
~Curve Information Block
DEPT.FT            0 000 00 00: Depth
CCL.                          : Casing Collar Locator
TT3.usec                      : CBL 3' Travel Time
AMP3.mV                       : CBL 3' Amplitude
GR.GAPI                       : Gamma Ray
~Parameter Information Block
~A  Depth       CCL         TT3         AMP3         GR     
# ...
    58.7500      0.0000    791.7451      6.9578     82.1878
    59.0000      0.0000    791.7693      6.9591     83.0502
    59.2500      0.0000    791.7297      6.9570     84.5994
    59.5000      0.0000    791.6465      6.9577     85.2696
    59.7500      0.0000    791.5686      6.9608     84.5117
    60.0000      0.0000    791.5425      6.9676     83.2027
    60.2500      0.0000    791.5775      6.9830     82.7121
    60.5000      0.0000    791.6324      7.0076     83.9709
    60.7500      0.0000    791.6324      7.0326     87.1834
    61.0000      0.0000    791.4692      7.0478     91.7803
    61.2500      0.0000    790.9423      7.0516     96.5971
    61.5000      0.0000    789.6738      7.0503    100.4662
    61.7500      0.0000    787.1696      7.0513    102.6418
    62.0000      0.0000    783.2758      7.0557    102.6707
    62.2500      0.0000    778.8726      7.0562    100.2910
    62.5000      0.0000    775.9050      7.0461     95.8199
    62.7500      0.0000    776.0980      7.0326     90.4727
    63.0000      0.0000    779.3708      7.0357     85.9604
    63.2500      0.0000    783.7738      7.0729     83.5630
    63.5000      0.0000    786.9987      7.1441     83.3830
    63.7500      0.0000    787.8186      7.2305     84.2606
    64.0000      0.0000    786.5193      7.3043     84.6412
    64.2500      0.0000    784.6071      7.3462     84.0171
    64.5000      0.0000    784.0441      7.3579     83.4377
    64.7500      0.0000    786.3074      7.3598     84.2522
    65.0000      0.0000    792.2235      7.3734     86.6942
    65.2500      0.0000    802.7145      7.4072     90.0699
    65.5000      0.0000    818.6686      7.4580     93.7979
    65.7500      0.0000    839.1060      7.5185     97.5614
    66.0000      0.0000    860.1534      7.5790    100.6773
    66.2500      0.0000    877.1538      7.6309    102.0320
    66.5000      0.0000    887.3074      7.6727    100.9019
    66.7500      0.0000    889.1394      7.7076     97.6434
    67.0000      0.0000    880.7955      7.7363     93.5450
    67.2500      0.0000    861.4471      7.7555     90.0641
    67.5000      0.0000    834.2773      7.7648     87.8896
    67.7500      0.0000    806.1390      7.7722     86.4403
    68.0000      0.0000    783.7426      7.7884     84.5532
    68.2500      0.0000    770.5840      7.8181     81.8720
    68.5000      0.0000    766.8144      7.8607     79.1458
    68.7500      0.0000    770.5968      7.9192     77.0226
    69.0000      0.0000    779.5103      8.0062     75.2480
    69.2500      0.0000    791.6576      8.1358     73.3305
    69.5000      0.0000    806.0936      8.3034     71.3924
    69.7500      0.0000    822.3610      8.4745     69.9102
    70.0000      0.0000    839.8708      8.5993     68.8897
    70.2500      0.0000    857.5743      8.6465     67.6778
    70.5000      0.0000    873.5104      8.6292     65.6541
    70.7500      0.0000    885.1102      8.6008     62.9821
    71.0000      0.0000    891.2178      8.6162     60.6103
    71.2500      0.0000    893.8112      8.6916     59.4586
    71.5000      0.0000    897.0661      8.7981     59.5491
    71.7500      0.0000    904.6054      8.8936     59.8898
    72.0000      0.0000    916.9852      8.9579     59.1865
    72.2500      0.0000    930.6281      8.9974     56.7171
    72.5000      0.0000    939.4656      9.0204     52.6308
    72.7500      0.0000    939.1038      9.0189     47.6673
    73.0000      0.0000    929.9070      8.9796     42.7985
    73.2500      0.0000    915.3430      8.9126     38.9040
    73.5000      0.0000    897.5695      8.8600     36.4575
    73.7500      0.0000    876.0329      8.8683     35.5520
    74.0000      0.0000    850.7707      8.9491     36.2627
    74.2500      0.0000    825.1899      9.0644     38.6791
    74.5000      0.0000    803.7372      9.1462     42.4756
    74.7500      0.0000    787.8099      9.1418     46.6615
    75.0000      0.0000    775.7735      9.0526     49.7836
    75.2500      0.0000    766.1541      8.9318     50.3978
    75.5000      0.0000    758.9971      8.8413     47.8771
    75.7500      0.0000    754.5976      8.8080     43.1197
    76.0000      0.0000    752.4739      8.8191     38.0950
    76.2500      0.0000    751.6950      8.8460     34.3910
    76.5000      0.0000    751.4958      8.8685     32.4307
    76.7500      0.0000    751.4549      8.8822     32.0070
    77.0000      0.0000    751.4046      8.8894     32.9808
    77.2500      0.0000    751.3209      8.8823     35.1691
    77.5000      0.0000    751.2399      8.8352     37.8086
    77.7500      0.0000    751.2095      8.7220     39.5652
    78.0000      0.0000    751.2560      8.5459     39.4547
    78.2500      0.0000    751.3715      8.3469     37.8564
    78.5000      0.0000    751.5153      8.1756     36.2802
    78.7500      0.0000    751.6538      8.0616     35.8773
    79.0000      0.0000    751.8055      8.0068     36.4098
    79.2500      0.0000    752.0552      7.9983     36.8133
    79.5000      0.0000    752.5891      8.0215     36.3558
    79.7500      0.0000    753.9008      8.0599     34.9726
    80.0000      0.0000    757.0429      8.0829     32.8759
    80.2500      0.0000    763.5008      8.0393     30.3842
    80.5000      0.0000    774.3272      7.8836     28.1251
    80.7500      0.0000    789.0498      7.6282     27.0242
    81.0000      0.0000    805.6996      7.3557     27.9127
    81.2500      0.0000    822.5750      7.1527     31.1015
    81.5000      0.0000    839.9648      7.0402     36.2067
    81.7500      0.0000    859.1585      6.9897     42.2458
    82.0000      0.0000    879.9059      6.9846     48.0117
    82.2500      0.0000    900.1036      7.0307     52.6645
    82.5000      0.0000    917.7902      7.1218     56.2437
    82.7500      2.0000    931.8141      7.2294     59.6334
    83.0000      2.0000    940.6835      7.3268     63.8423
    83.2500      0.0000    941.9693      7.4243     69.1555
    83.5000      0.0000    932.6580      7.5797     74.8208
    83.7500      0.0000    910.6765      7.8491     79.3821
    84.0000      0.0000    878.0824      8.2022     81.3873
    84.2500      0.0000    842.4568      8.5159     80.1510
    84.5000      0.0000    813.0211      8.6908     76.2157
    84.7500      0.0000    794.9382      8.7476     71.0928
    85.0000      0.0000    787.4580      8.7742     66.3579
    85.2500      0.0000    786.4348      8.8205     62.9299
    85.5000      0.0000    787.8019      8.8785     61.2019
    85.7500      0.0000    789.2873      8.9258     61.4908
    86.0000      0.0000    790.1819      8.9497     63.9558
    86.2500      0.0000    790.2902      8.9467     68.2462
    86.5000      0.0000    789.4050      8.9233     73.6365
    86.7500      0.0000    787.6021      8.8930     79.5008
    87.0000      0.0000    785.7040      8.8619     85.3293
    87.2500      0.0000    784.9786      8.8207     90.2133
    87.5000      0.0000    786.0723      8.7561     92.7378
    87.7500      0.0000    788.3721      8.6680     91.9288
    88.0000      0.0000    790.6276      8.5729     88.3420
    88.2500      0.0000    792.0074      8.4871     83.7928
    88.5000      0.0000    792.4054      8.4094     79.9525
    88.7500      0.0000    791.9803      8.3257     77.4806
    89.0000      0.0000    790.7592      8.2288     76.2101
    89.2500      0.0000    788.7967      8.1312     75.6057
    89.5000      0.0000    786.5443      8.0574     75.3135
    89.7500      0.0000    784.6384      8.0237     75.8113
    90.0000      0.0000    783.0743      8.0217     78.2635
    90.2500      0.0000    780.9811      8.0229     83.1590
    90.5000      0.0000    777.6695      8.0048     89.1321
    90.7500      0.0000    773.5607      7.9723     93.7158
    91.0000      0.0000    769.5756      7.9497     95.4981
    91.2500      0.0000    765.9949      7.9547     95.1728
    91.5000      0.0000    762.5391      7.9820     94.3877
    91.7500      0.0000    759.2512      8.0117     94.1197
    92.0000      0.0000    756.6729      8.0304     94.3544
