~Version Information
VERS.                      2.0: CWLS Log ASCII Standard - VERSION 2.0
WRAP.                       NO: One line per depth step
~Well Information Block
STRT.FT                -9.5000: 
STOP.FT              2893.0000: 
STEP.FT                 0.2500: 
NULL.                -999.2500: 
COMP.          Pioneer Natural Resources: COMPANY
WELL.          Old Yeller 31-32: WELL
FLD.           Purgatoire River: FIELD
LOC.           1832' FEL & 793' FNL----: LOCATION
STAT.                 Colorado: State
CNTY.               Las Animas: COUNTY
CTRY. USA : Country
SECT. 32 : Section
TOWN. 32S : Township
RANG. 67W : Range
SRVC.                         : SERVICE COMPANY
DATE.          Fri Sep 02 16:45:38 2005: LOG DATE
API. 05-071-08356                         : UNIQUE WELL ID
~Curve Information Block
DEPT.FT            0 000 00 00: Depth
CCL.                          : Casing Collar Locator
TT3.usec                      : CBL 3' Travel Time
AMP5.mV                       : CBL 5' Amplitude
GR.GAPI                       : Gamma Ray
~Parameter Information Block
~A  Depth       CCL         TT3         AMP5         GR     
# ...
  2101.0000      0.0000    622.6484      0.3000    133.7139
  2101.2500      0.0000    606.5564      0.6482    143.9884
  2101.5000      0.0000    593.0986      1.1705    153.4712
  2101.7500      0.0000    583.8698      2.3021    159.4690
  2102.0000      0.0000    577.4716      0.7352    159.9824
  2102.2500      0.0000    573.7401      1.0834    155.2091
  2102.5000      0.0000    574.6865      1.0834    147.4798
  2102.7500      0.0000    582.7127      0.9093    139.4265
  2103.0000      0.0000    598.4578      0.3870    132.4129
  2103.2500      0.0000    619.9048      0.6482    126.5262
  2103.5000      0.0000    642.1786      0.7352    121.5155
  2103.7500      0.0000    658.6301      0.9964    117.6627
  2104.0000      0.0000    664.5240      0.8223    115.8618
  2104.2500      0.0000    660.7236      0.9093    116.8273
  2104.5000      0.0000    652.7739      0.9964    120.3507
  2104.7500      0.0000    645.7639      1.2575    125.5864
  2105.0000      0.0000    639.8422      0.8223    131.9815
  2105.2500      0.0000    630.4084      0.7352    139.3835
  2105.5000      0.0000    612.9772      1.0834    147.0538
  2105.7500      0.0000    588.7119      0.8223    153.1376
  2106.0000      0.0000    565.3652      1.2575    155.6417
  2106.2500      0.0000    552.4429      0.9093    153.8560
  2106.5000      0.0000    554.8790      1.0834    148.8228
  2106.7500      0.0000    570.1881      1.1705    142.8074
  2107.0000      0.0000    590.3564      1.4316    138.1293
  2107.2500      0.0000    606.0173      0.7352    135.7451
  2107.5000      0.0000    609.5276      1.1705    134.7340
  2107.7500      0.0000    596.2465      0.9093    133.3694
  2108.0000      0.0000    566.1245      0.9093    130.7143
  2108.2500      0.0000    525.6153      0.8223    127.1189
  2108.5000      0.0000    486.3694      0.8223    123.4522
  2108.7500      0.0000    460.3304      0.8223    120.3136
  2109.0000      0.0000    455.4287      1.2575    118.0721
  2109.2500      0.0000    473.4685      0.9093    117.3027
  2109.5000      0.0000    508.5928      0.7352    118.7898
  2109.7500      0.0000    548.1175      0.9964    122.9070
  2110.0000      0.0000    578.7227      0.6482    128.9821
  2110.2500      0.0000    594.2694      1.0834    135.4668
  2110.5000      0.0000    597.8781      0.5611    141.0548
  2110.7500      0.0000    597.1387      0.9964    145.6803
  2111.0000      0.0000    598.0009      0.7352    150.2098
  2111.2500      0.0000    601.4261      0.9964    155.2196
  2111.5000      0.0000    603.0773      0.4741    160.5071
  2111.7500      0.0000    596.0162      1.0834    165.7823
  2112.0000      0.0000    576.2280      1.1705    171.2861
  2112.2500      0.0000    546.9136      1.1705    177.3179
  2112.5000      0.0000    516.4188      0.9964    183.3510
  2112.7500      0.0000    491.8750      1.0834    187.9319
  2113.0000      0.0000    476.1066      0.7352    189.7150
  2113.2500      0.0000    470.1927      0.9093    188.5830
  2113.5000      0.0000    476.0732      0.8223    185.4942
  2113.7500      0.0000    494.0060      0.6482    181.2422
  2114.0000      0.0000    517.3612      1.0834    175.6798
  2114.2500      0.0000    532.9271      0.9093    168.2451
  2114.5000      0.0000    530.6923      0.7352    159.1947
  2114.7500      0.0000    514.5127      0.5611    150.2333
  2115.0000      0.0000    500.2906      1.1705    143.5808
  2115.2500      0.0000    501.7167      0.6482    140.3021
  2115.5000      0.0000    518.9254      0.7352    139.9614
  2115.7500      0.0000    541.2963      0.6482    141.7949
  2116.0000      0.0000    558.7716      1.2575    145.5015
  2116.2500      0.0000    568.9778      0.4741    150.7710
  2116.5000      0.0000    575.4741      1.0834    156.5638
  2116.7500      0.0000    581.9991      0.7352    161.0414
  2117.0000      0.0000    588.9784      0.9093    162.3397
  2117.2500      0.0000    594.3251      1.1705    159.7979
  2117.5000      0.0000    596.2571      0.4741    154.5454
  2117.7500      0.0000    594.6792      0.6482    148.7479
  2118.0000      0.0000    590.2019      0.6482    144.3793
  2118.2500      0.0000    582.7898      0.3870    142.5068
  2118.5000      0.0000    571.9850      0.9093    143.0199
  2118.7500      0.0000    558.1658      0.9093    144.7748
  2119.0000      0.0000    543.1528      0.8223    146.3886
  2119.2500      0.0000    529.5351      0.6482    147.1438
  2119.5000      0.0000    519.4285      0.7352    147.1257
  2119.7500      0.0000    513.7061      0.3870    146.7838
  2120.0000      0.0000    512.2366      0.6482    146.6550
  2120.2500      0.0000    514.7908      0.4741    147.3391
  2120.5000      0.0000    521.6265      0.3870    149.1898
  2120.7500      0.0000    533.1487      0.5611    151.6661
  2121.0000      0.0000    549.0433      0.6482    153.1111
  2121.2500      0.0000    567.6573      0.4741    151.5892
  2121.5000      0.0000    586.0701      0.9093    146.2932
  2121.7500      0.0000    600.8890      0.4741    138.2737
  2122.0000      0.0000    609.1796      0.9964    129.7540
  2122.2500      0.0000    608.7844      1.1705    122.6764
  2122.5000      0.0000    598.8778      0.6482    117.8724
  2122.7500      0.0000    582.2229      0.8223    115.2356
  2123.0000      0.0000    566.7944      1.0834    114.1605
  2123.2500      0.0000    562.1926      1.0834    113.8564
  2123.5000      0.0000    572.2324      0.7352    113.6926
  2123.7500      0.0000    591.4755      0.6482    113.5272
  2124.0000      0.0000    609.4309      0.7352    113.5498
  2124.2500      0.0000    617.5682      0.9964    113.7779
  2124.5000      0.0000    613.1942      0.8223    113.9425
  2124.7500      0.0000    599.6431      1.1705    113.8858
  2125.0000      0.0000    584.2664      0.7352    113.8256
  2125.2500      0.0000    574.2474      1.0834    114.3350
  2125.5000      0.0000    571.9960      1.1705    116.1585
  2125.7500      0.0000    574.5706      0.5611    119.5847
  2126.0000      0.0000    578.0312      0.7352    123.8273
  2126.2500      0.0000    581.4251      0.5611    127.6321
  2126.5000      0.0000    586.3625      0.9093    130.6808
  2126.7500      0.0000    594.0757      0.7352    133.7820
  2127.0000      0.0000    603.0994      0.7352    137.6035
  2127.2500      0.0000    608.7386      0.8223    141.6835
  2127.5000      0.0000    605.2279      0.5611    144.7860
  2127.7500      0.0000    589.9407      0.9964    146.3322
  2128.0000      0.0000    565.6422      0.3870    147.5998
  2128.2500      0.0000    538.4368      0.4741    151.0353
  2128.5000      0.0000    514.1586      0.5611    157.7969
  2128.7500      0.0000    496.5128      0.7352    166.0943
  2129.0000      0.0000    487.1345      0.6482    172.2415
  2129.2500      0.0000    486.6424      0.6482    173.3013
  2129.5000      0.0000    495.3837      0.6482    168.7537
  2129.7500      0.0000    512.0131      0.4741    160.0441
  2130.0000      0.0000    530.7765      0.9093    148.9003
  2130.2500      0.0000    542.2589      0.7352    136.1549
  2130.5000      0.0000    540.4985      1.1705    122.0328
  2130.7500      0.0000    530.1281      0.9964    107.1455
  2131.0000      0.0000    523.3704      1.0834     92.8489
  2131.2500      0.0000    527.6359      0.8223     80.6699
  2131.5000      0.0000    537.8278      0.9964     71.5948
  2131.7500      0.0000    543.4502      0.8223     66.0264
  2132.0000      0.0000    542.1250      1.0834     64.1834
  2132.2500      0.0000    543.0103      0.7352     66.0431
  2132.5000      0.0000    556.4553      1.0834     70.8641
  2132.7500      0.0000    581.7430      0.9964     77.4901
  2133.0000      0.0000    605.4651      0.5611     85.5474
  2133.2500      0.0000    611.6650      0.8223     95.8398
  2133.5000      0.0000    595.2793      0.5611    108.9151
  2133.7500      0.0000    568.1841      0.9093    123.2167
  2134.0000      0.0000    551.2632      0.3000    134.9774
  2134.2500      0.0000    557.2302      0.4741    140.4097
