~Version Information
VERS.                      2.0: CWLS Log ASCII Standard - VERSION 2.0
WRAP.                       NO: One line per depth step
~Well Information Block
STRT.FT               260.0000: 
STOP.FT              2269.5000: 
STEP.FT                 0.1000: 
NULL.                -999.2500: 
COMP.          Pioneer Natural Resources: COMPANY
WELL.            Moo Moo 31-36: WELL
FLD.           Purgatoire River: FIELD
LOC.           612' FNL & 2326' FEL: LOCATION
PROV.                 Colorado: PROVINCE
CNTY.               Las Animas: COUNTRY
SRVC.                Patterson: SERVICE COMPANY
DATE.          Fri Jun 17 07:04:43 2005: LOG DATE
UWI.           05 071 08395 00: UNIQUE WELL ID
~Curve Information Block
DEPT.FT            0 000 00 00: Depth
DCAL.in                       : CDL Caliper
RHOB.g/cc                     : CDL Bulk Density
RHOC.g/cc                     : CDL Density Correction
DPOR.pu                       : CDL Density Porosity
GR.GAPI                       : Gamma Ray
NPOR.pu                       : Neutron Porosity
~Parameter Information Block
~A  Depth       DCAL        RHOB        RHOC        DPOR         GR         NPOR    
# ...
  1460.0000      7.9606      2.6606      0.0506     -0.6438    103.5875     18.7545
  1460.1000      7.9606      2.6520      0.0828     -0.1221    103.9255     18.9536
  1460.2000      7.9606      2.6346      0.0465      0.9321     99.3442     18.7732
  1460.3000      7.9565      2.6212      0.0639      1.7449     94.4061     17.9300
  1460.4000      7.9565      2.6247      0.0236      1.5334     91.4779     16.9539
  1460.5000      7.9446      2.6497      0.0046      0.0157     91.4300     16.5407
  1460.6000      7.9446      2.6762      0.0581     -1.5883     95.0983     16.9608
  1460.7000      7.9446      2.6722      0.0496     -1.3439    101.1463     17.9985
  1460.8000      7.9429      2.6369      0.0483      0.7934    107.3291     19.1390
  1460.9000      7.9429      2.5959      0.0202      3.2801    111.3290     20.0129
  1461.0000      7.9828      2.5720      0.0322      4.7283    112.8616     20.5294
  1461.1000      7.9828      2.5771     -0.0155      4.4171    114.3314     20.9487
  1461.2000      7.9828      2.6059      0.0386      2.6754    117.7031     21.5879
  1461.3000      8.0399      2.6319      0.0738      1.0943    121.8622     22.2506
  1461.4000      8.0399      2.6436      0.0042      0.3857    124.5780     22.5998
  1461.5000      8.0630      2.6534      0.0943     -0.2049    125.0407     22.0969
  1461.6000      8.0630      2.6673      0.0696     -1.0514    122.0005     20.5906
  1461.7000      8.0630      2.6851      0.0852     -2.1263    118.8959     19.0473
  1461.8000      8.0364      2.6863      0.1262     -2.1991    117.8711     18.4996
  1461.9000      8.0364      2.6575      0.0615     -0.4572    112.7291     19.3556
  1462.0000      8.0406      2.6324      0.0258      1.0668    103.4172     21.3780
  1462.1000      8.0406      2.6313      0.0666      1.1355     98.5206     22.9063
  1462.2000      8.0406      2.6268      0.0579      1.4068     99.9002     22.3262
  1462.3000      7.9678      2.6062     -0.0108      2.6547    103.5806     20.4985
  1462.4000      7.9678      2.5878      0.0147      3.7720    106.1616     19.2332
  1462.5000      7.9661      2.5780      0.0178      4.3622    109.1363     19.4374
  1462.6000      7.9661      2.5742     -0.0202      4.5956    115.2021     20.6525
  1462.7000      7.9661      2.5784      0.0361      4.3385    119.2826     21.9290
  1462.8000      8.0237      2.5821      0.0798      4.1123    117.9076     23.0977
  1462.9000      8.0237      2.5784      0.0293      4.3420    113.8060     23.5083
  1463.0000      8.0305      2.5782      0.0474      4.3497    109.3969     22.6331
  1463.1000      8.0305      2.5825      0.0609      4.0903    108.4747     21.5795
  1463.2000      8.0305      2.5813      0.0367      4.1629    115.6244     21.3672
  1463.3000      7.9639      2.5746      0.0248      4.5693    126.5790     21.6501
  1463.4000      7.9639      2.5656      0.0511      5.1169    133.5085     22.2242
  1463.5000      7.9572      2.5554      0.0216      5.7314    135.2763     23.0141
  1463.6000      7.9572      2.5533     -0.0180      5.8585    134.2116     23.1823
  1463.7000      7.9572      2.5649      0.0767      5.1583    130.4165     22.8533
  1463.8000      7.9617      2.5748      0.0561      4.5584    125.4486     22.8891
  1463.9000      7.9617      2.5818      0.0071      4.1304    121.7981     23.1496
  1464.0000      7.9537      2.5980      0.1189      3.1541    119.6933     23.6066
  1464.1000      7.9537      2.6070      0.1203      2.6082    122.1555     24.3583
  1464.2000      7.9537      2.5989      0.0654      3.0970    131.2083     24.7039
  1464.3000      7.9142      2.5993      0.0514      3.0720    140.8674     24.3919
  1464.4000      7.9142      2.6217      0.0475      1.7129    144.6145     23.8410
  1464.5000      7.9148      2.6417      0.0954      0.5008    142.7865     23.5090
  1464.6000      7.9148      2.6276      0.0997      1.3604    140.2023     23.6001
  1464.7000      7.9148      2.5860      0.0441      3.8783    138.5693     23.8485
  1464.8000      7.9405      2.5620     -0.0074      5.3333    136.3006     24.3096
  1464.9000      7.9405      2.5698      0.0730      4.8622    133.9455     24.6954
  1465.0000      7.9657      2.5804      0.0505      4.2193    132.4841     24.1369
  1465.1000      7.9657      2.5847      0.0570      3.9564    132.6326     23.2090
  1465.2000      7.9657      2.6037      0.0199      2.8031    134.6337     23.1488
  1465.3000      7.9762      2.6425      0.0837      0.4564    135.8507     23.7682
  1465.4000      7.9762      2.6702      0.0899     -1.2242    135.5598     24.1887
  1465.5000      7.9776      2.6623      0.0798     -0.7479    135.7696     24.0558
  1465.6000      7.9776      2.6363      0.0288      0.8278    136.6212     23.4957
  1465.7000      7.9776      2.6219      0.0544      1.7009    137.8225     23.2447
  1465.8000      7.9714      2.6157      0.0510      2.0773    139.0181     23.8672
  1465.9000      7.9714      2.6121      0.0278      2.2997    138.5822     24.5465
  1466.0000      7.9617      2.6248      0.0402      1.5244    135.9867     24.1693
  1466.1000      7.9617      2.6501      0.1298     -0.0088    132.9503     23.1250
  1466.2000      7.9617      2.6647      0.1110     -0.8882    131.9612     22.6482
  1466.3000      8.0048      2.6636      0.1003     -0.8265    131.0300     23.0431
  1466.4000      8.0048      2.6603      0.0771     -0.6232    124.6605     23.5187
  1466.5000      7.9975      2.6605      0.0310     -0.6393    116.7276     23.3432
  1466.6000      7.9975      2.6626      0.0486     -0.7654    113.7026     22.7561
  1466.7000      7.9975      2.6695      0.0459     -1.1812    113.4040     22.6091
  1466.8000      8.0148      2.6867      0.0496     -2.2238    113.1481     22.9700
  1466.9000      8.0148      2.6972      0.1150     -2.8588    113.2610     22.9112
  1467.0000      8.0165      2.6733      0.0802     -1.4125    113.1743     22.2160
  1467.1000      8.0165      2.6254     -0.0057      1.4912    114.5138     21.9407
  1467.2000      8.0165      2.5857      0.0433      3.8986    117.8889     22.2599
  1467.3000      8.0237      2.5678      0.0158      4.9819    117.9841     22.3437
  1467.4000      8.0237      2.5727      0.0140      4.6868    111.2872     21.9530
  1467.5000      8.0515      2.5952      0.0147      3.3218    102.3076     21.3868
  1467.6000      8.0515      2.6178      0.0461      1.9500     96.1771     20.7768
  1467.7000      8.0515      2.6230      0.0729      1.6384     90.9958     19.9714
  1467.8000      8.0328      2.6081      0.0315      2.5394     85.9405     19.1247
  1467.9000      8.0328      2.5850     -0.0139      3.9396     81.9951     18.8163
  1468.0000      8.0329      2.5692      0.0016      4.8964     77.8599     19.2776
  1468.1000      8.0329      2.5696      0.0021      4.8713     73.2007     19.9566
  1468.2000      8.0329      2.5854     -0.0166      3.9141     68.7315     19.8602
  1468.3000      8.0216      2.6007      0.0669      2.9905     66.2734     18.9143
  1468.4000      8.0216      2.6021      0.0282      2.9024     67.1252     18.0004
  1468.5000      8.0384      2.6004      0.0256      3.0071     69.0701     17.4845
  1468.6000      8.0384      2.6090      0.0405      2.4823     68.6025     17.3181
  1468.7000      8.0384      2.6251      0.0851      1.5112     65.3211     17.5666
  1468.8000      8.0331      2.6331      0.0619      1.0232     62.0851     17.9758
  1468.9000      8.0331      2.6286      0.0418      1.2967     63.5938     18.0222
  1469.0000      7.9985      2.6258      0.0364      1.4682     71.7393     18.0194
  1469.1000      7.9985      2.6279      0.1194      1.3414     82.1221     18.5335
  1469.2000      7.9985      2.6228      0.0723      1.6505     88.4668     19.3043
  1469.3000      7.9959      2.6147      0.0694      2.1371     90.2890     19.8515
  1469.4000      7.9959      2.6179      0.0381      1.9460     92.9548     20.2738
  1469.5000      7.9777      2.6337      0.0754      0.9878    101.4401     20.9109
