~Version Information
VERS.                      2.0: CWLS Log ASCII Standard - VERSION 2.0
WRAP.                       NO: One line per depth step
~Well Information Block
STRT.FT               454.0000: 
STOP.FT              1392.0000: 
STEP.FT                 0.2500: 
NULL.                -999.2500: 
COMP.          Pioneer Natural Resources: COMPANY
WELL.          Lorencito 6-3-34-66: WELL
FLD.           Purgatoire River: FIELD
LOC.           2545' FNL & 1914' FWL: LOCATION
STAT.                 Colorado: State
CNTY.               Las Animas: COUNTY
CTRY. USA : Country
SECT. 3 : Section
TOWN. 34S : Township
RANG. 66W : Range
SRVC.                Patterson: SERVICE COMPANY
DATE.          Fri Sep 09 22:07:39 2005: LOG DATE
API.           05 071 08369 00: UNIQUE WELL ID
~Curve Information Block
DEPT.FT            0 000 00 00: Depth
SN.Ohm-m                      : IEL Short Normal
SP.mV                         : IEL Spontaneous Potential
DIR.Ohm-m                     : IEL Induction Resistivity
GR.GAPI                       : Gamma Ray
~Parameter Information Block
~A  Depth        SN          SP         DIR          GR     
# ...
   822.5000     62.6305     71.4444     43.9366     47.0945
   822.7500     63.0221     70.7267     43.3583     46.0229
   823.0000     63.3666     69.9016     42.4429     44.4982
   823.2500     63.5898     69.0880     41.2323     43.5685
   823.5000     63.6101     68.3850     39.8379     42.0255
   823.7500     63.3894     67.8388     38.3933     40.7808
   824.0000     62.9406     67.4212     37.0102     38.8353
   824.2500     62.2931     67.0442     35.7462     37.8741
   824.5000     61.4511     66.6177     34.5929     37.5944
   824.7500     60.3777     66.1106     33.4817     38.2410
   825.0000     59.0054     65.5652     32.3088     39.7502
   825.2500     57.2644     65.0568     30.9736     40.5640
   825.5000     55.1106     64.6394     29.4205     41.3580
   825.7500     52.5391     64.3311     27.6725     42.1306
   826.0000     49.5831     64.1327     25.8249     44.8072
   826.2500     46.3122     64.0273     24.0073     47.9345
   826.5000     42.8393     63.9534     22.3391     54.2846
   826.7500     39.3187     63.8089     20.8993     58.9573
   827.0000     35.9221     63.5119     19.7187     65.3386
   827.2500     32.8058     63.0688     18.7885     68.8012
   827.5000     30.0913     62.5908     18.0719     73.0350
   827.7500     27.8504     62.2600     17.5150     75.5096
   828.0000     26.0818     62.2622     17.0570     78.8702
   828.2500     24.6985     62.6972     16.6383     80.7882
   828.5000     23.5618     63.5083     16.2093     83.0473
   828.7500     22.5508     64.4831     15.7381     84.2188
   829.0000     21.6129     65.3341     15.2133     85.8483
   829.2500     20.7555     65.8151     14.6431     87.0581
   829.5000     19.9948     65.8109     14.0491     89.2007
   829.7500     19.3160     65.3596     13.4584     90.8812
   830.0000     18.6718     64.5989     12.8964     93.9616
   830.2500     18.0101     63.6677     12.3829     96.6493
   830.5000     17.2978     62.6313     11.9311    102.3797
   830.7500     16.5214     61.4812     11.5484    107.6848
   831.0000     15.6795     60.1927     11.2366    117.2650
   831.2500     14.7833     58.7776     10.9940    123.3884
   831.5000     13.8752     57.3003     10.8139    129.3572
   831.7500     13.0403     55.8883     10.6858    130.4152
   832.0000     12.3918     54.7677     10.5950    128.5703
   832.2500     12.0333     54.2905     10.5238    126.2012
   832.5000     12.0190     54.8510     10.4528    122.3803
   832.7500     12.3318     56.6446     10.3650    130.1672
   833.0000     12.8828     59.4201     10.2482    127.7840
   833.2500     13.5293     62.4948     10.0980    127.0405
   833.5000     14.1043     65.0869      9.9193    126.2568
   833.7500     14.4597     66.6876      9.7250    135.0386
   834.0000     14.5137     67.1859      9.5329    133.2884
   834.2500     14.2822     66.7403      9.3621    132.6200
   834.5000     13.8724     65.5941      9.2293    133.6025
   834.7500     13.4285     63.9723      9.1457    135.8457
   835.0000     13.0681     62.0757      9.1158    140.8790
   835.2500     12.8511     60.1267      9.1368    144.2891
   835.5000     12.7915     58.4109      9.1993    147.4001
   835.7500     12.8752     57.2840      9.2889    147.4750
   836.0000     13.0580     57.1244      9.3907    145.0356
   836.2500     13.2628     58.2078      9.4914    142.5358
   836.5000     13.4155     60.5286      9.5837    138.5939
   836.7500     13.5092     63.6927      9.6671    135.9310
   837.0000     13.6356     67.0142      9.7466    131.2705
   837.2500     13.9332     69.7985      9.8308    127.3665
   837.5000     14.4837     71.6261      9.9287    120.6769
   837.7500     15.2399     72.4538     10.0471    116.6042
   838.0000     16.0344     72.5106     10.1891    112.9079
   838.2500     16.6520     72.1028     10.3538    112.4820
   838.5000     16.9193     71.4610     10.5356    114.6279
   838.7500     16.7710     70.6975     10.7248    117.8092
   839.0000     16.2690     69.8642     10.9079    125.2210
   839.2500     15.5695     69.0278     11.0695    131.3782
   839.5000     14.8541     68.2831     11.1940    140.2007
   839.7500     14.2588     67.7000     11.2693    144.4339
   840.0000     13.8404     67.2726     11.2891    147.1214
   840.2500     13.5881     66.9296     11.2543    146.4823
   840.5000     13.4617     66.5950     11.1722    142.6473
   840.7500     13.4185     66.2199     11.0548    138.8647
   841.0000     13.4159     65.7531     10.9145    132.4237
   841.2500     13.4046     65.1191     10.7623    127.9690
   841.5000     13.3351     64.2578     10.6060    121.6434
   841.7500     13.1832     63.1703     10.4502    118.4200
   842.0000     12.9711     61.8996     10.2978    116.7618
   842.2500     12.7554     60.4835     10.1510    118.2340
   842.5000     12.5847     58.9569     10.0129    123.1997
   842.7500     12.4633     57.3929      9.8867    126.9078
   843.0000     12.3562     55.9135      9.7753    130.9687
   843.2500     12.2316     54.6301      9.6800    132.3604
   843.5000     12.0984     53.5458      9.5990    133.1364
   843.7500     11.9996     52.5222      9.5277    133.1206
   844.0000     11.9675     51.3817      9.4585    132.0099
   844.2500     11.9781     50.0768      9.3830    130.2726
   844.5000     11.9470     48.7750      9.2947    126.9234
   844.7500     11.7779     47.7920      9.1910    125.4346
   845.0000     11.4320     47.4334      9.0755    126.2274
   845.2500     10.9615     47.8349      8.9582    128.8539
   845.5000     10.4792     48.8662      8.8533    134.2138
   845.7500     10.1019     50.1678      8.7767    137.2914
   846.0000      9.9128     51.3310      8.7428    139.3852
   846.2500      9.9550     52.0989      8.7616    139.0297
   846.5000     10.2375     52.4370      8.8372    137.3756
   846.7500     10.7291     52.4556      8.9670    136.5858
   847.0000     11.3447     52.2738      9.1417    136.2839
   847.2500     11.9413     51.9246      9.3466    135.9607
   847.5000     12.3558     51.3654      9.5635    133.8434
   847.7500     12.4875     50.5741      9.7736    131.1123
   848.0000     12.3722     49.6247      9.9603    125.8230
   848.2500     12.1703     48.6679     10.1124    122.2475
   848.5000     12.0586     47.8517     10.2250    117.8572
   848.7500     12.1152     47.2632     10.2997    115.8926
   849.0000     12.2970     46.9248     10.3435    114.6335
   849.2500     12.5068     46.8295     10.3680    115.0942
   849.5000     12.6730     46.9748     10.3872    117.9304
   849.7500     12.7772     47.3549     10.4166    120.9238
   850.0000     12.8341     47.9052     10.4712    125.5607
   850.2500     12.8603     48.4634     10.5633    127.8316
   850.5000     12.8617     48.8199     10.7009    129.3768
   850.7500     12.8478     48.8393     10.8858    129.2786
   851.0000     12.8559     48.5302     11.1130    127.7018
   851.2500     12.9606     47.9946     11.3710    125.8023
   851.5000     13.2407     47.3391     11.6433    122.1103
   851.7500     13.7219     46.6578     11.9117    119.3761
   852.0000     14.3467     46.0609     12.1585    114.7853
   852.2500     14.9993     45.6616     12.3702    111.0952
   852.5000     15.5626     45.5133     12.5379    104.7795
   852.7500     15.9556     45.5660     12.6578    100.8602
   853.0000     16.1382     45.6851     12.7294     97.0793
   853.2500     16.1087     45.7109     12.7544     96.3667
   853.5000     15.9123     45.5104     12.7351     97.6331
   853.7500     15.6465     45.0100     12.6744     99.6103
   854.0000     15.4346     44.2156     12.5762    103.4571
   854.2500     15.3684     43.2113     12.4463    105.8894
   854.5000     15.4592     42.1184     12.2935    107.8868
   854.7500     15.6366     41.0430     12.1301    107.6148
   855.0000     15.7991     40.0641     11.9697    105.0994
   855.2500     15.8765     39.2706     11.8254    102.7943
   855.5000     15.8595     38.7768     11.7076    100.2037
   855.7500     15.7785     38.6611     11.6212     99.9979
