~Version Information
VERS.                      2.0: CWLS Log ASCII Standard - VERSION 2.0
WRAP.                       NO: One line per depth step
~Well Information Block
STRT.FT                -2.0000: 
STOP.FT              1016.0000: 
STEP.FT                 0.2500: 
NULL.                -999.2500: 
COMP.          Evergreen Operating Corp.: COMPANY
WELL.              Sunset 24-3: WELL
FLD.           Purgatorie River: FIELD
LOC.           467' FSL & 2262' FWL--: LOCATION
PROV.                       CO: PROVINCE
CNTY.               Las Animas: COUNTRY
SRVC.                         : SERVICE COMPANY
DATE.          Mon Sep 27 13:40:22 2004: LOG DATE
UWI.           005 071 08158  : UNIQUE WELL ID
~Curve Information Block
DEPT.FT            0 000 00 00: Depth
GR.GAPI                       : Gamma Ray
CCL.                          : Casing Collar Locator
TT3.usec                      : CBL 3' Travel Time
AMP3.mV                       : CBL 3' Amplitude
~Parameter Information Block
~A  Depth        GR         CCL         TT3         AMP3    
# ...
   567.5000     83.3154      0.0000    855.3911      4.1268
   567.7500     79.9908      0.0000    830.1885      4.3814
   568.0000     74.3488      0.0000    808.0839      4.6308
   568.2500     68.1174      0.0000    791.3849      4.8243
   568.5000     64.0373      0.0000    779.6105      4.9221
   568.7500     64.5571      0.0000    771.6816      4.8889
   569.0000     70.6221      0.0000    766.8236      4.7175
   569.2500     81.4264      0.0000    764.1228      4.4525
   569.5000     95.0237      0.0000    762.2512      4.1735
   569.7500    109.0355      0.0000    759.8032      3.9498
   570.0000    121.2508      0.0000    755.9869      3.8155
   570.2500    130.3067      0.0000    751.3665      3.7769
   570.5000    135.8861      0.0000    747.8758      3.8272
   570.7500    137.9192      0.0000    747.4200      3.9479
   571.0000    135.8963      0.0000    750.1447      4.1097
   571.2500    129.8442      0.0000    754.3436      4.2774
   571.5000    122.0184      0.0000    758.0596      4.4187
   571.7500    116.4639      0.0000    760.4300      4.5146
   572.0000    115.9776      0.0000    761.6282      4.5646
   572.2500    119.8888      0.0000    762.1204      4.5805
   572.5000    125.3750      0.0000    762.2164      4.5757
   572.7500    130.2663      0.0000    762.0634      4.5650
   573.0000    134.0106      0.0000    761.7593      4.5681
   573.2500    136.8737      0.0000    761.3974      4.6019
   573.5000    139.3772      0.0000    761.0492      4.6692
   573.7500    142.2283      0.0000    760.7490      4.7544
   574.0000    145.8291      0.0000    760.4906      4.8306
   574.2500    149.5488      0.0000    760.2271      4.8700
   574.5000    151.8192      0.0000    759.8056      4.8595
   574.7500    151.3123      0.0000    758.7402      4.8132
   575.0000    148.0440      0.0000    755.8913      4.7647
   575.2500    143.3886      0.0000    749.5931      4.7416
   575.5000    139.4374      0.0000    739.0632      4.7494
   575.7500    138.2375      0.0000    726.6207      4.7742
   576.0000    140.5274      0.0000    717.9026      4.7914
   576.2500    144.5107      0.0000    718.0466      4.7758
   576.5000    146.5270      0.0000    727.0348      4.7135
   576.7500    143.7633      0.0000    739.7113      4.6079
   577.0000    136.4249      0.0000    750.4301      4.4705
   577.2500    127.3876      0.0000    756.8170      4.3090
   577.5000    120.3286      0.0000    759.5706      4.1289
   577.7500    118.0057      0.0000    760.3420      3.9459
   578.0000    120.9871      0.0000    760.3726      3.7917
   578.2500    127.0441      0.0000    760.2874      3.7017
   578.5000    132.2616      0.0000    760.3080      3.6902
   578.7500    133.8222      0.0000    760.4594      3.7409
   579.0000    132.0839      0.0000    760.7014      3.8178
   579.2500    129.7570      0.0000    760.9964      3.8874
   579.5000    129.1665      0.0000    761.3284      3.9300
   579.7500    130.5093      0.0000    761.6774      3.9398
   580.0000    132.4437      0.0000    761.9901      3.9208
   580.2500    133.8631      0.0000    762.1916      3.8843
   580.5000    134.9916      0.0000    762.2476      3.8471
   580.7500    136.8569      0.0000    762.2217      3.8263
   581.0000    139.7638      0.0000    762.2695      3.8331
   581.2500    142.6711      0.0000    762.5829      3.8675
   581.5000    144.3557      0.0000    763.3853      3.9197
   581.7500    144.7904      0.0000    764.8945      3.9751
   582.0000    144.8650      0.0000    767.0257      4.0195
   582.2500    144.9995      0.0000    769.0162      4.0445
   582.5000    144.6212      0.0000    769.6988      4.0496
   582.7500    143.0065      0.0000    768.5344      4.0393
   583.0000    140.2810      0.0000    766.2462      4.0203
   583.2500    137.3017      0.0000    764.2443      4.0012
   583.5000    134.4750      0.0000    763.7262      3.9941
   583.7500    131.0818      0.0000    765.5900      4.0108
   584.0000    126.2874      0.0000    770.7088      4.0525
   584.2500    120.5703      0.0000    779.6172      4.1025
   584.5000    115.5462      0.0000    791.6215      4.1351
   584.7500    112.4892      0.0000    804.1521      4.1379
   585.0000    111.5034      0.0000    813.2300      4.1241
   585.2500    111.9780      0.0000    815.4810      4.1166
   585.5000    113.1387      0.0000    810.5809      4.1221
   585.7500    114.0252      0.0000    801.4708      4.1232
   586.0000    113.5388      0.0000    791.7766      4.0978
   586.2500    111.1896      0.0000    783.3696      4.0430
   586.5000    107.8282      0.0000    776.3866      3.9783
   586.7500    105.1182      0.0000    770.6871      3.9250
   587.0000    104.1823      0.0000    766.7125      3.8879
   587.2500    105.0855      0.0000    765.0896      3.8612
   587.5000    107.4842      0.0000    765.7057      3.8492
   587.7500    111.1479      0.0000    767.3123      3.8709
   588.0000    115.7789      0.0000    768.1693      3.9375
   588.2500    120.8224      0.0000    767.3209      4.0296
   588.5000    125.6035      0.0000    765.2153      4.0998
   588.7500    129.4850      0.0000    763.0344      4.1020
   589.0000    132.0625      0.0000    761.5963      4.0265
   589.2500    133.4183      0.0000    760.9644      3.9110
   589.5000    133.9935      0.0000    760.7951      3.8143
   589.7500    134.1397      0.0000    760.7619      3.7721
   590.0000    133.8015      0.0000    760.7222      3.7783
   590.2500    132.3250      0.0000    760.6730      3.8068
   590.5000    128.6003      0.0000    760.6396      3.8407
   590.7500    122.2257      0.0000    760.6051      3.8776
   591.0000    114.9412      0.0000    760.5303      3.9154
   591.2500    110.0983      0.0000    760.3909      3.9514
   591.5000    110.0663      0.0000    760.1863      3.9936
   591.7500    114.3276      0.0000    759.9388      4.0603
   592.0000    120.1036      0.0000    759.7025      4.1610
   592.2500    124.4538      0.0000    759.5565      4.2855
   592.5000    125.8782      0.0000    759.5533      4.4116
   592.7500    124.6375      0.0000    759.6619      4.5180
   593.0000    122.1628      0.0000    759.7702      4.5933
   593.2500    120.2018      0.0000    759.7598      4.6384
   593.5000    119.8648      0.0000    759.5778      4.6642
   593.7500    120.7856      0.0000    759.2431      4.6842
   594.0000    121.2666      0.0000    758.8112      4.7051
   594.2500    119.7992      0.0000    758.3555      4.7215
   594.5000    116.7626      0.0000    757.9610      4.7261
   594.7500    114.5049      0.0000    757.6981      4.7244
   595.0000    115.5129      0.0000    757.6357      4.7307
   595.2500    120.3051      0.0000    757.9313      4.7498
   595.5000    126.8565      0.0000    758.9252      4.7730
   595.7500    131.9063      0.0000    761.0625      4.7917
   596.0000    133.2049      0.0000    764.6086      4.8034
   596.2500    131.0286      0.0000    769.4017      4.8069
   596.5000    127.3656      0.0000    774.9207      4.8007
   596.7500    123.3564      0.0000    780.5280      4.7871
   597.0000    118.0632      0.0000    785.4749      4.7728
   597.2500    110.2503      0.0000    788.8430      4.7651
   597.5000    100.7326      0.0000    789.9747      4.7719
   597.7500     92.2648      0.0000    789.0353      4.8001
   598.0000     87.3014      0.0000    786.7252      4.8462
   598.2500     86.3513      0.0000    783.3577      4.8928
   598.5000     88.5303      0.0000    778.7285      4.9160
   598.7500     92.9889      0.0000    773.0445      4.8955
   599.0000     99.2888      0.0000    767.4066      4.8198
   599.2500    106.7363      0.0000    763.0475      4.6914
   599.5000    113.8963      0.0000    760.4321      4.5293
   599.7500    118.7077      0.0000    759.2271      4.3623
   600.0000    119.2291      0.0000    758.8261      4.2151
   600.2500    114.9175      0.0000    758.7405      4.0964
   600.5000    107.2848      0.0000    758.6984      3.9986
   600.7500     99.1213      0.0000    758.6127      3.9108
