~Version Information
VERS.                      2.0: CWLS Log ASCII Standard - VERSION 2.0
WRAP.                       NO: One line per depth step
~Well Information Block
STRT.FT                -3.0000: 
STOP.FT              1679.2500: 
STEP.FT                 0.2500: 
NULL.                -999.2500: 
COMP.          Evergreen Operating Corp.: COMPANY
WELL.            Rimrock 14-29: WELL
FLD.           Purgatorie River: FIELD
LOC.           945' FSL & 604' FWL--: LOCATION
PROV.                       CO: PROVINCE
CNTY.               Las Animas: COUNTRY
SRVC.                         : SERVICE COMPANY
DATE.          Mon Oct 04 13:02:21 2004: LOG DATE
UWI.           05 071 08136 00: UNIQUE WELL ID
~Curve Information Block
DEPT.FT            0 000 00 00: Depth
GR.GAPI                       : Gamma Ray
CCL.                          : Casing Collar Locator
TT3.usec                      : CBL 3' Travel Time
AMP3.mV                       : CBL 3' Amplitude
~Parameter Information Block
~A  Depth        GR         CCL         TT3         AMP3    
# ...
  1303.5000     60.1523      0.0000    678.4135      5.0949
  1303.7500     65.8548      0.0000    693.4711      5.1464
  1304.0000     71.8845      0.0000    700.2634      5.1346
  1304.2500     79.0106      0.0000    702.3770      5.0895
  1304.5000     88.3522      0.0000    702.1115      5.0650
  1304.7500     99.9862      0.0000    700.2270      5.0780
  1305.0000    111.9852      0.0000    696.3965      5.0941
  1305.2500    121.2823      0.0000    688.5117      5.0740
  1305.5000    125.8131      0.0000    671.6519      5.0209
  1305.7500    126.0359      0.0000    639.8475      4.9771
  1306.0000    124.5117      0.0000    591.6184      4.9783
  1306.2500    123.8672      0.0000    534.1934      5.0198
  1306.5000    124.8425      0.0000    480.5005      5.0693
  1306.7500    126.1547      0.0000    440.9638      5.1080
  1307.0000    126.2049      0.0000    418.1578      5.1434
  1307.2500    124.7284      0.0000    408.1227      5.1825
  1307.5000    122.7086      0.0000    405.1857      5.2110
  1307.7500    121.0352      0.0000    405.7936      5.2142
  1308.0000    119.7518      0.0000    409.2403      5.2075
  1308.2500    118.6535      0.0000    415.9781      5.2244
  1308.5000    118.0756      0.0000    426.1265      5.2698
  1308.7500    118.7134      0.0000    440.2547      5.2971
  1309.0000    120.7881      0.0000    460.9809      5.2476
  1309.2500    123.6127      0.0000    491.9314      5.1123
  1309.5000    126.1877      0.0000    533.7941      4.9391
  1309.7500    128.1752      0.0000    581.9683      4.7785
  1310.0000    129.7764      0.0000    628.9496      4.6427
  1310.2500    130.5670      0.0000    668.3846      4.5351
  1310.5000    129.3024      0.0000    696.6328      4.4982
  1310.7500    125.4606      0.0000    712.7058      4.5866
  1311.0000    120.4544      0.0000    718.6392      4.7880
  1311.2500    116.5805      0.0000    719.0516      5.0079
  1311.5000    114.9132     -2.0000    718.6118      5.1527
  1311.7500    114.6638     -2.0000    719.3106      5.2067
  1312.0000    114.4006      0.0000    720.0518      5.2189
  1312.2500    113.3019      0.0000    718.7156      5.2350
  1312.5000    111.0974      0.0000    714.6033      5.2559
  1312.7500    107.4392      0.0000    709.1844      5.2503
  1313.0000    102.0934      0.0000    704.6602      5.1937
  1313.2500     95.9253      0.0000    702.0371      5.0952
  1313.5000     91.2794      0.0000    700.7538      4.9915
  1313.7500     90.7159      0.0000    700.0082      4.9213
  1314.0000     95.0722      0.0000    699.7817      4.9013
  1314.2500    103.0100      0.0000    700.3755      4.9212
  1314.5000    112.4924      0.0000    701.5421      4.9575
  1314.7500    122.1599      0.0000    702.6158      4.9935
  1315.0000    131.1617      0.0000    703.2112      5.0307
  1315.2500    138.4547      0.0000    703.4244      5.0777
  1315.5000    142.9004      0.0000    703.4356      5.1307
  1315.7500    143.9341      0.0000    703.1251      5.1701
  1316.0000    141.9118      0.0000    702.1026      5.1815
  1316.2500    137.8534      0.0000    700.1677      5.1775
  1316.5000    132.8608      0.0000    697.7387      5.1868
  1316.7500    127.6910      0.0000    695.6356      5.2219
  1317.0000    122.8003      0.0000    694.3193      5.2648
  1317.2500    118.6838      0.0000    693.4971      5.2895
  1317.5000    115.9440      0.0000    692.4244      5.2872
  1317.7500    115.0246      0.0000    690.3914      5.2628
  1318.0000    115.8611      0.0000    687.2951      5.2138
  1318.2500    117.6059      0.0000    684.2516      5.1322
  1318.5000    118.8903      0.0000    683.2617      5.0269
  1318.7500    118.8588      0.0000    685.5914      4.9277
  1319.0000    118.0332      0.0000    690.5156      4.8565
  1319.2500    117.8100      0.0000    695.9324      4.8077
  1319.5000    118.9205      0.0000    700.0450      4.7714
  1319.7500    120.4149      0.0000    702.2887      4.7621
  1320.0000    120.3767      0.0000    703.0294      4.8041
  1320.2500    117.9267      0.0000    702.8847      4.8917
  1320.5000    114.3405      0.0000    702.3637      4.9826
  1320.7500    111.8836      0.0000    701.8154      5.0381
  1321.0000    111.8178      0.0000    701.4476      5.0531
  1321.2500    113.7791      0.0000    701.3328      5.0399
  1321.5000    116.5414      0.0000    701.4286      4.9986
  1321.7500    118.9343      0.0000    701.6134      4.9210
  1322.0000    120.3687      0.0000    701.7403      4.8180
  1322.2500    121.0596      0.0000    701.6992      4.7247
  1322.5000    121.8139      0.0000    701.4365      4.6771
  1322.7500    123.4384      0.0000    700.9052      4.6928
  1323.0000    126.1473      0.0000    699.9772      4.7722
  1323.2500    129.1679      0.0000    698.4687      4.9033
  1323.5000    130.8231      0.0000    696.4250      5.0605
  1323.7500    129.5185      0.0000    694.4661      5.2099
  1324.0000    125.1756      0.0000    693.6008      5.3281
  1324.2500    119.5427      0.0000    694.3920      5.4118
  1324.5000    114.7410      0.0000    696.3694      5.4631
  1324.7500    111.5305      0.0000    698.4415      5.4733
  1325.0000    109.2297      0.0000    699.5669      5.4383
  1325.2500    107.1518      0.0000    698.4874      5.3782
  1325.5000    105.6581      0.0000    692.4343      5.3190
  1325.7500    105.6958      0.0000    676.4023      5.2566
  1326.0000    107.6216      0.0000    645.2953      5.1626
  1326.2500    110.5837      0.0000    598.9684      5.0329
  1326.5000    112.8097      0.0000    545.3708      4.9110
  1326.7500    112.5329      0.0000    496.7614      4.8538
  1327.0000    109.1559      0.0000    461.7299      4.8796
  1327.2500    103.9907      0.0000    441.1652      4.9571
  1327.5000     99.7755      0.0000    430.9023      5.0381
  1327.7500     99.0240      0.0000    426.6671      5.0886
  1328.0000    102.3853      0.0000    427.2917      5.0944
  1328.2500    108.3677      0.0000    435.0664      5.0543
  1328.5000    114.5157      0.0000    452.3713      4.9786
  1328.7500    118.7972      0.0000    476.0453      4.8859
  1329.0000    120.1662      0.0000    495.6487      4.8007
  1329.2500    118.5107      0.0000    500.1388      4.7572
  1329.5000    114.5289      0.0000    487.2032      4.8007
  1329.7500    109.3984      0.0000    464.6245      4.9642
  1330.0000    104.1417      0.0000    442.5717      5.2331
  1330.2500     99.3090      0.0000    426.6107      5.5339
  1330.5000     95.2175     -2.0000    418.0800      5.7595
  1330.7500     92.0624     -2.0000    418.3438      5.8174
  1331.0000     89.6257      0.0000    430.2451      5.6821
  1331.2500     87.2938      0.0000    454.5783      5.4167
  1331.5000     84.6700      0.0000    485.6368      5.1277
  1331.7500     82.0583      0.0000    512.9164      4.8921
  1332.0000     80.2516      0.0000    530.5069      4.7361
  1332.2500     79.9780      0.0000    544.2147      4.6671
  1332.5000     81.4549      0.0000    565.4638      4.6884
  1332.7500     84.2083      0.0000    597.4759      4.7888
  1333.0000     87.2256      0.0000    630.8724      4.9415
  1333.2500     89.5150      0.0000    653.6765      5.1192
  1333.5000     90.8793      0.0000    662.7407      5.3036
  1333.7500     92.1705      0.0000    664.5667      5.4848
  1334.0000     94.3589      0.0000    667.4509      5.6562
  1334.2500     97.2867      0.0000    674.5851      5.8090
  1334.5000     99.6817      0.0000    683.6486      5.9274
  1334.7500    100.3579      0.0000    690.8068      5.9904
  1335.0000     99.0736      0.0000    694.2703      5.9851
  1335.2500     96.4868      0.0000    695.0464      5.9218
  1335.5000     93.8329      0.0000    695.4630      5.8275
  1335.7500     92.5087      0.0000    697.1486      5.7223
  1336.0000     93.2971      0.0000    700.0723      5.6098
  1336.2500     95.7717      0.0000    703.1518      5.4950
  1336.5000     98.7080      0.0000    705.4372      5.3987
  1336.7500    101.1763      0.0000    706.6520      5.3432
