~Version Information
VERS.                      2.0: CWLS Log ASCII Standard - VERSION 2.0
WRAP.                       NO: One line per depth step
~Well Information Block
STRT.FT                15.0000: 
STOP.FT              2565.5000: 
STEP.FT                 0.2500: 
NULL.                -999.2500: 
COMP.          Pioneer Natural Resources: COMPANY
WELL.           Costello 44-24: WELL
FLD.           Purgatoire River: FIELD
LOC.           327' FSL & 378' FEL: LOCATION
PROV.                 Colorado: PROVINCE
CNTY.               Las Animas: COUNTRY
SRVC.                Patterson: SERVICE COMPANY
DATE.          Mon Jul 25 10:15:19 2005: LOG DATE
UWI.           05 071 08413 00: UNIQUE WELL ID
~Curve Information Block
DEPT.FT            0 000 00 00: Depth
GR.GAPI                       : Gamma Ray
CCL.                          : Casing Collar Locator
TT3.usec                      : CBL 3' Travel Time
AMP3.mV                       : CBL 3' Amplitude
~Parameter Information Block
~A  Depth        GR         CCL         TT3         AMP3    
    15.0000     83.2330      0.0000   1455.0000      0.8554
    15.2500     90.1494      0.0000   1455.0000      0.8231
    15.5000     98.9222      0.0000   1455.0000      0.8126
    15.7500    108.7221      0.0000   1455.0000      0.8254
    16.0000    117.7454      0.0000   1455.0000      0.8776
    16.2500    124.1751      0.0000   1455.0000      1.0191
    16.5000    127.2348      0.0000   1455.0000      1.3352
    16.7500    127.1585      0.0000   1455.0000      1.8961
    17.0000    124.4979      0.0000   1455.0000      2.6680
    17.2500    120.0186      0.0000   1455.0000      3.4699
    17.5000    115.0081      0.0000   1455.0000      4.0602
    17.7500    110.9065      0.0000   1455.0000      4.2930
    18.0000    108.4629      0.0000   1455.0000      4.1958
    18.2500    107.4858      0.0000   1455.0000      3.9131
    18.5000    107.2581      0.0000   1455.0000      3.6005
    18.7500    106.8386      0.0000   1455.0000      3.3583
    19.0000    105.2111      0.0000   1455.0000      3.2225
    19.2500    101.7452      0.0000   1455.0000      3.1879
    19.5000     96.5723      0.0000   1455.0000      3.2331
    19.7500     90.2703      0.0000   1455.0000      3.3328
    20.0000     83.3876      0.0000   1455.0000      3.4597
    20.2500     76.5647      0.0000   1455.0000      3.5899
    20.5000     70.8883      0.0000   1455.0000      3.7130
    20.7500     67.7137      0.0000   1454.9647      3.8327
    21.0000     67.8681      0.0000   1454.7344      3.9548
    21.2500     70.7717      0.0000   1453.5645      4.0780
    21.5000     74.3844      0.0000   1448.9371      4.1986
    21.7500     76.4179      0.0000   1434.6827      4.3193
    22.0000     75.8842      0.0000   1400.4835      4.4455
    22.2500     73.4436      0.0000   1336.5773      4.5754
    22.5000     70.3751      0.0000   1243.5630      4.6984
    22.7500     67.5104      0.0000   1138.1001      4.8016
    23.0000     65.0739      0.0000   1044.9117      4.8795
    23.2500     63.0583      0.0000    980.6613      4.9374
    23.5000     61.5133      0.0000    945.9513      4.9868
    23.7500     60.7201      0.0000    931.0348      5.0375
    24.0000     61.3144      0.0000    925.6306      5.0936
    24.2500     64.0664      0.0000    923.6063      5.1553
    24.5000     69.1463      0.0000    922.4565      5.2202
    24.7500     75.4173      0.0000    921.3557      5.2820
    25.0000     80.6861      0.0000    919.7518      5.3334
    25.2500     83.0886      0.0000    916.5367      5.3714
    25.5000     82.4201      0.0000    909.8605      5.4016
    25.7500     80.0591      0.0000    897.9595      5.4368
    26.0000     77.6054      0.0000    880.7949      5.4903
    26.2500     75.6901      0.0000    860.7319      5.5687
    26.5000     74.0716      0.0000    840.6622      5.6676
    26.7500     72.5985      0.0000    821.0443      5.7721
    27.0000     71.7342      0.0000    799.5021      5.8649
    27.2500     72.0590      0.0000    773.9023      5.9365
    27.5000     73.3717      0.0000    745.2773      5.9890
    27.7500     74.4387      0.0000    716.9691      6.0315
    28.0000     73.8747      0.0000    691.1107      6.0713
    28.2500     71.4394      0.0000    666.2655      6.1106
    28.5000     68.3088      0.0000    637.9908      6.1476
    28.7500     66.0035      0.0000    601.7725      6.1808
    29.0000     65.2779      0.0000    557.0188      6.2113
    29.2500     66.0171      0.0000    509.1976      6.2415
    29.5000     67.6554      0.0000    467.4042      6.2722
    29.7500     69.4227      0.0000    439.2360      6.3023
    30.0000     70.5246      0.0000    428.3161      6.3300
    30.2500     70.4727      0.0000    435.9481      6.3547
    30.5000     69.3855      0.0000    462.3994      6.3769
    30.7500     67.9690      0.0000    504.4745      6.3996
    31.0000     67.0304      0.0000    553.0450      6.4267
    31.2500     66.7916      0.0000    596.1482      6.4604
    31.5000     66.7586      0.0000    625.9850      6.4984
    31.7500     66.4226      0.0000    642.4611      6.5340
    32.0000     65.8766      0.0000    650.5782      6.5600
    32.2500     65.4750      0.0000    655.8817      6.5736
    32.5000     65.1657      0.0000    661.9146      6.5774
    32.7500     64.6002      0.0000    669.7061      6.5766
    33.0000     63.7386      0.0000    678.2325      6.5773
    33.2500     62.9240      0.0000    685.6290      6.5857
    33.5000     62.3416      0.0000    690.6638      6.6052
    33.7500     61.7360      0.0000    693.3547      6.6349
    34.0000     60.8146      0.0000    694.4797      6.6671
    34.2500     59.8023      0.0000    694.8058      6.6903
    34.5000     59.3478      0.0000    694.7452      6.6975
    34.7500     59.7759      0.0000    694.3740      6.6934
    35.0000     60.5797      0.0000    693.5086      6.6890
    35.2500     60.8184      0.0000    691.8613      6.6914
    35.5000     60.0404      0.0000    689.4561      6.6999
    35.7500     58.7814      0.0000    687.0457      6.7119
    36.0000     58.0962      0.0000    685.8320      6.7292
    36.2500     58.5936      0.0000    686.4399      6.7580
    36.5000     60.0456      0.0000    688.3010      6.8023
    36.7500     61.9187      0.0000    690.2492      6.8576
    37.0000     63.9957      0.0000    691.5259      6.9116
    37.2500     66.3756      0.0000    692.0388      6.9526
    37.5000     69.1665      0.0000    691.8961      6.9752
    37.7500     72.2950      0.0000    690.8982      6.9811
    38.0000     75.3456      0.0000    688.4167      6.9780
    38.2500     77.5103      0.0000    683.8244      6.9777
    38.5000     77.9572      0.0000    677.3504      6.9898
    38.7500     76.4674      0.0000    670.6310      7.0163
    39.0000     73.6894      0.0000    666.0901      7.0462
    39.2500     70.7475      0.0000    665.2914      7.0548
    39.5000     68.5844      0.0000    667.5855      7.0086
    39.7500     67.5304      0.0000    670.3639      6.8866
    40.0000     67.3085      0.0000    670.7669      6.7133
    40.2500     67.4053      0.0000    667.4028      6.5592
    40.5000     67.4917      0.0000    660.5046      6.4804
    40.7500     67.6396      0.0000    650.8613      6.4580
    41.0000     68.2963      0.0000    639.6017      6.4279
    41.2500     70.1282      0.0000    629.7338      6.3607
    41.5000     73.8130      0.0000    626.3712      6.2820
    41.7500     79.6415      0.0000    632.7111      6.2252
    42.0000     86.9846      3.0000    645.5835      6.1983
    42.2500     94.2870      1.6113    657.5231      6.1932
    42.5000     99.9663      0.0000    664.1250      6.2113
    42.7500    103.2940      0.0000    667.6174      6.2796
    43.0000    104.2336      0.0000    672.1430      6.4312
    43.2500    102.8910      0.0000    677.3385      6.6586
    43.5000     99.6479      0.0000    678.9857      6.8946
    43.7500     95.4777      0.0000    675.0330      7.0688
    44.0000     91.6383      0.0000    668.0660      7.1714
    44.2500     89.3413      0.0000    661.9731      7.2394
    44.5000     89.7841      0.0000    658.4460      7.3002
    44.7500     93.6267      0.0000    656.9673      7.3524
    45.0000     99.9320      0.0000    656.4573      7.3864
    45.2500    106.3091      0.0000    656.2435      7.4004
    45.5000    110.7781      0.0000    656.0825      7.4005
    45.7500    113.3026      0.0000    655.9266      7.3949
    46.0000    115.0584      0.0000    655.7521      7.3896
    46.2500    116.4730      0.0000    655.5436      7.3845
    46.5000    116.7828      0.0000    655.3019      7.3771
    46.7500    115.5542      0.0000    655.0441      7.3673
    47.0000    113.5832      0.0000    654.7839      7.3592
    47.2500    111.7434      0.0000    654.5199      7.3571
    47.5000    109.7394      0.0000    654.2469      7.3607
    47.7500    106.7018      0.0000    653.9718      7.3671
    48.0000    102.5252      0.0000    653.7155      7.3750
    48.2500     97.9539      0.0000    653.5081      7.3877
