~Version Information
 VERS.                                  2.0 : CWLS LAS VERSION
 WRAP.                                   NO : WRAPING MODE
 SWARE .                 MController 2.5.0N : SOFTWARE VERSION
~Well Information
 WELL.                   Uintah 21-27 Tr CH : WELL
 COMP.    Pioneer Natural Resources USA Inc : COMPANY
 FLD.                      Purgatoire River : FIELD
 LOC.                NE/NW Sec 27 T33S R67W : LOCATION
 DATE.                         5/14-16/2005 : DATE(S) LOGGED
 SRVC.       Blanco Geological Services LLC : SERVICE COMPANY
 STAT.                                   CO : STATE
 CNTY.                           Las Animas : COUNTY
 CTRY.                                  USA : COUNTRY
 API.                       05-071-08311-00 : API NUMBER
 STRT.FT                             394.00 : START DEPTH
 STOP.FT                            1538.00 : STOP DEPTH
 STEP.FT                               1.00 : DEPTH INCREMENT
 NULL.                                -9999 : NULL VALUE
~Curve information
 DEPTH.FT                                   :
 ROP.MIN/FT                                 :
 GAS.UNITS                                  :
~ASCII Log data
# ...
       794.0         0.17        546.2 
       795.0         0.17        529.1 
       796.0         0.17        515.3 
       797.0         0.17        505.5 
       798.0         0.20        495.1 
       799.0         0.17        492.9 
       800.0         0.18        492.0 
       801.0         0.17        493.4 
       802.0         0.17        493.2 
       803.0         0.23        506.6 
       804.0         0.17        515.3 
       805.0         0.20        521.5 
       806.0         2.38        526.3 
       807.0         0.13        523.5 
       808.0         0.33        732.6 
       809.0         0.83       1100.4 
       810.0         0.43        974.1 
       811.0         0.33        754.3 
       812.0         0.20        673.1 
       813.0         0.20        644.5 
       814.0         0.13        622.9 
       815.0         0.20        606.6 
       816.0         0.27        576.3 
       817.0         0.32        561.7 
       818.0         0.20        565.6 
       819.0         0.23        565.9 
       820.0         0.27        560.3 
       821.0         0.47        548.2 
       822.0         0.23        508.3 
       823.0         0.27        485.9 
       824.0         0.33        512.2 
       825.0         0.30        519.3 
       826.0         0.30        520.1 
       827.0         0.30        516.7 
       828.0         0.25        510.3 
       829.0         0.37        506.1 
       830.0         0.30        501.9 
       831.0         0.30        494.3 
       832.0         0.20        491.5 
       833.0         0.27        490.9 
       834.0         0.80        489.5 
       835.0         0.67        469.8 
       836.0         2.22        880.3 
       837.0         0.17       1042.9 
       838.0         0.17       1128.5 
       839.0         0.40       1132.7 
       840.0         0.30        994.6 
       841.0         0.52        870.2 
       842.0         0.40        716.4 
       843.0         0.37        635.5 
       844.0         0.20        601.5 
       845.0         0.20        586.1 
       846.0         0.23        565.3 
       847.0         0.20        545.9 
       848.0         0.23        528.8 
       849.0         0.23        517.0 
       850.0         0.17        480.2 
       851.0         0.20        479.4 
       852.0         0.27        478.0 
       853.0         0.32        472.9 
       854.0         0.20        468.7 
       855.0         0.20        467.3 
       856.0         0.23        465.9 
       857.0         0.27        464.2 
       858.0         0.20        463.4 
       859.0         0.20        466.5 
       860.0         0.13        464.5 
       861.0         0.13        460.6 
       862.0         0.10        452.7 
       863.0         0.17        453.8 
       864.0         0.23        460.9 
       865.0         0.30        470.4 
       866.0         4.10       1672.9 
       867.0         0.27       1489.9 
       868.0         0.27       1245.0 
       869.0         0.37       1044.6 
       870.0         0.33        820.5 
       871.0         0.37        711.0 
       872.0         0.37        634.1 
       873.0         0.33        579.3 
       874.0         0.33        544.0 
       875.0         0.33        513.9 
       876.0         0.32        495.1 
       877.0         0.30        484.4 
       878.0         0.30        476.6 
       879.0         0.83        470.1 
       880.0         0.30        459.7 
       881.0         0.33        440.0 
       882.0         0.23        120.4 
       883.0         0.37        144.9 
       884.0         0.48        157.6 
       885.0         0.27        157.9 
       886.0         0.30        152.3 
       887.0         0.47        146.0 
       888.0         0.23        146.0 
       889.0         0.37        137.8 
       890.0         0.57        148.9 
       891.0         0.33        153.0 
       892.0         0.40        149.5 
       893.0         0.45        152.8 
       894.0         0.23        152.1 
       895.0         0.23        147.2 
       896.0         1.93        140.1 
       897.0         0.13        159.9 
       898.0         0.23        231.0 
       899.0         0.20        335.0 
       900.0         0.13        433.8 
       901.0         0.52       1262.4 
       902.0         0.37       1206.0 
       903.0         0.27       1005.0 
       904.0         0.23        859.8 
       905.0         0.40        752.6 
       906.0         0.30        650.9 
       907.0         0.37        617.2 
       908.0         0.40        582.2 
       909.0         0.27        520.1 
       910.0         0.25        508.6 
       911.0         0.20        494.0 
       912.0         0.17        493.2 
       913.0         0.27        468.2 
       914.0         0.23        467.3 
       915.0         0.27        461.4 
       916.0         0.27        459.5 
       917.0         0.40        459.5 
       918.0         0.43        464.8 
       919.0         0.17        467.6 
       920.0         0.13        468.4 
       921.0         0.17        467.6 
       922.0         0.27        465.1 
       923.0         0.28        457.5 
       924.0         0.20        456.9 
       925.0         0.23        456.7 
       926.0         4.72       1701.3 
       927.0         0.73       1875.9 
       928.0         0.53       1427.0 
       929.0         0.32        921.6 
       930.0         0.50        756.8 
       931.0         0.23        623.1 
       932.0         0.17        603.8 
       933.0         0.20        586.6 
       934.0         0.20        560.5 
       935.0         0.20        541.2 
       936.0         0.20        525.2 
       937.0         0.23        513.9 
       938.0         0.27        502.7 
       939.0         0.23        494.6 
       940.0         0.37        495.1 
       941.0         0.35        489.8 
       942.0         0.27        489.8 
       943.0         0.17        490.1 
       944.0         0.23        490.6 
       945.0         0.23        490.6 
       946.0         0.27        490.1 
       947.0         0.33        488.1 
       948.0         0.30        487.8 
       949.0         0.37        488.4 
       950.0         0.30        485.3 
       951.0         0.30        482.8 
       952.0         0.13        475.5 
       953.0         0.10        471.0 
       954.0         0.32        468.2 
       955.0         0.17        457.8 
       956.0         3.85       1849.2 
       957.0         0.30       1878.4 
       958.0         0.27       1755.5 
       959.0         0.23       1478.1 
       960.0         0.23       1241.9 
       961.0         0.33       1034.7 
       962.0         0.33        815.2 
       963.0         0.30        684.9 
       964.0         0.28        629.0 
       965.0         0.23        597.0 
       966.0         0.23        573.5 
       967.0         0.23        547.6 
       968.0         0.33        525.4 
       969.0         0.27        504.4 
       970.0         0.33        496.2 
       971.0         0.30        488.9 
       972.0         0.27        482.5 
       973.0         0.23        477.7 
       974.0         0.27        472.1 
       975.0         0.33        467.6 
       976.0         0.32        465.4 
       977.0         0.27        466.2 
       978.0         0.23        466.5 
       979.0         0.20        465.1 
       980.0         0.30        464.2 
       981.0         0.23        464.0 
       982.0         0.27        464.8 
       983.0         0.23        466.2 
       984.0         0.23        465.1 
       985.0         0.50        462.8 
       986.0         2.42        454.4 
       987.0         0.30       1151.5 
       988.0         0.30       1142.3 
       989.0         0.23       1056.4 
       990.0         0.23        953.9 
       991.0         0.23        849.4 
       992.0         0.18        748.6 
       993.0         0.20        685.2 
