~Version Information
VERS.                      2.0: CWLS Log ASCII Standard - VERSION 2.0
WRAP.                       NO: One line per depth step
~Well Information Block
STRT.FT                -3.2500: 
STOP.FT              1637.5000: 
STEP.FT                 0.2500: 
NULL.                -999.2500: 
COMP.          Pioneer Natural Resources: COMPANY
WELL.            Mad Dog 42-31: WELL
FLD.           Purgatorie River: FIELD
LOC.           2064' FNL & 479' FEL--: LOCATION
PROV.                       CO: PROVINCE
CNTY.               Las Animas: COUNTRY
SRVC.                         : SERVICE COMPANY
DATE.          Fri Oct 15 16:13:39 2004: LOG DATE
UWI.          005 071 08195   : UNIQUE WELL ID
~Curve Information Block
DEPT.FT            0 000 00 00: Depth
HVOLTA.V                      : Head Voltage Apparent
GR.GAPI                       : Gamma Ray
CCL.                          : Casing Collar Locator
TT3.usec                      : CBL 3' Travel Time
AMP3.mV                       : CBL 3' Amplitude
~Parameter Information Block
~A  Depth      HVOLTA        GR         CCL         TT3         AMP3    
# ...
   864.7500     97.3034    152.4888     -2.0000    870.4018      4.9112
   865.0000     97.3106    156.2241      0.0000    866.7745      4.8501
   865.2500     97.3141    160.1664      0.0000    852.7202      4.7595
   865.5000     97.1672    163.9580      0.0000    831.9821      4.7680
   865.7500     97.2293    167.8773      0.0000    807.4525      4.9655
   866.0000     97.1433    170.8848      0.0000    782.2513      5.3163
   866.2500     97.1875    170.3722      0.0000    759.9317      5.6718
   866.5000     97.3141    164.0119      0.0000    742.7850      5.9043
   866.7500     97.1875    151.5289      0.0000    730.9215      5.9970
   867.0000     97.2007    134.8826      0.0000    723.2560      5.9863
   867.2500     97.1768    117.1899      0.0000    718.6805      5.8770
   867.5000     97.2771    101.2305      0.0000    716.3657      5.6524
   867.7500     97.2007     88.4707      0.0000    715.7147      5.3165
   868.0000     97.3010     79.3311      0.0000    716.3507      4.8898
   868.2500     97.1005     74.1091      0.0000    717.8658      4.3916
   868.5000     97.2974     73.2957      0.0000    719.7005      3.8453
   868.7500     97.4822     76.9769      0.0000    721.7564      3.2845
   869.0000     96.9549     83.8689      0.0000    725.0850      2.7419
   869.2500     97.2414     91.1202      0.0000    730.8771      2.2379
   869.5000     97.3249     95.8282      0.0000    738.2967      1.7823
   869.7500     97.2842     97.2192      0.0000    744.2856      1.3816
   870.0000     97.2532     96.9633      0.0000    745.8355      1.0398
   870.2500     97.4001     97.3332      0.0000    741.8010      0.7561
   870.5000     97.2664     99.4660      0.0000    732.8948      0.5241
   870.7500     97.3045    103.1953      0.0000    720.7770      0.3349
   871.0000     97.2353    107.7199      0.0000    706.4440      0.1807
   871.2500     97.1743    112.0387      0.0000    689.2905      0.0549
   871.5000     97.2257    115.0658      0.0000    669.1097     -0.0476
   871.7500     97.2186    115.9434      0.0000    648.6260     -0.1268
   872.0000     97.1851    114.6226      0.0000    632.1495     -0.1779
   872.2500     97.4921    112.0447      0.0000    622.0178     -0.1979
   872.5000     97.4336    109.6702      0.0000    617.8777     -0.1902
   872.7500     97.2603    108.7443      0.0000    619.2906     -0.1650
   873.0000     97.2735    109.5705      0.0000    628.4754     -0.1373
   873.2500     97.4336    111.1320      0.0000    650.5149     -0.1164
   873.5000     97.3081    111.7475      0.0000    689.8867     -0.0934
   873.7500     97.3309    110.4493      0.0000    744.8389     -0.0411
   874.0000     97.2268    107.6321      0.0000    805.0216      0.0672
   874.2500     97.1683    104.3479      0.0000    856.6490      0.2382
   874.5000     97.3619    101.4458      0.0000    891.0151      0.4596
   874.7500     97.1982     99.7611      0.0000    907.8555      0.7160
   875.0000     97.3106    100.5711      0.0000    911.5073      1.0012
   875.2500     97.2186    104.7155      0.0000    905.5705      1.3231
   875.5000     97.3045    110.9480      0.0000    891.1501      1.7065
   875.7500     97.3858    116.1787      0.0000    868.7036      2.1857
   876.0000     97.1636    118.2449      0.0000    840.6141      2.7751
   876.2500     97.2364    118.2132      0.0000    811.7577      3.4392
   876.5000     97.3284    119.4078      0.0000    787.4587      4.0986
   876.7500     97.3869    124.1416      0.0000    770.7617      4.6729
   877.0000     97.1982    131.6812      0.0000    761.4824      5.1274
   877.2500     97.3727    139.2636      0.0000    757.4059      5.4851
   877.5000     97.1540    144.4486      0.0000    756.1069      5.7962
   877.7500     97.2938    146.2860      0.0000    755.9538      6.0928
   878.0000     97.2949    145.1605      0.0000    756.1360      6.3663
   878.2500     97.3345    142.5327      0.0000    756.3140      6.5856
   878.5000     97.2664    140.5159      0.0000    756.3718      6.7366
   878.7500     97.0919    140.6508      0.0000    756.3008      6.8446
   879.0000     97.2795    142.9144      0.0000    756.0551      6.9553
   879.2500     97.3345    146.2125      0.0000    755.3995      7.0920
   879.5000     97.2664    149.5684      0.0000    753.9946      7.2403
   879.7500     97.2592    152.3960      0.0000    751.8511      7.3845
   880.0000     97.2257    153.7040      0.0000    749.7642      7.5554
   880.2500     97.2186    151.5875      0.0000    748.9910      7.8250
   880.5000     97.1804    144.2994      0.0000    750.3018      8.2436
   880.7500     97.2318    132.2696      0.0000    753.6572      8.7808
   881.0000     97.0991    118.7614      0.0000    759.1876      9.3335
   881.2500     97.1804    108.1343      0.0000    767.8983      9.7953
   881.5000     97.2556    103.3479      0.0000    780.2163     10.1172
   881.7500     97.1636    104.6848      0.0000    793.5084     10.3092
   882.0000     97.3584    110.0697      0.0000    802.3378     10.3968
   882.2500     97.2760    116.4872      0.0000    802.7534     10.3890
   882.5000     97.1540    121.6832      0.0000    796.2343     10.2842
   882.7500     97.3284    125.1117      0.0000    788.4130     10.0949
   883.0000     97.3523    127.5594      0.0000    783.9041      9.8512
   883.2500     97.3213    129.8318      0.0000    782.8094      9.5810
   883.5000     97.1743    131.7960      0.0000    781.8788      9.2937
   883.7500     97.1982    132.7423      0.0000    778.2886      8.9894
   884.0000     97.2150    132.5081      0.0000    772.0686      8.6763
   884.2500     97.3141    131.9218      0.0000    765.3865      8.3691
   884.5000     97.2938    132.1790      0.0000    760.2831      8.0765
   884.7500     97.3213    134.0443      0.0000    757.3448      7.8020
   885.0000     97.3309    137.6519      0.0000    756.0334      7.5585
   885.2500     97.3106    142.6327      0.0000    755.5702      7.3669
   885.5000     97.1469    148.1269      0.0000    755.4012      7.2319
   885.7500     97.1708    152.9456      0.0000    755.1626      7.1266
   886.0000     97.3416    156.1032      0.0000    754.5038      7.0150
   886.2500     97.2974    157.3106      0.0000    753.1133      6.8887
   886.5000     97.2425    157.0621      0.0000    751.0716      6.7752
   886.7500     97.4408    156.2144      0.0000    749.1972      6.7058
   887.0000     97.2353    155.2855      0.0000    748.6817      6.6781
   887.2500     97.3787    154.2105      0.0000    750.0352      6.6575
   887.5000     97.1505    152.9213      0.0000    752.5214      6.6110
   887.7500     97.1804    151.8061      0.0000    754.8517      6.5360
   888.0000     97.4336    151.4079      0.0000    756.2625      6.4552
   888.2500     97.2999    152.1935      0.0000    756.8011      6.3864
   888.5000     97.1326    154.8801      0.0000    756.8771      6.3203
   888.7500     97.2282    160.1909      0.0000    756.8134      6.2337
   889.0000     97.1708    167.5692      0.0000    756.7303      6.1251
   889.2500     97.2903    174.5328      0.0000    756.6347      6.0285
   889.5000     97.1565    178.1371      0.0000    756.5183      5.9797
   889.7500     97.2114    177.2165      0.0000    756.3932      5.9771
   890.0000     97.2425    172.8911      0.0000    756.2790      5.9823
   890.2500     97.2114    167.2009      0.0000    756.1923      5.9596
   890.5000     97.3213    162.0201      0.0000    756.1354      5.9098
   890.7500     97.2353    158.9830      0.0000    756.0814      5.8661
   891.0000     97.3619    159.0928      0.0000    755.9472      5.8594
   891.2500     97.2831    161.7252      0.0000    755.5209      5.8880
   891.5000     97.1158    164.7980      0.0000    754.3329      5.9204
   891.7500     97.4408    166.6335      0.0000    751.6249      5.9293
   892.0000     97.2425    167.2787      0.0000    746.6924      5.9175
   892.2500     97.2318    167.5453      0.0000    739.5874      5.9063
   892.5000     97.1458    167.3816      0.0000    731.5242      5.9040
