~Version Information
VERS.                      2.0: CWLS Log ASCII Standard - VERSION 2.0
WRAP.                       NO: One line per depth step
~Well Information Block
STRT.FT               520.0000: 
STOP.FT              2183.5000: 
STEP.FT                 0.1000: 
NULL.                -999.2500: 
COMP.          Pioneer Natural Resources: COMPANY
WELL.             Enzo 43-8 Tr: WELL
FLD.           Purgatoire River: FIELD
LOC.           2303' FSL & 604' FEL: LOCATION
PROV.                 Colorado: PROVINCE
CNTY.               Las Animas: COUNTRY
SRVC.                Patterson: SERVICE COMPANY
DATE.          Sun Oct 31 15:10:54 2004: LOG DATE
UWI.           05 071 08213 00: UNIQUE WELL ID
~Curve Information Block
DEPT.FT            0 000 00 00: Depth
DCAL.in                       : CDL Caliper
RHOB.g/cc                     : CDL Bulk Density
RHOC.g/cc                     : CDL Density Correction
DPOR.pu                       : CDL Density Porosity
NPOR.pu                       : Neutron Porosity
GR.GAPI                       : Gamma Ray
~Parameter Information Block
~A  Depth       DCAL        RHOB        RHOC        DPOR        NPOR         GR     
# ...
   625.6000      8.0759      2.5420      0.0544      6.5454     24.0382    101.8872
   625.7000      8.0759      2.5401      0.0613      6.6588     23.9162    106.6287
   625.8000      8.0721      2.5420     -0.0094      6.5470     23.9591    111.6689
   625.9000      8.0721      2.5513      0.0188      5.9801     23.9298    110.8772
   626.0000      8.0714      2.5635      0.0554      5.2427     24.0040    104.7592
   626.1000      8.0714      2.5694      0.0366      4.8876     24.0709    100.5432
   626.2000      8.0714      2.5686      0.0491      4.9363     23.9306    101.6889
   626.3000      8.0720      2.5618      0.0510      5.3431     23.7680    105.2016
   626.4000      8.0720      2.5540      0.0105      5.8160     23.6261    106.4069
   626.5000      8.0727      2.5526      0.0443      5.9053     23.5092    103.5030
   626.6000      8.0727      2.5527      0.0586      5.8946     23.6451    101.3567
   626.7000      8.0727      2.5447      0.0520      6.3843     23.9557    102.4753
   626.8000      8.0729      2.5310      0.0097      7.2113     24.0790    101.8155
   626.9000      8.0729      2.5271      0.0042      7.4456     24.0649     96.9216
   627.0000      8.0714      2.5331      0.0638      7.0856     24.1089     92.2820
   627.1000      8.0714      2.5353      0.0350      6.9493     24.1758     92.0063
   627.2000      8.0714      2.5353      0.0310      6.9488     24.1835     95.3024
   627.3000      8.0707      2.5395      0.0688      6.6941     24.1434     98.7357
   627.4000      8.0707      2.5433      0.0585      6.4664     24.2621    100.1213
   627.5000      8.0755      2.5436      0.0432      6.4462     24.6481    101.2320
   627.6000      8.0755      2.5467      0.0327      6.2602     25.1004    106.2232
   627.7000      8.0755      2.5493      0.0374      6.1042     25.4663    114.0351
   627.8000      8.0834      2.5388      0.0303      6.7398     25.8826    118.1482
   627.9000      8.0834      2.5207      0.0055      7.8371     26.3899    116.8477
   628.0000      8.0864      2.5185     -0.0200      7.9709     26.8418    113.1066
   628.1000      8.0864      2.5462     -0.0254      6.2905     27.2225    107.8378
   628.2000      8.0864      2.5862      0.0415      3.8646     27.5865    102.0506
   628.3000      8.0857      2.6052      0.0110      2.7133     27.8618     98.7722
   628.4000      8.0857      2.5947     -0.0188      3.3523     28.0576     98.2743
   628.5000      8.0846      2.5703      0.0021      4.8307     28.1799    100.6099
   628.6000      8.0846      2.5567     -0.0414      5.6540     28.4115    105.7999
   628.7000      8.0846      2.5706      0.0129      4.8148     28.9259    113.5502
   628.8000      8.0842      2.5967     -0.0067      3.2275     29.3004    123.1280
   628.9000      8.0842      2.6069      0.0352      2.6112     29.1804    128.0711
   629.0000      8.0846      2.5945      0.0243      3.3654     28.8228    126.0518
   629.1000      8.0846      2.5769      0.0005      4.4303     28.5389    122.4057
   629.2000      8.0846      2.5658      0.0243      5.1002     28.2556    118.2940
   629.3000      8.0850      2.5582     -0.0125      5.5627     27.8521    113.9623
   629.4000      8.0850      2.5535      0.0010      5.8471     27.5765    114.8046
   629.5000      8.0846      2.5559     -0.0126      5.7007     27.6774    122.3347
   629.6000      8.0846      2.5646      0.0057      5.1783     28.0290    127.9382
   629.7000      8.0846      2.5671      0.0229      5.0253     28.5158    125.3516
   629.8000      8.0846      2.5598     -0.0284      5.4673     29.0793    119.2906
   629.9000      8.0846      2.5562     -0.0349      5.6861     29.5942    115.9798
   630.0000      8.0849      2.5638     -0.0268      5.2240     29.9133    115.6211
   630.1000      8.0849      2.5765     -0.0041      4.4575     29.8548    119.2465
   630.2000      8.0849      2.5844      0.0100      3.9729     29.5576    128.8461
   630.3000      8.0837      2.5870      0.0029      3.8186     29.3967    138.2907
   630.4000      8.0837      2.5828      0.0532      4.0740     29.4566    139.8303
   630.5000      8.0820      2.5682     -0.0008      4.9563     29.4524    134.4295
   630.6000      8.0820      2.5550      0.0042      5.7589     29.0239    129.6076
   630.7000      8.0820      2.5512      0.0471      5.9907     28.1401    128.8682
   630.8000      8.0831      2.5507      0.0343      6.0157     27.2224    130.2284
   630.9000      8.0831      2.5560     -0.0031      5.6963     26.6227    131.8316
   631.0000      8.0839      2.5718      0.0355      4.7408     26.2835    132.6106
   631.1000      8.0839      2.5878      0.0521      3.7716     26.2298    132.1129
   631.2000      8.0839      2.5945      0.0329      3.3609     26.5413    131.3260
   631.3000      8.0826      2.5928      0.0587      3.4674     26.7691    130.0282
   631.4000      8.0826      2.5803      0.0734      4.2245     26.4259    125.3963
   631.5000      8.0815      2.5565      0.0288      5.6661     25.6992    117.7456
   631.6000      8.0815      2.5362      0.0072      6.8945     25.1020    110.5176
   631.7000      8.0815      2.5286      0.0298      7.3548     24.8574    105.6867
   631.8000      8.0812      2.5202      0.0417      7.8675     24.8027    100.8123
   631.9000      8.0812      2.5066      0.0051      8.6926     24.6881     95.0407
   632.0000      8.0818      2.5076     -0.0023      8.6286     24.5080     92.9792
   632.1000      8.0818      2.5268      0.0627      7.4677     24.3802     94.8470
   632.2000      8.0818      2.5389      0.0676      6.7323     24.2886     96.5357
   632.3000      8.0824      2.5371     -0.0064      6.8438     24.1475     97.4577
   632.4000      8.0824      2.5410      0.0120      6.6037     23.8040     98.7682
   632.5000      8.0824      2.5571      0.0434      5.6308     23.2802     98.0079
   632.6000      8.0824      2.5732      0.0568      4.6531     23.0710     94.9295
   632.7000      8.0824      2.5795      0.0756      4.2716     23.4369     91.8291
   632.8000      8.0825      2.5800      0.0347      4.2432     24.0151     89.3204
   632.9000      8.0825      2.5866      0.0156      3.8454     24.2007     86.5573
   633.0000      8.0834      2.5866      0.0601      3.8421     23.8758     81.4326
   633.1000      8.0834      2.5655      0.0143      5.1209     23.4584     75.0765
   633.2000      8.0834      2.5434     -0.0110      6.4610     23.2611     71.9528
   633.3000      8.0840      2.5363      0.0258      6.8915     23.4966     72.9248
   633.4000      8.0840      2.5325      0.0394      7.1204     24.1359     73.9768
   633.5000      8.0834      2.5188      0.0146      7.9522     24.6346     74.5691
   633.6000      8.0834      2.5066     -0.0001      8.6880     24.6336     78.5444
   633.7000      8.0834      2.5215     -0.0359      7.7860     24.5508     85.9974
   633.8000      8.0838      2.5626      0.0482      5.2963     24.6673     92.6031
   633.9000      8.0838      2.5968      0.0718      3.2232     24.8300     94.4476
   634.0000      8.0850      2.6013      0.0915      2.9497     25.0288     93.7761
   634.1000      8.0850      2.5800      0.0524      4.2445     25.2568     95.0216
   634.2000      8.0850      2.5500      0.0308      6.0634     25.3246     96.9068
   634.3000      8.0852      2.5341     -0.0275      7.0264     25.4171     96.3100
   634.4000      8.0852      2.5469      0.0114      6.2508     25.6877     95.7705
   634.5000      8.0848      2.5759      0.0689      4.4939     25.7996     98.5881
   634.6000      8.0848      2.5958      0.0777      3.2873     25.6489    101.4956
   634.7000      8.0848      2.5961      0.0342      3.2675     25.4918    101.8776
   634.8000      8.0828      2.5850      0.0109      3.9410     25.3363    102.8261
   634.9000      8.0828      2.5723      0.0261      4.7093     25.0743    106.1335
   635.0000      8.0803      2.5574      0.0194      5.6126     24.8341    106.8339
   635.1000      8.0803      2.5443     -0.0267      6.4073     24.8440    102.9710
