~Version Information
VERS.                      2.0: CWLS Log ASCII Standard - VERSION 2.0
WRAP.                       NO: One line per depth step
~Well Information Block
STRT.FT               507.5000: 
STOP.FT              2145.0000: 
STEP.FT                 0.2500: 
NULL.                -999.2500: 
COMP.          Petrogulf Corporation: COMPANY
WELL.            Montoya 1-44R: WELL
FLD.           Purgatorie River: FIELD
LOC.           658' FSL & 1052' FWL: LOCATION
CNTY.               Las Animas: COUNTY
SRVC.                         : SERVICE COMPANY
DATE.          Tue Nov 16 02:59:24 2004: LOG DATE
UWI.           05 071 08239 00: UNIQUE WELL ID
STAT.                 Colorado: STATE
~Curve Information Block
DEPT.FT            0 000 00 00: Depth
SP.mV                         : DIL Spontaneous Potential
RILD.Ohm-m                    : DIL Deep Resistivity
RILM.Ohm-m                    : DIL Medium Resistivity
RLL3.Ohm-m                    : DIL Shallow Resistivity
GR.GAPI                       : Gamma Ray
~Parameter Information Block
~A  Depth        SP         RILD        RILM        RLL3         GR     
# ...
   843.5000   2000.0000     17.8051     16.5295   2000.0000    152.4833
   843.7500   2000.0000     17.8629     16.6953   2000.0000    148.5939
   844.0000   2000.0000     17.9852     16.8967   2000.0000    144.3265
   844.2500   2000.0000     18.1748     17.1301   2000.0000    142.4273
   844.5000   2000.0000     18.4324     17.3939   2000.0000    140.3224
   844.7500   2000.0000     18.7566     17.6898   2000.0000    138.8819
   845.0000   2000.0000     19.1440     18.0210   2000.0000    136.2088
   845.2500   2000.0000     19.5894     18.3929   2000.0000    134.2827
   845.5000   2000.0000     20.0858     18.8130   2000.0000    131.7481
   845.7500   2000.0000     20.6258     19.2911   2000.0000    130.3264
   846.0000   2000.0000     21.2023     19.8402   2000.0000    128.0674
   846.2500   2000.0000     21.8092     20.4764   2000.0000    126.1667
   846.5000   2000.0000     22.4429     21.2180   2000.0000    122.7389
   846.7500   2000.0000     23.1023     22.0853   2000.0000    120.4190
   847.0000   2000.0000     23.7881     23.0969   2000.0000    117.6632
   847.2500   2000.0000     24.5043     24.2686   2000.0000    116.5417
   847.5000   2000.0000     25.2551     25.6089   2000.0000    115.5608
   847.7500   2000.0000     26.0455     27.1169   2000.0000    114.8061
   848.0000   2000.0000     26.8799     28.7787   2000.0000    112.7791
   848.2500   2000.0000     27.7617     30.5661   2000.0000    110.9486
   848.5000   2000.0000     28.6901     32.4360   2000.0000    108.3606
   848.7500   2000.0000     29.6622     34.3311   2000.0000    107.0175
   849.0000   2000.0000     30.6692     36.1845   2000.0000    105.0561
   849.2500   2000.0000     31.6969     37.9262   2000.0000    103.2741
   849.5000   2000.0000     32.7251     39.4919   2000.0000     99.5823
   849.7500   2000.0000     33.7278     40.8341   2000.0000     96.6179
   850.0000   2000.0000     34.6751     41.9298   2000.0000     91.9594
   850.2500   2000.0000     35.5390     42.7880   2000.0000     89.1661
   850.5000   2000.0000     36.2984     43.4450   2000.0000     86.5046
   850.7500   2000.0000     36.9436     43.9565   2000.0000     86.2318
   851.0000   2000.0000     37.4806     44.3810   2000.0000     87.9457
   851.2500   2000.0000     37.9305     44.7670   2000.0000     89.8741
   851.5000   2000.0000     38.3269     45.1393   2000.0000     92.5513
   851.7500   2000.0000     38.7081     45.4921   2000.0000     93.4578
   852.0000   2000.0000     39.1099     45.7908   2000.0000     92.7000
   852.2500   2000.0000     39.5592     45.9812   2000.0000     90.8304
   852.5000   2000.0000     40.0724     46.0073   2000.0000     87.1991
   852.7500   2000.0000     40.6532     45.8314   2000.0000     85.3863
   853.0000   2000.0000     41.2965     45.4489   2000.0000     85.4547
   853.2500   2000.0000     41.9900     44.8909   2000.0000     87.8259
   853.5000   2000.0000     42.7192     44.2163   2000.0000     93.9558
   853.7500   2000.0000     43.4681     43.4941   2000.0000     98.5298
   854.0000   2000.0000     44.2181     42.7845   2000.0000    104.4179
   854.2500   2000.0000     44.9417     42.1302   2000.0000    107.4390
   854.5000   2000.0000     45.6022     41.5530   2000.0000    110.7604
   854.7500   2000.0000     46.1504     41.0607   2000.0000    112.0528
   855.0000   2000.0000     46.5298     40.6522   2000.0000    112.3376
   855.2500   2000.0000     46.6865     40.3245   2000.0000    111.6853
   855.5000   2000.0000     46.5894     40.0777   2000.0000    110.6120
   855.7500   2000.0000     46.2374     39.9146   2000.0000    110.4763
   856.0000   2000.0000     45.6702     39.8385   2000.0000    111.3623
   856.2500   2000.0000     44.9553     39.8476   2000.0000    112.1404
   856.5000   2000.0000     44.1692     39.9305   2000.0000    111.9902
   856.7500   2000.0000     43.3764     40.0667   2000.0000    110.3390
   857.0000   2000.0000     42.6134     40.2219   2000.0000    105.9355
   857.2500   2000.0000     41.8812     40.3501   2000.0000    102.9174
   857.5000   2000.0000     41.1457     40.3947   2000.0000    100.8045
   857.7500   2000.0000     40.3499     40.2941   2000.0000    101.7361
   858.0000   2000.0000     39.4284     39.9862   2000.0000    105.5689
   858.2500   2000.0000     38.3277     39.4203   2000.0000    108.3333
   858.5000   2000.0000     37.0232     38.5644   2000.0000    111.1117
   858.7500   2000.0000     35.5298     37.4164   2000.0000    112.0385
   859.0000   2000.0000     33.8986     36.0068   2000.0000    113.0409
   859.2500   2000.0000     32.2039     34.3920   2000.0000    114.0771
   859.5000   2000.0000     30.5252     32.6456   2000.0000    116.7380
   859.7500   2000.0000     28.9314     30.8490   2000.0000    119.1875
   860.0000   2000.0000     27.4729     29.0773   2000.0000    123.3275
   860.2500   2000.0000     26.1770     27.3950   2000.0000    126.1328
   860.5000   2000.0000     25.0506     25.8505   2000.0000    130.4844
   860.7500   2000.0000     24.0844     24.4752   2000.0000    133.6681
   861.0000   2000.0000     23.2607     23.2839   2000.0000    138.6970
   861.2500   2000.0000     22.5561     22.2774   2000.0000    141.8483
   861.5000   2000.0000     21.9482     21.4450   2000.0000    146.0860
   861.7500   2000.0000     21.4183     20.7675   2000.0000    148.8707
   862.0000   2000.0000     20.9536     20.2204   2000.0000    153.1142
   862.2500   2000.0000     20.5483     19.7785   2000.0000    155.4010
   862.5000   2000.0000     20.2032     19.4190   2000.0000    156.5237
   862.7500   2000.0000     19.9244     19.1249   2000.0000    155.2956
   863.0000   2000.0000     19.7214     18.8873   2000.0000    151.0809
   863.2500   2000.0000     19.6055     18.7065   2000.0000    147.5278
   863.5000   2000.0000     19.5871     18.5901   2000.0000    142.4682
   863.7500   2000.0000     19.6739     18.5506   2000.0000    139.8336
   864.0000   2000.0000     19.8696     18.6025   2000.0000    137.6291
   864.2500   2000.0000     20.1718     18.7590   2000.0000    137.5054
   864.5000   2000.0000     20.5719     19.0301   2000.0000    139.0008
   864.7500   2000.0000     21.0538     19.4204   2000.0000    140.4451
   865.0000   2000.0000     21.5954     19.9291   2000.0000    141.4889
   865.2500   2000.0000     22.1698     20.5483   2000.0000    140.3239
   865.5000   2000.0000     22.7479     21.2642   2000.0000    134.7993
   865.7500   2000.0000     23.3018     22.0566   2000.0000    129.0853
   866.0000   2000.0000     23.8085     22.8995   2000.0000    119.9251
   866.2500   2000.0000     24.2518     23.7635   2000.0000    115.1354
   866.5000   2000.0000     24.6238     24.6159   2000.0000    112.2457
   866.7500   2000.0000     24.9254     25.4232   2000.0000    113.8686
   867.0000   2000.0000     25.1636     26.1534   2000.0000    121.2039
   867.2500   2000.0000     25.3500     26.7802   2000.0000    128.1496
   867.5000   2000.0000     25.4990     27.2864   2000.0000    138.9050
   867.7500   2000.0000     25.6257     27.6684   2000.0000    145.1330
   868.0000   2000.0000     25.7463     27.9375   2000.0000    152.4264
   868.2500   2000.0000     25.8773     28.1204   2000.0000    155.9375
   868.5000   2000.0000     26.0357     28.2562   2000.0000    158.8884
   868.7500   2000.0000     26.2391     28.3902   2000.0000    158.9643
   869.0000   2000.0000     26.5026     28.5676   2000.0000    156.0574
   869.2500   2000.0000     26.8382     28.8290   2000.0000    152.4032
   869.5000   2000.0000     27.2517     29.2052   2000.0000    145.2709
   869.7500   2000.0000     27.7409     29.7167   2000.0000    140.0784
   870.0000   2000.0000     28.2949     30.3734   2000.0000    132.9476
   870.2500   2000.0000     28.8938     31.1769   2000.0000    129.3044
   870.5000   2000.0000     29.5122     32.1232   2000.0000    125.9172
   870.7500   2000.0000     30.1224     33.2035   2000.0000    124.7908
   871.0000   2000.0000     30.6988     34.4074   2000.0000    123.9216
   871.2500   2000.0000     31.2242     35.7217   2000.0000    123.3743
