~Version Information
 VERS.                                  2.0 : CWLS LAS VERSION
 WRAP.                                   NO : WRAPING MODE
 SWARE .                 MController 2.5.0N : SOFTWARE VERSION
~Well Information
 WELL.                     Prospector 12-19 : WELL
 COMP.    Pioneer Natural Resources USA Inc : COMPANY
 FLD.                      Purgatoire River : FIELD
 LOC.                SW/NW Sec 19 T34S R64W : LOCATION
 DATE.                           4/24-25/05 : DATE(S) LOGGED
 SRVC.       Blanco Geological Services LLC : SERVICE COMPANY
 STAT.                                   CO : STATE
 CNTY.                           Las Animas : COUNTY
 CTRY.                                  USA : COUNTRY
 API.                       05-071-08191-00 : API NUMBER
 STRT.FT                             351.00 : START DEPTH
 STOP.FT                             900.00 : STOP DEPTH
 STEP.FT                               1.00 : DEPTH INCREMENT
 NULL.                                -9999 : NULL VALUE
~Curve information
 DEPTH.FT                                   :
 ROP.MIN/FT                                 :
 GAS.UNITS                                  :
~ASCII Log data
       351.0     -9999.00          4.1 
       352.0        10.32        125.5 
       353.0         0.20         85.6 
       354.0         9.95         65.8 
       355.0         0.23          3.3 
       356.0         0.83          3.3 
       357.0         0.10          3.4 
       358.0         0.23          3.3 
       359.0         0.12          3.0 
       360.0         0.10          3.1 
       361.0         0.13          3.3 
       362.0         0.10          3.4 
       363.0         0.13          2.9 
       364.0         0.10          3.0 
       365.0         0.13          3.2 
       366.0         0.23          3.2 
       367.0         0.17          3.6 
       368.0         0.13          3.3 
       369.0         0.40          3.6 
       370.0         0.33          3.4 
       371.0         1.22          3.6 
       372.0         0.23          3.0 
       373.0         0.10          3.4 
       374.0         0.10          3.0 
       375.0         0.10          3.1 
       376.0         0.23          3.5 
       377.0         0.10          3.3 
       378.0         0.20          3.6 
       379.0         0.10          3.3 
       380.0         0.10          3.1 
       381.0         0.13          3.0 
       382.0         0.10          3.2 
       383.0         0.10          3.2 
       384.0         0.20          3.5 
       385.0         0.10          2.9 
       386.0         0.23          3.3 
       387.0         0.33          3.7 
       388.0         0.20          3.3 
       389.0         0.23          3.1 
       390.0         0.28          3.6 
       391.0         0.47          3.3 
       392.0         0.33          3.6 
       393.0         0.70          3.4 
       394.0         0.17          3.1 
       395.0         0.13          3.1 
       396.0         0.10          3.0 
       397.0         0.10          3.3 
       398.0         0.10          3.1 
       399.0         0.10          2.7 
       400.0         0.10          2.9 
       401.0         0.10          2.9 
       402.0         0.10          2.6 
       403.0         0.20          3.2 
       404.0         0.10          2.6 
       405.0         0.25          3.0 
       406.0         0.10          3.1 
       407.0         0.10          2.7 
       408.0         0.30          3.0 
       409.0         0.10          3.1 
       410.0         0.13          3.2 
       411.0         0.37          3.4 
       412.0         0.07          3.3 
       413.0         0.23          3.3 
       414.0         0.27          3.2 
       415.0         0.40          3.2 
       416.0         0.73          3.5 
       417.0         0.20          3.3 
       418.0         0.22          3.3 
       419.0         0.37          3.4 
       420.0         0.40          3.4 
       421.0         0.27          3.3 
       422.0         0.27          3.5 
       423.0         0.30          3.6 
       424.0         0.30          3.5 
       425.0         0.27          3.2 
       426.0         0.23          3.4 
       427.0         0.23          3.6 
       428.0         0.23          3.6 
       429.0         0.23          3.4 
       430.0         0.25          3.4 
       431.0         0.20          3.6 
       432.0         0.23          3.5 
       433.0         0.23          3.4 
       434.0         0.23          3.6 
       435.0         0.20          3.4 
       436.0         0.23          3.1 
       437.0         0.20          3.4 
       438.0         0.23          3.3 
       439.0         0.23          3.6 
       440.0         0.23          3.3 
       441.0         0.20          3.3 
       442.0         0.30          3.3 
       443.0         0.22          3.3 
       444.0         0.23          3.3 
       445.0         0.13          3.3 
       446.0         1.33          3.6 
       447.0         0.30          3.6 
       448.0         0.30          3.6 
       449.0         0.23          3.8 
       450.0         0.23          3.6 
       451.0         0.27          3.4 
       452.0         0.28          3.7 
       453.0         0.23          3.4 
       454.0         0.27          3.6 
       455.0         0.23          3.7 
       456.0         0.30          3.4 
       457.0         0.30          3.5 
       458.0         0.23          3.4 
       459.0         0.23          3.3 
       460.0         0.23          4.6 
       461.0         0.23          4.8 
       462.0         0.27          4.6 
       463.0         0.20          5.0 
       464.0         0.22          5.1 
       465.0         0.20          4.8 
       466.0         0.17          5.0 
       467.0         0.20          4.8 
       468.0         0.23          4.9 
       469.0         0.20          4.7 
       470.0         0.23          4.8 
       471.0         0.23          4.8 
       472.0         0.27          4.7 
       473.0         0.23          4.4 
       474.0         0.27          4.8 
       475.0         0.17          4.5 
       476.0         1.48          4.8 
       477.0         0.17          4.8 
       478.0         0.33          4.7 
       479.0         0.23          4.8 
       480.0         0.23          4.8 
       481.0         0.20          4.9 
       482.0         0.23          4.6 
       483.0         0.30          4.8 
       484.0         0.20          4.8 
       485.0         0.20          4.8 
       486.0         0.17          5.8 
       487.0         0.22         41.0 
       488.0         0.23         74.7 
       489.0         0.17         74.7 
       490.0         0.23         67.4 
       491.0         0.23         51.4 
       492.0         0.23         38.2 
       493.0         0.20         27.5 
       494.0         0.13         20.5 
       495.0         0.13         17.3 
       496.0         0.23         14.4 
       497.0         0.30         11.2 
       498.0         0.27          8.4 
       499.0         0.20          6.5 
       500.0         0.23          6.4 
       501.0         0.28          5.4 
       502.0         0.20          5.4 
       503.0         0.23          5.1 
       504.0         0.20          5.2 
       505.0         0.27          5.4 
       506.0         0.87          5.2 
       507.0         0.33          5.0 
       508.0         0.40          6.2 
       509.0         0.30          7.2 
       510.0         0.27          7.0 
       511.0         0.32          6.0 
       512.0         0.23          5.6 
       513.0         0.23          5.5 
       514.0         0.23          5.2 
       515.0         0.23          5.3 
       516.0         0.20          5.3 
       517.0         0.23          5.3 
       518.0         0.17          4.8 
       519.0         0.23          5.2 
       520.0         0.23          5.3 
       521.0         0.13          4.6 
       522.0         0.13          5.1 
       523.0         0.27          4.8 
       524.0         0.17          5.0 
       525.0         0.20          5.1 
       526.0         0.22          5.2 
       527.0         0.20          4.1 
       528.0         0.23          4.1 
       529.0         0.20          4.1 
       530.0         0.23          4.0 
       531.0         0.20          4.5 
       532.0         0.20          4.3 
       533.0         0.17          4.1 
       534.0         0.20          4.3 
       535.0         0.27          4.0 
       536.0         1.48          4.6 
       537.0         0.37          4.6 
       538.0         0.30          4.6 
       539.0         0.23          4.6 
       540.0         0.23          4.5 
       541.0         0.23          4.4 
       542.0         0.23          4.8 
       543.0         0.27          4.6 
       544.0         0.30          4.8 
       545.0         0.27          4.3 
       546.0         0.30          4.5 
       547.0         0.28          4.6 
       548.0         0.27          4.6 
       549.0         0.23          4.7 
       550.0         0.23          4.7 
