~Version Information
VERS.                      2.0: CWLS Log ASCII Standard - VERSION 2.0
WRAP.                       NO: One line per depth step
~Well Information Block
STRT.FT               -19.5000: 
STOP.FT              2456.0000: 
STEP.FT                 0.2500: 
NULL.                -999.2500: 
COMP.          Petrogulf Corporation: COMPANY
WELL.           Montoya 12-44V: WELL
FLD.           Purgatorie River: FIELD
LOC.           698' FSL & 599' FEL: LOCATION
CNTY.               Las Animas: COUNTY
SRVC.                         : SERVICE COMPANY
DATE.          Mon Sep 13 13:44:10 2004: LOG DATE
UWI.           05-071-08094-00: UNIQUE WELL ID
STAT.                 Colorado: STATE
~Curve Information Block
DEPT.FT            0 000 00 00: Depth
TT3.usec                      : CBL 3' Travel Time
AMP3.mV                       : CBL 3' Amplitude
GR.GAPI                       : Gamma Ray
CCL.                          : Casing Collar Locator
~Parameter Information Block
~A  Depth       TT3         AMP3         GR         CCL     
# ...
  2258.5000    725.7913      1.0022     75.6151      0.0000
  2258.7500    729.6957      0.9787     73.5014      0.0000
  2259.0000    731.2933      1.0090     72.7156      0.0000
  2259.2500    731.8002      1.0918     73.8860      0.0000
  2259.5000    732.4416      1.1942     77.0408      0.0000
  2259.7500    734.5597      1.2749     81.3151      0.0000
  2260.0000    739.9475      1.3207     85.5231      0.0000
  2260.2500    748.1815      1.3427     89.0327      0.0000
  2260.5000    753.9338      1.3506     91.9370      0.0000
  2260.7500    753.1515      1.3542     94.4541      0.0000
  2261.0000    750.5851      1.3681     96.3660      0.0000
  2261.2500    754.8302      1.4021     97.1031      0.0000
  2261.5000    769.0968      1.4531     96.3653      0.0000
  2261.7500    788.2549      1.5097     94.6354      0.0000
  2262.0000    803.1426      1.5612     92.8573      0.0000
  2262.2500    808.7618      1.5953     91.4402      0.0000
  2262.5000    806.1694      1.5938     89.6762      0.0000
  2262.7500    796.3984      1.5406     86.3024      0.0000
  2263.0000    777.9858      1.4399     80.7094      0.0000
  2263.2500    752.8118      1.3234     73.7248      0.0000
  2263.5000    729.4212      1.2266     67.2375      0.0000
  2263.7500    716.9311      1.1620     62.8544      0.0000
  2264.0000    716.6021      1.1166     60.8284      0.0000
  2264.2500    721.4639      1.0686     60.3372      0.0000
  2264.5000    725.2601      1.0109     60.5287      0.0000
  2264.7500    728.0349      0.9552     61.0289      0.0000
  2265.0000    733.1863      0.9187     61.7739      0.0000
  2265.2500    743.3929      0.9168     62.9208      0.0000
  2265.5000    757.2130      0.9564     64.9885      0.0000
  2265.7500    765.9382      1.0305     68.6668      0.0000
  2266.0000    759.6580      1.1256     74.0484      0.0000
  2266.2500    742.5027      1.2303     80.0602      0.0000
  2266.5000    733.2323      1.3344     84.9807      0.0000
  2266.7500    744.4222      1.4363     87.6898      0.0000
  2267.0000    768.1604      1.5489     88.3520      0.0000
  2267.2500    785.9028      1.6800     87.9065      0.0000
  2267.5000    789.3396      1.8228     87.1136      0.0000
  2267.7500    785.8533      1.9715     86.2183      0.0000
  2268.0000    782.5602      2.1254     85.2814      0.0000
  2268.2500    774.3279      2.2857     84.3906      0.0000
  2268.5000    750.3506      2.4503     83.4265      0.0000
  2268.7500    703.8801      2.6163     81.9750      0.0000
  2269.0000    637.6237      2.7886     79.7587      0.0000
  2269.2500    569.3994      2.9738     77.0761      0.0000
  2269.5000    523.1573      3.1619     74.6348      0.0000
  2269.7500    504.5833      3.3245     73.0289      0.0000
  2270.0000    498.1568      3.4374     72.5075      0.0000
  2270.2500    489.1066      3.5052     73.0550      0.0000
  2270.5000    476.2186      3.5631     74.2549      0.0000
  2270.7500    465.5888      3.6606     75.0659      0.0000
  2271.0000    460.3476      3.8311     74.1923      0.0000
  2271.2500    458.4991      4.0622     71.0163      0.0000
  2271.5000    456.5139      4.3034     66.2644      0.0000
  2271.7500    451.6273      4.5029     61.8225      0.0000
  2272.0000    442.7928      4.6329     59.8194      0.0000
  2272.2500    432.0145      4.6890     61.4744      0.0000
  2272.5000    423.2835      4.6902     66.3045      0.0000
  2272.7500    418.9006      4.6797     72.2885      0.0000
  2273.0000    418.6334      4.7009     77.0689      0.0000
  2273.2500    421.6425      4.7699     79.3793      0.0000
  2273.5000    426.1346      4.8816     79.6558      0.0000
  2273.7500    428.5415      5.0310     79.4867      0.0000
  2274.0000    427.5890      5.2176     80.2825      0.0000
  2274.2500    427.6679      5.4404     82.0869      0.0000
  2274.5000    433.3778      5.6951     83.5646      0.0000
  2274.7500    443.0121      5.9557     83.2301      0.0000
  2275.0000    451.0542      6.1697     80.6761      0.0000
  2275.2500    454.6748      6.2970     76.7177      0.0000
  2275.5000    455.9031      6.3269     72.7008      0.0000
  2275.7500    462.8853      6.2467     69.7450      0.0000
  2276.0000    489.9928      6.0364     68.2626      0.0000
  2276.2500    541.0373      5.7111     67.9518      0.0000
  2276.5000    588.4828      5.3239     68.3521      0.0000
  2276.7500    600.0399      4.9184     69.3652      0.0000
  2277.0000    591.5486      4.5207     71.0790      0.0000
  2277.2500    610.3870      4.1595     73.3755      0.0000
  2277.5000    665.4501      3.8709     76.1002      0.0000
  2277.7500    719.7612      3.7054     79.2141      0.0000
  2278.0000    746.5659      3.7124     82.2407      0.0000
  2278.2500    752.0418      3.9043     83.9929      0.0000
  2278.5000    751.0714      4.2472     83.5072      0.0000
  2278.7500    748.0262      4.6957     81.0675      0.0000
  2279.0000    734.1295      5.2402     77.9042      0.0000
  2279.2500    690.3228      5.8935     75.1143      0.0000
  2279.5000    606.3770      6.6238     73.2758      0.0000
  2279.7500    509.0148      7.3240     72.8193      0.0000
  2280.0000    445.4937      7.8540     74.0048      0.0000
  2280.2500    428.1699      8.1395     76.3988      0.0000
  2280.5000    426.7213      8.2325     78.8473      0.0000
  2280.7500    414.9579      8.2144     80.0640      0.0000
  2281.0000    398.9728      8.0453     79.0927      0.0000
  2281.2500    400.5566      7.5939     75.6551      0.0000
  2281.5000    430.8825      6.8327     70.6171      0.0000
  2281.7500    491.6487      5.9327     65.8138      0.0000
  2282.0000    580.8337      5.1106     62.8591      0.0000
  2282.2500    672.2813      4.4326     62.1552      0.0000
  2282.5000    719.2225      3.8473     63.1083      0.0000
  2282.7500    704.8332      3.3456     64.8532      0.0000
  2283.0000    661.0522      2.9837     66.4860      0.0000
  2283.2500    627.5636      2.7914     67.0459      0.0000
  2283.5000    618.1343      2.7361     66.0035      0.0000
  2283.7500    619.1245      2.7669     63.8766      0.0000
  2284.0000    606.2334      2.8421     61.9190      0.0000
  2284.2500    583.6888      2.9099     61.0453      0.0000
  2284.5000    587.8615      2.9321     61.2453      0.0000
  2284.7500    629.3309      2.9543     61.9491      0.0000
  2285.0000    669.4278      3.0474     62.7250      0.0000
  2285.2500    666.3722      3.1619     63.7032      0.0000
  2285.5000    615.6803      3.2228     65.3846      0.0000
  2285.7500    546.3115      3.3150     67.8639      0.0000
  2286.0000    492.2792      3.5694     70.3089      0.0000
  2286.2500    467.4030      3.9965     71.5598      0.0000
  2286.5000    467.6285      4.5046     71.2727      4.1901
  2286.7500    487.6132      4.9500     70.1080      2.0813
  2287.0000    517.4295      5.1771     68.7323      0.0000
  2287.2500    532.3905      5.1405     67.0990      0.0000
  2287.5000    514.4130      5.0188     65.0177      0.0000
  2287.7500    478.3206      5.0360     63.0257      0.0000
  2288.0000    456.7551      5.1421     62.0459      0.0000
  2288.2500    467.8717      5.1573     62.2211      0.0000
  2288.5000    499.1580      5.1445     62.7765      0.0000
  2288.7500    517.8173      5.2691     63.1759      0.0000
  2289.0000    506.2432      5.5153     63.7556      0.0000
  2289.2500    480.1166      5.7852     65.0481      0.0000
  2289.5000    461.3901      6.0628     67.0940      0.0000
  2289.7500    454.3752      6.3659     69.5049      0.0000
  2290.0000    453.4972      6.6433     71.5718      0.0000
  2290.2500    454.6444      6.8060     72.3034      0.0000
  2290.5000    456.2205      6.8170     71.1509      0.0000
  2290.7500    457.4789      6.7109     68.8663      0.0000
  2291.0000    458.0257      6.5652     67.0985      0.0000
  2291.2500    457.7570      6.4535     66.9900      0.0000
  2291.5000    456.7215      6.4009     68.4207      0.0000
  2291.7500    455.0320      6.3686     70.4570      0.0000
