~Version Information
VERS.                      2.0: CWLS Log ASCII Standard - VERSION 2.0
WRAP.                       NO: One line per depth step
~Well Information Block
STRT.FT               742.0000: 
STOP.FT              2582.0000: 
STEP.FT                 0.2500: 
NULL.                -999.2500: 
COMP.          Petrogulf Corporation: COMPANY
WELL.            Montoya 7-12V: WELL
FLD.           Purgatorie River: FIELD
LOC.           728' FWL & 1764' FNL: LOCATION
CNTY.               Las Animas: COUNTY
SRVC.                         : SERVICE COMPANY
DATE.          Thu Feb 19 20:58:32 2004: LOG DATE
UWI.           05-071-07887-00: UNIQUE WELL ID
STAT.                 Colorado: STATE
~Curve Information Block
DEPT.FT            0 000 00 00: Depth
SP.mV                         : DIL Spontaneous Potential
RILD.Ohm-m                    : DIL Deep Resistivity
RILM.Ohm-m                    : DIL Medium Resistivity
RLL3.Ohm-m                    : DIL Shallow Resistivity
GR.GAPI                       : Gamma Ray
~Parameter Information Block
~A  Depth        SP         RILD        RILM        RLL3         GR     
# ...
  1022.0000   -192.0792     17.2483     17.5131     27.0103    137.3564
  1022.2500   -193.1784     16.9351     16.7224     23.7387    143.2452
  1022.5000   -194.3641     16.6055     15.9385     21.0005    149.3095
  1022.7500   -195.5846     16.2658     15.2056     18.8531    151.5180
  1023.0000   -196.7918     15.9264     14.5532     17.2931    153.0703
  1023.2500   -197.9506     15.6026     13.9989     16.2855    153.7037
  1023.5000   -199.0442     15.3125     13.5521     15.7629    154.7619
  1023.7500   -200.0706     15.0735     13.2180     15.6138    155.3193
  1024.0000   -201.0318     14.8981     12.9995     15.6959    155.3060
  1024.2500   -201.9207     14.7909     12.8985     15.8911    154.9724
  1024.5000   -202.7143     14.7477     12.9156     16.1647    155.5055
  1024.7500   -203.3750     14.7571     13.0507     16.5952    157.1334
  1025.0000   -203.8555     14.8048     13.3017     17.3929    160.3344
  1025.2500   -204.1033     14.8782     13.6601     18.9234    161.3474
  1025.5000   -204.0670     14.9694     14.1050     21.6260    159.0785
  1025.7500   -203.7067     15.0758     14.5949     25.6612    155.0554
  1026.0000   -203.0104     15.1971     15.0676     30.3969    146.7477
  1026.2500   -202.0103     15.3320     15.4512     34.3196    140.5831
  1026.5000   -200.7900     15.4757     15.6893     35.8295    131.4674
  1026.7500   -199.4701     15.6200     15.7645     34.3972    126.1639
  1027.0000   -198.1804     15.7555     15.7031     30.9289    120.8752
  1027.2500   -197.0298     15.8756     15.5552     27.0029    119.8362
  1027.5000   -196.0898     15.9768     15.3684     23.8454    122.3139
  1027.7500   -195.3917     16.0578     15.1709     21.8953    126.4164
  1028.0000   -194.9320     16.1182     14.9719     20.9555    135.3541
  1028.2500   -194.6815     16.1595     14.7731     20.5361    142.1702
  1028.5000   -194.5948     16.1900     14.5819     20.1715    151.1648
  1028.7500   -194.6199     16.2249     14.4195     19.6416    155.0887
  1029.0000   -194.7088     16.2823     14.3195     19.0329    157.4490
  1029.2500   -194.8230     16.3735     14.3189     18.6437    157.3712
  1029.5000   -194.9345     16.4978     14.4475     18.8463    156.2792
  1029.7500   -195.0235     16.6439     14.7178     19.9988    155.3398
  1030.0000   -195.0772     16.8001     15.1191     22.3521    153.4603
  1030.2500   -195.0935     16.9652     15.6168     25.8358    151.6746
  1030.5000   -195.0848     17.1530     16.1590     29.8059    148.4485
  1030.7500   -195.0788     17.3870     16.6913     33.0931    146.4404
  1031.0000   -195.1124     17.6900     17.1749     34.5783    144.1490
  1031.2500   -195.2232     18.0760     17.5995     33.9539    142.9132
  1031.5000   -195.4455     18.5467     17.9833     31.9479    141.2147
  1031.7500   -195.8095     19.0938     18.3609     29.7437    140.5523
  1032.0000   -196.3388     19.7035     18.7645     28.1833    141.2729
  1032.2500   -197.0435     20.3579     19.2066     27.4906    143.0197
  1032.5000   -197.9162     21.0316     19.6748     27.5297    146.5556
  1032.7500   -198.9332     21.6917     20.1423     28.0583    148.6649
  1033.0000   -200.0609     22.3092     20.5910     28.7312    150.2466
  1033.2500   -201.2648     22.8766     21.0322     29.1539    149.8207
  1033.5000   -202.5182     23.4166     21.5090     29.2005    146.8512
  1033.7500   -203.8081     23.9727     22.0798     29.2714    143.7400
  1034.0000   -205.1310     24.5880     22.7945     30.0657    138.7722
  1034.2500   -206.4805     25.2886     23.6763     31.9977    135.9842
  1034.5000   -207.8340     26.0795     24.7182     34.8378    132.6113
  1034.7500   -209.1463     26.9539     25.8941     37.9300    130.0909
  1035.0000   -210.3575     27.9092     27.1778     40.7499    124.3756
  1035.2500   -211.4103     28.9582     28.5577     43.2815    119.2003
  1035.5000   -212.2669     30.1230     30.0339     45.9470    110.8653
  1035.7500   -212.9136     31.4154     31.6005     49.2385    105.9724
  1036.0000   -213.3589     32.8203     33.2317     53.3503    100.5680
  1036.2500   -213.6316     34.2982     34.8869     57.9909     98.2901
  1036.5000   -213.7821     35.8081     36.5298     62.4230     96.4807
  1036.7500   -213.8785     37.3299     38.1426     65.7171     95.9829
  1037.0000   -213.9931     38.8664     39.7214     67.1493     95.6239
  1037.2500   -214.1843     40.4256     41.2670     66.5956     95.3996
  1037.5000   -214.4850     41.9990     42.7859     64.7111     95.1356
  1037.7500   -214.8951     43.5524     44.3013     62.7039     95.2280
  1038.0000   -215.3721     45.0312     45.8575     61.7511     96.1095
  1038.2500   -215.8306     46.3804     47.5081     62.4534     97.1579
  1038.5000   -216.1692     47.5622     49.2831     64.7340     98.6411
  1038.7500   -216.3138     48.5608     51.1493     68.1592     98.8006
  1039.0000   -216.2413     49.3636     52.9878     72.2933     96.8542
  1039.2500   -215.9660     49.9312     54.6208     76.7936     94.2468
  1039.5000   -215.5116     50.1822     55.8798     81.3234     89.6622
  1039.7500   -214.8989     50.0132     56.6548     85.5652     87.0203
  1040.0000   -214.1468     49.3501     56.8689     89.4292     84.6708
  1040.2500   -213.2738     48.2005     56.4083     93.1782     84.3518
  1040.5000   -212.2952     46.6650     55.1046     97.0782     85.3144
  1040.7500   -211.2222     44.8998     52.8226    100.5997     86.4374
  1041.0000   -210.0686     43.0592     49.5983    101.8908     88.3348
  1041.2500   -208.8573     41.2597     45.7021     98.4384     89.8757
  1041.5000   -207.6222     39.5704     41.5644     88.8579     93.5012
  1041.7500   -206.4059     38.0250     37.6261     74.3337     97.5535
  1042.0000   -205.2544     36.6397     34.2140     58.2402    107.1363
  1042.2500   -204.2068     35.4307     31.4951     44.2414    115.6577
  1042.5000   -203.2854     34.4138     29.4951     34.5283    129.0541
  1042.7500   -202.4915     33.5904     28.1461     29.3484    136.0991
  1043.0000   -201.8124     32.9314     27.3348     27.6387    141.0325
  1043.2500   -201.2328     32.3832     26.9389     27.9476    140.5110
  1043.5000   -200.7425     31.8915     26.8464     29.0808    136.0363
  1043.7500   -200.3356     31.4264     26.9619     30.3597    132.0399
  1044.0000   -200.0032     30.9866     27.2049     31.5938    126.3316
  1044.2500   -199.7282     30.5810     27.5062     32.9021    123.1883
  1044.5000   -199.4867     30.2082     27.8066     34.4936    119.1492
  1044.7500   -199.2520     29.8498     28.0528     36.4855    116.3137
  1045.0000   -198.9988     29.4817     28.1879     38.8023    111.2593
  1045.2500   -198.7074     29.0938     28.1444     41.1855    107.6368
  1045.5000   -198.3681     28.7054     27.8513     43.2783    102.8672
  1045.7500   -197.9855     28.3666     27.2607     44.6593    100.6263
  1046.0000   -197.5813     28.1443     26.3839     44.8057     99.1623
  1046.2500   -197.1923     28.0989     25.3146     43.1780     99.6682
  1046.5000   -196.8670     28.2610     24.2173     39.5685    103.0774
  1046.7500   -196.6573     28.6152     23.2836     34.4881    107.2723
  1047.0000   -196.6072     29.0942     22.6812     29.2027    115.9941
  1047.2500   -196.7417     29.5866     22.5229     25.3286    122.5302
  1047.5000   -197.0579     29.9624     22.8578     24.2530    131.0426
  1047.7500   -197.5224     30.1089     23.6693     26.6756    134.4091
  1048.0000   -198.0743     29.9656     24.8697     32.3880    134.3345
  1048.2500   -198.6360     29.5391     26.2939     40.3233    130.8434
  1048.5000   -199.1314     28.8935     27.7102     48.8877    122.2415
  1048.7500   -199.5042     28.1237     28.8611     56.4831    115.9169
  1049.0000   -199.7293     27.3244     29.5245     61.9568    107.9332
  1049.2500   -199.8118     26.5661     29.5630     64.7225    104.3090
  1049.5000   -199.7780     25.8816     28.9471     64.5928    101.6740
  1049.7500   -199.6631     25.2658     27.7566     61.6147    101.6737
