~Version Information
VERS.                      2.0: CWLS Log ASCII Standard - VERSION 2.0
WRAP.                       NO: One line per depth step
~Well Information Block
STRT.FT               870.0000: 
STOP.FT              2517.5000: 
STEP.FT                 0.1000: 
NULL.                -999.2500: 
COMP.          Pioneer Natural Resources: COMPANY
WELL.              Tiaga 23-14: WELL
FLD.           Purgatoire River: FIELD
LOC.           2168' FSL & 2030' FWL: LOCATION
PROV.                 Colorado: PROVINCE
CNTY.               Las Animas: COUNTRY
SRVC.                         : SERVICE COMPANY
DATE.          Sat May 07 09:09:05 2005: LOG DATE
UWI.           05 071 08329 00: UNIQUE WELL ID
~Curve Information Block
DEPT.FT            0 000 00 00: Depth
LTEN.lb                       : Surface Line Tension
DCAL.in                       : CDL Caliper
RHOC.g/cc                     : CDL Density Correction
DPOR.pu                       : CDL Density Porosity
GR.GAPI                       : Gamma Ray
NPOR.pu                       : Neutron Porosity
~Parameter Information Block
~A  Depth       LTEN        DCAL        RHOC        DPOR         GR         NPOR    
# ...
  1196.4000    841.5654      8.2386      0.1059     18.0680    142.0947     26.3315
  1196.5000    856.1163      8.2428      0.0999     16.9053    146.3192     25.9723
  1196.6000    856.1163      8.2428      0.1468     16.0253    147.5428     26.4283
  1196.7000    856.1163      8.2428      0.0813     15.6212    146.3710     26.5659
  1196.8000    871.6661      8.1711      0.1137     14.1144    141.0613     25.9424
  1196.9000    871.6661      8.1711      0.1906     11.3564    131.9633     25.3025
  1197.0000    855.5052      8.1550      0.1930      9.0903    126.8805     24.6813
  1197.1000    855.5052      8.1550      0.2050      8.1875    129.9555     23.8960
  1197.2000    855.5052      8.1550      0.1639      8.3119    133.9247     23.5646
  1197.3000    839.1607      8.1549      0.2202      8.9058    132.3712     23.8134
  1197.4000    839.1607      8.1549      0.1006      9.0756    129.4865     24.1815
  1197.5000    858.7858      8.1377      0.1361      8.5952    133.1969     24.3068
  1197.6000    858.7858      8.1377      0.1354      8.9326    142.4212     23.8534
  1197.7000    858.7858      8.1377      0.0845     10.3649    149.8129     23.1708
  1197.8000    843.0225      8.1391      0.0629     11.2093    151.7311     22.8906
  1197.9000    843.0225      8.1391      0.0724     11.1487    146.6199     22.9736
  1198.0000    888.8934      8.1284      0.0965     11.5026    137.6010     23.1712
  1198.1000    888.8934      8.1284      0.0341     12.7967    135.2193     23.5310
  1198.2000    888.8934      8.1284      0.0240     14.3474    142.3554     24.0348
  1198.3000    851.0744      8.1140     -0.0213     14.8728    150.5981     24.4948
  1198.4000    851.0744      8.1140      0.0492     13.4719    153.6158     24.8325
  1198.5000    861.5807      8.0990      0.1302     11.3674    149.6151     25.0145
  1198.6000    861.5807      8.0990      0.0735     10.0678    136.8618     24.7221
  1198.7000    861.5807      8.0990      0.1464      9.3144    122.8820     23.9573
  1198.8000    899.9163      8.0977      0.0904      9.0667    117.0696     23.2906
  1198.9000    899.9163      8.0977      0.1092      9.3238    115.0366     22.9410
  1199.0000    805.1701      8.0916      0.1000      9.3199    112.5062     22.7610
  1199.1000    805.1701      8.0916      0.0779      8.6198    113.3558     22.6619
  1199.2000    805.1701      8.0916      0.0912      7.2530    117.6025     22.6599
  1199.3000    905.3075      8.0903      0.1001      5.7599    120.9298     22.6763
  1199.4000    905.3075      8.0903      0.0981      5.1723    121.1259     22.6476
  1199.5000    900.2764      8.0961      0.1066      5.7509    117.2722     22.5566
  1199.6000    900.2764      8.0961      0.1060      6.8458    110.6956     22.5681
  1199.7000    900.2764      8.0961      0.0697      7.9118    107.9742     23.0182
  1199.8000    845.7921      8.0654      0.0821      8.7148    112.8671     23.3032
  1199.9000    845.7921      8.0654      0.0571      9.3327    120.0736     22.4695
  1200.0000    880.6612      8.0564      0.0605      9.7461    125.2503     20.5468
  1200.1000    880.6612      8.0564      0.0343     10.0112    129.6136     18.8426
  1200.2000    880.6612      8.0564      0.0927     10.9496    132.0978     18.5406
  1200.3000    902.8706      8.0571      0.0154     12.6550    130.2234     19.2779
  1200.4000    902.8706      8.0571     -0.0041     13.0021    126.9632     20.7635
  1200.5000    840.8749      8.0732      0.0845     11.2050    125.9929     22.7221
  1200.6000    840.8749      8.0732      0.0636      9.5776    126.3646     23.7667
  1200.7000    840.8749      8.0732      0.0577      9.2944    125.9176     23.6785
  1200.8000    831.5515      8.0948      0.1019      9.6194    124.0418     23.3697
  1200.9000    831.5515      8.0948      0.0660     10.3373    119.4977     22.9140
  1201.0000    880.7157      8.1031      0.0283     11.0362    112.9302     22.6598
  1201.1000    880.7157      8.1031      0.1140     11.1301    108.3749     23.0988
  1201.2000    880.7157      8.1031      0.0417     10.9502    108.6501     23.1076
  1201.3000    834.1732      8.0957     -0.0063     10.6528    113.0077     21.7591
  1201.4000    834.1732      8.0957      0.0128      9.7382    119.0679     20.0469
  1201.5000    879.5157      8.0982      0.0541      8.2286    125.5418     19.2692
  1201.6000    879.5157      8.0982      0.0647      7.4522    130.9356     19.6901
  1201.7000    879.5157      8.0982      0.0052      8.5694    132.6936     20.7353
  1201.8000    892.8750      8.0720     -0.0129     10.6404    131.5106     21.5362
  1201.9000    892.8750      8.0720      0.0323     11.9146    129.7625     22.0006
  1202.0000    849.8984      8.0670      0.0573     12.0542    127.1674     22.7089
  1202.1000    849.8984      8.0670     -0.0001     11.6771    122.1290     23.3641
  1202.2000    849.8984      8.0670      0.0822     11.0710    117.0181     23.3734
  1202.3000    911.3588      8.0563      0.0784     10.3665    117.6440     23.2138
  1202.4000    911.3588      8.0563      0.0764      9.7538    124.8057     23.6555
  1202.5000    919.1630      8.0535      0.1031      9.7747    134.0156     24.3080
  1202.6000    919.1630      8.0535      0.0610     11.1118    141.2233     24.2518
  1202.7000    919.1630      8.0535      0.0345     13.0393    142.4250     23.7747
  1202.8000    889.3232      8.0603      0.0121     13.8217    134.6090     23.3622
  1202.9000    889.3232      8.0603      0.0633     12.9835    122.5018     22.8339
  1203.0000    924.6064      8.0670      0.0969     11.3062    115.1111     22.5458
  1203.1000    924.6064      8.0670      0.0843      9.3944    115.9320     22.7934
  1203.2000    924.6064      8.0670      0.1488      7.8697    122.4288     23.2207
  1203.3000    919.3312      8.0811      0.1569      7.4063    128.8985     23.5503
  1203.4000    919.3312      8.0811      0.1203      7.8694    131.0015     23.6535
  1203.5000    884.2159      8.0963      0.0989      8.9083    129.4620     23.3431
  1203.6000    884.2159      8.0963      0.0478     10.2110    125.1794     22.9995
  1203.7000    884.2159      8.0963      0.0501     11.1573    120.9726     22.9098
  1203.8000    876.8597      8.1004      0.0492     11.4220    119.3697     22.5697
  1203.9000    876.8597      8.1004      0.0287     11.0228    116.0596     21.9971
  1204.0000    895.2358      8.1208      0.0427     10.2212    108.8279     21.6237
  1204.1000    895.2358      8.1208      0.0963      9.6955    101.8072     21.3957
  1204.2000    895.2358      8.1208      0.0363      9.9582     97.5506     21.2626
  1204.3000    910.7488      8.1530      0.0400     10.6171     95.7252     21.2760
  1204.4000    910.7488      8.1530      0.0510     10.8710     94.2394     21.6789
  1204.5000    907.7158      8.1616      0.0792     10.3775     90.8270     22.1951
  1204.6000    907.7158      8.1616      0.0270      9.3656     86.8172     21.9820
  1204.7000    907.7158      8.1616      0.0708      8.1545     84.1043     21.2431
  1204.8000    949.0994      8.1737      0.0627      6.8173     81.8476     20.5104
  1204.9000    949.0994      8.1737      0.0494      5.1153     80.8747     19.6856
  1205.0000    894.1296      8.1628      0.1154      3.6753     82.5467     18.9828
  1205.1000    894.1296      8.1628      0.1286      3.9790     85.6763     18.5423
  1205.2000    894.1296      8.1628      0.0647      6.0173     91.1637     18.1324
  1205.3000    888.4705      8.1382      0.0418      8.5178     97.9720     17.7743
  1205.4000    888.4705      8.1382      0.0257     10.7707    100.9954     17.5400
  1205.5000    942.7016      8.0620      0.0462     12.2611    100.2260     17.4953
  1205.6000    942.7016      8.0620      0.0524     12.5690     98.4364     17.4483
  1205.7000    942.7016      8.0620      0.0127     12.1317     95.4770     17.2965
  1205.8000    828.1105      8.0599      0.0643     11.8320     92.5319     17.2698
  1205.9000    828.1105      8.0599      0.0387     11.7792     91.6737     17.5636
