~Version Information
VERS.                      2.0: CWLS Log ASCII Standard - VERSION 2.0
WRAP.                       NO: One line per depth step
~Well Information Block
STRT.FT               752.0000: 
STOP.FT              2474.2000: 
STEP.FT                 0.1000: 
NULL.                -999.2500: 
COMP.          Petrogulf Corporation: COMPANY
WELL.            Montoya 7-14V: WELL
FLD.           Purgatorie River: FIELD
LOC.           535' FSL & 491' FWL: LOCATION
CNTY.               Las Animas: COUNTY
SRVC.                         : SERVICE COMPANY
DATE.          Mon Aug 23 10:41:01 2004: LOG DATE
UWI.           05 071 08019 00: UNIQUE WELL ID
STAT.                 Colorado: STATE
~Curve Information Block
DEPT.FT            0 000 00 00: Depth
DCAL.in                       : CDL Caliper
RHOB.g/cc                     : CDL Bulk Density
RHOC.g/cc                     : CDL Density Correction
DPOR.pu                       : CDL Density Porosity
GR.GAPI                       : Gamma Ray
NPOR.pu                       : Neutron Porosity
~Parameter Information Block
~A  Depth       DCAL        RHOB        RHOC        DPOR         GR         NPOR    
# ...
   992.0000      8.2019      2.6225      0.0728      1.6674     97.2007     25.6100
   992.1000      8.2019      2.6190      0.0196      1.8806     97.2169     26.3464
   992.2000      8.2019      2.6085      0.0015      2.5144     97.5810     26.6747
   992.3000      8.2026      2.5934      0.0560      3.4321    100.7914     26.4232
   992.4000      8.2026      2.5768      0.0023      4.4339    105.9895     25.7617
   992.5000      8.2032      2.5732      0.0209      4.6575    110.9759     24.9217
   992.6000      8.2032      2.5810      0.0302      4.1800    113.2766     24.0866
   992.7000      8.2032      2.5856      0.0219      3.9058    112.0644     24.0537
   992.8000      8.2038      2.5866      0.0238      3.8454    108.3285     25.1318
   992.9000      8.2038      2.5931      0.0538      3.4499    104.2634     26.0615
   993.0000      8.2023      2.6028      0.0600      2.8607    102.1418     25.6282
   993.1000      8.2023      2.6075      0.0478      2.5772    102.2462     24.7073
   993.2000      8.2023      2.6020      0.0645      2.9120    103.2562     24.4981
   993.3000      8.2037      2.5879      0.0513      3.7639    102.5604     24.6341
   993.4000      8.2037      2.5765      0.0372      4.4543     98.7405     24.6894
   993.5000      8.2029      2.5710      0.0576      4.7854     95.2807     24.9208
   993.6000      8.2029      2.5647     -0.0113      5.1682     95.5451     25.4884
   993.7000      8.2029      2.5584      0.0109      5.5516     97.8234     26.1617
   993.8000      8.2030      2.5532      0.0372      5.8666    100.4538     26.5946
   993.9000      8.2030      2.5473      0.0047      6.2250    102.2871     26.5263
   994.0000      8.2023      2.5456      0.0009      6.3270    101.3240     26.0412
   994.1000      8.2023      2.5507      0.0412      6.0212     97.6182     25.5407
   994.2000      8.2023      2.5599      0.0038      5.4602     93.1689     25.0769
   994.3000      8.2043      2.5696      0.0033      4.8735     90.7645     24.9355
   994.4000      8.2043      2.5705      0.0231      4.8164     92.4020     25.3656
   994.5000      8.2021      2.5621     -0.0108      5.3247     95.6470     25.9689
   994.6000      8.2021      2.5564      0.0007      5.6701     95.4623     26.6387
   994.7000      8.2021      2.5611      0.0131      5.3868     92.2038     27.3211
   994.8000      8.2052      2.5741      0.0162      4.5991     91.3383     27.2786
   994.9000      8.2052      2.5890      0.0281      3.6977     93.6572     26.3804
   995.0000      8.2065      2.6013      0.0172      2.9487     97.0364     25.7604
   995.1000      8.2065      2.6082      0.0495      2.5355    101.3926     26.3772
   995.2000      8.2065      2.6066      0.0382      2.6303    104.6165     27.7641
   995.3000      8.2072      2.5959      0.0454      3.2781    106.0725     28.9031
   995.4000      8.2072      2.5775      0.0317      4.3931    106.9226     29.3282
   995.5000      8.2068      2.5565     -0.0023      5.6637    104.0151     28.9029
   995.6000      8.2068      2.5332      0.0059      7.0798     98.1934     27.7095
   995.7000      8.2068      2.5101     -0.0064      8.4759     97.3980     26.4823
   995.8000      8.2089      2.5032     -0.0276      8.8987    103.5894     26.3001
   995.9000      8.2089      2.5146      0.0229      8.2064    109.6696     26.8681
   996.0000      8.2142      2.5306      0.0167      7.2363    109.9396     27.1860
   996.1000      8.2142      2.5433      0.0519      6.4692    104.6592     27.3657
   996.2000      8.2142      2.5479      0.0316      6.1904     98.4338     27.9114
   996.3000      8.2062      2.5447      0.0421      6.3810     95.5315     28.3176
   996.4000      8.2062      2.5369      0.0090      6.8563     94.9828     27.8537
   996.5000      8.1868      2.5256      0.0043      7.5421     95.3584     27.1109
   996.6000      8.1868      2.5204     -0.0194      7.8549     98.1481     27.1686
   996.7000      8.1868      2.5326      0.0229      7.1171     99.7643     27.8789
   996.8000      8.1871      2.5580      0.0190      5.5740     95.5947     28.2704
   996.9000      8.1871      2.5878      0.0371      3.7694     90.1528     28.0681
   997.0000      8.1898      2.6189      0.0382      1.8828     90.2952     27.5898
   997.1000      8.1898      2.6455      0.0456      0.2745     92.6425     26.8010
   997.2000      8.1898      2.6520      0.0798     -0.1225     90.7930     25.8853
   997.3000      8.1922      2.6349      0.0671      0.9153     87.6794     25.3324
   997.4000      8.1922      2.6135      0.0454      2.2127     89.8299     25.4965
   997.5000      8.1854      2.6041      0.0313      2.7792     96.8174     26.3470
   997.6000      8.1854      2.6027      0.0352      2.8673    101.9909     27.0369
   997.7000      8.1854      2.5975      0.0461      3.1808    101.1432     26.5677
   997.8000      8.1938      2.5862      0.0204      3.8690     96.2596     25.1975
   997.9000      8.1938      2.5725      0.0016      4.6949     91.5444     24.2448
   998.0000      8.1980      2.5603      0.0273      5.4339     89.8132     24.2879
   998.1000      8.1980      2.5507      0.0354      6.0183     92.0465     24.8147
   998.2000      8.1980      2.5398      0.0438      6.6812     96.0601     25.2830
   998.3000      8.2033      2.5231      0.0462      7.6937    100.4806     25.8884
   998.4000      8.2033      2.5018     -0.0081      8.9825    106.7848     27.2417
   998.5000      8.1957      2.4820     -0.0033     10.1827    111.4418     28.8653
   998.6000      8.1957      2.4606      0.0500     11.4759    109.7333     29.5687
   998.7000      8.1957      2.4273      0.0180     13.4992    106.2660     29.2985
   998.8000      8.1802      2.3817      0.0324     16.2600    106.4222     28.8763
   998.9000      8.1802      2.3313      0.0104     19.3159    107.8142     28.9224
   999.0000      8.1656      2.2843      0.0292     22.1656    107.0576     29.5120
   999.1000      8.1656      2.2473      0.0242     24.4037    104.4568     30.3574
   999.2000      8.1656      2.2291      0.0245     25.5110    102.0425     30.9773
   999.3000      8.1641      2.2414      0.0494     24.7659    103.1105     30.8761
   999.4000      8.1641      2.2780      0.1539     22.5431    109.1668     30.2055
   999.5000      8.1638      2.3138      0.1391     20.3785    117.3200     29.7431
   999.6000      8.1638      2.3353      0.1574     19.0700    122.0170     29.7968
   999.7000      8.1638      2.3509      0.1299     18.1259    122.0076     29.7788
   999.8000      8.1641      2.3807      0.0441     16.3195    121.0009     29.2859
   999.9000      8.1641      2.4323      0.0834     13.1938    121.3137     28.4609
  1000.0000      8.1632      2.4812      0.1061     10.2299    121.8456     27.7416
  1000.1000      8.1632      2.5014      0.1022      9.0045    119.2203     27.2717
  1000.2000      8.1632      2.5000      0.0456      9.0887    112.4762     26.6970
  1000.3000      8.1620      2.4995      0.0511      9.1223    107.7702     26.0899
  1000.4000      8.1620      2.5017      0.0625      8.9861    112.3660     25.8459
  1000.5000      8.1618      2.4952      0.0970      9.3846    121.9163     26.1182
  1000.6000      8.1618      2.4825      0.0269     10.1506    126.4350     26.7156
  1000.7000      8.1618      2.4817      0.0213     10.1975    126.1767     27.0467
  1000.8000      8.1616      2.4956      0.0649      9.3549    125.6708     26.8297
  1000.9000      8.1616      2.5114      0.0405      8.3998    124.4355     26.4958
  1001.0000      8.1622      2.5253      0.0440      7.5548    122.1340     26.4274
  1001.1000      8.1622      2.5371      0.0543      6.8416    121.2428     26.3214
  1001.2000      8.1622      2.5503      0.0234      6.0433    119.3807     25.6464
  1001.3000      8.1619      2.5724      0.0496      4.7034    113.3803     24.6941
  1001.4000      8.1619      2.5959      0.0623      3.2782    107.4404     24.2375
  1001.5000      8.1614      2.6131      0.0432      2.2341    107.0455     24.0223
