~Version Information
VERS.                      2.0: CWLS Log ASCII Standard - VERSION 2.0
WRAP.                       NO: One line per depth step
~Well Information Block
STRT.FT                -2.7500: 
STOP.FT              2139.2500: 
STEP.FT                 0.2500: 
NULL.                -999.2500: 
COMP.          Petrogulf Corporation: COMPANY
WELL.             State 16-34V: WELL
FLD.           Purgatorie River: FIELD
LOC.           1146' FSL & 1393' FEL: LOCATION
PROV.                 Colorado: PROVINCE
CNTY.               Las Animas: COUNTRY
SRVC.          Patterson Wireline: SERVICE COMPANY
DATE.          Wed Jun 25 13:16:42 2003: LOG DATE
UWI.           05 071 07724 00: UNIQUE WELL ID
~Curve Information Block
DEPT.FT            0 000 00 00: Depth
CCL.                          : Casing Collar Locator
TT3.usec                      : CBL 3' Travel Time
AMP3.mV                       : CBL 3' Amplitude
GR.GAPI                       : Gamma Ray
~Parameter Information Block
~A  Depth       CCL         TT3         AMP3         GR     
# ...
  1538.2500      0.0000    670.4733      1.8282    123.5725
  1538.5000      0.0000    661.0014      1.5906    124.2105
  1538.7500      0.0000    654.8787      1.4143    124.7831
  1539.0000      0.0000    652.3896      1.2614    124.1507
  1539.2500      0.0000    651.9686      1.1302    122.4569
  1539.5000      0.0000    652.8151      1.0447    121.0319
  1539.7500      0.0000    656.4866      1.0133    121.0888
  1540.0000      0.0000    665.1652      1.0373    122.6392
  1540.2500      0.0000    679.2040      1.1430    124.6307
  1540.5000      0.0000    697.1194      1.3654    125.6914
  1540.7500      0.0000    716.9949      1.6948    124.7505
  1541.0000      0.0000    736.6577      2.0589    121.6145
  1541.2500      0.0000    752.8612      2.3647    117.2422
  1541.5000      0.0000    761.8546      2.5485    113.1319
  1541.7500      0.0000    762.2294      2.5940    110.2042
  1542.0000      0.0000    757.1669      2.5193    108.1573
  1542.2500      0.0000    752.2682      2.3499    105.7341
  1542.5000      0.0000    750.4185      2.0966    101.8097
  1542.7500      0.0000    749.8397      1.7634     96.6335
  1543.0000      0.0000    747.5179      1.3781     91.8932
  1543.2500      0.0000    743.1867      1.0080     89.2612
  1543.5000      0.0000    739.3581      0.7396     89.0688
  1543.7500      0.0000    738.4926      0.6500     90.5039
  1544.0000      0.0000    740.9136      0.7866     92.6120
  1544.2500      0.0000    744.9576      1.1460     94.8360
  1544.5000      0.0000    748.2312      1.6567     96.7952
  1544.7500      0.0000    748.7136      2.1901     97.8039
  1545.0000      0.0000    745.6037      2.6105     96.8581
  1545.2500      0.0000    740.0138      2.8261     93.3662
  1545.5000      0.0000    734.8043      2.8132     87.9069
  1545.7500      0.0000    733.4443      2.6139     82.0178
  1546.0000      0.0000    738.7640      2.3153     77.1867
  1546.2500      0.0000    751.5612      2.0006     74.1997
  1546.5000      0.0000    768.6635      1.7006     73.4378
  1546.7500      0.0000    782.5570      1.3994     75.5884
  1547.0000      0.0000    785.3336      1.0909     81.7950
  1547.2500      0.0000    774.7559      0.8074     92.8429
  1547.5000      0.0000    756.3574      0.5900    107.8950
  1547.7500      0.0000    739.5644      0.4590    123.8691
  1548.0000      0.0000    731.7330      0.4232    136.5552
  1548.2500      0.0000    734.2917      0.4960    143.3429
  1548.5000      0.0000    742.5438      0.6747    145.2259
  1548.7500      0.0000    748.9762      0.9054    145.7583
  1549.0000      0.0000    748.0414      1.1068    147.9059
  1549.2500      0.0000    739.3492      1.2507    151.9964
  1549.5000      0.0000    727.7126      1.4000    156.3026
  1549.7500      0.0000    720.2959      1.6427    158.8252
  1550.0000      0.0000    722.3517      2.0007    158.4226
  1550.2500      0.0000    734.2889      2.4174    155.0477
  1550.5000      0.0000    751.9686      2.8155    149.6043
  1550.7500      0.0000    769.4371      3.1388    143.7453
  1551.0000      0.0000    782.2297      3.3428    139.4269
  1551.2500      0.0000    789.1405      3.3947    137.7289
  1551.5000      0.0000    790.8460      3.3184    137.4347
  1551.7500      0.0000    787.2460      3.2122    135.4916
  1552.0000      0.0000    777.6818      3.1790    129.9014
  1552.2500      0.0000    763.5562      3.2423    121.9720
  1552.5000      0.0000    748.3883      3.3465    115.1812
  1552.7500      0.0000    734.6166      3.4234    112.1120
  1553.0000      0.0000    721.8524      3.4389    112.6422
  1553.2500      0.0000    708.2050      3.3790    114.4529
  1553.5000      0.0000    692.0266      3.2178    114.8840
  1553.7500      0.0000    672.8246      2.9261    112.6680
  1554.0000      0.0000    651.9861      2.5260    108.4189
  1554.2500      0.0000    632.6054      2.1186    103.7875
  1554.5000      0.0000    617.6566      1.8316    100.2783
  1554.7500      0.0000    607.8226      1.7312     98.5507
  1555.0000      0.0000    600.7177      1.7878     98.1247
  1555.2500      0.0000    592.8961      1.9258     97.5549
  1555.5000      0.0000    584.9184      2.1000     95.3359
  1555.7500      0.0000    584.2059      2.3162     91.0018
  1556.0000      0.0000    598.9321      2.5769     85.3794
  1556.2500      0.0000    627.8615      2.8235     79.8257
  1556.5000      0.0000    659.2828      2.9512     75.3811
  1556.7500      0.0000    680.5535      2.8780     72.6060
  1557.0000      0.0000    685.8719      2.6007     71.7436
  1557.2500      0.0000    675.3765      2.2022     72.5925
  1557.5000      0.0000    652.2974      1.8051     74.3100
  1557.7500      0.0000    624.2832      1.5030     75.7424
  1558.0000      0.0000    603.8278      1.3314     76.1212
  1558.2500      0.0000    600.7858      1.3014     75.4673
  1558.5000      0.0000    612.1765      1.4213     74.4072
  1558.7500      0.0000    621.9242      1.6568     73.5841
  1559.0000      0.0000    612.7977      1.9116     73.1534
  1559.2500      0.0000    579.2936      2.1029     72.8377
  1559.5000      0.0000    530.6179      2.2416     72.3786
  1559.7500      0.0000    483.0081      2.3913     71.7765
  1560.0000      0.0000    449.1871      2.5569     71.2052
  1560.2500      0.0000    433.7310      2.6537     70.9144
  1560.5000      0.0000    436.1460      2.5874     71.2125
  1560.7500      0.0000    455.7207      2.3439     72.2953
  1561.0000      0.0000    492.0556      2.0131     73.8942
  1561.2500      0.0000    541.4352      1.7460     75.1815
  1561.5000      0.0000    594.6342      1.6692     75.3747
  1561.7500      0.0000    640.5092      1.7963     74.6207
  1562.0000      0.0000    672.6432      2.0003     73.9887
  1562.2500      0.0000    692.1685      2.0957     74.2660
  1562.5000      0.0000    704.4297      1.9728     75.0112
  1562.7500      0.0000    713.6765      1.6651     75.1726
  1563.0000      0.0000    720.2761      1.3009     74.3832
  1563.2500      0.0000    721.4342      1.0067     73.1767
  1563.5000      0.0000    714.0912      0.8546     72.1072
  1563.7500      0.0000    697.9451      0.8722     71.2114
  1564.0000      0.0000    676.4631      1.0705     70.3327
  1564.2500      0.0000    654.9497      1.4407     69.4832
  1564.5000      0.0000    637.6371      1.9267     68.7743
  1564.7500      0.0000    626.5322      2.4231     68.4324
  1565.0000      0.0000    622.1951      2.8231     69.0410
  1565.2500      0.0000    624.5415      3.0641     71.3014
  1565.5000      0.0000    632.9139      3.1310     74.9994
  1565.7500      0.0000    646.0969      3.0378     78.3145
  1566.0000      0.0000    662.7758      2.8193     78.8331
  1566.2500      0.0000    682.0131      2.5195     75.7261
  1566.5000      0.0000    702.7515      2.1769     70.7295
  1566.7500      0.0000    722.2733      1.8246     66.6308
  1567.0000      0.0000    735.8098      1.5082     64.8768
  1567.2500      0.0000    739.0028      1.3007     64.8499
  1567.5000      0.0000    730.7448      1.2916     65.1205
  1567.7500      0.0000    712.5032      1.5351     64.8329
  1568.0000      0.0000    685.4449      1.9813     64.0435
  1568.2500      0.0000    650.8253      2.4730     63.4640
  1568.5000      0.0000    614.1078      2.8458     64.0354
  1568.7500      0.0000    585.8024      3.0249     66.2149
  1569.0000      0.0000    574.5069      3.0105     69.4750
  1569.2500      0.0000    579.2302      2.8135     72.8521
  1569.5000      0.0000    591.7473      2.4584     75.9535
  1569.7500      0.0000    606.7943      2.0302     79.0718
  1570.0000      0.0000    626.2991      1.6693     82.3128
  1570.2500      0.0000    652.6416      1.5042     85.0046
  1570.5000      0.0000    681.9844      1.5893     86.0822
  1570.7500      0.0000    706.9205      1.8839     84.9986
  1571.0000      0.0000    723.1038      2.2684     82.3733
  1571.2500      0.0000    730.8472      2.5979     79.7006
  1571.5000      0.0000    732.0156      2.7797     78.1257
