~Version Information
 VERS.                                  2.0 : CWLS LAS VERSION
 WRAP.                                   NO : WRAPING MODE
 SWARE .                 MController 2.5.0J : SOFTWARE VERSION
~Well Information
 WELL.                       Beacon 11-18TR : WELL
 COMP.        Pioneer Natural Resources Inc : COMPANY
 FLD.                      Purgatoire River : FIELD
 LOC.                NW/NW Sec 18 T32S R66W : LOCATION
 DATE.                           1/15-16/05 : DATE(S) LOGGED
 SRVC.       Blanco Geological Services LLC : SERVICE COMPANY
 STAT.                                   CO : STATE
 CNTY.                           Las Animas : COUNTY
 CTRY.                                  USA : COUNTRY
 API.                          05-071-08251 : API NUMBER
 STRT.FT                             283.00 : START DEPTH
 STOP.FT                            2753.00 : STOP DEPTH
 STEP.FT                               1.00 : DEPTH INCREMENT
 NULL.                                -9999 : NULL VALUE
~Curve information
 DEPTH.FT                                   :
 ROP.MIN/FT                                 :
 GAS.UNITS                                  :
~ASCII Log data
# ...
      2283.0         0.27        811.0 
      2284.0         0.40        767.1 
      2285.0         0.33        705.9 
      2286.0         0.25        670.8 
      2287.0         0.27        655.0 
      2288.0         0.27        650.8 
      2289.0         0.30        645.7 
      2290.0         0.23        641.5 
      2291.0         0.27        638.9 
      2292.0         0.27        634.1 
      2293.0         0.23        628.3 
      2294.0         0.27        622.1 
      2295.0         0.23        612.5 
      2296.0         0.27        608.3 
      2297.0         0.27        610.8 
      2298.0         0.25        463.9 
      2299.0         0.27        440.0 
      2300.0         0.23        190.7 
      2301.0         0.27        212.8 
      2302.0         0.23        240.5 
      2303.0         0.23        279.7 
      2304.0         0.23        328.9 
      2305.0         0.23        377.3 
      2306.0         0.20        413.8 
      2307.0         0.27        444.0 
      2308.0         0.23        456.1 
      2309.0         0.37        456.4 
      2310.0         0.33        440.5 
      2311.0         0.37        406.3 
      2312.0         0.50        364.7 
      2313.0         0.38        321.8 
      2314.0         0.37        297.6 
      2315.0         0.27        283.4 
      2316.0         0.20        280.0 
      2317.0         0.43        278.9 
      2318.0         0.33        276.7 
      2319.0         0.30        273.4 
      2320.0         0.30        269.4 
      2321.0         0.33        269.4 
      2322.0         0.35        224.2 
      2323.0         0.23        232.2 
      2324.0         0.23        238.2 
      2325.0         0.23        239.3 
      2326.0         0.17        238.8 
      2327.0         0.20        237.2 
      2328.0         0.17        237.5 
      2329.0         0.20        231.4 
      2330.0         0.23        224.0 
      2331.0         0.33        208.3 
      2332.0         0.30        183.7 
      2333.0         0.33        182.7 
      2334.0         0.27        204.7 
      2335.0         0.33        250.0 
      2336.0         0.38        318.4 
      2337.0         0.40        377.3 
      2338.0         0.40        400.7 
      2339.0         0.27        400.5 
      2340.0         0.20        386.1 
      2341.0         0.13        369.4 
      2342.0         0.20        358.9 
      2343.0         0.28        345.0 
      2344.0         0.23        325.5 
      2345.0         0.20        310.4 
      2346.0         0.27        296.9 
      2347.0         0.20        279.8 
      2348.0         0.17        268.5 
      2349.0         0.17        262.6 
      2350.0         0.23        256.5 
      2351.0         0.27        250.5 
      2352.0         0.27        247.3 
      2353.0         0.60        243.9 
      2354.0         0.40        225.9 
      2355.0         0.38        219.0 
      2356.0         0.33        216.3 
      2357.0         0.30        213.9 
      2358.0         0.30        210.8 
      2359.0         0.33        207.6 
      2360.0         0.27        204.8 
      2361.0         0.33        153.7 
      2362.0         0.33        144.5 
      2363.0         0.33        163.7 
      2364.0         0.42        198.5 
      2365.0         0.37        226.0 
      2366.0         0.30        256.2 
      2367.0         0.40        295.0 
      2368.0         0.42        308.8 
      2369.0         0.43        308.4 
      2370.0         0.40        295.7 
      2371.0         0.30        271.3 
      2372.0         0.30        251.9 
      2373.0         0.30        234.7 
      2374.0         0.30        220.8 
      2375.0         0.30        214.2 
      2376.0         0.32        182.8 
      2377.0         0.23        188.9 
      2378.0         0.20        193.9 
      2379.0         0.20        195.7 
      2380.0         0.23        195.6 
      2381.0         0.23        192.1 
      2382.0         0.17        187.2 
      2383.0         0.17        186.8 
      2384.0         0.23        189.2 
      2385.0         0.23        190.6 
      2386.0         0.27        190.6 
      2387.0         0.37        189.5 
      2388.0         0.33        171.4 
      2389.0         0.22        158.9 
      2390.0         0.17        146.6 
      2391.0         0.17        136.0 
      2392.0         0.30        127.9 
      2393.0         0.27        126.3 
      2394.0         0.23        139.4 
      2395.0         0.23        158.9 
      2396.0         0.13        172.1 
      2397.0         0.32        216.1 
      2398.0         0.23        249.6 
      2399.0         0.40        288.5 
      2400.0         0.30        298.5 
      2401.0         0.20        299.0 
      2402.0         0.30        296.6 
      2403.0         0.30        283.2 
      2404.0         0.27        263.3 
      2405.0         0.20        244.4 
      2406.0         0.23        230.1 
      2407.0         0.20        218.6 
      2408.0         0.20        211.3 
      2409.0         0.35        205.8 
      2410.0         0.33        191.9 
      2411.0         0.60        175.9 
      2412.0         0.57        144.2 
      2413.0         0.43        157.2 
      2414.0         0.53        172.2 
      2415.0         0.48        173.1 
      2416.0         0.60        170.4 
      2417.0         0.47        161.7 
      2418.0         0.33        154.4 
      2419.0         0.43        151.7 
      2420.0         0.33        149.8 
      2421.0         0.38        150.4 
      2422.0         0.40        108.9 
      2423.0         0.47        136.4 
      2424.0         0.43        172.2 
      2425.0         0.43        192.9 
      2426.0         0.33        210.9 
      2427.0         0.30        235.7 
      2428.0         0.45        263.5 
      2429.0         0.33        266.6 
      2430.0         0.30        264.7 
      2431.0         0.20        255.6 
      2432.0         0.13        247.7 
      2433.0         0.23        243.5 
      2434.0         0.27        237.5 
      2435.0         0.27        229.9 
      2436.0         0.27        219.6 
      2437.0         0.27        208.2 
      2438.0         0.27        199.2 
      2439.0         0.25        193.6 
      2440.0         0.30        192.1 
      2441.0         0.30        192.5 
      2442.0         0.30        192.4 
      2443.0         0.37        191.2 
      2444.0         0.33        186.8 
      2445.0         0.27        181.5 
      2446.0         0.33        178.0 
      2447.0         0.30        175.3 
      2448.0         0.37        171.9 
      2449.0         0.45        123.5 
      2450.0         0.23        103.5 
      2451.0         0.27        108.5 
      2452.0         0.20        118.2 
      2453.0         0.23        136.2 
      2454.0         0.23        158.4 
      2455.0         0.27        184.6 
      2456.0         0.47        212.4 
      2457.0         0.43        231.3 
      2458.0         0.53        250.1 
      2459.0         0.33        252.3 
      2460.0         0.40        251.4 
      2461.0         0.42        240.3 
      2462.0         0.27        220.7 
      2463.0         0.27        208.3 
      2464.0         0.40        196.3 
      2465.0         0.43        182.5 
      2466.0         0.40        171.4 
      2467.0         0.40        166.2 
      2468.0         0.43        162.0 
      2469.0         0.40        160.0 
      2470.0         0.35        159.9 
      2471.0         0.30        159.9 
      2472.0         0.20        159.4 
      2473.0         0.20        157.5 
      2474.0         0.23        155.5 
      2475.0         0.27        153.2 
      2476.0         0.30        150.4 
      2477.0         0.20        127.7 
      2478.0         0.20        117.8 
      2479.0         0.17        109.5 
      2480.0         0.20        103.6 
      2481.0         0.23         99.0 
      2482.0         0.33        108.7 
