~Version Information
VERS.                      2.0: CWLS Log ASCII Standard - VERSION 2.0
WRAP.                       NO: One line per depth step
~Well Information Block
STRT.FT               521.0000: 
STOP.FT              2732.5000: 
STEP.FT                 0.2500: 
NULL.                -999.2500: 
COMP.          Petrogulf Corporation: COMPANY
WELL.              Silva 6-22V: WELL
FLD.           Purgatorie River: FIELD
LOC.           1936' FNL & 1798' FWL: LOCATION
CNTY.               Las Animas: COUNTY
SRVC.                         : SERVICE COMPANY
DATE.          Tue Nov 09 08:09:38 2004: LOG DATE
UWI.           05 071 08143 00: UNIQUE WELL ID
STAT.                 Colorado: STATE
~Curve Information Block
DEPT.FT            0 000 00 00: Depth
SP.mV                         : DIL Spontaneous Potential
RILD.Ohm-m                    : DIL Deep Resistivity
RILM.Ohm-m                    : DIL Medium Resistivity
RLL3.Ohm-m                    : DIL Shallow Resistivity
GR.GAPI                       : Gamma Ray
~Parameter Information Block
~A  Depth        SP         RILD        RILM        RLL3         GR     
# ...
  1137.0000   2000.0000     20.6996     20.5646   2000.0000    147.7010
  1137.2500   2000.0000     21.4566     21.8953   2000.0000    138.5617
  1137.5000   2000.0000     22.2199     23.3745   2000.0000    123.2195
  1137.7500   2000.0000     22.9691     24.9678   2000.0000    113.1651
  1138.0000   2000.0000     23.6831     26.6200   2000.0000    100.6220
  1138.2500   2000.0000     24.3430     28.2542   2000.0000     94.9277
  1138.5000   2000.0000     24.9343     29.7769   2000.0000     91.0198
  1138.7500   2000.0000     25.4486     31.0899   2000.0000     91.2836
  1139.0000   2000.0000     25.8831     32.1070   2000.0000     94.7591
  1139.2500   2000.0000     26.2387     32.7733   2000.0000     98.0747
  1139.5000   2000.0000     26.5153     33.0727   2000.0000    102.9461
  1139.7500   2000.0000     26.7091     33.0310   2000.0000    105.7526
  1140.0000   2000.0000     26.8099     32.7049   2000.0000    109.4487
  1140.2500   2000.0000     26.8020     32.1678   2000.0000    111.6450
  1140.5000   2000.0000     26.6686     31.4931   2000.0000    114.4309
  1140.7500   2000.0000     26.3982     30.7428   2000.0000    116.0390
  1141.0000   2000.0000     25.9894     29.9589   2000.0000    118.4349
  1141.2500   2000.0000     25.4548     29.1607   2000.0000    119.8426
  1141.5000   2000.0000     24.8202     28.3481   2000.0000    120.3807
  1141.7500   2000.0000     24.1201     27.5060   2000.0000    119.0305
  1142.0000   2000.0000     23.3905     26.6132   2000.0000    114.9894
  1142.2500   2000.0000     22.6636     25.6526   2000.0000    112.2665
  1142.5000   2000.0000     21.9630     24.6193   2000.0000    110.6863
  1142.7500   2000.0000     21.3026     23.5251   2000.0000    112.2676
  1143.0000   2000.0000     20.6875     22.3972   2000.0000    118.9353
  1143.2500   2000.0000     20.1153     21.2718   2000.0000    125.6453
  1143.5000   2000.0000     19.5803     20.1870   2000.0000    136.9033
  1143.7500   2000.0000     19.0755     19.1758   2000.0000    143.7383
  1144.0000   2000.0000     18.5954     18.2623   2000.0000    151.4808
  1144.2500   2000.0000     18.1376     17.4611   2000.0000    155.0391
  1144.5000   2000.0000     17.7032     16.7779   2000.0000    159.1244
  1144.7500   2000.0000     17.2957     16.2122   2000.0000    161.5322
  1145.0000   2000.0000     16.9207     15.7585   2000.0000    164.3928
  1145.2500   2000.0000     16.5839     15.4076   2000.0000    165.2766
  1145.5000   2000.0000     16.2897     15.1483   2000.0000    164.9276
  1145.7500   2000.0000     16.0406     14.9672   2000.0000    164.1561
  1146.0000   2000.0000     15.8361     14.8496   2000.0000    163.3397
  1146.2500   2000.0000     15.6728     14.7803   2000.0000    163.2215
  1146.5000   2000.0000     15.5437     14.7442   2000.0000    163.1752
  1146.7500   2000.0000     15.4397     14.7273   2000.0000    162.8352
  1147.0000   2000.0000     15.3500     14.7176   2000.0000    161.5809
  1147.2500   2000.0000     15.2642     14.7057   2000.0000    160.2888
  1147.5000   2000.0000     15.1737     14.6848   2000.0000    157.7553
  1147.7500   2000.0000     15.0735     14.6506   2000.0000    155.7560
  1148.0000   2000.0000     14.9629     14.6005   2000.0000    152.8538
  1148.2500   2000.0000     14.8452     14.5331   2000.0000    151.5118
  1148.5000   2000.0000     14.7259     14.4478   2000.0000    150.9839
  1148.7500   2000.0000     14.6121     14.3452   2000.0000    151.5753
  1149.0000   2000.0000     14.5097     14.2268   2000.0000    153.5228
  1149.2500   2000.0000     14.4236     14.0955   2000.0000    155.3944
  1149.5000   2000.0000     14.3568     13.9559   2000.0000    158.6707
  1149.7500   2000.0000     14.3110     13.8141   2000.0000    160.6556
  1150.0000   2000.0000     14.2874     13.6780   2000.0000    162.4054
  1150.2500   2000.0000     14.2871     13.5564   2000.0000    162.5529
  1150.5000   2000.0000     14.3115     13.4587   2000.0000    161.4474
  1150.7500   2000.0000     14.3620     13.3942   2000.0000    160.0239
  1151.0000   2000.0000     14.4391     13.3711   2000.0000    157.4369
  1151.2500   2000.0000     14.5425     13.3962   2000.0000    156.0563
  1151.5000   2000.0000     14.6699     13.4739   2000.0000    155.5350
  1151.7500   2000.0000     14.8181     13.6071   2000.0000    156.1097
  1152.0000   2000.0000     14.9827     13.7963   2000.0000    156.8247
  1152.2500   2000.0000     15.1601     14.0410   2000.0000    156.2708
  1152.5000   2000.0000     15.3478     14.3401   2000.0000    153.3031
  1152.7500   2000.0000     15.5458     14.6920   2000.0000    149.9941
  1153.0000   2000.0000     15.7561     15.0949   2000.0000    143.3963
  1153.2500   2000.0000     15.9822     15.5465   2000.0000    138.3103
  1153.5000   2000.0000     16.2285     16.0425   2000.0000    130.8567
  1153.7500   2000.0000     16.4983     16.5753   2000.0000    139.4886
  1154.0000   2000.0000     16.7934     17.1333   2000.0000    135.4892
  1154.2500   2000.0000     17.1138     17.7002   2000.0000    134.9439
  1154.5000   2000.0000     17.4571     18.2567   2000.0000    137.0669
  1154.7500   2000.0000     17.8205     18.7827   2000.0000    152.5077
  1155.0000   2000.0000     18.1996     19.2626   2000.0000    157.5466
  1155.2500   2000.0000     18.5912     19.6883   2000.0000    160.5590
  1155.5000   2000.0000     18.9926     20.0636   2000.0000    163.9941
  1155.7500   2000.0000     19.4030     20.4044   2000.0000    179.3604
  1156.0000   2000.0000     19.8232     20.7367   2000.0000    180.9418
  1156.2500   2000.0000     20.2563     21.0935   2000.0000    181.3824
  1156.5000   2000.0000     20.7075     21.5106   2000.0000    181.0837
  1156.7500   2000.0000     21.1846     22.0224   2000.0000    180.3730
  1157.0000   2000.0000     21.6968     22.6603   2000.0000    178.8368
  1157.2500   2000.0000     22.2564     23.4503   2000.0000    177.3443
  1157.5000   2000.0000     22.8779     24.4132   2000.0000    173.4980
  1157.7500   2000.0000     23.5774     25.5630   2000.0000    169.4108
  1158.0000   2000.0000     24.3721     26.9084   2000.0000    160.9927
  1158.2500   2000.0000     25.2773     28.4523   2000.0000    154.1820
  1158.5000   2000.0000     26.3016     30.1915   2000.0000    142.7269
  1158.7500   2000.0000     27.4407     32.1167   2000.0000    134.4771
  1159.0000   2000.0000     28.6687     34.2084   2000.0000    121.5740
  1159.2500   2000.0000     29.9296     36.4296   2000.0000    112.9936
  1159.5000   2000.0000     31.1313     38.7109   2000.0000    100.8414
  1159.7500   2000.0000     32.1499     40.9317   2000.0000     93.3968
  1160.0000   2000.0000     32.8476     42.8994   2000.0000     83.0944
  1160.2500   2000.0000     33.1040     44.3466   2000.0000     76.7839
  1160.5000   2000.0000     32.8528     44.9656   2000.0000     68.7691
  1160.7500   2000.0000     32.1033     44.5008   2000.0000     64.9970
  1161.0000   2000.0000     30.9384     42.8592   2000.0000     62.2293
  1161.2500   2000.0000     29.4864     40.1854   2000.0000     62.0559
  1161.5000   2000.0000     27.8850     36.8200   2000.0000     63.4978
  1161.7500   2000.0000     26.2546     33.1773   2000.0000     65.4221
  1162.0000   2000.0000     24.6827     29.6156   2000.0000     70.1437
  1162.2500   2000.0000     23.2244     26.3720   2000.0000     74.8650
  1162.5000   2000.0000     21.9062     23.5613   2000.0000     84.5480
  1162.7500   2000.0000     20.7349     21.2104   2000.0000     92.4314
  1163.0000   2000.0000     19.7047     19.2945   2000.0000    105.0546
  1163.2500   2000.0000     18.8034     17.7658   2000.0000    113.1562
  1163.5000   2000.0000     18.0157     16.5699   2000.0000    124.3202
  1163.7500   2000.0000     17.3270     15.6544   2000.0000    131.3616
  1164.0000   2000.0000     16.7240     14.9726   2000.0000    141.5513
  1164.2500   2000.0000     16.1967     14.4835   2000.0000    147.6479
  1164.5000   2000.0000     15.7375     14.1519   2000.0000    154.6826
  1164.7500   2000.0000     15.3419     13.9471   2000.0000    157.8400
