~Version Information
 VERS.                                  2.0 : CWLS LAS VERSION
 WRAP.                                   NO : WRAPING MODE
 SWARE .                 MController 2.5.0J : SOFTWARE VERSION
~Well Information
 WELL.                          Graff 9-31R : WELL
 COMP.                       Petrogulf Corp : COMPANY
 FLD.                      Purgatorie River : FIELD
 LOC.                 NW/NE Sec 9 T32S R67W : LOCATION
 DATE.                           10/24/2004 : DATE(S) LOGGED
 SRVC.       Blanco Geological Services LLC : SERVICE COMPANY
 STAT.                                   CO : STATE
 CNTY.                           Las Animas : COUNTY
 CTRY.                                  USA : COUNTRY
 API.                       05-071-080370-00 : API NUMBER
 STRT.FT                             712.0 : START DEPTH
 STOP.FT                            1940.00 : STOP DEPTH
 STEP.FT                               1.00 : DEPTH INCREMENT
 NULL.                                -9999 : NULL VALUE
~Curve information
 DEPTH.FT                                   :
 ROP.MIN/FT                                 :
 GAS.UNITS                                  :
~ASCII Log data
# ...
      1113.0         0.23         15.7 
      1114.0         0.20         13.6 
      1115.0         0.27         10.2 
      1116.0         0.33          6.8 
      1117.0         0.27          4.5 
      1118.0         0.23          3.9 
      1119.0         0.17          3.6 
      1120.0         0.20          3.1 
      1121.0         0.20          2.8 
      1122.0         0.17          2.7 
      1123.0         0.23          1.9 
      1124.0         0.20          2.2 
      1125.0         0.27          1.7 
      1126.0         0.22          1.9 
      1127.0         0.20          2.5 
      1128.0         0.20          4.0 
      1129.0         0.27          6.1 
      1130.0         0.27          6.7 
      1131.0         0.23          7.8 
      1132.0         0.23          9.5 
      1133.0         0.30         10.0 
      1134.0         0.13          9.9 
      1135.0         0.17         10.1 
      1136.0         0.27          8.4 
      1137.0         0.37          9.9 
      1138.0         0.33         13.7 
      1139.0         0.33         17.6 
      1140.0         0.30         21.6 
      1141.0         0.37         20.9 
      1142.0         0.37         18.4 
      1143.0         0.43         13.6 
      1144.0         0.38         11.1 
      1145.0         0.43         10.6 
      1146.0         0.47          8.9 
      1147.0         0.57          5.5 
      1148.0         0.43          4.6 
      1149.0         0.40          6.1 
      1150.0         0.33          7.0 
      1151.0         0.38          7.7 
      1152.0         0.33          7.6 
      1153.0         0.37          6.7 
      1154.0         0.40          6.8 
      1155.0         0.33          6.8 
      1156.0         0.40          6.4 
      1157.0         0.37          6.7 
      1158.0         0.43          7.3 
      1159.0         0.57          6.4 
      1160.0         0.48          6.3 
      1161.0         0.50          6.6 
      1162.0         0.50          7.0 
      1163.0         0.27          6.6 
      1164.0         0.33          6.4 
      1165.0         0.27          5.9 
      1166.0         0.20          4.0 
      1167.0         0.27          5.1 
      1168.0         0.27          7.1 
      1169.0         0.23         10.3 
      1170.0         0.23         12.7 
      1171.0         0.17         14.2 
      1172.0         0.18         14.9 
      1173.0         0.23         14.9 
      1174.0         0.33         13.1 
      1175.0         0.33         12.0 
      1176.0         0.27          9.9 
      1177.0         0.20          9.0 
      1178.0         0.20          8.6 
      1179.0         0.30          8.7 
      1180.0         0.20          9.1 
      1181.0         0.17          8.1 
      1182.0         0.17          8.1 
      1183.0         0.17          8.5 
      1184.0         0.17          8.4 
      1185.0         0.17          9.0 
      1186.0         0.20          9.7 
      1187.0         0.18          9.6 
      1188.0         0.20         10.2 
      1189.0         0.30         11.6 
      1190.0         0.23         12.5 
      1191.0         0.23         16.6 
      1192.0         0.33         20.4 
      1193.0         0.27         22.4 
      1194.0         0.27         21.4 
      1195.0         0.33         20.3 
      1196.0         0.30         43.7 
      1197.0         0.17         45.5 
      1198.0         0.17         46.9 
      1199.0         0.23         48.0 
      1200.0         0.23         48.2 
      1201.0         0.27         47.3 
      1202.0         0.30         45.4 
      1203.0         0.27         43.3 
      1204.0         0.18         40.6 
      1205.0         0.13         39.4 
      1206.0         0.17         38.6 
      1207.0         0.23         36.9 
      1208.0         0.13         35.2 
      1209.0         0.13         34.6 
      1210.0         0.23         33.1 
      1211.0         0.13         33.9 
      1212.0         0.23         33.0 
      1213.0         0.17         32.6 
      1214.0         0.23         32.7 
      1215.0         0.27         33.3 
      1216.0         0.23         33.8 
      1217.0         0.23         34.0 
      1218.0         0.23         35.4 
      1219.0         0.23         35.1 
      1220.0         0.23         34.4 
      1221.0         0.25         33.2 
      1222.0         0.30         31.4 
      1223.0         0.27         29.3 
      1224.0         0.23         29.4 
      1225.0         0.23         29.8 
      1226.0         0.30         56.8 
      1227.0         0.30         49.0 
      1228.0         0.17         45.7 
      1229.0         0.20         42.9 
      1230.0         0.20         40.7 
      1231.0         0.23         38.0 
      1232.0         0.20         35.8 
      1233.0         0.23         32.6 
      1234.0         0.23         30.4 
      1235.0         0.23         26.9 
      1236.0         0.20         24.7 
      1237.0         0.20         22.4 
      1238.0         0.17         21.1 
      1239.0         0.17         19.6 
      1240.0         0.22         18.4 
      1241.0         0.27         17.9 
      1242.0         0.20         17.4 
      1243.0         0.23         17.7 
      1244.0         0.17         18.1 
      1245.0         0.23         18.9 
      1246.0         0.17         20.3 
      1247.0         0.30         22.5 
      1248.0         0.23         24.9 
      1249.0         0.20         28.0 
      1250.0         0.20         29.5 
      1251.0         0.17         31.4 
      1252.0         0.20         32.1 
      1253.0         0.17         32.5 
      1254.0         0.17         31.4 
      1255.0         0.20         29.8 
      1256.0         0.38         13.5 
      1257.0         0.20         11.9 
      1258.0         0.27         10.0 
      1259.0         0.30          8.8 
      1260.0         0.27          8.2 
      1261.0         0.28          8.2 
      1262.0         0.30          8.4 
      1263.0         0.37         10.2 
      1264.0         0.43         12.6 
      1265.0         0.23         13.7 
      1266.0         0.23         15.8 
      1267.0         0.20         18.0 
      1268.0         0.20         20.3 
      1269.0         0.20         22.9 
      1270.0         0.27         28.0 
      1271.0         0.27         31.5 
      1272.0         0.23         34.4 
      1273.0         0.30         42.5 
      1274.0         0.28         47.2 
      1275.0         0.27         44.0 
      1276.0         0.27         37.6 
      1277.0         0.23         31.7 
      1278.0         0.27         27.2 
      1279.0         0.27         22.2 
      1280.0         0.27         18.0 
      1281.0         0.23         16.2 
      1282.0         0.30         14.6 
      1283.0         0.27         13.3 
      1284.0         0.27         14.3 
      1285.0         0.23         17.4 
      1286.0         0.37         31.3 
      1287.0         0.50         34.5 
      1288.0         0.37         35.5 
      1289.0         0.43         36.7 
      1290.0         0.43         39.4 
      1291.0         0.27         46.8 
      1292.0         0.30         58.8 
      1293.0         0.37         64.3 
      1294.0         0.32         66.3 
      1295.0         0.27         65.7 
      1296.0         0.27         64.0 
      1297.0         0.27         60.8 
      1298.0         0.20         59.3 
      1299.0         0.20         58.3 
      1300.0         0.20         56.8 
      1301.0         0.20         55.3 
      1302.0         0.17         54.8 
      1303.0         0.17         53.9 
      1304.0         0.13         52.6 
      1305.0         0.23         49.2 
      1306.0         0.23         45.2 
      1307.0         0.27         38.6 
      1308.0         0.30         33.0 
      1309.0         0.32         26.9 
      1310.0         0.23         23.0 
      1311.0         0.27         19.7 
      1312.0         0.33         16.2 
