~Version Information
VERS.                      2.0: CWLS Log ASCII Standard - VERSION 2.0
WRAP.                       NO: One line per depth step
~Well Information Block
STRT.FT                -8.2500: 
STOP.FT              2725.7500: 
STEP.FT                 0.2500: 
NULL.                -999.2500: 
COMP.          Pioneer Natural Resources: COMPANY
WELL.          Rabbit Bush Federal 44-19: WELL
FLD.           Purgatoire River: FIELD
LOC.           826' FSL & 1127' FEL: LOCATION
CNTY.               Las Animas: COUNTY
SRVC.                Patterson: SERVICE COMPANY
DATE.          Thu Sep 14 10:51:19 2006: LOG DATE
UWI.           05 071 08149 00: UNIQUE WELL ID
STAT.                       CO: STATE
~Curve Information Block
DEPT.FT            0 000 00 00: Depth
GR.GAPI                       : Gamma Ray
CCL.                          : Casing Collar Locator
TT3.usec                      : CBL 3' Travel Time
AMP3.mV                       : CBL 3' Amplitude
~Parameter Information Block
~A  Depth        GR         CCL         TT3         AMP3    
# ...
  2336.7500     96.4676      0.0000    735.2557      4.1290
  2337.0000     90.3830      0.0000    731.2725      3.9327
  2337.2500     81.6617      0.0000    728.5692      3.7664
  2337.5000     72.9274      0.0000    729.2120      3.6133
  2337.7500     65.9616      0.0000    732.9728      3.4741
  2338.0000     61.9354      0.0000    738.5494      3.3839
  2338.2500     61.2923      0.0000    743.9686      3.3780
  2338.5000     63.1860      0.0000    747.0628      3.4460
  2338.7500     65.7470      0.0000    746.9680      3.5354
  2339.0000     67.4483      0.0000    744.9107      3.6063
  2339.2500     68.4125      0.0000    742.8608      3.6735
  2339.5000     70.3920      2.0000    741.6613      3.7989
  2339.7500     75.3208      2.0000    740.2672      4.0603
  2340.0000     83.6638      0.0000    736.0193      4.5282
  2340.2500     93.9003      0.0000    725.3699      5.2553
  2340.5000    103.3079      0.0000    705.5115      6.2421
  2340.7500    109.2927      0.0000    677.7117      7.3639
  2341.0000    110.6110      0.0000    650.1224      8.3300
  2341.2500    107.9892      0.0000    633.8204      8.7879
  2341.5000    103.6817      0.0000    631.7135      8.5506
  2341.7500    100.2078      0.0000    632.4379      7.7422
  2342.0000     99.1063      0.0000    619.6352      6.7094
  2342.2500    100.2569      0.0000    587.9780      5.7914
  2342.5000    102.0573      0.0000    547.6749      5.1598
  2342.7500    102.7394      0.0000    513.1992      4.8133
  2343.0000    102.0707      0.0000    491.7345      4.6589
  2343.2500    101.7501      0.0000    484.7754      4.5918
  2343.5000    103.9228      0.0000    495.1692      4.5335
  2343.7500    109.2150      0.0000    525.1682      4.4389
  2344.0000    116.1124      0.0000    569.0378      4.2933
  2344.2500    122.1144      0.0000    613.8246      4.1120
  2344.5000    125.5435      0.0000    648.6290      3.9382
  2344.7500    126.4140      0.0000    670.5820      3.8237
  2345.0000    125.7127      0.0000    682.5876      3.8000
  2345.2500    124.0544      0.0000    688.4874      3.8610
  2345.5000    121.1880      0.0000    690.6965      3.9698
  2345.7500    116.8007      0.0000    689.8193      4.0784
  2346.0000    111.6456      0.0000    684.3495      4.1459
  2346.2500    107.6417      0.0000    670.5673      4.1493
  2346.5000    106.6189      0.0000    644.4604      4.0883
  2346.7500    108.9272      0.0000    606.2634      3.9844
  2347.0000    113.0854      0.0000    564.6517      3.8714
  2347.2500    116.4775      0.0000    535.2917      3.7770
  2347.5000    116.8332      0.0000    532.0516      3.7092
  2347.7500    113.8720      0.0000    556.7095      3.6619
  2348.0000    109.4409      0.0000    596.4462      3.6342
  2348.2500    105.6363      0.0000    632.0150      3.6377
  2348.5000    103.1342      0.0000    649.1866      3.6823
  2348.7500    101.5040      0.0000    644.6729      3.7579
  2349.0000    100.4311      0.0000    624.9907      3.8364
  2349.2500    100.2735      0.0000    600.3541      3.8895
  2349.5000    101.8336      0.0000    576.0291      3.9036
  2349.7500    105.5494      0.0000    548.4163      3.8831
  2350.0000    110.3708      0.0000    512.6802      3.8482
  2350.2500    113.7880      0.0000    475.0071      3.8278
  2350.5000    113.8340      0.0000    453.6866      3.8447
  2350.7500    111.0720      0.0000    465.6685      3.9018
  2351.0000    108.0115      0.0000    511.8559      3.9824
  2351.2500    106.5030      0.0000    574.9207      4.0647
  2351.5000    106.2576      0.0000    631.1848      4.1315
  2351.7500    105.9043      0.0000    665.6559      4.1696
  2352.0000    104.6624      0.0000    677.5558      4.1689
  2352.2500    102.6653      0.0000    674.5812      4.1252
  2352.5000    100.3168      0.0000    664.2142      4.0446
  2352.7500     97.9421      0.0000    649.3040      3.9438
  2353.0000     95.9701      0.0000    629.5692      3.8472
  2353.2500     95.0788      0.0000    606.5274      3.7804
  2353.5000     95.9344      0.0000    586.1520      3.7593
  2353.7500     98.6529      0.0000    574.9575      3.7804
  2354.0000    102.3920      0.0000    573.7228      3.8244
  2354.2500    105.6401      0.0000    576.9403      3.8704
  2354.5000    107.2000      0.0000    578.1998      3.9057
  2354.7500    106.9708      0.0000    574.6427      3.9224
  2355.0000    106.0008      0.0000    567.7705      3.9119
  2355.2500    106.2003      0.0000    562.9714      3.8678
  2355.5000    109.5657      0.0000    567.0797      3.7976
  2355.7500    116.4462      0.0000    581.9724      3.7234
  2356.0000    124.1988      0.0000    599.5386      3.6732
  2356.2500    128.4540      0.0000    606.0152      3.6781
  2356.5000    126.3791      0.0000    593.3338      3.7847
  2356.7500    118.7283      0.0000    565.7200      4.0600
  2357.0000    109.0636      0.0000    534.9988      4.5576
  2357.2500    101.4967      0.0000    510.6986      5.2623
  2357.5000     98.6828      0.0000    494.7999      6.0754
  2357.7500    100.6746      0.0000    483.8783      6.8660
  2358.0000    105.1413      0.0000    474.4569      7.5382
  2358.2500    109.2188      0.0000    466.9248      8.0513
  2358.5000    111.6296      0.0000    465.2367      8.3951
  2358.7500    113.1317      0.0000    471.7615      8.5726
  2359.0000    115.3261      0.0000    482.2823      8.6091
  2359.2500    119.2205      0.0000    488.3890      8.5606
  2359.5000    124.2851      0.0000    485.3480      8.4918
  2359.7500    128.3777      0.0000    474.2833      8.4432
  2360.0000    128.9708      0.0000    456.7690      8.4267
  2360.2500    125.1521      0.0000    432.7122      8.4472
  2360.5000    118.6098      0.0000    404.4862      8.5169
  2360.7500    112.4273      0.0000    378.1208      8.6456
  2361.0000    108.8091      0.0000    358.7710      8.8265
  2361.2500    108.0372      0.0000    347.3558      9.0424
  2361.5000    109.2674      0.0000    341.7111      9.2858
  2361.7500    111.5217      0.0000    339.2434      9.5615
  2362.0000    113.7098      0.0000    338.2050      9.8627
  2362.2500    114.5935      0.0000    337.7718     10.1450
  2362.5000    113.6523      0.0000    337.7575     10.3339
  2362.7500    111.9147      0.0000    338.3807     10.3577
  2363.0000    111.2245      0.0000    340.0265     10.1792
  2363.2500    112.2107      0.0000    342.7219      9.8164
  2363.5000    113.1572      0.0000    345.6489      9.3482
  2363.7500    111.2845      0.0000    347.4238      8.8800
  2364.0000    105.3474      0.0000    347.2241      8.4799
  2364.2500     97.0676      0.0000    345.5401      8.1530
  2364.5000     90.2784      0.0000    343.6444      7.8820
  2364.7500     88.7915      0.0000    342.5676      7.6726
  2365.0000     94.3773      0.0000    342.7635      7.5450
  2365.2500    105.5462      0.0000    344.3300      7.4930
  2365.5000    117.9919      0.0000    346.9758      7.4711
  2365.7500    127.1362      0.0000    349.7633      7.4224
  2366.0000    130.7626      0.0000    351.4592      7.3169
  2366.2500    129.1176      0.0000    351.6461      7.1651
  2366.5000    123.0732      0.0000    351.3152      6.9964
  2366.7500    113.3704      0.0000    351.9608      6.8287
  2367.0000    101.6461      0.0000    354.2351      6.6586
  2367.2500     90.8269      0.0000    358.0627      6.4709
  2367.5000     83.4616      0.0000    364.1729      6.2505
  2367.7500     80.0033      0.0000    375.2029      5.9822
  2368.0000     79.2806      0.0000    395.0796      5.6362
  2368.2500     80.2121      0.0000    426.8223      5.1618
  2368.5000     82.4345      0.0000    469.6983      4.5185
  2368.7500     85.5657      0.0000    517.9562      3.7324
  2369.0000     88.5848      0.0000    563.4352      2.9166
  2369.2500     90.1681      0.0000    600.1586      2.2159
  2369.5000     89.4273      0.0000    626.2402      1.7217
  2369.7500     86.1999      0.0000    642.5637      1.4410
  2370.0000     80.9920      0.0000    651.7047      1.3330
