~Version Information
VERS.                      2.0: CWLS Log ASCII Standard - VERSION 2.0
WRAP.                       NO: One line per depth step
~Well Information Block
STRT.FT                -1.5000: 
STOP.FT              1317.0000: 
STEP.FT                 0.2500: 
NULL.                -999.2500: 
COMP.          Pioneer Natural Resources: COMPANY
WELL.              Border 21-3: WELL
FLD.           Purgatoire River: FIELD
LOC.           865' FNL & 1415' FWL: LOCATION
PROV.                 Colorado: PROVINCE
CNTY.               Las Animas: COUNTRY
SRVC.                Patterson: SERVICE COMPANY
DATE.          Tue Dec 14 14:08:05 2004: LOG DATE
UWI.           05 071 08169 00: UNIQUE WELL ID
~Curve Information Block
DEPT.FT            0 000 00 00: Depth
GR.GAPI                       : Gamma Ray
CCL.                          : Casing Collar Locator
TT3.usec                      : CBL 3' Travel Time
AMP3.mV                       : CBL 3' Amplitude
~Parameter Information Block
~A  Depth        GR         CCL         TT3         AMP3    
# ...
   501.0000     87.1078      0.0000    761.2408      9.4318
   501.2500     87.2647      0.0000    756.3914      9.1572
   501.5000     89.5439      0.0000    752.6555      8.8728
   501.7500     93.6921      0.0000    750.4116      8.6264
   502.0000     99.0094      0.0000    749.5100      8.4527
   502.2500    104.6831      0.0000    749.6870      8.3597
   502.5000    109.9437      0.0000    750.9026      8.3322
   502.7500    114.1313      0.0000    753.4222      8.3421
   503.0000    116.9321      0.0000    757.5876      8.3576
   503.2500    118.4940      0.0000    763.2771      8.3537
   503.5000    119.0364      0.0000    769.5936      8.3200
   503.7500    118.3738      0.0000    775.3635      8.2628
   504.0000    115.9597      0.0000    780.1161      8.2028
   504.2500    111.2470      0.0000    784.4444      8.1663
   504.5000    104.0963      0.0000    789.1064      8.1733
   504.7500     95.2490      0.0000    793.5391      8.2305
   505.0000     86.4343      0.0000    795.4249      8.3359
   505.2500     79.6182      0.0000    792.3362      8.4860
   505.5000     75.9874      0.0000    784.1736      8.6748
   505.7500     75.4711      0.0000    773.8192      8.8908
   506.0000     76.9582      0.0000    765.3858      9.1171
   506.2500     79.1665      0.0000    762.2478      9.3351
   506.5000     81.6620      0.0000    766.5889      9.5291
   506.7500     84.9632      0.0000    779.4366      9.6892
   507.0000     89.5975      0.0000    799.6168      9.8154
   507.2500     95.4057      0.0000    822.7282      9.9139
   507.5000    101.7856      0.0000    842.4818      9.9889
   507.7500    107.8606      0.0000    854.0068     10.0415
   508.0000    112.0192      0.0000    856.2063     10.0785
   508.2500    112.0585      0.0000    851.6501     10.1153
   508.5000    106.7925      0.0000    844.7097     10.1653
   508.7500     97.5741      0.0000    838.9731     10.2298
   509.0000     87.6725      0.0000    835.1652     10.3044
   509.2500     80.0746      0.0000    831.2742     10.3889
   509.5000     76.2283      0.0000    825.1257     10.4884
   509.7500     76.5552      0.0000    817.1085     10.6029
   510.0000     81.1245      0.0000    810.2910     10.7173
   510.2500     89.4598      0.0000    807.6240     10.8038
   510.5000    100.2690      0.0000    808.8427     10.8385
   510.7500    111.7594      0.0000    810.4703     10.8140
   511.0000    122.0700      0.0000    809.2159     10.7414
   511.2500    129.5772      0.0000    804.8633     10.6415
   511.5000    133.5754      0.0000    799.3866     10.5336
   511.7500    134.9181      0.0000    794.2577     10.4260
   512.0000    135.3148      0.0000    789.6785     10.3157
   512.2500    135.5952      0.0000    785.6882     10.2001
   512.5000    135.0505      0.0000    782.6871     10.0835
   512.7500    132.6964      0.0000    780.9188      9.9720
   513.0000    128.7790      0.0000    780.1405      9.8707
   513.2500    124.7722      0.0000    779.8969      9.7858
   513.5000    122.1723      0.0000    779.8469      9.7214
   513.7500    121.6652      0.0000    779.8386      9.6678
   514.0000    123.2615      0.0000    779.8312      9.6048
   514.2500    126.6363      0.0000    779.8276      9.5256
   514.5000    131.0052      0.0000    779.8409      9.4526
   514.7500    134.9145      0.0000    779.8878      9.4151
   515.0000    136.5992      0.0000    779.9865      9.4175
   515.2500    134.9843      0.0000    780.1650      9.4354
   515.5000    130.6055      0.0000    780.4962      9.4433
   515.7500    125.3514      0.0000    781.1705      9.4337
   516.0000    120.9829      0.0000    782.5916      9.4094
   516.2500    118.0361      0.0000    785.3510      9.3685
   516.5000    116.2417      0.0000    789.8361      9.3040
   516.7500    115.5038      0.0000    795.4810      9.2149
   517.0000    115.9275      0.0000    800.3859      9.1094
   517.2500    117.1110      0.0000    802.2020      8.9997
   517.5000    118.0980      0.0000    799.9067      8.8997
   517.7500    118.3483      0.0000    794.7265      8.8218
   518.0000    118.3237      0.0000    789.1768      8.7703
   518.2500    118.7831      0.0000    785.2917      8.7383
   518.5000    119.8721      0.0000    783.7888      8.7177
   518.7500    121.3071      0.0000    784.3979      8.7061
   519.0000    122.9378      0.0000    786.2913      8.6992
   519.2500    124.5513      0.0000    788.1612      8.6797
   519.5000    125.4043      0.0000    788.6051      8.6272
   519.7500    124.5178      0.0000    787.0612      8.5396
   520.0000    121.6317      0.0000    784.2882      8.4369
   520.2500    117.8654      0.0000    781.6350      8.3428
   520.5000    115.2022      0.0000    779.9379      8.2691
   520.7500    115.0225      0.0000    779.2002      8.2200
   521.0000    117.2736      0.0000    779.0222      8.1997
   521.2500    121.2950      0.0000    779.0515      8.2101
   521.5000    126.9729      0.0000    779.1110      8.2444
   521.7500    134.4454      0.0000    779.1378      8.2875
   522.0000    142.8195      0.0000    779.1247      8.3221
   522.2500    149.7751      0.0000    779.1038      8.3350
   522.5000    152.7351      0.0000    779.1371      8.3240
   522.7500    150.6808      0.0000    779.2687      8.3010
   523.0000    145.1509      0.0000    779.4752      8.2868
   523.2500    139.4811      0.0000    779.6737      8.3028
   523.5000    136.6468      0.0000    779.7918      8.3619
   523.7500    137.4820      0.0000    779.8224      8.4622
   524.0000    140.6811      0.0000    779.8029      8.5862
   524.2500    144.1410      0.0000    779.7593      8.7117
   524.5000    146.3600      0.0000    779.6865      8.8277
   524.7500    147.0333      0.0000    779.5754      8.9406
   525.0000    146.6375      0.0000    779.4344      9.0641
   525.2500    145.5609      0.0000    779.2742      9.2067
   525.5000    143.6270      0.0000    779.0817      9.3662
   525.7500    140.3536      0.0000    778.8313      9.5339
   526.0000    135.7424      0.0000    778.5410      9.7024
   526.2500    130.8117      0.0000    778.3148      9.8677
   526.5000    126.9708      0.0000    778.2929     10.0238
   526.7500    124.8036      0.0000    778.5215     10.1569
   527.0000    124.0027      0.0000    778.8589     10.2483
   527.2500    124.4288      0.0000    779.0334     10.2781
   527.5000    126.4385      0.0000    778.7028     10.2272
   527.7500    130.1138      0.0000    777.3132     10.0880
   528.0000    134.7277      0.0000    773.9106      9.8882
   528.2500    138.9106      0.0000    767.7267      9.6992
   528.5000    141.0967      0.0000    760.1115      9.5902
   528.7500    140.1875      0.0000    755.8580      9.5582
   529.0000    136.2298      0.0000    760.4688      9.5235
   529.2500    130.2223      0.0000    774.3300      9.4175
   529.5000    123.0222      0.0000    791.5581      9.2551
   529.7500    114.8902      0.0000    806.9460      9.0997
   530.0000    106.4200     -2.0000    822.3234      8.9869
   530.2500     99.4124     -2.0000    843.4531      8.9008
   530.5000     96.0008      2.0000    873.1107      8.8067
   530.7500     96.5724      0.0000    909.4047      8.6946
   531.0000     98.7725      0.0000    946.2184      8.6054
   531.2500     99.0112      0.0000    971.1819      8.6082
   531.5000     95.2981      0.0000    969.7979      8.7168
   531.7500     88.6890      0.0000    939.6649      8.8322
   532.0000     82.0357      0.0000    897.1758      8.8112
   532.2500     77.6484      0.0000    863.6556      8.6011
   532.5000     76.1869      0.0000    847.2119      8.2770
   532.7500     76.9988      0.0000    841.4423      7.9494
   533.0000     78.7737      0.0000    837.0983      7.6742
   533.2500     80.0482      0.0000    829.2515      7.4482
   533.5000     79.7856      0.0000    815.3692      7.2555
   533.7500     77.8705      0.0000    793.5303      7.0975
   534.0000     75.0967      0.0000    765.4845      6.9857
   534.2500     72.6157      0.0000    737.9973      6.9210
