~Version Information
VERS.                      2.0: CWLS Log ASCII Standard - VERSION 2.0
WRAP.                       NO: One line per depth step
~Well Information Block
STRT.FT               460.0000: 
STOP.FT               961.2000: 
STEP.FT                 0.1000: 
NULL.                -999.2500: 
COMP.          Pioneer Natural Resources: COMPANY
WELL.                Pug 33-19: WELL
FLD.           Purgatoire River: FIELD
LOC.           1381' FSL & 2140' FEL: LOCATION
PROV.                 Colorado: PROVINCE
CNTY.               Las Animas: COUNTRY
SRVC.                Patterson: SERVICE COMPANY
DATE.          Wed Dec 15 07:19:20 2004: LOG DATE
UWI.           05 071 08193 00: UNIQUE WELL ID
~Curve Information Block
DEPT.FT            0 000 00 00: Depth
DCAL.in                       : CDL Caliper
RHOB.g/cc                     : CDL Bulk Density
RHOC.g/cc                     : CDL Density Correction
DPOR.pu                       : CDL Density Porosity
NPOR.pu                       : Neutron Porosity
GR.GAPI                       : Gamma Ray
~Parameter Information Block
~A  Depth       DCAL        RHOB        RHOC        DPOR        NPOR         GR     
# ...
   834.4000      7.9431      2.5553      0.0734      5.7391     14.5250     92.0925
   834.5000      7.9416      2.5337      0.0321      7.0480     13.3497     85.1066
   834.6000      7.9416      2.5178      0.0248      8.0148     11.9509     75.4397
   834.7000      7.9416      2.5092      0.0161      8.5324     10.6616     66.2113
   834.8000      7.9426      2.5076      0.0498      8.6286      9.8570     61.2737
   834.9000      7.9426      2.5082      0.0218      8.5924      9.8294     62.8530
   835.0000      7.9442      2.5128      0.0139      8.3154     10.4082     66.2501
   835.1000      7.9442      2.5181      0.0587      7.9948     11.0754     66.0896
   835.2000      7.9442      2.5086      0.0610      8.5720     11.2745     60.2332
   835.3000      7.9433      2.4854      0.0213      9.9740     10.8615     51.2777
   835.4000      7.9433      2.4671     -0.0180     11.0852     10.5652     46.5073
   835.5000      7.9434      2.4587     -0.0049     11.5937     11.2010     48.0262
   835.6000      7.9434      2.4542      0.0333     11.8697     12.7117     53.1098
   835.7000      7.9434      2.4516      0.0030     12.0273     14.1894     59.4374
   835.8000      7.9453      2.4478      0.0099     12.2567     14.7823     63.6501
   835.9000      7.9453      2.4407      0.0186     12.6875     14.6368     62.1272
   836.0000      7.9461      2.4434     -0.0359     12.5187     14.4871     57.5368
   836.1000      7.9461      2.4646      0.0637     11.2349     14.7849     59.4739
   836.2000      7.9461      2.4819      0.0779     10.1899     15.2966     69.7450
   836.3000      7.9449      2.4768      0.0717     10.4982     15.5367     77.6431
   836.4000      7.9449      2.4617      0.0252     11.4130     15.7145     76.2825
   836.5000      7.9427      2.4506      0.0767     12.0824     16.3180     72.7729
   836.6000      7.9427      2.4410      0.0424     12.6641     16.8399     73.1209
   836.7000      7.9427      2.4271      0.0613     13.5105     16.9810     72.5083
   836.8000      7.9411      2.4071      0.0310     14.7193     17.2606     69.3293
   836.9000      7.9411      2.3862      0.0377     15.9871     17.9134     65.4825
   837.0000      7.9418      2.3701      0.0081     16.9623     18.9344     59.7483
   837.1000      7.9418      2.3575      0.0486     17.7302     19.8528     53.3011
   837.2000      7.9418      2.3453      0.0065     18.4678     19.9396     49.8376
   837.3000      7.9436      2.3405      0.0227     18.7577     19.4114     51.1823
   837.4000      7.9436      2.3493      0.0262     18.2242     18.9564     55.9024
   837.5000      7.9437      2.3663      0.0574     17.1910     18.7351     60.7132
   837.6000      7.9437      2.3859      0.0382     16.0044     18.4283     64.2928
   837.7000      7.9437      2.4068      0.0712     14.7421     17.8682     65.5449
   837.8000      7.9433      2.4231      0.0828     13.7515     17.6803     61.9006
   837.9000      7.9433      2.4376      0.0466     12.8715     18.4471     58.1720
   838.0000      7.9435      2.4579      0.0975     11.6439     19.6506     62.6108
   838.1000      7.9435      2.4773      0.0815     10.4652     20.5955     71.2517
   838.2000      7.9435      2.4881      0.0741      9.8128     21.1082     74.9562
   838.3000      7.9438      2.4955      0.0667      9.3649     21.1642     76.7488
   838.4000      7.9438      2.5079      0.0563      8.6132     20.8041     81.3571
   838.5000      7.9435      2.5217      0.0633      7.7752     20.2127     86.2023
   838.6000      7.9435      2.5325      0.0684      7.1202     19.8348     92.6278
   838.7000      7.9435      2.5426      0.0864      6.5065     19.9866    101.2488
   838.8000      7.9439      2.5441      0.1166      6.4167     20.2705    104.0965
   838.9000      7.9439      2.5321      0.0579      7.1456     20.4530     98.5596
   839.0000      7.9443      2.5300      0.0258      7.2710     21.0548     91.0516
   839.1000      7.9443      2.5526      0.0921      5.9039     22.1149     85.2306
   839.2000      7.9443      2.5745      0.1128      4.5749     22.8089     81.3768
   839.3000      7.9446      2.5751      0.0694      4.5405     22.6345     79.8442
   839.4000      7.9446      2.5623      0.0599      5.3140     21.8785     79.7316
   839.5000      7.9466      2.5401      0.0805      6.6630     20.9525     81.6111
   839.6000      7.9466      2.5062      0.0540      8.7164     20.0256     85.5973
   839.7000      7.9466      2.4730      0.0457     10.7293     19.4437     90.7756
   839.8000      7.9486      2.4561      0.0455     11.7500     19.5433     96.3123
   839.9000      7.9486      2.4604      0.0181     11.4897     20.0086     98.6145
   840.0000      7.9466      2.4719      0.0843     10.7962     20.2821     94.0103
   840.1000      7.9466      2.4692      0.0917     10.9554     19.8995     85.8298
   840.2000      7.9466      2.4545      0.0482     11.8483     19.0287     83.2290
   840.3000      7.9466      2.4426      0.0804     12.5710     18.4829     88.3595
   840.4000      7.9466      2.4369      0.0943     12.9123     18.3649     93.5698
   840.5000      7.9565      2.4356      0.0820     12.9948     18.3061     91.7703
   840.6000      7.9565      2.4328      0.1080     13.1644     18.2934     83.0571
   840.7000      7.9565      2.4263      0.0691     13.5584     18.6070     74.1770
   840.8000      7.9762      2.4270      0.0459     13.5182     19.3763     71.3085
   840.9000      7.9762      2.4333      0.1020     13.1340     20.0308     73.4336
   841.0000      7.9952      2.4323      0.0536     13.1911     20.0231     76.6851
   841.1000      7.9952      2.4301      0.0516     13.3279     19.8140     80.4130
   841.2000      7.9952      2.4350      0.0645     13.0275     20.0423     83.4017
   841.3000      8.0070      2.4386      0.0500     12.8123     20.5443     82.9103
   841.4000      8.0070      2.4335      0.0654     13.1223     20.6809     80.1615
   841.5000      8.0166      2.4245      0.0545     13.6686     20.5531     77.9871
   841.6000      8.0166      2.4192      0.0686     13.9870     20.8064     76.4165
   841.7000      8.0166      2.4194      0.0517     13.9762     20.8525     76.1543
   841.8000      8.0244      2.4207      0.0450     13.8977     19.8701     77.7010
   841.9000      8.0244      2.4207      0.0405     13.8941     18.4743     78.3871
   842.0000      8.0279      2.4275      0.0163     13.4857     17.7070     78.0968
   842.1000      8.0279      2.4440      0.0664     12.4869     17.7864     79.4270
   842.2000      8.0279      2.4548      0.0906     11.8326     18.2829     82.2680
   842.3000      8.0296      2.4504      0.0677     12.0978     18.7313     85.3536
   842.4000      8.0296      2.4435      0.0278     12.5122     18.7853     87.7713
   842.5000      8.0297      2.4476      0.0530     12.2656     18.6389     89.3775
   842.6000      8.0297      2.4596      0.0440     11.5374     18.6153     92.1931
   842.7000      8.0297      2.4753      0.0333     10.5886     18.4324     95.7280
   842.8000      8.0278      2.4933      0.0727      9.4980     17.9896     96.3843
   842.9000      8.0278      2.4981      0.1043      9.2075     17.8659     92.6095
   843.0000      8.0266      2.4794      0.0673     10.3367     18.2659     88.5673
   843.1000      8.0266      2.4557      0.0578     11.7782     18.5508     86.5276
   843.2000      8.0266      2.4493      0.0352     12.1640     18.5081     85.2281
   843.3000      8.0264      2.4548      0.0832     11.8309     18.6068     85.9698
   843.4000      8.0264      2.4483      0.0630     12.2247     18.6831     85.9715
   843.5000      8.0266      2.4328      0.0426     13.1656     18.4409     84.0740
   843.6000      8.0266      2.4332      0.0384     13.1387     18.6627     85.9212
   843.7000      8.0266      2.4489      0.0758     12.1865     19.5509     87.4080
   843.8000      8.0277      2.4573      0.0880     11.6818     20.1837     86.6974
   843.9000      8.0277      2.4544      0.0539     11.8569     20.4466     89.5952
