~Version Information
VERS.                      2.0: CWLS Log ASCII Standard - VERSION 2.0
WRAP.                       NO: One line per depth step
~Well Information Block
STRT.FT               506.1000: 
STOP.FT              2140.0000: 
STEP.FT                 0.1000: 
NULL.                -999.2500: 
COMP.          Petrogulf Corporation: COMPANY
WELL.            Montoya 1-44R: WELL
FLD.           Purgatorie River: FIELD
LOC.           658' FSL & 1052' FWL: LOCATION
CNTY.               Las Animas: COUNTY
SRVC.                         : SERVICE COMPANY
DATE.          Tue Nov 16 04:33:40 2004: LOG DATE
UWI.           05 071 08239 00: UNIQUE WELL ID
STAT.                 Colorado: STATE
~Curve Information Block
DEPT.FT            0 000 00 00: Depth
DCAL.in                       : CDL Caliper
RHOB.g/cc                     : CDL Bulk Density
RHOC.g/cc                     : CDL Density Correction
DPOR.pu                       : CDL Density Porosity
GR.GAPI                       : Gamma Ray
NPOR.pu                       : Neutron Porosity
~Parameter Information Block
~A  Depth       DCAL        RHOB        RHOC        DPOR         GR         NPOR    
# ...
  2128.5000      7.8275      2.5380      0.0624      6.7883   -999.2500   -999.2500
  2128.6000      7.8275      2.5385      0.0605      6.7560   -999.2500   -999.2500
  2128.7000      7.8275      2.5430      0.0426      6.4856   -999.2500   -999.2500
  2128.8000      7.8263      2.5494      0.0852      6.0940   -999.2500   -999.2500
  2128.9000      7.8263      2.5472      0.0929      6.2309   -999.2500   -999.2500
  2129.0000      7.8175      2.5359      0.0652      6.9168   -999.2500   -999.2500
  2129.1000      7.8175      2.5315      0.0521      7.1847   -999.2500   -999.2500
  2129.2000      7.8175      2.5430      0.0668      6.4876   -999.2500   -999.2500
  2129.3000      7.8010      2.5682      0.1088      4.9588   -999.2500   -999.2500
  2129.4000      7.8010      2.6027      0.1454      2.8653   -999.2500   -999.2500
  2129.5000      7.7889      2.6328      0.1624      1.0417   -999.2500   -999.2500
  2129.6000      7.7889      2.6392      0.1917      0.6521   -999.2500   -999.2500
  2129.7000      7.7889      2.6258      0.0919      1.4683   -999.2500   -999.2500
  2129.8000      7.7873      2.6137      0.1209      2.2005   -999.2500   -999.2500
  2129.9000      7.7873      2.6046      0.1343      2.7529   -999.2500   -999.2500
  2130.0000      7.7962      2.5876      0.0973      3.7803   -999.2500   -999.2500
  2130.1000      7.7962      2.5697      0.0544      4.8648   -999.2500   -999.2500
  2130.2000      7.7962      2.5659      0.0630      5.0952   -999.2500   -999.2500
  2130.3000      7.8061      2.5714      0.1124      4.7612   -999.2500   -999.2500
  2130.4000      7.8061      2.5729      0.0723      4.6748   -999.2500   -999.2500
  2130.5000      7.8036      2.5691      0.0869      4.9050   -999.2500   -999.2500
  2130.6000      7.8036      2.5661      0.0619      5.0829   -999.2500   -999.2500
  2130.7000      7.8036      2.5687      0.0764      4.9276   -999.2500   -999.2500
  2130.8000      7.7960      2.5707      0.0945      4.8083   -999.2500   -999.2500
  2130.9000      7.7960      2.5663      0.1079      5.0714   -999.2500   -999.2500
  2131.0000      7.7929      2.5654      0.0650      5.1291   -999.2500   -999.2500
  2131.1000      7.7929      2.5775      0.0759      4.3946   -999.2500   -999.2500
  2131.2000      7.7929      2.5927      0.1211      3.4737   -999.2500   -999.2500
  2131.3000      7.7936      2.6001      0.1065      3.0256   -999.2500   -999.2500
  2131.4000      7.7936      2.6033      0.1166      2.8307   -999.2500   -999.2500
  2131.5000      7.8009      2.6025      0.1194      2.8779   -999.2500   -999.2500
  2131.6000      7.8009      2.5949      0.0887      3.3377   -999.2500   -999.2500
  2131.7000      7.8009      2.5907      0.0832      3.5951   -999.2500   -999.2500
  2131.8000      7.8142      2.5975      0.1260      3.1811   -999.2500   -999.2500
  2131.9000      7.8142      2.6035      0.0944      2.8166   -999.2500   -999.2500
  2132.0000      7.8164      2.5964      0.1057      3.2502   -999.2500   -999.2500
  2132.1000      7.8164      2.5775      0.0776      4.3960   -999.2500   -999.2500
  2132.2000      7.8164      2.5625      0.0622      5.3020   -999.2500   -999.2500
  2132.3000      7.8090      2.5612      0.0926      5.3790   -999.2500   -999.2500
  2132.4000      7.8090      2.5605      0.1055      5.4220   -999.2500   -999.2500
  2132.5000      7.8073      2.5508      0.0781      6.0097   -999.2500   -999.2500
  2132.6000      7.8073      2.5401      0.0765      6.6629   -999.2500   -999.2500
  2132.7000      7.8073      2.5335      0.0503      7.0603   -999.2500   -999.2500
  2132.8000      7.8071      2.5284      0.0697      7.3704   -999.2500   -999.2500
  2132.9000      7.8071      2.5260      0.0415      7.5148   -999.2500   -999.2500
  2133.0000      7.8073      2.5315      0.0863      7.1844   -999.2500   -999.2500
  2133.1000      7.8073      2.5495      0.0865      6.0919   -999.2500   -999.2500
  2133.2000      7.8073      2.5806      0.0816      4.2071   -999.2500   -999.2500
  2133.3000      7.8110      2.6084      0.1274      2.5209   -999.2500   -999.2500
  2133.4000      7.8110      2.6164      0.1053      2.0387   -999.2500   -999.2500
  2133.5000      7.8177      2.6077      0.1100      2.5616   -999.2500   -999.2500
  2133.6000      7.8177      2.5928      0.1007      3.4644   -999.2500   -999.2500
  2133.7000      7.8177      2.5824      0.0757      4.0963   -999.2500   -999.2500
  2133.8000      7.8240      2.5817      0.0937      4.1391   -999.2500   -999.2500
  2133.9000      7.8240      2.5842      0.0712      3.9867   -999.2500   -999.2500
  2134.0000      7.8272      2.5825      0.0876      4.0883   -999.2500   -999.2500
  2134.1000      7.8272      2.5747      0.0682      4.5653   -999.2500   -999.2500
  2134.2000      7.8272      2.5663      0.0818      5.0755   -999.2500   -999.2500
  2134.3000      7.8284      2.5663      0.0715      5.0727   -999.2500   -999.2500
  2134.4000      7.8284      2.5700      0.1001      4.8506   -999.2500   -999.2500
  2134.5000      7.8269      2.5651      0.0502      5.1457   -999.2500   -999.2500
  2134.6000      7.8269      2.5529      0.0808      5.8841   -999.2500   -999.2500
  2134.7000      7.8269      2.5416      0.0604      6.5667   -999.2500   -999.2500
  2134.8000      7.8234      2.5409      0.0401      6.6123   -999.2500   -999.2500
  2134.9000      7.8234      2.5469      0.0777      6.2479   -999.2500   -999.2500
  2135.0000      7.8187      2.5474      0.0440      6.2197   -999.2500   -999.2500
  2135.1000      7.8187      2.5472      0.0488      6.2295   -999.2500   -999.2500
  2135.2000      7.8187      2.5505      0.0691      6.0327   -999.2500   -999.2500
  2135.3000      7.8088      2.5489      0.0573      6.1269   -999.2500   -999.2500
  2135.4000      7.8088      2.5375      0.0579      6.8157   -999.2500   -999.2500
  2135.5000      7.7994      2.5193      0.0258      7.9189   -999.2500   -999.2500
  2135.6000      7.7994      2.5048      0.0420      8.8001   -999.2500   -999.2500
  2135.7000      7.7994      2.5060      0.0412      8.7259   -999.2500   -999.2500
  2135.8000      7.7965      2.5229      0.0405      7.7035   -999.2500   -999.2500
  2135.9000      7.7965      2.5349      0.0902      6.9741   -999.2500   -999.2500
  2136.0000      7.7932      2.5269      0.0551      7.4627   -999.2500   -999.2500
  2136.1000      7.7932      2.5124      0.0624      8.3386   -999.2500   -999.2500
  2136.2000      7.7932      2.5094      0.0588      8.5236   -999.2500   -999.2500
  2136.3000      7.7844      2.5204      0.0584      7.8522   -999.2500   -999.2500
  2136.4000      7.7844      2.5360      0.0944      6.9116   -999.2500   -999.2500
  2136.5000      7.7767      2.5446      0.0840      6.3880   -999.2500   -999.2500
  2136.6000      7.7767      2.5448      0.1043      6.3766   -999.2500   -999.2500
  2136.7000      7.7767      2.5432      0.0864      6.4756   -999.2500   -999.2500
  2136.8000      7.7710      2.5481      0.1052      6.1761   -999.2500   -999.2500
  2136.9000      7.7710      2.5598      0.1254      5.4672   -999.2500   -999.2500
  2137.0000      7.6975      2.5970      0.1345      3.2119   -999.2500   -999.2500
  2137.1000      7.6975      2.8045      0.0938     -9.3618   -999.2500   -999.2500
  2137.2000      7.6975      3.4522      0.1067    -48.6181   -999.2500   -999.2500
  2137.3000      7.2243      4.3039      0.5623   -100.2340   -999.2500   -999.2500
  2137.4000      7.2243      4.1388      1.8332    -90.2280   -999.2500   -999.2500
  2137.5000      5.5738      2.5203      0.0000      7.8578   -999.2500   -999.2500
  2137.6000      5.5738      0.8830   -999.2500    107.0913   -999.2500   -999.2500
  2137.7000      5.5738      0.1703   -999.2500    150.2852   -999.2500   -999.2500
  2137.8000      3.0686      0.0177   -999.2500    159.5336   -999.2500   -999.2500
  2137.9000      3.0686      0.0010   -999.2500    160.5474   -999.2500   -999.2500
  2138.0000      1.5913      0.0000   -999.2500    160.6061   -999.2500   -999.2500
