~Version Information
VERS.                      2.0: CWLS Log ASCII Standard - VERSION 2.0
WRAP.                       NO: One line per depth step
~Well Information Block
STRT.FT                -9.2500: 
STOP.FT              2353.7500: 
STEP.FT                 0.2500: 
NULL.                -999.2500: 
COMP.          Petrogulf Corporation: COMPANY
WELL.             Kraft 17-23V: WELL
FLD.           Purgatorie River: FIELD
LOC.           1500' FSL & 1773' FWL--: LOCATION
PROV.                       CO: PROVINCE
CNTY.               Las Animas: COUNTRY
SRVC.          Patterson Wireline: SERVICE COMPANY
DATE.          Wed Dec 10 19:09:59 2003: LOG DATE
UWI.                          : UNIQUE WELL ID
~Curve Information Block
DEPT.FT            0 000 00 00: Depth
CCL.                          : Casing Collar Locator
TT3.usec                      : CBL 3' Travel Time
AMP3.mV                       : CBL 3' Amplitude
GR.GAPI                       : Gamma Ray
~Parameter Information Block
~A  Depth       CCL         TT3         AMP3         GR     
# ...
   928.7500      0.0000    688.1656      1.4232     71.2732
   929.0000      0.0000    685.6163      1.5308     74.4657
   929.2500      0.0000    680.7686      1.6273     76.7983
   929.5000      0.0000    673.9382      1.7221     78.0135
   929.7500      0.0000    667.0540      1.8450     77.9131
   930.0000      0.0000    663.1425      2.0089     76.7676
   930.2500      0.0000    664.8120      2.1880     75.5012
   930.5000      0.0000    672.8173      2.3285     74.9009
   930.7500      0.0000    685.5213      2.3832     74.8475
   931.0000      0.0000    699.3854      2.3505     74.8279
   931.2500      0.0000    710.3963      2.2798     74.7881
   931.5000      0.0000    716.0106      2.2304     74.7082
   931.7500      0.0000    716.4184      2.2224     73.6914
   932.0000      0.0000    713.9650      2.2328     70.4831
   932.2500      0.0000    711.2292      2.2306     65.1133
   932.5000      0.0000    709.5497      2.2014     59.5560
   932.7500      0.0000    708.9225      2.1485     56.5430
   933.0000      0.0000    708.6865      2.0880     57.7698
   933.2500      0.0000    708.2025      2.0386     63.0602
   933.5000      0.0000    707.2545      2.0062     70.8152
   933.7500      0.0000    706.2605      1.9789     79.0041
   934.0000      0.0000    706.2585      1.9441     85.9100
   934.2500      0.0000    708.6181      1.9051     90.4265
   934.5000      0.0000    714.4011      1.8806     92.1271
   934.7500      0.0000    723.5634      1.8934     91.3357
   935.0000      0.0000    734.4746      1.9508     89.0794
   935.2500      0.0000    744.3900      2.0312     86.6526
   935.5000      0.0000    751.1714      2.0987     84.9888
   935.7500      0.0000    754.9142      2.1421     84.3927
   936.0000      2.0000    757.0890      2.1934     84.6360
   936.2500      0.0000    757.5309      2.2987     85.0723
   936.5000      0.0000    753.6256      2.4693     84.9149
   936.7500      0.0000    744.0334      2.6604     83.9126
   937.0000      0.0000    732.3153      2.7932     82.6764
   937.2500      0.0000    724.8499      2.8043     81.9277
   937.5000      0.0000    724.9406      2.6933     81.4985
   937.7500      0.0000    729.9345      2.5297     80.5336
   938.0000      0.0000    734.0737      2.4005     78.6349
   938.2500      0.0000    733.4893      2.3513     76.3425
   938.5000      0.0000    728.6103      2.3752     74.4349
   938.7500      0.0000    722.8525      2.4343     73.1994
   939.0000      0.0000    719.8325      2.4791     72.6516
   939.2500      0.0000    721.3859      2.4630     73.1748
   939.5000      0.0000    726.7287      2.3612     75.5924
   939.7500      0.0000    732.6568      2.1875     80.4343
   940.0000      0.0000    735.9080      1.9902     87.0082
   940.2500      0.0000    736.8505      1.8265     93.2552
   940.5000      0.0000    740.0798      1.7338     96.9348
   940.7500      0.0000    750.1412      1.7232     97.2313
   941.0000      0.0000    767.3819      1.7891     94.9886
   941.2500      0.0000    788.2668      1.9058     91.3680
   941.5000      0.0000    807.7062      2.0205     86.9330
   941.7500      0.0000    820.5057      2.0718     82.3855
   942.0000      0.0000    823.1053      2.0299     79.2333
   942.2500      0.0000    815.9478      1.9186     78.7028
   942.5000      0.0000    803.9011      1.7956     80.2949
   942.7500      0.0000    793.4044      1.7107     82.1262
   943.0000      0.0000    788.2477      1.6806     82.6385
   943.2500      0.0000    787.2740      1.6966     81.7649
   943.5000      0.0000    786.2869      1.7473     80.6295
   943.7500      0.0000    782.2421      1.8287     80.3056
   944.0000      0.0000    775.0272      1.9316     80.8249
   944.2500      0.0000    765.5561      2.0290     81.2540
   944.5000      0.0000    754.2170      2.0878     80.6177
   944.7500      0.0000    742.1769      2.0942     78.7532
   945.0000      0.0000    732.4802      2.0721     76.4595
   945.2500      0.0000    727.8804      2.0746     74.9176
   945.5000      0.0000    727.9171      2.1524     74.8663
   945.7500      0.0000    729.4229      2.3195     76.1580
   946.0000      0.0000    729.5864      2.5403     77.9608
   946.2500      0.0000    727.6072      2.7486     79.2921
   946.5000      0.0000    723.9275      2.8894     79.5712
   946.7500      0.0000    719.1556      2.9500     79.1836
   947.0000      0.0000    713.8250      2.9547     79.6617
   947.2500      0.0000    708.4372      2.9373     82.8394
   947.5000      0.0000    703.5186      2.9287     89.3580
   947.7500      0.0000    699.7806      2.9621     97.9111
   948.0000      0.0000    698.2426      3.0699    106.0963
   948.2500      0.0000    700.3151      3.2612    112.1260
   948.5000      0.0000    707.7278      3.5053    115.7188
   948.7500      0.0000    721.4418      3.7416    117.4664
   949.0000      0.0000    739.5641      3.9126    117.8861
   949.2500      0.0000    756.7843      3.9907    117.6750
   949.5000      0.0000    767.5793      3.9752    118.6880
   949.7500      0.0000    770.7427      3.8806    123.4705
   950.0000      0.0000    770.1282      3.7340    132.6900
   950.2500      0.0000    770.6630      3.5737    143.1615
   950.5000      0.0000    774.0403      3.4361    149.5298
   950.7500      0.0000    778.0557      3.3447    148.6845
   951.0000      0.0000    778.9597      3.3103    142.4364
   951.2500      0.0000    773.9789      3.3177    135.5575
   951.5000      0.0000    762.8742      3.3142    131.3987
   951.7500      0.0000    748.6956      3.2410    129.7903
   952.0000      0.0000    736.9063      3.0883    128.8292
   952.2500      0.0000    732.4229      2.9010    127.6023
   952.5000      0.0000    736.3835      2.7259    126.5957
   952.7500      0.0000    745.1888      2.5670    126.1065
   953.0000      0.0000    752.6106      2.4005    125.2689
   953.2500      0.0000    753.9525      2.2216    122.9541
   953.5000      0.0000    749.7288      2.0656    119.3745
   953.7500      0.0000    745.4886      1.9845    116.4363
   954.0000      0.0000    747.1356      2.0076    116.1799
   954.2500      0.0000    755.8387      2.1320    118.7458
   954.5000      0.0000    767.3464      2.3552    122.0431
   954.7500      0.0000    776.1350      2.7070    123.5207
   955.0000      0.0000    780.0552      3.2415    122.2170
   955.2500      0.0000    780.6369      4.0012    119.3944
   955.5000      0.0000    778.5992      4.9981    117.6352
   955.7500      0.0000    768.7811      6.2240    119.1817
   956.0000      0.0000    740.0528      7.6620    124.4667
   956.2500      0.0000    682.9183      9.2669    131.6371
   956.5000      0.0000    600.9777     10.9260    137.3869
   956.7500      0.0000    516.4415     12.4418    138.8863
   957.0000      0.0000    461.5575     13.5746    135.7529
   957.2500      0.0000    459.7356     14.1318    130.3076
   957.5000      0.0000    510.6920     14.0537    125.5350
   957.7500      0.0000    591.4471     13.4473    122.7000
   958.0000      0.0000    672.4393     12.5354    121.1259
   958.2500      0.0000    735.4058     11.5375    119.9760
   958.5000      0.0000    778.4864     10.5706    119.6844
   958.7500      0.0000    807.6137      9.6434    121.3824
   959.0000      0.0000    826.1634      8.7221    125.1633
   959.2500      0.0000    832.7047      7.7978    129.4125
   959.5000      0.0000    825.9520      6.9107    132.2484
   959.7500      0.0000    809.5895      6.1297    133.4373
   960.0000      0.0000    791.5655      5.5060    134.3093
   960.2500      0.0000    779.1330      5.0424    135.7429
   960.5000      0.0000    774.9896      4.7072    136.9528
   960.7500      0.0000    777.1960      4.4681    136.5703
   961.0000      0.0000    781.1437      4.3167    134.2896
   961.2500      0.0000    782.4888      4.2722    131.0105
   961.5000      0.0000    780.3793      4.3541    127.7146
   961.7500      0.0000    777.7098      4.5361    124.5261
   962.0000      0.0000    777.4394      4.7428    120.7297
