~Version Information
VERS.                      2.0: CWLS Log ASCII Standard - VERSION 2.0
WRAP.                       NO: One line per depth step
~Well Information Block
STRT.FT               970.5000: 
STOP.FT              2720.0000: 
STEP.FT                 0.1000: 
NULL.                -999.2500: 
COMP.          Petrogulf Corporation: COMPANY
WELL.             Burson 8-31V: WELL
FLD.           Purgatorie River: FIELD
LOC.           1113' FNL & 2152' FEL: LOCATION
CNTY.               Las Animas: COUNTY
SRVC.                         : SERVICE COMPANY
DATE.          Wed Nov 12 14:59:14 2003: LOG DATE
UWI.                          : UNIQUE WELL ID
STAT.                 Colorado: STATE
~Curve Information Block
DEPT.FT            0 000 00 00: Depth
DCAL.in                       : CDL Caliper
DPOR.pu                       : CDL Density Porosity
NEU.NAPI                      : Neutron
NPOR.pu                       : Neutron Porosity
RHOB.g/cc                     : CDL Bulk Density
RHOC.g/cc                     : CDL Density Correction
GR.GAPI                       : Gamma Ray
~Parameter Information Block
~A  Depth       DCAL        DPOR        NEU         NPOR        RHOB        RHOC         GR     
# ...
  1911.3000      8.0173      9.6951   1087.2855     26.2096      2.4900      0.0235    155.5127
  1911.4000      8.0173      7.6259   1094.1045     25.8456      2.5242      0.0343    155.5127
  1911.5000      8.0357      6.4245   1101.3496     25.4605      2.5440      0.0531    156.9617
  1911.6000      8.0357      6.3970   1109.0135     25.0549      2.5444      0.0612    156.9617
  1911.7000      8.0357      7.2324   1112.1990     24.8868      2.5307      0.0765    156.9617
  1911.8000      8.0319      8.2289   1110.4899     24.9769      2.5142      0.0242    155.7236
  1911.9000      8.0319      8.5088   1109.6553     25.0210      2.5096      0.0284    155.7236
  1912.0000      8.0692      8.1788   1111.9998     24.8973      2.5151      0.0185    165.6475
  1912.1000      8.0692      8.4537   1117.3049     24.6182      2.5105      0.0565    165.6475
  1912.2000      8.0692     10.1454   1119.7672     24.4889      2.4826     -0.0559    165.6475
  1912.3000      8.0561     12.6959   1108.4666     25.0837      2.4405     -0.0087    166.4698
  1912.4000      8.0561     14.5842   1093.9814     25.8522      2.4094     -0.0494    166.4698
  1912.5000      8.0447     14.2341   1095.9780     25.7459      2.4151     -0.0442    169.0510
  1912.6000      8.0447     11.9089   1107.4564     25.1371      2.4535      0.0025    169.0510
  1912.7000      8.0447      9.8453   1112.1152     24.8912      2.4876      0.0730    169.0510
  1912.8000      8.0709      9.5733   1110.0034     25.0026      2.4920      0.0502    164.7319
  1912.9000      8.0709     10.3761   1104.7676     25.2793      2.4788      0.0438    164.7319
  1913.0000      8.0670     10.7979   1097.5723     25.6611      2.4718      0.0658    144.1908
  1913.1000      8.0670      9.7724   1091.7981     25.9686      2.4888      0.0436    144.1908
  1913.2000      8.0670      6.8617   1084.3124     26.3687      2.5368      0.1239    144.1908
  1913.3000      8.0709      3.4127   1069.1442     27.1843      2.5937      0.2245    142.4223
  1913.4000      8.0709      1.7907   1050.4922     28.1956      2.6205      0.2717    142.4223
  1913.5000      8.1315      2.3628   1041.1263     28.7067      2.6110      0.0525    151.2753
  1913.6000      8.1315      3.4737   1051.4493     28.1435      2.5927      0.0765    151.2753
  1913.7000      8.1315      4.0348   1074.6866     26.8855      2.5834      0.0820    151.2753
  1913.8000      8.1502      3.3285   1090.8740     26.0179      2.5951      0.0224    125.1375
  1913.9000      8.1502      1.6942   1094.7095     25.8134      2.6220      0.1273    125.1375
  1914.0000      8.0171      0.8624   1099.5330     25.5569      2.6358      0.0810    117.2737
  1914.1000      8.0171      1.3040   1111.4271     24.9275      2.6285      0.0582    117.2737
  1914.2000      8.0171      2.1138   1124.2426     24.2545      2.6151      0.0419    117.2737
  1914.3000      7.9670      2.4110   1141.0309     23.3815      2.6102      0.0229     96.6183
  1914.4000      7.9670      1.3589   1165.6619     22.1194      2.6276      0.0543     96.6183
  1914.5000      7.9525     -0.7281   1188.4543     20.9732      2.6620      0.1330     84.7986
  1914.6000      7.9525     -2.0025   1204.3594     20.1865      2.6830      0.0863     84.7986
  1914.7000      7.9525     -1.9692   1215.4607     19.6442      2.6825      0.0418     84.7986
  1914.8000      7.9363     -1.5400   1221.4625     19.3533      2.6754      0.0729     71.7838
  1914.9000      7.9363     -0.3468   1220.2301     19.4129      2.6557      0.1190     71.7838
  1915.0000      7.9281      1.8565   1217.5278     19.5438      2.6194      0.0664     74.5907
  1915.1000      7.9281      4.0377   1223.6552     19.2475      2.5834      0.0252     74.5907
  1915.2000      7.9281      5.3200   1233.9648     18.7531      2.5622      0.0360     74.5907
  1915.3000      7.9347      5.2652   1237.0260     18.6073      2.5631      0.0056     72.3836
  1915.4000      7.9347      4.5554   1234.0502     18.7490      2.5748      0.1025     72.3836
  1915.5000      7.9224      4.2616   1226.7067     19.1007      2.5797      0.0075     86.4430
  1915.6000      7.9224      4.0669   1216.7925     19.5795      2.5829      0.0209     86.4430
  1915.7000      7.9224      3.8214   1210.9819     19.8623      2.5869      0.0707     86.4430
  1915.8000      7.9170      3.7866   1207.8320     20.0162      2.5875      0.0661     73.2628
  1915.9000      7.9170      3.9426   1204.8734     20.1612      2.5849      0.1153     73.2628
  1916.0000      7.9185      4.6721   1204.1881     20.1949      2.5729      0.0512     89.7193
  1916.1000      7.9185      6.1807   1206.5327     20.0799      2.5480      0.0175     89.7193
  1916.2000      7.9185      7.7031   1206.6656     20.0734      2.5229      0.0010     89.7193
  1916.3000      7.9280      8.0976   1196.8528     20.5564      2.5164      0.0162     99.1815
  1916.4000      7.9280      7.1791   1182.0874     21.2912      2.5315      0.0435     99.1815
  1916.5000      7.9359      5.8818   1173.5616     21.7197      2.5530      0.0522    100.4326
  1916.6000      7.9359      5.5310   1169.4386     21.9280      2.5587      0.0741    100.4326
  1916.7000      7.9359      6.4930   1167.3225     22.0352      2.5429      0.0248    100.4326
  1916.8000      7.9382      7.7689   1172.8082     21.7577      2.5218      0.0124    101.1351
  1916.9000      7.9382      8.8320   1178.0029     21.4961      2.5043      0.0466    101.1351
  1917.0000      7.9338     10.2683   1169.4117     21.9294      2.4806      0.0262    118.0441
  1917.1000      7.9338     11.8953   1151.0525     22.8652      2.4537     -0.0472    118.0441
  1917.2000      7.9338     12.5462   1141.4829     23.3581      2.4430     -0.0651    118.0441
  1917.3000      7.9280     11.9438   1144.4041     23.2073      2.4529     -0.0289    131.9474
  1917.4000      7.9280     10.5541   1145.2811     23.1620      2.4759     -0.0358    131.9474
  1917.5000      7.9366      8.4691   1140.2916     23.4197      2.5103      0.0133    144.7059
  1917.6000      7.9366      5.9827   1137.5834     23.5599      2.5513      0.0655    144.7059
  1917.7000      7.9366      4.2672   1145.6018     23.1455      2.5796      0.1400    144.7059
  1917.8000      7.9387      4.0179   1167.2131     22.0407      2.5837      0.0578    160.1158
  1917.9000      7.9387      4.1964   1187.5327     21.0191      2.5808      0.0428    160.1158
  1918.0000      7.9364      4.0644   1193.9650     20.6993      2.5829      0.0851    182.3132
  1918.1000      7.9364      3.9930   1201.9484     20.3050      2.5841      0.0771    182.3132
  1918.2000      7.9364      4.3531   1229.1428     18.9837      2.5782      0.1050    182.3132
  1918.3000      7.9255      5.4006   1260.7844     17.4919      2.5609      0.0758    219.0018
  1918.4000      7.9255      6.4738   1283.3171     16.4618      2.5432      0.0225    219.0018
  1918.5000      7.9281      6.6393   1312.2970     15.1790      2.5405      0.0261    210.3331
  1918.6000      7.9281      7.0878   1351.9585     13.5060      2.5331      0.0611    210.3331
  1918.7000      7.9281      9.7035   1381.2949     12.3303      2.4899      0.0387    210.3331
  1918.8000      7.9308     12.5437   1380.5227     12.3607      2.4430     -0.0759    187.6471
  1918.9000      7.9308     12.3141   1355.9679     13.3423      2.4468     -0.0188    187.6471
  1919.0000      7.9247     10.0700   1333.9319     14.2541      2.4838      0.0947    140.3879
  1919.1000      7.9247      7.9649   1326.3429     14.5753      2.5186      0.0196    140.3879
  1919.2000      7.9247      5.7412   1324.1561     14.6685      2.5553      0.1246    140.3879
  1919.3000      7.9119      3.8642   1316.9501     14.9777      2.5862      0.1769    110.7285
  1919.4000      7.9119      3.8676   1308.3771     15.3496      2.5862      0.1983    110.7285
  1919.5000      7.9172      5.7138   1305.5001     15.4754      2.5557      0.1410     94.1384
  1919.6000      7.9172      7.9140   1301.1051     15.6686      2.5194      0.1118     94.1384
