~Version Information
VERS.                      2.0: CWLS Log ASCII Standard - VERSION 2.0
WRAP.                       NO: One line per depth step
~Well Information Block
STRT.FT               577.0000: 
STOP.FT              2643.2000: 
STEP.FT                 0.1000: 
NULL.                -999.2500: 
COMP.          Petrogulf Corporation: COMPANY
WELL.           Montoya 12-41V: WELL
FLD.           Purgatorie River: FIELD
LOC.           1081' FNL & 605' FEL: LOCATION
CNTY.               Las Animas: COUNTY
SRVC.                         : SERVICE COMPANY
DATE.          Tue Aug 10 14:17:12 2004: LOG DATE
UWI.           05 071 08094 00: UNIQUE WELL ID
STAT.                 Colorado: STATE
~Curve Information Block
DEPT.FT            0 000 00 00: Depth
DCAL.in                       : CDL Caliper
RHOB.g/cc                     : CDL Bulk Density
RHOC.g/cc                     : CDL Density Correction
DPOR.pu                       : CDL Density Porosity
GR.GAPI                       : Gamma Ray
NPOR.pu                       : Neutron Porosity
~Parameter Information Block
~A  Depth       DCAL        RHOB        RHOC        DPOR         GR         NPOR    
# ...
  1133.8000      8.2546      2.5682     -0.0461      4.9601    106.7923     25.0272
  1133.9000      8.2546      2.5774      0.0589      4.4012    109.9710     25.1341
  1134.0000      8.2541      2.5788      0.0358      4.3131    114.2927     25.1328
  1134.1000      8.2541      2.5657      0.0090      5.1068    116.4407     24.7427
  1134.2000      8.2541      2.5550     -0.0044      5.7598    123.7996     24.4053
  1134.3000      8.2551      2.5511      0.0061      5.9941    136.6876     24.5145
  1134.4000      8.2551      2.5467      0.0239      6.2630    140.5414     24.4545
  1134.5000      8.2535      2.5427      0.0318      6.5036    132.8179     23.6586
  1134.6000      8.2535      2.5488     -0.0036      6.1335    121.3688     22.8918
  1134.7000      8.2535      2.5653      0.0240      5.1304    112.1320     23.2058
  1134.8000      8.2494      2.5767      0.0204      4.4447    107.0388     24.4299
  1134.9000      8.2494      2.5701      0.0467      4.8413    105.5385     25.5805
  1135.0000      8.2499      2.5498      0.0194      6.0725    109.9818     26.4077
  1135.1000      8.2499      2.5314     -0.0229      7.1860    120.6740     27.0752
  1135.2000      8.2499      2.5230      0.0226      7.6992    131.6153     27.3301
  1135.3000      8.2490      2.5170      0.0038      8.0589    137.6198     27.2264
  1135.4000      8.2490      2.5076     -0.0093      8.6324    138.3740     27.1677
  1135.5000      8.2492      2.5040      0.0154      8.8498    135.0051     27.1936
  1135.6000      8.2492      2.5196      0.0005      7.9020    128.6376     27.0425
  1135.7000      8.2492      2.5454      0.0516      6.3382    121.0217     26.7226
  1135.8000      8.2290      2.5590      0.0398      5.5134    114.9282     26.7072
  1135.9000      8.2290      2.5558      0.0444      5.7092    112.5009     27.0919
  1136.0000      8.2224      2.5438      0.0143      6.4371    115.0365     27.6125
  1136.1000      8.2224      2.5374     -0.0271      6.8264    121.4863     28.1290
  1136.2000      8.2224      2.5528     -0.0350      5.8906    126.2399     28.3952
  1136.3000      8.2466      2.5878      0.0237      3.7707    124.0098     27.9581
  1136.4000      8.2466      2.6242      0.0312      1.5626    117.7149     26.7102
  1136.5000      8.2395      2.6463      0.0631      0.2255    110.8199     25.3062
  1136.6000      8.2395      2.6491      0.0238      0.0547    104.9316     24.7318
  1136.7000      8.2395      2.6390      0.0136      0.6649    103.7287     25.2700
  1136.8000      8.2253      2.6230      0.0115      1.6344    106.1599     26.4681
  1136.9000      8.2253      2.6067     -0.0099      2.6237    109.1830     27.5773
  1137.0000      8.1813      2.6016     -0.0093      2.9337    109.5899     27.6457
  1137.1000      8.1813      2.6136     -0.0064      2.2059    107.0769     26.1270
  1137.2000      8.1813      2.6239      0.0335      1.5790    104.7134     23.7620
  1137.3000      8.1720      2.6138     -0.0048      2.1944    102.4958     21.9098
  1137.4000      8.1720      2.5966     -0.0075      3.2380    100.9861     21.1817
  1137.5000      8.1570      2.5882      0.0217      3.7477    100.0567     21.3213
  1137.6000      8.1570      2.5829      0.0198      4.0690     97.7536     21.5105
  1137.7000      8.1570      2.5726      0.0403      4.6922     94.9065     21.2778
  1137.8000      8.1540      2.5610     -0.0139      5.3937     92.8516     21.3400
  1137.9000      8.1540      2.5542      0.0223      5.8052     89.4057     21.9852
  1138.0000      8.1532      2.5500     -0.0217      6.0594     84.3101     22.3171
  1138.1000      8.1532      2.5477     -0.0190      6.1988     84.5625     22.0556
  1138.2000      8.1532      2.5496     -0.0296      6.0819     91.0530     21.7831
  1138.3000      8.1531      2.5547     -0.0404      5.7747     96.4509     21.6200
  1138.4000      8.1531      2.5618     -0.0364      5.3485     96.6215     21.5304
  1138.5000      8.1527      2.5707     -0.0019      4.8040     91.8818     21.8503
  1138.6000      8.1527      2.5781     -0.0016      4.3551     86.0935     22.3716
  1138.7000      8.1527      2.5786      0.0304      4.3266     81.9277     22.2423
  1138.8000      8.1525      2.5702     -0.0042      4.8360     77.7766     21.4853
  1138.9000      8.1525      2.5609     -0.0385      5.3973     74.5405     21.0114
  1139.0000      8.1534      2.5638     -0.0068      5.2238     76.1484     21.2157
  1139.1000      8.1534      2.5785      0.0184      4.3356     78.8250     21.7050
  1139.2000      8.1534      2.5882     -0.0311      3.7470     77.3159     22.4065
  1139.3000      8.1539      2.5797      0.0216      4.2582     77.0515     23.5106
  1139.4000      8.1539      2.5565     -0.0290      5.6651     80.7613     24.4951
  1139.5000      8.1540      2.5267     -0.0053      7.4723     84.4063     25.0591
  1139.6000      8.1540      2.4859      0.0026      9.9431     89.7652     25.7689
  1139.7000      8.1540      2.4262     -0.0160     13.5652     98.4621     26.9107
  1139.8000      8.1546      2.3540     -0.0922     17.9402    104.3913     28.0567
  1139.9000      8.1546      2.2886     -0.0964     21.9035    102.7898     28.8385
  1140.0000      8.1554      2.2395     -0.0749     24.8816     99.6272     29.1142
  1140.1000      8.1554      2.2046     -0.0948     26.9970    103.7352     29.1700
  1140.2000      8.1554      2.1822     -0.0589     28.3506    114.3176     29.8089
  1140.3000      8.1641      2.1713     -0.0409     29.0101    123.0710     30.9240
  1140.4000      8.1641      2.1752     -0.0016     28.7761    125.4038     31.5319
  1140.5000      8.1733      2.1984      0.0305     27.3720    124.3796     31.4658
  1140.6000      8.1733      2.2374      0.0393     25.0045    122.6114     31.4285
  1140.7000      8.1733      2.2753      0.0984     22.7088    121.4653     31.6044
  1140.8000      8.1850      2.2902      0.0672     21.8042    120.6005     31.8421
  1140.9000      8.1850      2.2794      0.0505     22.4604    117.4315     32.4375
  1141.0000      8.1970      2.2615      0.0050     23.5469    116.0026     33.1427
  1141.1000      8.1970      2.2572     -0.0241     23.8088    120.4971     33.0732
  1141.2000      8.1970      2.2736     -0.0147     22.8151    128.2935     32.3125
  1141.3000      8.2165      2.3038      0.0016     20.9812    134.2020     31.3737
  1141.4000      8.2165      2.3370      0.0370     18.9685    132.8092     30.2588
  1141.5000      8.1754      2.3701      0.0325     16.9619    128.1172     29.0069
  1141.6000      8.1754      2.4110      0.0414     14.4868    126.9166     27.7834
  1141.7000      8.1754      2.4591      0.0750     11.5684    121.4062     26.7077
  1141.8000      8.1462      2.4991      0.0758      9.1460    107.4173     25.8119
  1141.9000      8.1462      2.5237      0.0848      7.6517     97.8352     24.8998
  1142.0000      8.1417      2.5433      0.0803      6.4660     99.2859     23.8675
  1142.1000      8.1417      2.5718      0.0782      4.7412    104.2856     22.8140
  1142.2000      8.1417      2.6026      0.1022      2.8735    106.0514     21.7223
  1142.3000      8.1409      2.6134      0.0621      2.2162    100.5156     20.4849
  1142.4000      8.1409      2.6009      0.0768      2.9742     90.3020     19.3140
  1142.5000      8.1410      2.5815      0.0106      4.1496     85.8296     19.0354
  1142.6000      8.1410      2.5677      0.0257      4.9885     89.9068     20.0084
  1142.7000      8.1410      2.5591      0.0289      5.5063     95.9421     21.1409
  1142.8000      8.1402      2.5553     -0.0112      5.7420    100.2617     21.6347
  1142.9000      8.1402      2.5596      0.0275      5.4815    106.1377     22.0294
  1143.0000      8.1400      2.5714      0.0219      4.7634    112.8110     22.5452
  1143.1000      8.1400      2.5867      0.0578      3.8343    117.6559     23.3199
  1143.2000      8.1400      2.5949      0.0699      3.3368    121.7423     24.5531
  1143.3000      8.1398      2.5853      0.0542      3.9199    121.3520     25.7428
