~Version Information
 VERS.                                  2.0 : CWLS LAS VERSION
 WRAP.                                   NO : WRAPING MODE
 SWARE .                 MController 2.5.0J : SOFTWARE VERSION
~Well Information
 WELL.                       Rancher 12-35 Tr : WELL
 COMP.    Pioneer Natural Resources USA Inc : COMPANY
 FLD.                      Purgatoire River : FIELD
 LOC.                2242' FNL & 308' FWL SWNW 35 32S 67W : LOCATION
 DATE.                            7/02/2005 : DATE(S) LOGGED
 SRVC.       BLANCO Geological Services LLC : SERVICE COMPANY
 STAT.                                   CO : STATE
 CNTY.                           Las Animas : COUNTY
 CTRY.                                  USA : COUNTRY
 API.                       05-071-08430-00 : API NUMBER
 STRT.FT                             369.00 : START DEPTH
 STOP.FT                            1735.00 : STOP DEPTH
 STEP.FT                               1.00 : DEPTH INCREMENT
 NULL.                                -9999 : NULL VALUE
~Curve information
 DEPTH.FT                                   :
 ROP.MIN/FT                                 :
 GAS.UNITS                                  :
~ASCII Log data
# ...
      1569.0         0.20       1665.9 
      1570.0         0.13       1640.6 
      1571.0         0.23       1569.2 
      1572.0         0.17       1500.1 
      1573.0         0.33       1488.3 
      1574.0         0.30       1492.0 
      1575.0         0.32       1491.7 
      1576.0         0.30       1487.6 
      1577.0         0.23       1466.7 
      1578.0         0.27       1450.9 
      1579.0         0.17       1439.5 
      1580.0         0.23       1432.0 
      1581.0         0.20       1434.4 
      1582.0         0.27       1434.4 
      1583.0         0.27       1388.6 
      1584.0         0.30       1124.8 
      1585.0         0.47       1075.9 
      1586.0         1.68       2203.9 
      1587.0         0.23       2360.6 
      1588.0         0.37       2591.7 
      1589.0         0.30       2611.2 
      1590.0         0.30       2562.1 
      1591.0         0.47       2363.6 
      1592.0         0.48       2039.5 
      1593.0         0.33       1984.9 
      1594.0         0.27       1974.8 
      1595.0         0.27       1923.3 
      1596.0         0.20       1871.7 
      1597.0         0.40       1850.5 
      1598.0         0.27       1756.8 
      1599.0         0.20       1699.6 
      1600.0         0.27       1665.5 
      1601.0         0.33       1632.8 
      1602.0         0.27       1584.3 
      1603.0         0.33       1562.1 
      1604.0         0.32       1545.6 
      1605.0         0.17       1523.0 
      1606.0         0.20       1509.2 
      1607.0         0.20       1473.8 
      1608.0         0.17       1466.4 
      1609.0         0.20       1459.3 
      1610.0         0.17       1454.6 
      1611.0         0.17       1418.9 
      1612.0         0.23       1394.3 
      1613.0         0.13       1416.2 
      1614.0         0.10       1442.8 
      1615.0         0.27       1457.7 
      1616.0         2.68       2542.2 
      1617.0         0.47       2754.4 
      1618.0         0.30       2691.1 
      1619.0         0.30       2531.4 
      1620.0         0.33       2285.5 
      1621.0         0.35       1980.5 
      1622.0         0.33       1879.5 
      1623.0         0.27       1906.1 
      1624.0         0.23       1908.1 
      1625.0         0.20       1896.7 
      1626.0         0.27       1871.0 
      1627.0         0.27       1832.6 
      1628.0         0.27       1787.8 
      1629.0         0.23       1717.7 
      1630.0         0.20       1669.9 
      1631.0         0.20       1635.2 
      1632.0         0.23       1604.2 
      1633.0         0.27       1535.8 
      1634.0         0.23       1532.8 
      1635.0         0.22       1531.1 
      1636.0         0.23       1512.6 
      1637.0         0.13       1511.2 
      1638.0         0.17       1533.5 
      1639.0         0.17       1540.9 
      1640.0         0.20       1528.7 
      1641.0         0.23       1527.7 
      1642.0         0.20       1558.7 
      1643.0         0.23       1567.8 
      1644.0         0.27       1469.1 
      1645.0         0.30       1205.0 
      1646.0         2.68       2904.0 
      1647.0         0.33       2858.9 
      1648.0         0.30       2662.8 
      1649.0         0.27       2400.3 
      1650.0         0.23       2206.6 
      1651.0         0.23       2059.0 
      1652.0         0.27       1964.0 
      1653.0         0.25       1941.5 
      1654.0         0.33       1970.4 
      1655.0         0.33       1970.4 
      1656.0         0.23       1943.1 
      1657.0         0.23       1915.5 
      1658.0         0.27       1874.4 
      1659.0         0.23       1833.0 
      1660.0         0.23       1783.8 
      1661.0         0.27       1727.2 
      1662.0         0.23       1682.4 
      1663.0         0.27       1649.0 
      1664.0         0.23       1601.9 
      1665.0         0.23       1559.1 
      1666.0         0.25       1539.5 
      1667.0         0.23       1512.2 
      1668.0         0.23       1505.5 
      1669.0         0.23       1505.2 
      1670.0         0.27       1494.4 
      1671.0         0.27       1475.8 
      1672.0         0.27       1440.1 
      1673.0         0.20       1334.0 
      1674.0         0.23       1121.1 
      1675.0         0.23        919.6 
      1676.0         2.68       2352.5 
      1677.0         0.20       2516.6 
      1678.0         0.30       2627.4 
      1679.0         0.23       2624.7 
      1680.0         0.20       2550.9 
      1681.0         0.23       2443.8 
      1682.0         0.23       2323.2 
      1683.0         0.23       2240.3 
      1684.0         0.22       2072.9 
      1685.0         0.27       2036.1 
      1686.0         0.20       2011.2 
      1687.0         0.30       1994.0 
      1688.0         0.23       1936.4 
      1689.0         0.23       1856.6 
      1690.0         0.27       1791.2 
      1691.0         0.23       1747.1 
      1692.0         0.23       1718.8 
      1693.0         0.20       1726.8 
      1694.0         0.23       1728.2 
      1695.0         0.27       1718.8 
      1696.0         0.23       1696.5 
      1697.0         0.17       1678.0 
      1698.0         0.22       1669.2 
      1699.0         0.23       1661.5 
      1700.0         0.23       1641.6 
      1701.0         0.33       1620.7 
      1702.0         0.23       1601.5 
      1703.0         0.20       1573.2 
      1704.0         0.23       1542.2 
      1705.0         0.17       1384.9 
      1706.0         2.95       2919.9 
      1707.0         0.70       3221.4 
      1708.0         0.37       3122.7 
      1709.0         0.37       2772.3 
      1710.0         0.33       2475.8 
      1711.0         0.35       2225.8 
      1712.0         0.30       2056.7 
      1713.0         0.33       2036.8 
      1714.0         0.27       2035.8 
      1715.0         0.30       2003.5 
      1716.0         0.30       1957.6 
      1717.0         0.30       1918.6 
      1718.0         0.33       1877.1 
      1719.0         0.30       1812.8 
      1720.0         0.20       1731.6 
      1721.0         0.20       1643.0 
      1722.0         0.17       1584.3 
      1723.0         0.20       1573.9 
      1724.0         0.18       1588.0 
      1725.0         0.30       1608.3 
      1726.0         0.33       1597.8 
      1727.0         0.20       1569.5 
      1728.0         0.20       1593.4 
      1729.0         0.27       1628.1 
      1730.0         0.20       1621.4 
      1731.0         0.27       1607.6 
      1732.0         0.20       1596.1 
      1733.0         0.23       1603.9 
      1734.0         0.23       1609.9 
      1735.0         0.23       1613.3 
