~Version Information
VERS.                      2.0: CWLS Log ASCII Standard - VERSION 2.0
WRAP.                       NO: One line per depth step
~Well Information Block
STRT.FT               910.3000: 
STOP.FT              1932.5000: 
STEP.FT                 0.1000: 
NULL.                -999.2500: 
COMP.          Petrogulf Corporation: COMPANY
WELL.             State 16-34R: WELL
FLD.           Purgatorie River: FIELD
LOC.           1095' FSL & 1498' FEL: LOCATION
CNTY.               Las Animas: COUNTY
SRVC.                         : SERVICE COMPANY
DATE.          Thu May 06 14:28:18 2004: LOG DATE
UWI.           05 071 08032 00: UNIQUE WELL ID
STAT.                 Colorado: STATE
~Curve Information Block
DEPT.FT            0 000 00 00: Depth
DCAL.in                       : CDL Caliper
RHOB.g/cc                     : CDL Bulk Density
RHOC.g/cc                     : CDL Density Correction
DPOR.pu                       : CDL Density Porosity
NPOR.pu                       : Neutron Porosity
GR.GAPI                       : Gamma Ray
~Parameter Information Block
~A  Depth       DCAL        RHOB        RHOC        DPOR        NPOR         GR     
# ...
  1371.1000      7.9489      2.4892      0.0565      9.7470     24.5926    141.3895
  1371.2000      7.9489      2.4985      0.0525      9.1846     25.0902    140.1268
  1371.3000      7.9490      2.5081      0.1269      8.6010     25.4740    142.0938
  1371.4000      7.9490      2.5089      0.1166      8.5506     25.4485    143.8135
  1371.5000      7.9597      2.5003      0.0443      9.0705     25.1104    144.1463
  1371.6000      7.9597      2.4936      0.0515      9.4779     24.7901    143.1806
  1371.7000      7.9597      2.4912      0.0201      9.6253     24.4679    140.8079
  1371.8000      7.9469      2.4909      0.0304      9.6416     23.8137    136.8900
  1371.9000      7.9469      2.5020      0.0072      8.9700     22.8775    131.9653
  1372.0000      7.9363      2.5251      0.0697      7.5683     22.4213    127.7900
  1372.1000      7.9363      2.5371      0.0668      6.8394     22.7835    125.2376
  1372.2000      7.9363      2.5258      0.0823      7.5281     23.2402    123.3982
  1372.3000      7.9275      2.5091      0.0264      8.5393     23.2223    121.0345
  1372.4000      7.9275      2.5090      0.0505      8.5469     22.9517    117.8633
  1372.5000      7.9303      2.5226      0.0572      7.7238     22.9954    116.5217
  1372.6000      7.9303      2.5387      0.0627      6.7470     23.5191    118.4047
  1372.7000      7.9303      2.5585      0.0764      5.5484     24.1064    120.1093
  1372.8000      7.9254      2.5675      0.1217      4.9999     24.5386    118.7673
  1372.9000      7.9254      2.5447      0.0408      6.3806     25.0140    115.6197
  1373.0000      7.9180      2.5160     -0.0415      8.1196     25.5152    115.4693
  1373.1000      7.9180      2.5236      0.0138      7.6579     25.8397    119.9429
  1373.2000      7.9180      2.5630      0.0762      5.2722     26.1681    123.3876
  1373.3000      7.9193      2.6036      0.0893      2.8144     26.7139    122.6676
  1373.4000      7.9193      2.6284      0.0966      1.3076     27.1462    120.6373
  1373.5000      7.9210      2.6260      0.1107      1.4532     27.1518    119.4290
  1373.6000      7.9210      2.5910      0.0538      3.5746     27.0333    121.6348
  1373.7000      7.9210      2.5448      0.0196      6.3759     27.1280    128.5589
  1373.8000      7.9183      2.5151     -0.0005      8.1767     27.0730    135.4094
  1373.9000      7.9183      2.5066      0.0129      8.6932     26.4347    138.5728
  1374.0000      7.9214      2.5089      0.0680      8.5527     25.7484    139.8100
  1374.1000      7.9214      2.5186      0.0299      7.9625     25.6212    140.2041
  1374.2000      7.9214      2.5339      0.0430      7.0334     25.6187    138.2601
  1374.3000      7.9374      2.5383      0.0607      6.7698     25.2863    136.5773
  1374.4000      7.9374      2.5257      0.0104      7.5318     24.9934    139.5169
  1374.5000      7.9291      2.5203     -0.0122      7.8614     25.0890    145.1591
  1374.6000      7.9291      2.5395      0.0431      6.6977     25.3913    146.0997
  1374.7000      7.9291      2.5675      0.0739      4.9977     25.4063    140.0900
  1374.8000      7.9288      2.5828      0.0518      4.0704     25.1175    135.6885
  1374.9000      7.9288      2.5810      0.0684      4.1799     25.0219    136.8569
  1375.0000      7.9283      2.5747      0.0306      4.5628     25.0240    137.1608
  1375.1000      7.9283      2.5729      0.0361      4.6757     24.7394    136.4089
  1375.2000      7.9283      2.5591      0.0711      5.5088     24.2802    136.7902
  1375.3000      7.9282      2.5247     -0.0022      7.5935     23.8852    136.4027
  1375.4000      7.9282      2.4841      0.0083     10.0549     23.6395    133.9641
  1375.5000      7.9266      2.4454     -0.0075     12.3996     23.5536    129.9256
  1375.6000      7.9266      2.4161     -0.0386     14.1729     23.6191    130.0740
  1375.7000      7.9266      2.4156     -0.0375     14.2088     23.7575    135.0617
  1375.8000      7.9147      2.4583     -0.0082     11.6158     23.8003    136.2595
  1375.9000      7.9147      2.5288      0.0712      7.3431     23.6028    129.0112
  1376.0000      7.9146      2.5849      0.1468      3.9473     23.2521    120.0120
  1376.1000      7.9146      2.6035      0.1071      2.8198     23.0510    116.2799
  1376.2000      7.9146      2.5995      0.0961      3.0636     23.2746    117.6901
  1376.3000      7.9083      2.5902      0.0938      3.6260     23.8454    121.1875
  1376.4000      7.9083      2.5818      0.0841      4.1342     24.4225    122.7417
  1376.5000      7.9137      2.5814      0.0500      4.1570     24.7399    120.1656
  1376.6000      7.9137      2.5862      0.0597      3.8666     24.8485    114.7266
  1376.7000      7.9137      2.5849      0.0330      3.9475     24.8200    110.2522
  1376.8000      7.9043      2.5835     -0.0448      4.0328     24.5594    107.4967
  1376.9000      7.9043      2.5943     -0.0139      3.3729     24.3042    105.1457
  1377.0000      7.8992      2.6110      0.0272      2.3613     24.3514    102.8335
  1377.1000      7.8992      2.6183      0.0445      1.9188     24.5597     98.8492
  1377.2000      7.8992      2.6055      0.0675      2.6985     24.4513     92.9306
  1377.3000      7.9139      2.5806     -0.0051      4.2078     23.9710     86.5559
  1377.4000      7.9139      2.5673     -0.0039      5.0104     23.4893     82.7089
  1377.5000      7.9225      2.5717      0.0196      4.7479     23.1907     85.2179
  1377.6000      7.9225      2.5835      0.0165      4.0279     23.1264     92.5571
  1377.7000      7.9225      2.6022      0.0118      2.8954     23.1770     96.3915
  1377.8000      7.8933      2.6284      0.0753      1.3114     23.0383     92.7206
  1377.9000      7.8933      2.6470      0.1147      0.1824     22.7173     87.0084
  1378.0000      7.8941      2.6542      0.0274     -0.2554     22.7125     82.8785
  1378.1000      7.8941      2.6672      0.0555     -1.0420     23.3781     77.6900
  1378.2000      7.8941      2.6755      0.1103     -1.5436     24.2806     69.9898
  1378.3000      7.8958      2.6515      0.0655     -0.0936     24.9382     65.3677
  1378.4000      7.8958      2.6010      0.0392      2.9708     25.5517     68.5664
  1378.5000      7.9045      2.5496     -0.0150      6.0857     26.2845     74.5197
  1378.6000      7.9045      2.5063     -0.0182      8.7077     26.7131     77.4792
  1378.7000      7.9045      2.4541     -0.0162     11.8749     26.3295     78.6583
  1378.8000      7.9167      2.3775     -0.0641     16.5176     25.2109     81.2873
  1378.9000      7.9167      2.2834     -0.0644     22.2195     24.0936     85.9631
  1379.0000      7.9121      2.1904     -0.1279     27.8524     23.6909     92.5041
  1379.1000      7.9121      2.1165     -0.1196     32.3334     23.8802    101.4201
  1379.2000      7.9121      2.0716     -0.1217     35.0573     23.6698    109.9877
  1379.3000      7.9150      2.0549     -0.0516     36.0679     22.0826    114.5029
  1379.4000      7.9150      2.0555     -0.0008     36.0288     19.4545    117.6690
  1379.5000      7.9428      2.0666      0.0518     35.3558     17.2528    123.9526
  1379.6000      7.9428      2.0932      0.0786     33.7437     16.2366    133.5629
  1379.7000      7.9428      2.1335      0.1675     31.3028     15.8804    142.9972
  1379.8000      7.9842      2.1707      0.2137     29.0461     15.5653    149.1583
  1379.9000      7.9842      2.1963      0.1696     27.4993     15.4435    151.2835
  1380.0000      8.0122      2.2148      0.1086     26.3749     15.8334    147.3533
  1380.1000      8.0122      2.2279      0.0686     25.5818     16.7457    139.5086
  1380.2000      8.0122      2.2369      0.0122     25.0355     17.9687    135.3953
  1380.3000      7.9848      2.2509      0.0023     24.1884     18.9514    138.6213
  1380.4000      7.9848      2.2764      0.0014     22.6439     19.3704    146.6596
  1380.5000      7.9458      2.3120      0.0387     20.4847     19.3990    152.2803
  1380.6000      7.9458      2.3506      0.0813     18.1431     19.3348    151.4469
