~Version Information
VERS.                      2.0: CWLS Log ASCII Standard - VERSION 2.0
WRAP.                       NO: One line per depth step
~Well Information Block
STRT.FT               250.0000: 
STOP.FT               894.7500: 
STEP.FT                 0.2500: 
NULL.                -999.2500: 
COMP.          Pioneer Natural Resources: COMPANY
WELL.          Santisteven 13-22: WELL
FLD.           Purgatoire River: FIELD
LOC.           1861' FSL & 992' FWL----: LOCATION
PROV.                 Colorado: PROVINCE
CNTY.               Las Animas: COUNTRY
SRVC.                Patterson: SERVICE COMPANY
DATE.          Sat Apr 02 14:49:07 2005: LOG DATE
UWI.           05 071 08337 00: UNIQUE WELL ID
~Curve Information Block
DEPT.FT            0 000 00 00: Depth
SN.Ohm-m                      : IEL Short Normal
SP.mV                         : IEL Spontaneous Potential
DIR.Ohm-m                     : IEL Induction Resistivity
GR.GAPI                       : Gamma Ray
~Parameter Information Block
~A  Depth        SN          SP         DIR          GR     
# ...
   618.5000    452.3455     26.2293     11.1965    149.9757
   618.7500    452.4346     26.2223     10.8115    150.5685
   619.0000    431.4041     26.2113     10.4134    152.4463
   619.2500    400.1589     26.1976     10.0095    154.0227
   619.5000    367.8029     26.1824      9.6095    157.1183
   619.7500    340.7211     26.1672      9.2264    160.3611
   620.0000    322.5256     26.1530      8.8740    167.5876
   620.2500    314.0769     26.1404      8.5619    173.2171
   620.5000    313.5855     26.1298      8.2928    180.1969
   620.7500    316.2679     26.1211      8.0633    182.5559
   621.0000    315.5449     26.1144      7.8678    182.1512
   621.2500    307.1266     26.1094      7.7023    179.8539
   621.5000    292.9255     26.1062      7.5662    175.0741
   621.7500    281.3171     26.1050      7.4633    172.0437
   622.0000    284.0776     26.1059      7.4012    168.8155
   622.2500    310.8695     26.1091      7.3913    167.3319
   622.5000    361.9637     26.1144      7.4463    164.5978
   622.7500    423.6766     26.1216      7.5779    161.6367
   623.0000    473.1035     26.1302      7.7935    155.1162
   623.2500    490.9532     26.1397      8.0934    149.6113
   623.5000    471.4580     26.1495      8.4705    140.4036
   623.7500    421.8727     26.1592      8.9120    134.3072
   624.0000    356.3777     26.1685      9.4031    126.4402
   624.2500    291.9265     26.1770      9.9308    122.4601
   624.5000    245.4948     26.1847     10.4856    118.5365
   624.7500    228.4352     26.1914     11.0602    117.3997
   625.0000    239.8418     26.1970     11.6452    118.3993
   625.2500    266.1754     26.2014     12.2251    120.8692
   625.5000    291.0009     26.2046     12.7749    125.7903
   625.7500    308.2980     26.2066     13.2622    128.3850
   626.0000    326.3256     26.2076     13.6560    129.5070
   626.2500    356.5372     26.2078     13.9386    128.6226
   626.5000    398.0763     26.2078     14.1154    126.6831
   626.7500    434.0511     26.2080     14.2158    125.9188
   627.0000    443.6273     26.2087     14.2836    125.9431
   627.2500    417.3394     26.2099     14.3617    126.5691
   627.5000    361.1326     26.2117     14.4766    128.4980
   627.7500    288.9807     26.2136     14.6310    130.6653
   628.0000    214.7950     26.2153     14.8049    134.9136
   628.2500    149.6157     26.2168     14.9672    137.6987
   628.5000    101.4166     26.2180     15.0907    140.7685
   628.7500     73.9252     26.2191     15.1592    141.9643
   629.0000     65.0803     26.2205     15.1631    142.6489
   629.2500     67.6894     26.2222     15.0922    142.4429
   629.5000     73.2338     26.2243     14.9362    141.6755
   629.7500     76.5265     26.2262     14.6962    141.5248
   630.0000     77.6056     26.2276     14.3952    142.8266
   630.2500     79.6261     26.2279     14.0762    144.7401
   630.5000     85.5154     26.2269     13.7904    148.4937
   630.7500     97.4845     26.2246     13.5857    151.1852
   631.0000    120.0321     26.2214     13.5009    154.9472
   631.2500    161.6146     26.2180     13.5641    156.7142
   631.5000    229.3680     26.2151     13.7898    156.8401
   631.7500    318.9771     26.2136     14.1746    154.5074
   632.0000    410.3993     26.2140     14.6910    146.8167
   632.2500    475.9094     26.2164     15.2859    139.0709
   632.5000    493.3401     26.2208     15.8879    124.9416
   632.7500    454.5911     26.2265     16.4260    115.3340
   633.0000    368.8391     26.2328     16.8489    103.5120
   633.2500    261.1131     26.2388     17.1347     98.5919
   633.5000    162.0022     26.2438     17.2869     96.5015
   633.7500     91.9120     26.2474     17.3234     98.4641
   634.0000     53.3641     26.2497     17.2675    104.9907
   634.2500     36.7718     26.2510     17.1396    110.1338
   634.5000     30.8857     26.2516     16.9518    115.6627
   634.7500     28.6898     26.2522     16.7067    116.4060
   635.0000     27.8576     26.2528     16.4046    112.7314
   635.2500     28.7385     26.2536     16.0551    108.1753
   635.5000     31.8324     26.2546     15.6861    101.1897
   635.7500     36.1231     26.2556     15.3429     98.1442
   636.0000     39.6682     26.2565     15.0758     97.9957
   636.2500     41.8025     26.2571     14.9241    101.1303
   636.5000     44.0062     26.2573     14.9019    109.3300
   636.7500     47.9122     26.2568     14.9923    115.6183
   637.0000     52.9979     26.2556     15.1482    124.1670
   637.2500     57.1063     26.2534     15.3027    128.9094
   637.5000     59.2603     26.2502     15.3906    134.7995
   637.7500     61.4770     26.2461     15.3752    137.8342
   638.0000     67.4515     26.2412     15.2648    140.4947
   638.2500     79.0186     26.2361     15.1044    140.9556
   638.5000     93.3979     26.2311     14.9500    140.4384
   638.7500    104.0238     26.2265     14.8448    139.8430
   639.0000    104.9346     26.2226     14.8081    139.0664
   639.2500     95.0585     26.2195     14.8380    138.7627
   639.5000     78.5178     26.2171     14.9187    139.0340
   639.7500     61.1842     26.2155     15.0296    139.9364
   640.0000     47.3284     26.2148     15.1526    142.2841
   640.2500     38.9184     26.2153     15.2776    144.2030
   640.5000     36.8526     26.2175     15.4031    147.1424
   640.7500     42.1091     26.2215     15.5314    149.0179
   641.0000     55.2647     26.2276     15.6602    151.4324
   641.2500     74.3696     26.2354     15.7781    152.4309
   641.5000     93.7960     26.2444     15.8668    152.2995
   641.7500    107.0215     26.2534     15.9098    150.9478
   642.0000    111.6764     26.2611     15.8996    147.4514
   642.2500    111.4721     26.2664     15.8416    144.6527
   642.5000    112.9061     26.2683     15.7534    140.5110
   642.7500    120.9511     26.2660     15.6616    138.0202
   643.0000    138.6067     26.2595     15.5957    134.6924
   643.2500    169.5536     26.2493     15.5808    132.4368
   643.5000    217.7410     26.2361     15.6290    127.9908
   643.7500    280.6449     26.2210     15.7359    123.7814
   644.0000    344.0061     26.2052     15.8821    115.4920
   644.2500    388.6434     26.1898     16.0415    109.1441
   644.5000    404.3419     26.1755     16.1927     99.8882
   644.7500    394.1017     26.1628     16.3274     94.9678
   645.0000    366.5503     26.1519     16.4483     91.2451
   645.2500    331.3060     26.1426     16.5600     91.8467
   645.5000    302.4299     26.1347     16.6572     97.0617
   645.7500    298.2277     26.1283     16.7207    102.2872
   646.0000    330.7301     26.1231     16.7228    109.9088
   646.2500    394.3237     26.1192     16.6392    113.4759
   646.5000    466.1230     26.1168     16.4613    115.9493
   646.7500    519.8997     26.1158     16.2014    116.2983
   647.0000    543.0109     26.1160     15.8894    116.3863
   647.2500    542.8512     26.1172     15.5635    116.6967
   647.5000    537.7928     26.1188     15.2579    117.7074
   647.7500    539.6602     26.1207     14.9925    118.6199
   648.0000    542.3218     26.1225     14.7659    119.9022
   648.2500    527.3632     26.1246     14.5554    120.1897
   648.5000    481.8776     26.1272     14.3247    118.7818
   648.7500    410.4417     26.1309     14.0407    116.6490
   649.0000    330.3852     26.1361     13.6889    113.6006
   649.2500    258.4336     26.1429     13.2800    113.2945
   649.5000    203.4965     26.1511     12.8406    116.9415
   649.7500    168.7386     26.1602     12.3997    121.7291
   650.0000    155.1557     26.1693     11.9769    130.3789
   650.2500    161.3472     26.1771     11.5805    135.7598
   650.5000    181.3184     26.1826     11.2119    141.7402
   650.7500    204.8496     26.1849     10.8720    144.3976
   651.0000    222.0752     26.1835     10.5649    147.9404
   651.2500    228.6891     26.1788     10.2979    150.9422
   651.5000    226.8388     26.1713     10.0793    156.7408
   651.7500    221.3392     26.1623      9.9146    160.9148
