~Version Information
 VERS.                      2.0: CWLS Log ASCII Standard - VERSION 2.0
 WRAP.                       NO: One line per depth step
 ~Well Information Block
 STRT.FT               462.4000: 
 STOP.FT              2260.5000: 
 STEP.FT                 0.1000: 
 NULL.                -999.2500: 
 COMP.          Petrogulf Corporation: COMPANY
 WELL.             McLeod 9-42V: WELL
 FLD.           Purgatorie River: FIELD
 LOC.           1658' FNL & 415' FEL: LOCATION
 CNTY.               Las Animas: COUNTY
 SRVC.                         : SERVICE COMPANY
 DATE.          Fri Nov 12 10:12:24 2004: LOG DATE
 UWI.           05 071 08071 00: UNIQUE WELL ID
 STAT.                 Colorado: STATE
 PROV.                         :Province
 ~Curve Information Block
 DEPT.FT            0 000 00 00: Depth
 DCAL.in                       : CDL Caliper
 RHOB.g/cc                     : CDL Bulk Density
 RHOC.g/cc                     : CDL Density Correction
 DPOR.pu                       : CDL Density Porosity
 GR.GAPI                       : Gamma Ray
 NPOR.pu                       : Neutron Porosity
 ~Parameter Information Block
 ~A  Depth       DCAL        RHOB        RHOC        DPOR         GR         NPOR    
# ...
  1537.6000      8.0592      2.4501      0.0049     12.1159     77.6350     15.9283
  1537.7000      8.0592      2.4318     -0.0211     13.2270     80.1323     15.4676
  1537.8000      7.9342      2.4343      0.0033     13.0730     82.2623     15.8127
  1537.9000      7.9342      2.4521      0.0579     11.9938     81.6421     16.5484
  1538.0000      7.9665      2.4655      0.0359     11.1831     79.5168     17.0036
  1538.1000      7.9665      2.4717      0.0542     10.8074     79.9249     16.8277
  1538.2000      7.9665      2.4774      0.0473     10.4614     82.8460     16.1989
  1538.3000      8.0794      2.4752      0.0527     10.5968     84.1376     15.7384
  1538.4000      8.0794      2.4574     -0.0021     11.6731     82.8615     15.5233
  1538.5000      8.0862      2.4404      0.0069     12.7060     81.2139     15.1817
  1538.6000      8.0862      2.4431      0.0104     12.5405     78.8906     14.8577
  1538.7000      8.0862      2.4569      0.0546     11.7052     76.7821     14.8862
  1538.8000      8.0946      2.4605      0.0308     11.4824     76.1068     15.0745
  1538.9000      8.0946      2.4502      0.0511     12.1082     75.7557     15.2396
  1539.0000      8.0795      2.4401     -0.0368     12.7190     75.8909     15.4468
  1539.1000      8.0795      2.4430      0.0376     12.5450     76.9936     15.5284
  1539.2000      8.0795      2.4534      0.0132     11.9141     78.3526     15.1499
  1539.3000      8.0629      2.4631      0.0309     11.3274     78.8060     14.7069
  1539.4000      8.0629      2.4722      0.0233     10.7742     77.8283     15.1360
  1539.5000      8.0543      2.4807      0.0395     10.2581     75.5331     16.0927
  1539.6000      8.0543      2.4789      0.0717     10.3703     74.0712     16.4337
  1539.7000      8.0543      2.4575      0.0099     11.6690     74.8015     16.3362
  1539.8000      8.0406      2.4336     -0.0468     13.1164     75.5483     16.5920
  1539.9000      8.0406      2.4296      0.0018     13.3556     75.1148     16.9954
  1540.0000      8.0215      2.4354      0.0556     13.0058     75.1909     17.1455
  1540.1000      8.0215      2.4390      0.0133     12.7894     77.1265     17.2902
  1540.2000      8.0215      2.4488      0.0280     12.1936     79.1697     17.4452
  1540.3000      8.0111      2.4620      0.0329     11.3925     79.7281     17.4239
  1540.4000      8.0111      2.4689      0.0406     10.9752     80.6497     17.3970
  1540.5000      7.9899      2.4727      0.0203     10.7437     83.2314     17.4462
  1540.6000      7.9899      2.4775      0.0488     10.4540     85.4631     17.5565
  1540.7000      7.9899      2.4854      0.0318      9.9746     84.5855     17.7693
  1540.8000      7.9865      2.5004      0.0327      9.0673     81.4952     18.0147
  1540.9000      7.9865      2.5162      0.0259      8.1116     79.4149     18.0807
  1541.0000      7.9967      2.5211      0.0717      7.8139     79.6537     17.7358
  1541.1000      7.9967      2.5183      0.0390      7.9846     81.4272     17.2020
  1541.2000      7.9967      2.5189      0.0652      7.9444     83.2646     17.0209
  1541.3000      7.9947      2.5241      0.0477      7.6279     84.5441     17.1107
  1541.4000      7.9947      2.5263      0.0705      7.4957     85.5085     17.1903
  1541.5000      7.9767      2.5254      0.0328      7.5507     86.0229     17.5291
  1541.6000      7.9767      2.5253      0.0899      7.5576     85.0450     18.1691
  1541.7000      7.9767      2.5152      0.0689      8.1704     82.2843     18.6733
  1541.8000      7.9680      2.4877      0.0679      9.8348     80.5567     18.8676
  1541.9000      7.9680      2.4585     -0.0108     11.6087     82.4420     19.0614
  1542.0000      7.9662      2.4455      0.0099     12.3953     85.7801     19.4210
  1542.1000      7.9662      2.4493      0.0038     12.1667     86.8091     19.4095
  1542.2000      7.9662      2.4644      0.0170     11.2472     85.0913     19.0065
  1542.3000      7.9587      2.4870      0.0404      9.8778     82.9346     18.9307
  1542.4000      7.9587      2.5068      0.0675      8.6772     82.7395     18.9918
  1542.5000      7.9592      2.5087      0.0709      8.5609     85.9987     18.6817
  1542.6000      7.9592      2.4903      0.0266      9.6813     91.5391     18.1549
  1542.7000      7.9592      2.4681      0.0187     11.0233     95.6078     17.7046
  1542.8000      7.9695      2.4582     -0.0194     11.6268     95.2131     17.4413
  1542.9000      7.9695      2.4603     -0.0155     11.4983     89.8221     17.5634
  1543.0000      7.9697      2.4600      0.0276     11.5126     84.0460     18.0953
  1543.1000      7.9697      2.4436      0.0170     12.5063     82.6776     18.7612
  1543.2000      7.9697      2.4173     -0.0004     14.1057     83.9411     19.4393
  1543.3000      7.9763      2.4071     -0.0498     14.7189     85.0576     19.8817
  1543.4000      7.9763      2.4314     -0.0295     13.2485     86.2817     19.8163
  1543.5000      7.9802      2.4706      0.0116     10.8750     87.2155     19.4791
  1543.6000      7.9802      2.4970      0.0090      9.2722     85.6717     19.2828
  1543.7000      7.9802      2.5197      0.0362      7.8983     81.7472     19.6302
  1543.8000      7.9715      2.5488      0.0489      6.1316     78.1519     20.5882
  1543.9000      7.9715      2.5539      0.0846      5.8226     75.3859     21.7824
  1544.0000      7.9738      2.5146     -0.0049      8.2060     73.3862     22.6997
  1544.1000      7.9738      2.4717     -0.0203     10.8057     74.4132     23.2617
  1544.2000      7.9738      2.4707     -0.0215     10.8691     78.7414     23.9529
  1544.3000      7.9896      2.5074      0.0240      8.6454     82.0139     24.9567
  1544.4000      7.9896      2.5515      0.0220      5.9707     80.2594     25.8660
  1544.5000      8.0274      2.5842      0.0261      3.9887     74.6765     26.2778
  1544.6000      8.0274      2.6018      0.0678      2.9210     71.1383     26.3867
  1544.7000      8.0274      2.6037      0.1090      2.8036     73.8050     26.7170
  1544.8000      8.0284      2.5927      0.1388      3.4741     81.2602     27.1440
  1544.9000      8.0284      2.5682      0.2429      4.9562     89.3363     27.1005
  1545.0000      7.9843      2.5258      0.1884      7.5243     95.4209     26.6876
  1545.1000      7.9843      2.4741      0.0918     10.6590    101.1816     26.4168
  1545.2000      7.9843      2.4333      0.0139     13.1333    109.7051     26.2934
  1545.3000      7.9815      2.4255      0.0075     13.6049    119.2329     26.0588
  1545.4000      7.9815      2.4589      0.0913     11.5793    125.7051     25.7775
  1545.5000      8.0047      2.5162      0.2088      8.1116    130.5210     25.7119
  1545.6000      8.0047      2.5741      0.2568      4.6000    137.5366     25.8172
  1545.7000      8.0047      2.6199      0.2920      1.8216    145.5620     25.8734
  1545.8000      8.1349      2.6405      0.3459      0.5770    151.8299     26.0091
  1545.9000      8.1349      2.6263      0.1980      1.4347    156.1567     26.4853
  1546.0000      8.2561      2.5871      0.1445      3.8140    158.3717     27.0705
  1546.1000      8.2561      2.5448      0.0426      6.3785    157.2324     27.4927
  1546.2000      8.2561      2.5210      0.0681      7.8152    153.3127     27.8611
  1546.3000      8.2419      2.5114      0.1397      8.4012    149.8043     28.0635
  1546.4000      8.2419      2.4977      0.0378      9.2328    149.2227     27.9609
  1546.5000      8.0605      2.4848     -0.0072     10.0123    152.0881     27.8306
  1546.6000      8.0605      2.4799      0.0570     10.3104    155.9048     27.8821
  1546.7000      8.0605      2.4756      0.0120     10.5705    155.8307     27.9486
  1546.8000      8.0330      2.4611      0.0546     11.4507    152.5729     27.6956
  1546.9000      8.0330      2.4318      0.0211     13.2265    150.2753     27.2359
  1547.0000      8.0850      2.4074      0.0032     14.7021    149.2112     26.9625
  1547.1000      8.0850      2.4085      0.0019     14.6346    148.3283     26.7416
