~Version Information
VERS.                      2.0: CWLS Log ASCII Standard - VERSION 2.0
WRAP.                       NO: One line per depth step
~Well Information Block
STRT.FT               390.0000: 
STOP.FT               902.2000: 
STEP.FT                 0.1000: 
NULL.                -999.2500: 
COMP.          Pioneer Natural Resources: COMPANY
WELL.              Venom 32-22: WELL
FLD.           Purgatoire River: FIELD
LOC.           2307' FNL & 2024' FEL----: LOCATION
PROV.                 Colorado: PROVINCE
CNTY.               Las Animas: COUNTRY
SRVC.                Patterson: SERVICE COMPANY
DATE.          Wed May 11 08:31:39 2005: LOG DATE
UWI.           05 071 08361 00: UNIQUE WELL ID
~Curve Information Block
DEPT.FT            0 000 00 00: Depth
DCAL.in                       : CDL Caliper
RHOB.g/cc                     : CDL Bulk Density
RHOC.g/cc                     : CDL Density Correction
DPOR.pu                       : CDL Density Porosity
NPOR.pu                       : Neutron Porosity
GR.GAPI                       : Gamma Ray
~Parameter Information Block
~A  Depth       DCAL        RHOB        RHOC        DPOR        NPOR         GR     
# ...
   745.2000      8.0537      2.5428      0.0530      6.4947     27.2105    109.0640
   745.3000      8.0515      2.5288      0.0877      7.3444     29.0245    115.7650
   745.4000      8.0515      2.5078      0.0414      8.6162     29.3570    120.2998
   745.5000      8.0482      2.4972      0.0108      9.2613     28.1456    121.9367
   745.6000      8.0482      2.5129      0.0145      8.3086     27.0581    125.7758
   745.7000      8.0482      2.5437      0.0491      6.4429     27.0040    127.2964
   745.8000      8.0454      2.5754      0.0487      4.5200     27.2730    124.5531
   745.9000      8.0454      2.6081      0.0636      2.5397     27.7490    127.1770
   746.0000      8.0432      2.6400      0.0789      0.6038     28.5311    136.1800
   746.1000      8.0432      2.6638      0.0956     -0.8339     28.9027    143.3444
   746.2000      8.0432      2.6731      0.0759     -1.4008     28.9575    147.0568
   746.3000      8.0414      2.6676      0.0671     -1.0657     29.2619    146.1146
   746.4000      8.0414      2.6511      0.1125     -0.0653     29.8237    140.0971
   746.5000      8.0352      2.6380      0.0472      0.7288     30.2296    131.5214
   746.6000      8.0352      2.6496      0.0314      0.0246     30.0021    121.7213
   746.7000      8.0352      2.6812      0.0932     -1.8930     29.7612    112.8536
   746.8000      8.0217      2.7104      0.0923     -3.6612     30.7238    105.3091
   746.9000      8.0217      2.7235      0.1307     -4.4573     32.5227     99.3795
   747.0000      8.0068      2.7219      0.1305     -4.3550     33.9350     96.8596
   747.1000      8.0068      2.7220      0.0869     -4.3639     34.7577     98.9023
   747.2000      8.0068      2.7351      0.1040     -5.1546     35.0633    104.3936
   747.3000      7.9966      2.7568      0.0666     -6.4708     35.0222    108.4011
   747.4000      7.9966      2.7736      0.1582     -7.4925     35.3611    108.8872
   747.5000      8.0068      2.7765      0.0802     -7.6688     36.4639    109.9664
   747.6000      8.0068      2.7776      0.0860     -7.7356     37.8925    116.1088
   747.7000      8.0068      2.7828      0.0863     -8.0457     39.1333    127.3089
   747.8000      8.0381      2.7908      0.0543     -8.5327     40.2298    139.3896
   747.9000      8.0381      2.8168      0.0516    -10.1067     41.4194    146.2992
   748.0000      8.0603      2.8611      0.1227    -12.7969     42.6867    148.6593
   748.1000      8.0603      2.8985      0.0594    -15.0607     43.8589    151.8534
   748.2000      8.0603      2.9182      0.0926    -16.2530     44.7611    155.6510
   748.3000      8.0725      2.9322      0.0949    -17.1037     45.3781    161.1831
   748.4000      8.0725      2.9561      0.0907    -18.5541     45.8357    168.7141
   748.5000      8.1193      2.9934      0.1029    -20.8112     46.1596    171.4081
   748.6000      8.1193      3.0276      0.0930    -22.8842     46.4072    165.0179
   748.7000      8.1193      3.0380      0.0870    -23.5132     46.6975    152.7133
   748.8000      8.1970      3.0294      0.0315    -22.9955     47.2379    138.2173
   748.9000      8.1970      3.0289      0.0340    -22.9648     48.0623    124.4342
   749.0000      8.2091      3.0388      0.0220    -23.5653     48.5660    119.7021
   749.1000      8.2091      3.0284      0.0603    -22.9326     48.5291    124.9726
   749.2000      8.2091      2.9917     -0.0093    -20.7068     48.7481    127.3124
   749.3000      8.1142      2.9593      0.0130    -18.7481     49.6395    121.6844
   749.4000      8.1142      2.9441     -0.0221    -17.8236     50.7341    117.6130
   749.5000      8.0170      2.9304      0.0417    -16.9961     51.7285    120.2205
   749.6000      8.0170      2.9112     -0.0340    -15.8320     52.7190    124.6094
   749.7000      8.0170      2.8964     -0.0098    -14.9316     53.7551    124.5765
   749.8000      7.9820      2.8864      0.0161    -14.3249     54.9668    120.0411
   749.9000      7.9820      2.8776     -0.0549    -13.7925     56.2836    115.1242
   750.0000      7.9880      2.8765     -0.0661    -13.7259     57.4434    111.6589
   750.1000      7.9880      2.8881     -0.0209    -14.4302     19.6925    107.5362
   750.2000      7.9880      2.8980      0.0387    -15.0300     21.9419    103.5208
   750.3000      8.0230      2.8827      0.0186    -14.1000     23.8126    101.6839
   750.4000      8.0230      2.8372      0.0212    -11.3434     25.0052    104.4696
   750.5000      8.0857      2.7743     -0.0045     -7.5330     25.4417    111.3111
   750.6000      8.0857      2.7161     -0.0107     -4.0069     25.6182    111.2159
   750.7000      8.0857      2.6853     -0.0510     -2.1401     25.9364    101.1173
   750.8000      8.1404      2.6864     -0.0125     -2.2069     26.4283     90.0978
   750.9000      8.1404      2.6996      0.0252     -3.0042     26.8830     82.5455
   751.0000      8.1201      2.7071      0.0026     -3.4610     26.9219     80.9911
   751.1000      8.1201      2.7189     -0.0027     -4.1753     26.4474     82.6213
   751.2000      8.1201      2.7461      0.0274     -5.8224     25.8705     81.9341
   751.3000      8.0218      2.7648      0.1232     -6.9574     25.3051     77.4306
   751.4000      8.0218      2.7457      0.0780     -5.8015     24.5614     69.5029
   751.5000      7.9282      2.7022      0.0574     -3.1612     24.0529     61.1173
   751.6000      7.9282      2.6634      0.0290     -0.8104     24.1809     55.2173
   751.7000      7.9282      2.6447     -0.0110      0.3208     24.5353     51.1105
   751.8000      7.8844      2.6429      0.0557      0.4297     24.6689     46.5070
   751.9000      7.8844      2.6401      0.0309      0.5972     24.8812     42.8449
   752.0000      7.8720      2.6328      0.0147      1.0412     25.2310     43.3965
   752.1000      7.8720      2.6307      0.0338      1.1699     25.1267     47.7043
   752.2000      7.8720      2.6325      0.0460      1.0633     24.6478     52.5090
   752.3000      7.8708      2.6249      0.0241      1.5212     24.1920     56.3796
   752.4000      7.8708      2.6019      0.0261      2.9135     23.6492     59.6406
   752.5000      7.8673      2.5739      0.0105      4.6139     23.0763     62.7844
   752.6000      7.8673      2.5544      0.0310      5.7926     22.6718     66.8049
   752.7000      7.8673      2.5418      0.0354      6.5563     22.4607     67.3742
   752.8000      7.8629      2.5275      0.0785      7.4254     22.5487     63.7727
   752.9000      7.8629      2.5155      0.0529      8.1487     22.8574     62.6958
   753.0000      7.8652      2.5169      0.0380      8.0677     22.8723     63.6195
   753.1000      7.8652      2.5249      0.1054      7.5843     22.4197     61.0532
   753.2000      7.8652      2.5221      0.0787      7.7528     21.9849     55.2747
   753.3000      7.8767      2.5113      0.0678      8.4061     21.9968     51.0561
   753.4000      7.8767      2.5078      0.0925      8.6181     22.0404     51.9092
   753.5000      7.8943      2.5190      0.0841      7.9400     21.6752     57.9292
   753.6000      7.8943      2.5429      0.0851      6.4900     21.3183     67.9768
   753.7000      7.8943      2.5721      0.0842      4.7220     21.2967     76.5314
   753.8000      7.9161      2.5947      0.1383      3.3492     21.0981     77.4386
   753.9000      7.9161      2.6051      0.1079      2.7197     20.4421     74.7786
   754.0000      7.9410      2.6071      0.1191      2.6002     20.0778     75.0186
   754.1000      7.9410      2.6008      0.1206      2.9807     20.5201     76.6789
   754.2000      7.9410      2.5862      0.0673      3.8662     21.1645     74.6527
   754.3000      7.9576      2.5668      0.1047      5.0442     21.5275     69.6403
   754.4000      7.9576      2.5426      0.0828      6.5107     21.6427     65.7665
   754.5000      7.9623      2.5172      0.0539      8.0491     21.1504     63.0967
   754.6000      7.9623      2.4978      0.0633      9.2243     20.0576     61.7495
   754.7000      7.9623      2.4917      0.0314      9.5926     19.3436     63.2936
