~Version Information
VERS.                      2.0: CWLS Log ASCII Standard - VERSION 2.0
WRAP.                       NO: One line per depth step
~Well Information Block
STRT.FT               664.0000: 
STOP.FT              1113.5000: 
STEP.FT                 0.1000: 
NULL.                -999.2500: 
COMP.          Petrogulf Corporation: COMPANY
WELL.          Great Plains 22-21R: WELL
FLD.           Purgatorie River: FIELD
LOC.           73' FNL & 1992' FWL: LOCATION
PROV.                 Colorado: PROVINCE
CNTY.               Las Animas: COUNTRY
SRVC.                Patterson: SERVICE COMPANY
DATE.          Thu Sep 08 08:02:28 2005: LOG DATE
UWI.                          : UNIQUE WELL ID
~Curve Information Block
DEPT.FT            0 000 00 00: Depth
DCAL.in                       : CDL Caliper
RHOB.g/cc                     : CDL Bulk Density
RHOC.g/cc                     : CDL Density Correction
DPOR.pu                       : CDL Density Porosity
GR.GAPI                       : Gamma Ray
NPOR.pu                       : Neutron Porosity
~Parameter Information Block
~A  Depth       DCAL        RHOB        RHOC        DPOR         GR         NPOR    
# ...
   750.4000      8.1453      2.6031      0.0865      2.8436    132.8246     27.0390
   750.5000      8.1986      2.6081      0.0806      2.5384    132.4746     26.3910
   750.6000      8.1986      2.6122      0.0422      2.2885    131.7876     25.5812
   750.7000      8.1986      2.6173      0.0646      1.9842    129.7043     24.7850
   750.8000      8.2362      2.6239      0.0562      1.5805    126.4566     24.1267
   750.9000      8.2362      2.6331      0.0905      1.0247    123.7181     23.8349
   751.0000      8.2385      2.6420      0.0549      0.4848    122.7446     23.9116
   751.1000      8.2385      2.6509      0.0844     -0.0560    123.2560     24.0277
   751.2000      8.2385      2.6776      0.0444     -1.6740    125.2082     24.0244
   751.3000      8.2147      2.7423      0.1243     -5.5958    127.7982     24.1460
   751.4000      8.2147      2.8285      0.1761    -10.8208    126.7243     24.3993
   751.5000      8.1917      2.8968      0.2192    -14.9606    119.3840     24.5093
   751.6000      8.1917      2.9310      0.1924    -17.0305    111.6256     24.4518
   751.7000      8.1917      2.9364      0.1982    -17.3587    107.9939     24.3150
   751.8000      8.1539      2.9168      0.1281    -16.1675    106.3941     24.0568
   751.9000      8.1539      2.8784      0.1045    -13.8410    106.8452     23.5157
   752.0000      8.0723      2.8290      0.0517    -10.8472    111.6906     22.7393
   752.1000      8.0723      2.7770     -0.0153     -7.6986    118.2423     22.0129
   752.2000      8.0723      2.7316     -0.0231     -4.9454    121.6572     21.5434
   752.3000      8.0100      2.6986     -0.1120     -2.9480    122.7215     21.2601
   752.4000      8.0100      2.6771     -0.0443     -1.6435    123.8367     20.9314
   752.5000      7.9786      2.6507     -0.0338     -0.0405    124.1916     20.6525
   752.6000      7.9786      2.6170     -0.0492      2.0004    124.5010     20.5892
   752.7000      7.9786      2.5945     -0.0294      3.3621    126.7299     20.3987
   752.8000      7.9532      2.5871      0.0031      3.8120    128.5268     19.9207
   752.9000      7.9532      2.5864      0.0399      3.8543    128.1781     19.5091
   753.0000      7.9416      2.5820      0.0767      4.1217    128.6575     19.2435
   753.1000      7.9416      2.5618      0.0345      5.3459    129.2345     18.8392
   753.2000      7.9416      2.5309      0.0034      7.2204    128.3485     18.4305
   753.3000      7.9142      2.5058     -0.0190      8.7376    126.6727     18.3950
   753.4000      7.9142      2.4919     -0.0090      9.5836    123.0114     18.5268
   753.5000      7.9049      2.4830     -0.0113     10.1221    117.8832     18.0741
   753.6000      7.9049      2.4791      0.0176     10.3579    115.5872     16.8104
   753.7000      7.9049      2.4914     -0.0060      9.6112    118.1932     15.4995
   753.8000      7.8978      2.5237      0.0677      7.6518    123.7213     14.7740
   753.9000      7.8978      2.5567      0.1043      5.6573    130.0885     14.4935
   754.0000      7.8265      2.5655      0.1471      5.1194    134.4068     14.2970
   754.1000      7.8265      2.5437      0.1406      6.4407    136.4944     14.3168
   754.2000      7.8265      2.5096      0.1076      8.5076    140.2074     15.0045
   754.3000      7.7985      2.4961      0.0957      9.3270    146.9028     16.2837
   754.4000      7.7985      2.5346      0.0856      6.9924    154.4440     17.6179
   754.5000      7.7893      2.6354      0.1624      0.8844    160.3282     18.7411
   754.6000      7.7893      2.7757      0.2009     -7.6177    161.3818     19.9031
   754.7000      7.7893      2.9242      0.2530    -16.6186    156.9365     21.2844
   754.8000      7.7937      3.0599      0.3326    -24.8429    150.1003     22.6917
   754.9000      7.7937      3.1628      0.3602    -31.0774    146.0731     23.8751
   755.0000      7.8112      3.2267      0.2935    -34.9524    149.1530     24.5087
   755.1000      7.8112      3.2651      0.2535    -37.2798    155.8594     24.4189
   755.2000      7.8112      3.2735      0.1546    -37.7864    157.2092     24.1504
   755.3000      7.8211      3.2457      0.0557    -36.1052    151.2150     24.3749
   755.4000      7.8211      3.2033     -0.0122    -33.5324    144.7542     24.9200
   755.5000      7.8596      3.1550     -0.0684    -30.6076    142.8344     25.2339
   755.6000      7.8596      3.0914     -0.0729    -26.7503    142.4615     25.1937
   755.7000      7.8596      3.0108     -0.0518    -21.8669    140.4158     25.1369
   755.8000      7.9564      2.9280     -0.1181    -16.8463    139.1384     25.3162
   755.9000      7.9564      2.8521     -0.1316    -12.2511    139.3217     25.3982
   756.0000      7.9980      2.7713     -0.1459     -7.3528    138.8126     25.0088
   756.1000      7.9980      2.6801     -0.1660     -1.8238    138.6909     24.3030
   756.2000      7.9980      2.5985     -0.1811      3.1236    139.6734     23.8439
   756.3000      7.9818      2.5589     -0.1452      5.5202    140.2547     24.0036
   756.4000      7.9818      2.5669      0.0705      5.0377    139.7171     24.3746
   756.5000      7.9631      2.5823      0.0970      4.1040    140.5043     24.4198
   756.6000      7.9631      2.5745      0.0670      4.5754    145.4925     24.2494
   756.7000      7.9631      2.5533      0.0840      5.8624    152.1157     24.0468
   756.8000      7.9427      2.5376      0.0746      6.8118    155.8627     23.8160
   756.9000      7.9427      2.5377      0.0521      6.8090    156.3768     23.6393
   757.0000      7.8986      2.5509      0.1157      6.0078    156.9221     23.6483
   757.1000      7.8986      2.5585      0.1572      5.5436    155.9876     23.9848
   757.2000      7.8986      2.5528      0.1013      5.8896    150.6268     24.3778
   757.3000      7.9077      2.5569      0.0779      5.6407    144.9902     24.3446
   757.4000      7.9077      2.5875      0.1304      3.7897    142.3860     23.9145
   757.5000      7.9077      2.6225      0.1507      1.6658    142.5685     23.2565
   757.6000      7.9077      2.6385      0.1049      0.6990    144.7897     22.5256
   757.7000      7.9077      2.6403      0.1401      0.5893    145.9562     21.7721
   757.8000      7.9156      2.6382      0.0927      0.7137    143.0446     20.8533
   757.9000      7.9156      2.6344      0.0918      0.9450    136.8296     19.9023
   758.0000      7.9235      2.6210      0.1245      1.7551    130.9485     19.0607
   758.1000      7.9235      2.5919      0.0574      3.5241    129.6463     18.5210
   758.2000      7.9235      2.5610      0.0461      5.3969    132.6435     18.5851
   758.3000      7.9144      2.5459      0.0287      6.3064    136.6989     19.0107
   758.4000      7.9144      2.5437      0.0874      6.4412    141.0569     19.4692
   758.5000      7.9171      2.5380      0.0466      6.7883    143.7326     20.1073
   758.6000      7.9171      2.5260      0.0337      7.5141    143.0195     20.8827
   758.7000      7.9171      2.5120      0.0675      8.3654    142.1535     21.7591
   758.8000      7.9414      2.4993      0.0450      9.1307    143.0017     22.8473
   758.9000      7.9414      2.4910      0.0745      9.6356    142.3982     23.9369
   759.0000      7.9565      2.4798      0.0519     10.3124    140.0474     24.7358
   759.1000      7.9565      2.4644      0.0258     11.2457    138.1024     25.1043
   759.2000      7.9565      2.4487      0.0752     12.2018    135.3161     25.0905
   759.3000      7.9668      2.4190      0.1056     14.0022    130.1875     24.9053
   759.4000      7.9668      2.3510      0.1365     18.1217    124.6612     24.6736
   759.5000      7.9427      2.2383      0.0730     24.9541    118.0671     24.4846
   759.6000      7.9427      2.0981      0.0183     33.4484    107.7317     24.6036
   759.7000      7.9427      1.9508     -0.0198     42.3784     95.6614     25.1083
   759.8000      7.9458      1.8125     -0.1125     50.7587     85.0453     25.7559
   759.9000      7.9458      1.6881     -0.0697     58.2967     77.3982     26.3605
