~Version Information
VERS.                      2.0: CWLS Log ASCII Standard - VERSION 2.0
WRAP.                       NO: One line per depth step
~Well Information Block
STRT.FT               425.0000: 
STOP.FT              2461.0000: 
STEP.FT                 0.2500: 
NULL.                -999.2500: 
COMP.          Evergreen Operating Corporation: COMPANY
WELL.              Nomad 32-10: WELL
FLD.           Purgatorie River: FIELD
LOC.           2281' FNL & 1585' FEL: LOCATION
PROV.                 Colorado: PROVINCE
CNTY.               Las Animas: COUNTRY
SRVC.                Patterson: SERVICE COMPANY
DATE.          Thu Aug 12 02:01:07 2004: LOG DATE
UWI.           05 071 08127 00: UNIQUE WELL ID
~Curve Information Block
DEPT.FT            0 000 00 00: Depth
SN.Ohm-m                      : IEL Short Normal
SP.mV                         : IEL Spontaneous Potential
DIR.Ohm-m                     : IEL Induction Resistivity
GR.GAPI                       : Gamma Ray
~Parameter Information Block
~A  Depth        SN          SP         DIR          GR     
# ...
  1497.0000     81.1833     44.9557      0.2096     70.7295
  1497.2500     70.6583     41.9703      0.1418     72.5337
  1497.5000     58.2606     38.7667      0.1029     75.1830
  1497.7500     44.3913     35.3232      0.0812     76.6915
  1498.0000     30.2607     31.6554      0.0696     78.4763
  1498.2500     17.9268     27.9059      0.0638     79.6858
  1498.5000      9.1601     24.4725      0.0612     83.0380
  1498.7500      4.2457     22.1107      0.0601     87.5574
  1499.0000      2.1063     21.8617      0.0597     99.5266
  1499.2500      1.4137     24.6768      0.0596    111.0005
  1499.5000      1.4108     30.8727      0.0600    130.9377
  1499.7500      1.9768     39.8180      0.0617    143.4234
  1500.0000      3.2376     50.1450      0.0666    156.5924
  1500.2500      5.0950     60.3439      0.0770    160.4512
  1500.5000      7.0853     69.3122      0.0971    159.9541
  1500.7500      8.6812     76.5638      0.1334    157.4287
  1501.0000      9.6210     82.1190      0.1960    153.9744
  1501.2500      9.9525     86.2624      0.2983    153.0039
  1501.5000      9.8842     89.3365      0.4608    153.1945
  1501.7500      9.6163     91.6336      0.7230    153.5820
  1502.0000      9.2641     93.3677      1.1734    153.5385
  1502.2500      8.8930     94.6862      2.0170    152.9678
  1502.5000      8.5526     95.6968      3.7659    151.7292
  1502.7500      8.2570     96.4963      7.8392    151.2214
  1503.0000      7.9909     97.1812     18.4129    151.9020
  1503.2500      7.7535     97.8342     43.6689    153.2640
  1503.5000      7.5724     98.5010     66.3691    155.0851
  1503.7500      7.4822     99.1796     58.0832    154.9911
  1504.0000      7.4858     99.8326     49.4079    152.2512
  1504.2500      7.5186    100.4150     51.5538    149.3686
  1504.5000      7.4812    100.9006     73.0822    145.0778
  1504.7500      7.3699    101.2922    230.3744    142.6349
  1505.0000      7.3680    101.6133 100000.0000    139.4371
  1505.2500      7.7479    101.8907 100000.0000    137.5246
  1505.5000      8.6558    102.1444 100000.0000    134.8575
  1505.7500      9.9954    102.3843 100000.0000    132.9188
  1506.0000     11.5241    102.6095 100000.0000    129.3792
  1506.2500     13.0241    102.8104 100000.0000    126.8511
  1506.5000     14.3754    102.9769 100000.0000    123.5990
  1506.7500     15.5962    103.1071 100000.0000    121.8740
  1507.0000     16.8571    103.2073 100000.0000    119.3955
  1507.2500     18.3575    103.2841 100000.0000    117.5657
  1507.5000     20.1865    103.3413    402.6975    114.5582
  1507.7500     22.2946    103.3840     48.9765    112.1768
  1508.0000     24.5165    103.4189     26.4108    106.8207
  1508.2500     26.6345    103.4490     18.7391    101.4612
  1508.5000     28.4592    103.4704     15.1234     91.6278
  1508.7500     29.8478    103.4821     13.1792     85.4513
  1509.0000     30.6915    103.4964     12.0888     79.2666
  1509.2500     30.9087    103.5354     11.4952     77.7755
  1509.5000     30.4218    103.6171     11.2064     79.3565
  1509.7500     29.1574    103.7463     11.0926     82.7240
  1510.0000     27.1223    103.9164     11.0513     90.6661
  1510.2500     24.4896    104.1131     11.0040     97.2439
  1510.5000     21.5756    104.3173     10.9043    107.6007
  1510.7500     18.6960    104.5096     10.7416    114.1763
  1511.0000     16.0501    104.6760     10.5322    123.1006
  1511.2500     13.7620    104.8113     10.3046    128.3749
  1511.5000     11.9582    104.9209     10.0877    134.9967
  1511.7500     10.7233    105.0219      9.9060    138.1916
  1512.0000     10.0285    105.1376      9.7775    140.5071
  1512.2500      9.7562    105.2853      9.7122    140.2722
  1512.5000      9.7673    105.4617      9.7099    137.8191
  1512.7500      9.9361    105.6399      9.7602    135.5006
  1513.0000     10.1903    105.7810      9.8472    132.1163
  1513.2500     10.5506    105.8570      9.9597    130.0534
  1513.5000     11.0985    105.8673     10.0971    126.6340
  1513.7500     11.8923    105.8349     10.2686    123.7681
  1514.0000     12.8959    105.7864     10.4835    118.3824
  1514.2500     14.0124    105.7422     10.7409    114.0729
  1514.5000     15.2413    105.7197     11.0274    106.7136
  1514.7500     16.6783    105.7357     11.3236    101.5749
  1515.0000     18.2124    105.8001     11.6141     94.5631
  1515.2500     19.3879    105.9124     11.8923     91.0502
  1515.5000     19.7845    106.0631     12.1518     88.7350
  1515.7500     19.4126    106.2355     12.3741     89.7054
  1516.0000     18.6178    106.4063     12.5249     94.8773
  1516.2500     17.7266    106.5496     12.5661    100.0181
  1516.5000     16.8569    106.6465     12.4759    108.3585
  1516.7500     15.9710    106.6942     12.2582    113.4625
  1517.0000     15.0298    106.7058     11.9361    119.5331
  1517.2500     14.0842    106.6997     11.5395    122.1708
  1517.5000     13.2387    106.6899     11.0965    123.9328
  1517.7500     12.5677    106.6845     10.6333    124.1084
  1518.0000     12.0785    106.6902     10.1744    124.0595
  1518.2500     11.7239    106.7134      9.7392    124.3235
  1518.5000     11.4264    106.7555      9.3379    125.7999
  1518.7500     11.1039    106.8087      8.9702    127.8510
  1519.0000     10.6949    106.8600      8.6303    132.4665
  1519.2500     10.1792    106.9009      8.3147    135.9375
  1519.5000      9.5859    106.9306      8.0264    140.4656
  1519.7500      8.9780    106.9541      7.7721    142.6430
  1520.0000      8.4250    106.9811      7.5572    144.2994
  1520.2500      7.9677    107.0291      7.3825    144.1344
  1520.5000      7.5855    107.1203      7.2447    142.2795
  1520.7500      7.2330    107.2680      7.1392    140.7270
  1521.0000      6.9162    107.4632      7.0613    139.1619
  1521.2500      6.6763    107.6785      7.0066    138.5685
  1521.5000      6.5292    107.8849      6.9692    137.0106
  1521.7500      6.4988    108.0690      6.9422    134.7591
  1522.0000      6.6602    108.2344      6.9195    129.3101
  1522.2500      7.0771    108.3932      6.8983    124.7459
  1522.5000      7.7086    108.5559      6.8814    117.7828
  1522.7500      8.4070    108.7267      6.8755    113.8649
  1523.0000      9.0123    108.8986      6.8877    110.0490
  1523.2500      9.4333    109.0523      6.9223    108.9231
  1523.5000      9.6517    109.1619      6.9795    108.5620
  1523.7500      9.6948    109.2090      7.0573    108.6790
  1524.0000      9.6210    109.1960      7.1533    109.1497
  1524.2500      9.5033    109.1443      7.2654    109.8315
  1524.5000      9.3967    109.0784      7.3917    111.4791
  1524.7500      9.3208    109.0085      7.5310    112.6782
  1525.0000      9.2741    108.9299      7.6824    113.8120
  1525.2500      9.2533    108.8355      7.8432    113.8653
  1525.5000      9.2615    108.7250      8.0061    113.1860
  1525.7500      9.3073    108.6019      8.1625    112.6761
  1526.0000      9.3987    108.4674      8.3089    112.4989
  1526.2500      9.5431    108.3253      8.4531    112.9621
  1526.5000      9.7326    108.1916      8.6111    114.6185
  1526.7500      9.9258    108.0864      8.7982    116.2937
  1527.0000     10.0989    108.0159      9.0201    119.0629
  1527.2500     10.3053    107.9641      9.2699    120.4520
  1527.5000     10.6291    107.9081      9.5311    120.9243
  1527.7500     11.1160    107.8400      9.7849    119.9775
  1528.0000     11.7737    107.7758     10.0197    116.5026
  1528.2500     12.5927    107.7485     10.2363    112.4225
  1528.5000     13.5420    107.7895     10.4471    102.8897
  1528.7500     14.5654    107.9115     10.6713     94.5845
  1529.0000     15.5855    108.1008     10.9306     81.8668
  1529.2500     16.5132    108.3237     11.2473     75.3584
  1529.5000     17.3244    108.5358     11.6413     71.1271
  1529.7500     18.0837    108.6925     12.1265     72.2546
  1530.0000     18.8029    108.7608     12.7065     78.4142
  1530.2500     19.3923    108.7349     13.3713     83.9683
