~Version Information
VERS.                      2.0: CWLS Log ASCII Standard - VERSION 2.0
WRAP.                       NO: One line per depth step
~Well Information Block
STRT.FT               521.0000: 
STOP.FT              2732.5000: 
STEP.FT                 0.2500: 
NULL.                -999.2500: 
COMP.          Petrogulf Corporation: COMPANY
WELL.              Silva 6-22V: WELL
FLD.           Purgatorie River: FIELD
LOC.           1936' FNL & 1798' FWL: LOCATION
CNTY.               Las Animas: COUNTY
SRVC.                         : SERVICE COMPANY
DATE.          Tue Nov 09 08:09:38 2004: LOG DATE
UWI.           05 071 08143 00: UNIQUE WELL ID
STAT.                 Colorado: STATE
~Curve Information Block
DEPT.FT            0 000 00 00: Depth
SP.mV                         : DIL Spontaneous Potential
RILD.Ohm-m                    : DIL Deep Resistivity
RILM.Ohm-m                    : DIL Medium Resistivity
RLL3.Ohm-m                    : DIL Shallow Resistivity
GR.GAPI                       : Gamma Ray
~Parameter Information Block
~A  Depth        SP         RILD        RILM        RLL3         GR     
# ...
  1837.0000    -15.5963      7.9307      8.3941      9.8333    169.0783
  1837.2500    -14.3165      7.9198      8.3626      9.8118    169.4668
  1837.5000    -13.1144      7.9257      8.3588      9.8751    168.8909
  1837.7500    -12.0222      7.9466      8.3795     10.0155    167.6173
  1838.0000    -11.0823      7.9803      8.4201     10.2088    164.7158
  1838.2500    -10.3677      8.0246      8.4744     10.4223    162.5554
  1838.5000     -9.9792      8.0774      8.5357     10.6240    159.7227
  1838.7500    -10.0111      8.1364      8.5974     10.7914    158.3964
  1839.0000    -10.5150      8.1992      8.6533     10.9142    157.5927
  1839.2500    -11.4578      8.2636      8.6990     10.9923    158.0112
  1839.5000    -12.7139      8.3273      8.7319     11.0304    160.0891
  1839.7500    -14.0954      8.3885      8.7519     11.0327    162.2334
  1840.0000    -15.4058      8.4458      8.7611     11.0009    166.1016
  1840.2500    -16.5012      8.4983      8.7635     10.9358    168.9008
  1840.5000    -17.3281      8.5456      8.7639     10.8415    173.1258
  1840.7500    -17.9214      8.5877      8.7674     10.7269    175.7020
  1841.0000    -18.3613      8.6248      8.7787     10.6059    178.5671
  1841.2500    -18.7142      8.6575      8.8013     10.4956    179.4376
  1841.5000    -18.9827      8.6862      8.8376     10.4139    178.8666
  1841.7500    -19.0953      8.7118      8.8889     10.3791    177.4198
  1842.0000    -18.9368      8.7355      8.9547     10.4091    174.7446
  1842.2500    -18.4041      8.7590      9.0336     10.5218    173.4986
  1842.5000    -17.4656      8.7844      9.1228     10.7311    173.2317
  1842.7500    -16.1902      8.8143      9.2184     11.0414    173.6811
  1843.0000    -14.7258      8.8520      9.3163     11.4408    173.4276
  1843.2500    -13.2553      8.9010      9.4120     11.8971    171.6341
  1843.5000    -11.9295      8.9650      9.5018     12.3596    165.9029
  1843.7500    -10.8269      9.0475      9.5834     12.7669    160.4881
  1844.0000     -9.9398      9.1516      9.6566     13.0608    151.8326
  1844.2500     -9.1975      9.2793      9.7239     13.2015    147.0784
  1844.5000     -8.5147      9.4315      9.7901     13.1799    143.3757
  1844.7500     -7.8318      9.6078      9.8622     13.0229    143.6263
  1845.0000     -7.1452      9.8068      9.9486     12.7913    147.3607
  1845.2500     -6.5059     10.0268     10.0581     12.5691    151.0267
  1845.5000     -5.9967     10.2660     10.1998     12.4491    156.2931
  1845.7500     -5.7102     10.5242     10.3819     12.5173    158.7604
  1846.0000     -5.7141     10.8025     10.6124     12.8412    159.9812
  1846.2500     -6.0386     11.1039     10.8985     13.4679    158.9706
  1846.5000     -6.6635     11.4329     11.2476     14.4284    155.1051
  1846.7500     -7.5240     11.7957     11.6678     15.7508    151.4301
  1847.0000     -8.5185     12.1988     12.1685     17.4693    144.9432
  1847.2500     -9.5239     12.6488     12.7603     19.6235    140.1921
  1847.5000    -10.4210     13.1518     13.4557     22.2450    132.8061
  1847.7500    -11.1155     13.7120     14.2679     25.3385    128.0009
  1848.0000    -11.5524     14.3317     15.2105     28.8715    121.2130
  1848.2500    -11.7207     15.0100     16.2952     32.7813    116.8472
  1848.5000    -11.6321     15.7417     17.5308     36.9994    110.4572
  1848.7500    -11.3006     16.5177     18.9206     41.4759    106.6238
  1849.0000    -10.7265     17.3239     20.4610     46.1841    102.1507
  1849.2500     -9.8911     18.1417     22.1411     51.0962     99.8863
  1849.5000     -8.7767     18.9502     23.9425     56.1451     96.3879
  1849.7500     -7.3961     19.7271     25.8391     61.1957     93.2672
  1850.0000     -5.8223     20.4519     27.7974     66.0521     87.0498
  1850.2500     -4.1932     21.1082     29.7760     70.5068     82.3072
  1850.5000     -2.6971     21.6866     31.7211     74.4112     75.6304
  1850.7500     -1.5324     22.1838     33.5650     77.7354     72.1323
  1851.0000     -0.8586     22.6029     35.2252     80.5863     68.5934
  1851.2500     -0.7567     22.9498     36.6077     83.1720     67.0683
  1851.5000     -1.2092     23.2304     37.6164     85.7148     65.3490
  1851.7500     -2.1057     23.4472     38.1652     88.3368     64.3451
  1852.0000     -3.2602     23.5983     38.1947     90.9513     62.8655
  1852.2500     -4.4481     23.6774     37.6853     93.2043     61.8155
  1852.5000     -5.4445     23.6770     36.6661     94.5014     60.2290
  1852.7500     -6.0554     23.5920     35.2145     94.1403     59.5650
  1853.0000     -6.1533     23.4219     33.4456     91.5220     60.3824
  1853.2500     -5.6972     23.1728     31.4963     86.3745     62.7697
  1853.5000     -4.7457     22.8556     29.5023     78.8981     69.4806
  1853.7500     -3.4493     22.4850     27.5811     69.7665     75.9557
  1854.0000     -2.0207     22.0749     25.8212     59.9697     88.3298
  1854.2500     -0.6989     21.6375     24.2793     50.5611     97.7923
  1854.5000      0.3069     21.1820     22.9830     42.4095    111.5265
  1854.7500      0.8485     20.7156     21.9383     36.0426    118.5575
  1855.0000      0.8671     20.2442     21.1346     31.6204    123.7197
  1855.2500      0.3850     19.7746     20.5509     29.0165    123.4793
  1855.5000     -0.5048     19.3151     20.1580     27.9437    118.9188
  1855.7500     -1.6682     18.8755     19.9214     28.0646    114.0682
  1856.0000     -2.9512     18.4669     19.8019     29.0501    105.7844
  1856.2500     -4.2059     18.1002     19.7579     30.5842    100.6927
  1856.5000     -5.3025     17.7852     19.7487     32.3409     95.4685
  1856.7500     -6.1486     17.5290     19.7380     33.9702     94.1267
  1857.0000     -6.7038     17.3356     19.6989     35.1193     94.9922
  1857.2500     -6.9831     17.2054     19.6171     35.4962     96.9384
  1857.5000     -7.0596     17.1348     19.4933     34.9523    101.6597
  1857.7500     -7.0467     17.1171     19.3397     33.5483    106.5633
  1858.0000     -7.0804     17.1430     19.1776     31.5654    117.6069
  1858.2500     -7.2895     17.2028     19.0315     29.4458    127.0113
  1858.5000     -7.7769     17.2880     18.9249     27.6765    140.8111
  1858.7500     -8.5968     17.3932     18.8773     26.6526    147.1743
  1859.0000     -9.7490     17.5178     18.9034     26.5715    149.7798
  1859.2500    -11.1708     17.6665     19.0129     27.3903    147.1409
  1859.5000    -12.7435     17.8485     19.2112     28.8601    139.0034
  1859.7500    -14.2950     18.0767     19.5018     30.6247    132.3646
  1860.0000    -15.6239     18.3641     19.8861     32.3461    122.8318
  1860.2500    -16.5269     18.7224     20.3651     33.8154    117.7431
  1860.5000    -16.8449     19.1590     20.9394     35.0089    113.0319
  1860.7500    -16.4966     19.6752     21.6093     36.0673    112.0115
  1861.0000    -15.5177     20.2655     22.3737     37.2128    113.0887
  1861.2500    -14.0582     20.9173     23.2294     38.6382    114.6317
  1861.5000    -12.3603     21.6115     24.1699     40.4164    116.1080
  1861.7500    -10.7032     22.3246     25.1849     42.4671    115.5984
  1862.0000     -9.3368     23.0307     26.2592     44.5839    112.2868
  1862.2500     -8.4327     23.7032     27.3720     46.5063    108.9330
  1862.5000     -8.0537     24.3153     28.4962     47.9997    103.5605
  1862.7500     -8.1624     24.8396     29.5955     48.9142    100.2876
  1863.0000     -8.6438     25.2456     30.6232     49.2128     96.0620
  1863.2500     -9.3431     25.5011     31.5201     48.9759     93.7737
  1863.5000    -10.0985     25.5739     32.2170     48.3850     91.7545
  1863.7500    -10.7654     25.4371     32.6385     47.6866     91.8426
  1864.0000    -11.2193     25.0765     32.7128     47.1314     94.1598
  1864.2500    -11.3645     24.4972     32.3830     46.8949     96.3043
  1864.5000    -11.1320     23.7237     31.6212     46.9995     98.1302
  1864.7500    -10.4843     22.7967     30.4396     47.2760     97.6000
