~Version Information
VERS.                      2.0: CWLS Log ASCII Standard - VERSION 2.0
WRAP.                       NO: One line per depth step
~Well Information Block
STRT.FT                15.0000: 
STOP.FT              2265.2500: 
STEP.FT                 0.2500: 
NULL.                -999.2500: 
COMP.          Pioneer Natural Resources: COMPANY
WELL.             Vector 33-23: WELL
FLD.           Purgatoire River: FIELD
LOC.           1988' FSL & 1560' FEL: LOCATION
PROV.                 Colorado: PROVINCE
CNTY.               Las Animas: COUNTRY
SRVC.                Patterson: SERVICE COMPANY
DATE.          Fri Apr 01 13:14:24 2005: LOG DATE
UWI.           05 071 08336 00: UNIQUE WELL ID
~Curve Information Block
DEPT.FT            0 000 00 00: Depth
GR.GAPI                       : Gamma Ray
CCL.                          : Casing Collar Locator
TT3.usec                      : CBL 3' Travel Time
AMP3.mV                       : CBL 3' Amplitude
AMP5.mV                       : CBL 5' Amplitude
~Parameter Information Block
~A  Depth        GR         CCL         TT3         AMP3        AMP5    
# ...
  1191.0000    105.6198      0.0000    842.3854     12.6949      1.8986
  1191.2500    108.1242      0.0000    839.9734     12.5525      1.8768
  1191.5000    107.5424      0.0000    837.8484     12.4600      1.8576
  1191.7500    102.7208      0.0000    835.5505     12.3903      1.8403
  1192.0000     94.3143      0.0000    834.3128     12.3159      1.8267
  1192.2500     84.4856      0.0000    836.7088     12.2375      1.8195
  1192.5000     75.3974      0.0000    844.9531     12.1828      1.8182
  1192.7500     68.0177      0.0000    858.2750     12.1750      1.8181
  1193.0000     62.2487      0.0000    871.5264     12.2064      1.8136
  1193.2500     57.8121      0.0000    877.7542     12.2440      1.8040
  1193.5000     54.6842      0.0000    873.7740     12.2617      1.7947
  1193.7500     52.8343      0.0000    862.9468     12.2632      1.7921
  1194.0000     52.0780      0.0000    851.7139     12.2775      1.7975
  1194.2500     52.3203      0.0000    844.2405     12.3337      1.8067
  1194.5000     53.5849      0.0000    840.9992     12.4393      1.8142
  1194.7500     55.7626      0.0000    841.0563     12.5787      1.8182
  1195.0000     58.6850      0.0000    844.3845     12.7284      1.8206
  1195.2500     62.3800      0.0000    851.8925     12.8727      1.8241
  1195.5000     66.9429      0.0000    863.1714     13.0049      1.8298
  1195.7500     72.1111      0.0000    874.2455     13.1143      1.8366
  1196.0000     77.1182      0.0000    878.9880     13.1805      1.8435
  1196.2500     80.9571      0.0000    874.3342     13.1885      1.8501
  1196.5000     82.9187      0.0000    863.3715     13.1493      1.8552
  1196.7500     83.2723      0.0000    852.2521     13.0956      1.8567
  1197.0000     83.4649      0.0000    845.1044     13.0548      1.8524
  1197.2500     85.0813      0.0000    842.8483     13.0267      1.8424
  1197.5000     88.2824      0.0000    845.7534     12.9858      1.8289
  1197.7500     91.4852      0.0000    855.5367     12.9032      1.8146
  1198.0000     92.7920      0.0000    874.3564     12.7656      1.8007
  1198.2500     91.6764      0.0000    901.4197     12.5830      1.7874
  1198.5000     89.2569      0.0000    930.9403     12.3831      1.7747
  1198.7500     86.9997      0.0000    954.7969     12.1943      1.7629
  1199.0000     85.3101      0.0000    967.6978     12.0307      1.7520
  1199.2500     83.4780      0.0000    968.6414     11.8927      1.7417
  1199.5000     80.8629      0.0000    957.9512     11.7768      1.7296
  1199.7500     77.9248      0.0000    936.1859     11.6817      1.7126
  1200.0000     76.0807      0.0000    907.0956     11.6032      1.6900
  1200.2500     76.5568      0.0000    878.3353     11.5313      1.6650
  1200.5000     79.3062      0.0000    856.7723     11.4583      1.6423
  1200.7500     83.0402      0.0000    844.0989     11.3915      1.6245
  1201.0000     86.2366      0.0000    837.6483     11.3568      1.6116
  1201.2500     87.9978      0.0000    834.1266     11.3867      1.6025
  1201.5000     88.2539      0.0000    832.0319     11.4991      1.5960
  1201.7500     87.6822      0.0000    831.4341     11.6780      1.5918
  1202.0000     87.4026      0.0000    832.4026     11.8730      1.5921
  1202.2500     88.2098      0.0000    833.9637     12.0236      1.6009
  1202.5000     89.9001      0.0000    834.6204     12.0958      1.6193
  1202.7500     91.4253      0.0000    833.6791     12.0990      1.6436
  1203.0000     91.6494      0.0000    831.9064     12.0714      1.6667
  1203.2500     89.9708      0.0000    830.8644     12.0483      1.6829
  1203.5000     86.5788      0.0000    831.5170     12.0441      1.6904
  1203.7500     82.4065      0.0000    833.4880     12.0567      1.6916
  1204.0000     78.7672      0.0000    835.6606     12.0809      1.6893
  1204.2500     76.7727      0.0000    837.2421     12.1136      1.6855
  1204.5000     76.7781      0.0000    838.1467     12.1532      1.6800
  1204.7500     78.1242      0.0000    838.6491     12.1976      1.6742
  1205.0000     79.4458      0.0000    838.9430     12.2405      1.6723
  1205.2500     79.6121      0.0000    838.9197     12.2712      1.6804
  1205.5000     78.6202      0.0000    838.1017     12.2797      1.7015
  1205.7500     77.6615      0.0000    835.7001     12.2653      1.7314
  1206.0000     78.3729      0.0000    830.9979     12.2397      1.7612
  1206.2500     81.7515      0.0000    824.0649     12.2212      1.7828
  1206.5000     87.2935      0.0000    816.2095     12.2277      1.7928
  1206.7500     93.1680      0.0000    809.4675     12.2700      1.7919
  1207.0000     97.4792      0.0000    805.5283     12.3451      1.7835
  1207.2500     99.3488      0.0000    805.1790     12.4322      1.7709
  1207.5000     99.0247      0.0000    808.4216     12.5014      1.7569
  1207.7500     97.5513      0.0000    814.5114     12.5278      1.7429
  1208.0000     96.3657      0.0000    821.8674     12.5010      1.7299
  1208.2500     96.6113      0.0000    828.5837     12.4266      1.7200
  1208.5000     98.4675      0.0000    833.4343     12.3239      1.7147
  1208.7500    100.9920      0.0000    836.3216     12.2212      1.7137
  1209.0000    102.5978      0.0000    837.8044     12.1466      1.7152
  1209.2500    102.1210      0.0000    838.4547     12.1168      1.7165
  1209.5000     99.9147      0.0000    838.6408     12.1329      1.7172
  1209.7500     97.7813      0.0000    838.5922     12.1857      1.7184
  1210.0000     97.5109      0.0000    838.4168     12.2593      1.7219
  1210.2500     99.5509      0.0000    838.0491     12.3343      1.7265
  1210.5000    102.9920      0.0000    837.2369     12.3935      1.7284
  1210.7500    106.2319      0.0000    835.6813     12.4277      1.7242
  1211.0000    107.4357      0.0000    833.4185     12.4357      1.7142
  1211.2500    105.2357      0.0000    831.1823     12.4176      1.7024
  1211.5000     99.8696      0.0000    830.1207     12.3735      1.6938
  1211.7500     93.4610      0.0000    830.7935     12.3082      1.6909
  1212.0000     88.6308      0.0000    832.4868     12.2369      1.6930
  1212.2500     86.6374      0.0000    833.6242     12.1826      1.6978
  1212.5000     86.8899      0.0000    832.6855     12.1639      1.7040
  1212.7500     88.1747      0.0000    828.8818     12.1836      1.7101
  1213.0000     89.9706      0.0000    822.6643     12.2269      1.7151
  1213.2500     92.2758      0.0000    815.9868     12.2718      1.7191
  1213.5000     94.6647      0.0000    811.6400     12.3042      1.7246
  1213.7500     96.2870      0.0000    811.6668     12.3231      1.7343
  1214.0000     96.7560      0.0000    816.0500     12.3344      1.7485
  1214.2500     96.4871      0.0000    822.7921     12.3384      1.7641
  1214.5000     96.0942      0.0000    829.2974     12.3297      1.7761
  1214.7500     95.8910      0.0000    833.9097     12.3093      1.7805
  1215.0000     96.0796      0.0000    836.4360     12.2916      1.7772
  1215.2500     97.0184      0.0000    837.5748     12.2904      1.7708
  1215.5000     98.9433      0.0000    838.0947     12.2999      1.7686
  1215.7500    101.6159      0.0000    838.4226     12.2970      1.7749
  1216.0000    104.4961      0.0000    838.6608     12.2664      1.7876
  1216.2500    106.9581      0.0000    838.7719     12.2229      1.7997
  1216.5000    108.1902      0.0000    838.7404     12.2056      1.8043
  1216.7500    107.5393      0.0000    838.6252     12.2488      1.7992
  1217.0000    105.4766      0.0000    838.5100     12.3546      1.7875
  1217.2500    103.7514      0.0000    838.4483     12.4914      1.7753
  1217.5000    103.9781      0.0000    838.4550     12.6133      1.7681
  1217.7500    106.2281      0.0000    838.5222     12.6817      1.7677
  1218.0000    109.2778      0.0000    838.6221     12.6797      1.7728
  1218.2500    112.0173      0.0000    838.7085     12.6180      1.7811
  1218.5000    114.3867      0.0000    838.7369     12.5249      1.7909
  1218.7500    117.0773      0.0000    838.6561     12.4294      1.8007
