~Version Information
VERS.                      2.0: CWLS Log ASCII Standard - VERSION 2.0
WRAP.                       NO: One line per depth step
~Well Information Block
STRT.FT                -2.0000: 
STOP.FT              1016.0000: 
STEP.FT                 0.2500: 
NULL.                -999.2500: 
COMP.          Evergreen Operating Corp.: COMPANY
WELL.              Sunset 24-3: WELL
FLD.           Purgatorie River: FIELD
LOC.           467' FSL & 2262' FWL--: LOCATION
PROV.                       CO: PROVINCE
CNTY.               Las Animas: COUNTRY
SRVC.                         : SERVICE COMPANY
DATE.          Mon Sep 27 13:40:22 2004: LOG DATE
UWI.           005 071 08158  : UNIQUE WELL ID
~Curve Information Block
DEPT.FT            0 000 00 00: Depth
GR.GAPI                       : Gamma Ray
CCL.                          : Casing Collar Locator
TT3.usec                      : CBL 3' Travel Time
AMP3.mV                       : CBL 3' Amplitude
~Parameter Information Block
~A  Depth        GR         CCL         TT3         AMP3    
# ...
   400.0000    118.3676      0.0000    796.8752      3.0045
   400.2500    118.0241      0.0000    791.6597      3.0029
   400.5000    116.4812      0.0000    790.2944      2.9208
   400.7500    112.3712      0.0000    797.0310      2.7778
   401.0000    105.6005      0.0000    811.0163      2.6281
   401.2500     98.2272      0.0000    828.7775      2.5278
   401.5000     93.0322      0.0000    846.6566      2.5133
   401.7500     91.1827      0.0000    861.3312      2.5956
   402.0000     91.5948      0.0000    871.4061      2.7625
   402.2500     92.5354      0.0000    878.7617      2.9842
   402.5000     93.4420      0.0000    886.5804      3.2264
   402.7500     94.9784      0.0000    895.6588      3.4589
   403.0000     97.6082      0.0000    903.1548      3.6542
   403.2500    100.7484      0.0000    904.7157      3.7842
   403.5000    103.6391      0.0000    897.4655      3.8278
   403.7500    106.5217      0.0000    882.0396      3.7876
   404.0000    110.1999      0.0000    862.9802      3.6981
   404.2500    114.5113      0.0000    846.1796      3.6077
   404.5000    118.0346      0.0000    833.8979      3.5468
   404.7500    119.7022      0.0000    822.2017      3.5112
   405.0000    120.1644      0.0000    805.1422      3.4755
   405.2500    120.8654      0.0000    782.1910      3.4159
   405.5000    121.9429      0.0000    760.7617      3.3190
   405.7500    121.8798      0.0000    751.0403      3.1870
   406.0000    119.3880      0.0000    758.2932      3.0473
   406.2500    114.8591      0.0000    779.6340      2.9472
   406.5000    109.6014      0.0000    807.3097      2.9202
   406.7500    104.4101      0.0000    834.6044      2.9590
   407.0000     99.3800      0.0000    858.7007      3.0270
   407.2500     94.3229      0.0000    878.7869      3.0945
   407.5000     88.7477      0.0000    892.9090      3.1618
   407.7500     82.0495      0.0000    897.8884      3.2499
   408.0000     74.4513      0.0000    891.9376      3.3655
   408.2500     67.5666      0.0000    876.4247      3.4813
   408.5000     63.5769      0.0000    854.9847      3.5565
   408.7500     63.8674      0.0000    831.5950      3.5795
   409.0000     68.4032      0.0000    810.1605      3.5808
   409.2500     75.9625      0.0000    795.3423      3.6020
   409.5000     84.6567      0.0000    791.9904      3.6576
   409.7500     92.5652      0.0000    802.3510      3.7284
   410.0000     98.5570      0.0000    822.9027      3.7819
   410.2500    102.7571      0.0000    844.1329      3.7910
   410.5000    105.9379      0.0000    855.5406      3.7390
   410.7500    108.3107      0.0000    853.4872      3.6253
   411.0000    109.1649      0.0000    844.5151      3.4770
   411.2500    107.8867      0.0000    839.6531      3.3438
   411.5000    105.1164      0.0000    844.2371      3.2604
   411.7500    102.4917      0.0000    852.9562      3.2154
   412.0000    101.2953      0.0000    854.9465      3.1702
   412.2500    101.6841      0.0000    844.2325      3.1050
   412.5000    103.0154      0.0000    825.1364      3.0378
   412.7500    104.4086      0.0000    806.7723      3.0032
   413.0000    105.0480      0.0000    792.0756      3.0264
   413.2500    104.4163      0.0000    773.7263      3.1070
   413.5000    102.4258      0.0000    743.0364      3.2157
   413.7500     99.3687      0.0000    703.0685      3.3097
   414.0000     95.9042      0.0000    670.2047      3.3644
   414.2500     93.0210      0.0000    660.3435      3.3922
   414.5000     91.5856      0.0000    674.6237      3.4250
   414.7500     91.5927      0.0000    700.9080      3.4842
   415.0000     91.9226      0.0000    727.0904      3.5717
   415.2500     91.0066      0.0000    748.5809      3.6780
   415.5000     87.9737      0.0000    763.5126      3.7828
   415.7500     83.4170      0.0000    766.3359      3.8510
   416.0000     79.0189      0.0000    749.6776      3.8493
   416.2500     76.1494      0.0000    711.8204      3.7781
   416.5000     74.8895      0.0000    661.5452      3.6794
   416.7500     74.6720      0.0000    615.9119      3.6105
   417.0000     75.5642      0.0000    590.8586      3.6099
   417.2500     78.3749      0.0000    590.1608      3.6855
   417.5000     83.4609      0.0000    602.6897      3.8196
   417.7500     89.6886      0.0000    611.5946      3.9780
   418.0000     94.7343      0.0000    606.1721      4.1236
   418.2500     96.5014      0.0000    586.1621      4.2300
   418.5000     94.4311      0.0000    559.1518      4.2862
   418.7500     89.8947      0.0000    536.6174      4.2903
   419.0000     85.5727      0.0000    529.5258      4.2457
   419.2500     84.0114      0.0000    542.9879      4.1637
   419.5000     86.1080      0.0000    571.9000      4.0623
   419.7500     90.7510      0.0000    601.1957      3.9612
   420.0000     95.8064      0.0000    613.4991      3.8789
   420.2500     99.2330      0.0000    600.7289      3.8276
   420.5000     99.4275      0.0000    569.6264      3.8036
   420.7500     95.4325      0.0000    535.6432      3.7857
   421.0000     87.7942      0.0000    511.9880      3.7475
   421.2500     79.2175      0.0000    504.8768      3.6749
   421.5000     73.4642      0.0000    516.4611      3.5720
   421.7500     72.7727      0.0000    547.9637      3.4514
   422.0000     76.2266      0.0000    598.2022      3.3219
   422.2500     80.9369      0.0000    661.2219      3.1922
   422.5000     84.8726      0.0000    727.9484      3.0870
   422.7500     88.3171      0.0000    790.0028      3.0467
   423.0000     92.6436      0.0000    840.9645      3.0995
   423.2500     98.3205      0.0000    875.7609      3.2313
   423.5000    104.4547      0.0000    890.8740      3.3929
   423.7500    109.8286      0.0000    885.6733      3.5419
   424.0000    113.8732      0.0000    864.5895      3.6726
   424.2500    116.5980      0.0000    838.4887      3.7997
   424.5000    117.8854      0.0000    820.1500      3.9180
   424.7500    117.2133      0.0000    814.3535      3.9875
   425.0000    114.1280      0.0000    814.1424      3.9579
   425.2500    108.6500      0.0000    809.4282      3.8065
   425.5000    101.2820      0.0000    796.7826      3.5558
   425.7500     93.1172      0.0000    779.5064      3.2602
   426.0000     85.9408      0.0000    762.2648      2.9713
   426.2500     81.6555      0.0000    748.1378      2.7117
   426.5000     81.1402      0.0000    738.1437      2.4711
   426.7500     83.5302      0.0000    731.7195      2.2239
   427.0000     86.7455      0.0000    729.3702      1.9442
   427.2500     89.0097      0.0000    735.3365      1.6100
   427.5000     89.8902      0.0000    754.2458      1.2121
   427.7500     89.7639      0.0000    783.1511      0.7785
   428.0000     88.7925      0.0000    809.6482      0.3871
   428.2500     87.0944      0.0000    821.2523      0.1331
   428.5000     85.5153      0.0000    816.7347      0.0736
   428.7500     85.1328      0.0000    806.5977      0.1991
   429.0000     86.0771      0.0000    801.5612      0.4463
   429.2500     87.8754      0.0000    801.8844      0.7297
   429.5000     90.8812      0.0000    799.7500      0.9758
   429.7500     95.9998      0.0000    789.9938      1.1500
   430.0000    102.6161      0.0000    775.1396      1.2612
   430.2500    107.9969      0.0000    761.9905      1.3342
   430.5000    109.6086      0.0000    757.1456      1.3764
   430.7500    107.4574      0.0000    764.1123      1.3743
   431.0000    103.6202      0.0000    781.0144      1.3189
   431.2500    100.0570      0.0000    801.3174      1.2237
   431.5000     97.2615      0.0000    818.1998      1.1169
   431.7500     94.3775      0.0000    828.1766      1.0251
   432.0000     90.0767      0.0000    831.2932      0.9656
   432.2500     83.5418      0.0000    829.6666      0.9395
   432.5000     75.1073      0.0000    826.3973      0.9210
   432.7500     66.2614      0.0000    825.0494      0.8573
   433.0000     58.9862      0.0000    829.1738      0.6942
   433.2500     54.7247      0.0000    841.0580      0.4213
