~Version Information
VERS.                      2.0: CWLS Log ASCII Standard - VERSION 2.0
WRAP.                       NO: One line per depth step
~Well Information Block
STRT.FT                -9.2500: 
STOP.FT              2353.7500: 
STEP.FT                 0.2500: 
NULL.                -999.2500: 
COMP.          Petrogulf Corporation: COMPANY
WELL.             Kraft 17-23V: WELL
FLD.           Purgatorie River: FIELD
LOC.           1500' FSL & 1773' FWL--: LOCATION
PROV.                       CO: PROVINCE
CNTY.               Las Animas: COUNTRY
SRVC.          Patterson Wireline: SERVICE COMPANY
DATE.          Wed Dec 10 19:09:59 2003: LOG DATE
UWI.                          : UNIQUE WELL ID
~Curve Information Block
DEPT.FT            0 000 00 00: Depth
CCL.                          : Casing Collar Locator
TT3.usec                      : CBL 3' Travel Time
AMP3.mV                       : CBL 3' Amplitude
GR.GAPI                       : Gamma Ray
~Parameter Information Block
~A  Depth       CCL         TT3         AMP3         GR     
    -9.2500   -999.2500   -999.2500   -999.2500   -999.2500
    -9.0000   -999.2500   -999.2500   -999.2500   -999.2500
    -8.7500   -999.2500   -999.2500   -999.2500    104.8168
    -8.5000   -999.2500   -999.2500   -999.2500    103.1036
    -8.2500   -999.2500   -999.2500   -999.2500    103.3936
    -8.0000   -999.2500   -999.2500   -999.2500    105.2332
    -7.7500   -999.2500   -999.2500   -999.2500    107.0855
    -7.5000   -999.2500   -999.2500   -999.2500    107.5378
    -7.2500   -999.2500   -999.2500   -999.2500    106.3062
    -7.0000   -999.2500   -999.2500   -999.2500    104.3097
    -6.7500   -999.2500   -999.2500   -999.2500    102.8372
    -6.5000   -999.2500   -999.2500   -999.2500    102.4627
    -6.2500   -999.2500   -999.2500   -999.2500    102.6295
    -6.0000   -999.2500   -999.2500   -999.2500    102.2967
    -5.7500   -999.2500   -999.2500   -999.2500    100.9140
    -5.5000   -999.2500   -999.2500   -999.2500     98.7664
    -5.2500   -999.2500   -999.2500   -999.2500     96.6912
    -5.0000   -999.2500   -999.2500   -999.2500     95.6219
    -4.7500   -999.2500   -999.2500   -999.2500     96.1381
    -4.5000   -999.2500   -999.2500   -999.2500     98.1992
    -4.2500   -999.2500   -999.2500   -999.2500    101.1936
    -4.0000   -999.2500   -999.2500   -999.2500    104.0257
    -3.7500   -999.2500   1500.0000      1.0099    105.2880
    -3.5000   -999.2500   1500.0000      1.0054    104.0646
    -3.2500   -999.2500   1500.0000      1.0074    100.9554
    -3.0000   -999.2500   1500.0000      1.0186     97.7918
    -2.7500   -999.2500   1500.0000      1.0416     95.8503
    -2.5000   -999.2500   1500.0000      1.0793     94.6650
    -2.2500   -999.2500   1500.0000      1.1257     92.9108
    -2.0000   -999.2500   1500.0000      1.1654     89.8994
    -1.7500   -999.2500   1500.0000      1.1898     85.7210
    -1.5000   -999.2500   1500.0000      1.2064     80.5565
    -1.2500   -999.2500   1500.0000      1.2262     74.5869
    -1.0000   -999.2500   1500.0000      1.2476     68.2532
    -0.7500   -999.2500   1500.0000      1.2587     61.9778
    -0.5000   -999.2500   1500.0000      1.2533     55.7706
    -0.2500   -999.2500   1500.0000      1.2381     49.4623
     0.0000   -999.2500   1500.0000      1.2293     37.6530
     0.2500   -999.2500   1500.0000      1.2383     33.7710
     0.5000   -999.2500   1500.0000      1.2297     33.7858
     0.7500   -999.2500   1500.0000      1.1709     37.6141
     1.0000   -999.2500   1500.0000      1.0465     43.3713
     1.2500   -999.2500   1500.0000      0.8783     50.7099
     1.5000      0.0000   1500.0000      0.7202     59.2524
     1.7500      0.0000   1500.0000      0.6277     68.0885
     2.0000      0.0000   1500.0000      0.6286     75.6803
     2.2500      0.0000   1500.0000      0.7111     80.5761
     2.5000      0.0000   1500.0000      0.8308     82.3587
     2.7500      0.0000   1500.0000      0.9340     81.8560
     3.0000      0.0000   1500.0000      0.9850     80.5208
     3.2500      0.0000   1500.0000      0.9822     79.6997
     3.5000      0.0000   1500.0000      0.9503     80.1849
     3.7500      0.0000   1500.0000      0.9180     81.9451
     4.0000      0.0000   1500.0000      0.9001     84.2162
     4.2500      0.0000   1500.0000      0.8991     86.1544
     4.5000      0.0000   1500.0000      0.9138     87.4589
     4.7500      0.0000   1500.0000      0.9396     88.1637
     5.0000     -1.7300   1500.0000      0.9716     88.0128
     5.2500      0.0000   1500.0000      1.0126     86.6823
     5.5000      0.0000   1500.0000      1.0671     84.7789
     5.7500      1.5707   1500.0000      1.1219     83.9312
     6.0000      0.0000   1500.0000      1.1454     85.3138
     6.2500      0.0000   1500.0000      1.1194     88.1647
     6.5000      0.0000   1500.0000      1.0634     90.1475
     6.7500      0.0000   1500.0000      1.0208     89.3418
     7.0000      0.0000   1500.0000      1.0196     85.7179
     7.2500      0.0000   1500.0000      1.0480     80.7170
     7.5000      0.0000   1500.0000      1.0679     75.9062
     7.7500      0.0000   1500.0000      1.0494     72.2375
     8.0000      0.0000   1500.0000      0.9974     70.0617
     8.2500      0.0000   1500.0000      0.9494     69.2073
     8.5000      0.0000   1500.0000      0.9431     68.9055
     8.7500      0.0000   1499.9200      0.9873     67.9315
     9.0000      0.0000   1499.3959      1.0658     65.3056
     9.2500      0.0000   1496.7307      1.1767     61.1266
     9.5000      0.0000   1486.1718      1.4046     56.5709
     9.7500      0.0000   1453.5764      2.0348     52.9794
    10.0000      0.0000   1375.1649      3.6644     51.0185
    10.2500      0.0000   1228.1473      7.0956     50.5137
    10.5000      0.0000   1013.2620     12.8137     50.7376
    10.7500      0.0000    768.3835     20.3263     50.9370
    11.0000      0.0000    550.8784     28.1091     50.7695
    11.2500      0.0000    400.6526     34.4580     50.1772
    11.5000      0.0000    320.8567     38.5063     48.9202
    11.7500      0.0000    289.7362     40.4795     46.6186
    12.0000      0.0000    282.4752     41.1858     43.3979
    12.2500      0.0000    282.4697     41.4040     40.1665
    12.5000      0.0000    281.8447     41.5842     38.0352
    12.7500      0.0000    278.7871     41.8378     37.6048
    13.0000      0.0000    274.7774     42.0817     38.8327
    13.2500      0.0000    271.9215     42.2165     41.2820
    13.5000      0.0000    271.3118     42.2249     44.2984
    13.7500      0.0000    272.6263     42.1594     47.0242
    14.0000      0.0000    274.5035     42.0968     48.4720
    14.2500      0.0000    275.3349     42.1109     48.0067
    14.5000      0.0000    274.3465     42.2383     46.0123
    14.7500      0.0000    272.1060     42.4473     43.7759
    15.0000      0.0000    269.8243     42.6633     42.3780
    15.2500      0.0000    268.2831     42.8367     41.8480
    15.5000      0.0000    267.5186     42.9707     41.5363
    15.7500      0.0000    267.2151     43.0870     41.0246
    16.0000      0.0000    267.1024     43.1949     40.4934
    16.2500      0.0000    267.0514     43.2989     40.4868
    16.5000      0.0000    267.0174     43.3999     41.5394
    16.7500      0.0000    266.9930     43.4782     43.8589
    17.0000      0.0000    266.9877     43.4955     47.2329
    17.2500      0.0000    267.0214     43.4238     51.2289
    17.5000      0.0000    267.1405     43.2618     55.2570
    17.7500      0.0000    267.4693     43.0295     58.3283
    18.0000      0.0000    268.2617     42.7603     59.3034
    18.2500      0.0000    269.8037     42.4919     58.0004
    18.5000      0.0000    272.0423     42.2543     55.8050
    18.7500      0.0000    274.2209     42.0656     54.6635
    19.0000      0.0000    275.1744     41.9394     55.6436
    19.2500      0.0000    274.3144     41.8911     58.6201
    19.5000      0.0000    272.2143     41.9373     62.6993
    19.7500      0.0000    270.0265     42.0912     66.5570
    20.0000      0.0000    268.4990     42.3517     68.9013
    20.2500      0.0000    267.6851     42.6860     69.1227
    20.5000      0.0000    267.3117     43.0272     67.6063
    20.7500      0.0000    267.1418     43.3086     65.4412
    21.0000      0.0000    267.0566     43.5139     63.7111
    21.2500      0.0000    266.9995     43.6909     62.7799
    21.5000      0.0000    266.9366     43.9083     62.1022
    21.7500      0.0000    266.8526     44.1915     60.8160
    22.0000      0.0000    266.7585     44.4968     58.6213
    22.2500      0.0000    266.6787     44.7506     55.9734
    22.5000      0.0000    266.6301     44.9121     53.4102
    22.7500      0.0000    266.6092     44.9970     51.1630
    23.0000      0.0000    266.6006     45.0459     49.6959
    23.2500      0.0000    266.5923     45.0823     49.8519
    23.5000      0.0000    266.5871     45.0997     51.8441
    23.7500      0.0000    266.6033     45.0814     54.8887
    24.0000      0.0000    266.6963     45.0224     58.6389
