~Version Information
VERS.                      2.0: CWLS Log ASCII Standard - VERSION 2.0
WRAP.                       NO: One line per depth step
~Well Information Block
STRT.FT               528.0000: 
STOP.FT              2251.5000: 
STEP.FT                 0.2500: 
NULL.                -999.2500: 
COMP.          Pioneer Natural Resources: COMPANY
WELL.           Parklane 43-34: WELL
FLD.           Purgatorie River: FIELD
LOC.           1704' FSL & 1119' FEL: LOCATION
PROV.                 Colorado: PROVINCE
CNTY.               Las Animas: COUNTRY
SRVC.                         : SERVICE COMPANY
DATE.          Thu Oct 07 01:37:17 2004: LOG DATE
UWI.           05 071 08162 00: UNIQUE WELL ID
~Curve Information Block
DEPT.FT            0 000 00 00: Depth
LTEN.lb                       : Surface Line Tension
SN.Ohm-m                      : IEL Short Normal
SP.mV                         : IEL Spontaneous Potential
DIR.Ohm-m                     : IEL Induction Resistivity
GR.GAPI                       : Gamma Ray
~Parameter Information Block
~A  Depth       LTEN         SN          SP         DIR          GR     
# ...
   976.0000    786.7849   2000.0000   2000.0000     23.0708    165.1319
   976.2500    788.1019   2000.0000   2000.0000     23.2723    165.3233
   976.5000    788.3531   2000.0000   2000.0000     23.4154    164.6586
   976.7500    787.6298   2000.0000   2000.0000     23.4219    162.1870
   977.0000    786.3438   2000.0000   2000.0000     23.2537    153.6861
   977.2500    784.9967   2000.0000   2000.0000     22.9373    144.8275
   977.5000    784.1078   2000.0000   2000.0000     22.5558    128.2565
   977.7500    783.9333   2000.0000   2000.0000     22.2052    116.4741
   978.0000    783.9872   2000.0000   2000.0000     21.9521    100.6786
   978.2500    783.2280   2000.0000   2000.0000     21.8217     92.9080
   978.5000    781.1807   2000.0000   2000.0000     21.8163     86.5128
   978.7500    778.7435   2000.0000   2000.0000     21.9313     85.3342
   979.0000    777.5480   2000.0000   2000.0000     22.1502     86.1219
   979.2500    778.3823   2000.0000   2000.0000     22.4220     87.0624
   979.5000    780.4824   2000.0000   2000.0000     22.6457     88.1924
   979.7500    782.4765   2000.0000   2000.0000     22.6884     89.2224
   980.0000    783.6013   2000.0000   2000.0000     22.4406     92.6485
   980.2500    783.7498   2000.0000   2000.0000     21.8817     96.6437
   980.5000    782.9059   2000.0000   2000.0000     21.0969    104.7211
   980.7500    781.0679   2000.0000   2000.0000     20.2234    110.8167
   981.0000    778.5470   2000.0000   2000.0000     19.3788    120.0996
   981.2500    775.9977   2000.0000   2000.0000     18.6309    126.0469
   981.5000    774.0316   2000.0000   2000.0000     18.0101    133.9330
   981.7500    772.8774   2000.0000   2000.0000     17.5308    138.0604
   982.0000    772.5707   2000.0000   2000.0000     17.2038    142.2576
   982.2500    773.4078   2000.0000   2000.0000     17.0402    143.8211
   982.5000    775.8701   2000.0000   2000.0000     17.0520    144.2943
   982.7500    779.9747   2000.0000   2000.0000     17.2438    143.1395
   983.0000    784.8731   2000.0000   2000.0000     17.5942    138.9535
   983.2500    789.1241   2000.0000   2000.0000     18.0382    134.5749
   983.5000    791.3394   2000.0000   2000.0000     18.4648    125.8419
   983.7500    790.8409   2000.0000   2000.0000     18.7374    118.9062
   984.0000    788.1158   2000.0000   2000.0000     18.7353    108.3010
   984.2500    784.7078   2000.0000   2000.0000     18.3954    102.3553
   984.5000    782.3671   2000.0000   2000.0000     17.7321     96.6814
   984.7500    782.1872   2000.0000   2000.0000     16.8247     94.9992
   985.0000    784.4521   2000.0000   2000.0000     15.7897     94.0957
   985.2500    788.6899   2000.0000   2000.0000     14.7518     93.6865
   985.5000    793.5204   2000.0000   2000.0000     13.8171     93.2809
   985.7500    797.0823   2000.0000   2000.0000     13.0494     93.9689
   986.0000    798.1996   2000.0000   2000.0000     12.4598     97.9219
   986.2500    797.1058   2000.0000   2000.0000     12.0132    102.4926
   986.5000    795.0365   2000.0000   2000.0000     11.6478    110.5070
   986.7500    793.2847   2000.0000   2000.0000     11.2973    115.5286
   987.0000    792.3347   2000.0000   2000.0000     10.9126    122.1898
   987.2500    791.5682   2000.0000   2000.0000     10.4775    126.4696
   987.5000    789.9670   2000.0000   2000.0000     10.0128    132.9878
   987.7500    787.3871   2000.0000   2000.0000      9.5641    137.1254
   988.0000    785.0900   2000.0000   2000.0000      9.1798    142.4504
   988.2500    784.6309   2000.0000   2000.0000      8.8901    145.3329
   988.5000    785.9827   2000.0000   2000.0000      8.6985    148.8538
   988.7500    787.3169   2000.0000   2000.0000      8.5843    150.7753
   989.0000    787.0903   2000.0000   2000.0000      8.5140    152.9199
   989.2500    785.7027   2000.0000   2000.0000      8.4577    153.6590
   989.5000    784.5425   2000.0000   2000.0000      8.4012    153.4856
   989.7500    784.1785   2000.0000   2000.0000      8.3469    152.5770
   990.0000    784.2490   2000.0000   2000.0000      8.3050    150.4191
   990.2500    784.5603   2000.0000   2000.0000      8.2834    148.7187
   990.5000    785.5057   2000.0000   2000.0000      8.2844    146.1566
   990.7500    787.5694   2000.0000   2000.0000      8.3093    144.5140
   991.0000    790.7333   2000.0000   2000.0000      8.3649    142.0045
   991.2500    794.1858   2000.0000   2000.0000      8.4629    140.3679
   991.5000    796.5689   2000.0000   2000.0000      8.6117    138.8976
   991.7500    796.8878   2000.0000   2000.0000      8.8072    139.2344
   992.0000    795.3040   2000.0000   2000.0000      9.0316    141.6895
   992.2500    792.8613   2000.0000   2000.0000      9.2637    143.8238
   992.5000    790.5864   2000.0000   2000.0000      9.4917    146.4773
   992.7500    789.0261   2000.0000   2000.0000      9.7212    147.8451
   993.0000    788.2133   2000.0000   2000.0000      9.9723    149.9306
   993.2500    787.8296   2000.0000   2000.0000     10.2680    151.3985
   993.5000    787.7621   2000.0000   2000.0000     10.6210    153.1140
   993.7500    788.4351   2000.0000   2000.0000     11.0249    153.6197
   994.0000    789.9639   2000.0000   2000.0000     11.4579    153.0787
   994.2500    791.1249   2000.0000   2000.0000     11.9007    151.4847
   994.5000    790.0259   2000.0000   2000.0000     12.3541    146.5672
   994.7500    786.2038   2000.0000   2000.0000     12.8366    141.7923
   995.0000    781.7508   2000.0000   2000.0000     13.3680    134.1573
   995.2500    779.9229   2000.0000   2000.0000     13.9584    130.0579
   995.5000    782.3682   2000.0000   2000.0000     14.6113    126.4449
   995.7500    787.6673   2000.0000   2000.0000     15.3257    125.2761
   996.0000    792.7098   2000.0000   2000.0000     16.0875    123.4005
   996.2500    795.5081   2000.0000   2000.0000     16.8640    120.8225
   996.5000    796.6078   2000.0000   2000.0000     17.6243    113.6563
   996.7500    797.8583   2000.0000   2000.0000     18.3734    106.8321
   997.0000    800.0739   2000.0000   2000.0000     19.1609     95.4906
   997.2500    802.0805   2000.0000   2000.0000     20.0466     88.7367
   997.5000    801.9021   2000.0000   2000.0000     21.0472     81.5440
   997.7500    798.7277   2000.0000   2000.0000     22.0995     78.8228
   998.0000    793.7524   2000.0000   2000.0000     23.0734     77.1736
   998.2500    789.2295   2000.0000   2000.0000     23.8442     77.2797
   998.5000    786.7418   2000.0000   2000.0000     24.3724     78.6657
   998.7500    786.3372   2000.0000   2000.0000     24.7141     79.8802
   999.0000    787.0992   2000.0000   2000.0000     24.9666     80.7993
   999.2500    788.2339   2000.0000   2000.0000     25.2264     80.2076
   999.5000    789.4528   2000.0000   2000.0000     25.5892     77.6288
   999.7500    790.6420   2000.0000   2000.0000     26.1511     75.4081
  1000.0000    791.6631   2000.0000   2000.0000     26.9851     72.3777
  1000.2500    792.4185   2000.0000   2000.0000     28.1180     70.7451
  1000.5000    792.7845   2000.0000   2000.0000     29.5279     68.3398
  1000.7500    792.5752   2000.0000   2000.0000     31.1154     66.2290
  1001.0000    791.8084   2000.0000   2000.0000     32.5735     62.0786
  1001.2500    790.8560   2000.0000   2000.0000     33.2017     59.3549
  1001.5000    790.1125   2000.0000   2000.0000     32.0024     57.3075
  1001.7500    789.5463   2000.0000   2000.0000     28.4511     57.9780
  1002.0000    788.6665   2000.0000   2000.0000     23.2700     61.3245
  1002.2500    787.1531   2000.0000   2000.0000     17.8992     63.9648
  1002.5000    785.6956   2000.0000   2000.0000     13.3519     66.8116
  1002.7500    785.8122   2000.0000   2000.0000      9.9065     67.6066
  1003.0000    788.1599   2000.0000   2000.0000      7.4365     67.4819
  1003.2500    791.2272   2000.0000   2000.0000      5.7127     66.9911
  1003.5000    792.5626   2000.0000   2000.0000      4.5267     66.5239
  1003.7500    791.3806   2000.0000   2000.0000      3.7177     66.6783
