~Version Information
VERS.                      2.0: CWLS Log ASCII Standard - VERSION 2.0
WRAP.                       NO: One line per depth step
~Well Information Block
STRT.FT                -3.0000: 
STOP.FT              2043.2500: 
STEP.FT                 0.2500: 
NULL.                -999.2500: 
COMP.          Pioneer Natural Resources: COMPANY
WELL.           Galloway 32-13: WELL
FLD.           Purgatorie River: FIELD
LOC.           1809' FNL & 2004' FEL--: LOCATION
PROV.                       CO: PROVINCE
CNTY.               Las Animas: COUNTRY
SRVC.          Patterson Wireline: SERVICE COMPANY
DATE.          Thu Jul 14 13:02:15 2005: LOG DATE
UWI.           05 071 08423 00: UNIQUE WELL ID
~Curve Information Block
DEPT.FT            0 000 00 00: Depth
CCL.                          : Casing Collar Locator
TT3.usec                      : CBL 3' Travel Time
AMP3.mV                       : CBL 3' Amplitude
GR.GAPI                       : Gamma Ray
~Parameter Information Block
~A  Depth       CCL         TT3         AMP3         GR     
# ...
  1337.0000      0.0000    778.3604      3.6779    124.9259
  1337.2500      0.0000    784.4745      3.5995    121.5494
  1337.5000      0.0000    783.5538      3.4973    120.7316
  1337.7500      0.0000    778.2235      3.3601    121.4058
  1338.0000      0.0000    771.2484      3.2110    121.7563
  1338.2500      0.0000    764.8433      3.0655    120.2620
  1338.5000      0.0000    759.8405      2.9236    116.4786
  1338.7500      0.0000    756.0178      2.7963    110.9553
  1339.0000      0.0000    753.1386      2.7045    105.0285
  1339.2500      0.0000    751.2717      2.6487    100.8667
  1339.5000      0.0000    750.3414      2.6088    100.8225
  1339.7500      0.0000    749.9193      2.5821    105.8688
  1340.0000      0.0000    749.5278      2.5988    114.5170
  1340.2500      0.0000    749.0151      2.6940    123.5121
  1340.5000      0.0000    748.7170      2.8845    129.8799
  1340.7500      0.0000    749.3964      3.1705    132.6108
  1341.0000      0.0000    751.9720      3.5282    132.7491
  1341.2500      0.0000    756.9932      3.8873    132.3146
  1341.5000      0.0000    764.0968      4.1544    132.9597
  1341.7500      0.0000    771.9607      4.2931    134.9144
  1342.0000      0.0000    778.8845      4.3633    136.8979
  1342.2500      0.0000    783.3627      4.4546    137.2141
  1342.5000      0.0000    784.4622      4.5919    134.9847
  1342.7500      0.0000    782.5498      4.7325    130.6811
  1343.0000      0.0000    779.6999      4.8424    126.1539
  1343.2500      0.0000    778.2509      4.9358    123.9332
  1343.5000      0.0000    778.4567      5.0261    125.4764
  1343.7500      0.0000    778.1986      5.0713    129.7433
  1344.0000      0.0000    775.0242      5.0070    134.1867
  1344.2500      0.0000    767.5723      4.8350    137.5471
  1344.5000      0.0000    754.8533      4.6473    140.8614
  1344.7500      0.0000    735.6735      4.5454    145.3360
  1345.0000      0.0000    710.6971      4.5524    150.3417
  1345.2500      0.0000    685.3480      4.6196    154.1803
  1345.5000      0.0000    668.8141      4.6978    155.8849
  1345.7500      0.0000    667.8698      4.7627    155.6878
  1346.0000      0.0000    681.2234      4.7866    154.5388
  1346.2500      0.0000    701.1195      4.7392    153.5630
  1346.5000      0.0000    720.4551      4.6320    153.2390
  1346.7500      0.0000    736.9733      4.5247    153.0183
  1347.0000      0.0000    751.1243      4.4602    152.5102
  1347.2500      0.0000    762.4199      4.4183    152.7190
  1347.5000      0.0000    768.8014      4.3565    154.9676
  1347.7500      0.0000    768.3538      4.2752    158.7130
  1348.0000      0.0000    761.1932      4.2204    161.4683
  1348.2500      0.0000    750.3271      4.2311    160.9827
  1348.5000      0.0000    740.4767      4.3040    157.0228
  1348.7500      0.0000    735.3598      4.3984    151.0191
  1349.0000      0.0000    736.0629      4.4679    144.2724
  1349.2500      0.0000    741.7107      4.4944    136.9992
  1349.5000      0.0000    750.6281      4.4966    129.4377
  1349.7500      0.0000    760.4993      4.4947    123.1593
  1350.0000      0.0000    768.6021      4.4798    120.0460
  1350.2500      0.0000    773.3443      4.4335    119.8710
  1350.5000      0.0000    775.7532      4.3655    119.7677
  1350.7500      0.0000    778.4545      4.3042    116.4397
  1351.0000      0.0000    782.4545      4.2507    108.7534
  1351.2500      0.0000    785.5034      4.1658     98.6318
  1351.5000      0.0000    784.3480      4.0202     89.8878
  1351.7500      0.0000    778.1493      3.8443     85.7064
  1352.0000      0.0000    769.1872      3.7140     86.5365
  1352.2500      0.0000    760.7585      3.6849     90.2131
  1352.5000      0.0000    754.9691      3.7472     93.9879
  1352.7500      0.0000    752.1131      3.8438     96.4603
  1353.0000      0.0000    751.3036      3.9327     98.1511
  1353.2500      0.0000    751.3062      4.0335    100.7362
  1353.5000      0.0000    751.0717      4.2025    105.5440
  1353.7500      0.0000    749.9361      4.4555    112.4661
  1354.0000      0.0000    747.6620      4.7276    120.3110
  1354.2500      0.0000    744.5181      4.9227    128.1104
  1354.5000      0.0000    741.2943      4.9931    135.6718
  1354.7500      0.0000    738.9269      4.9624    142.9873
  1355.0000      0.0000    737.9091      4.8895    149.6498
  1355.2500      0.0000    738.2532      4.8309    154.7809
  1355.5000      0.0000    739.8940      4.8138    157.1481
  1355.7500      0.0000    742.5723      4.8176    155.8474
  1356.0000      0.0000    745.3492      4.7939    151.4896
  1356.2500      0.0000    746.9341      4.7312    146.3360
  1356.5000      0.0000    746.8560      4.6824    142.9603
  1356.7500      0.0000    746.1807      4.7044    143.0369
  1357.0000      0.0000    746.8922      4.7809    146.8063
  1357.2500      0.0000    750.4043      4.8280    152.4972
  1357.5000      0.0000    756.4943      4.7842    156.6094
  1357.7500      0.0000    763.4274      4.6838    156.1421
  1358.0000      0.0000    769.0943      4.6258    150.7252
  1358.2500      0.0000    772.5602      4.6675    142.2556
  1358.5000      0.0000    774.9207      4.7638    133.0943
  1358.7500      0.0000    778.3956      4.8296    125.1344
  1359.0000      0.0000    784.3204      4.8473    119.6399
  1359.2500      0.0000    792.1575      4.8785    116.8422
  1359.5000      0.0000    800.2385      4.9678    115.7252
  1359.7500      0.0000    806.9042      5.0784    114.6527
  1360.0000      0.0000    810.8277      5.1486    112.2346
  1360.2500      0.0000    810.9037      5.1811    107.9013
  1360.5000      0.0000    806.7672      5.2383    102.3507
  1360.7500      0.0000    799.7717      5.3498     97.4579
  1361.0000      0.0000    792.7281      5.4557     95.2540
  1361.2500      0.0000    787.8869      5.4572     96.8086
  1361.5000      0.0000    785.2792      5.3165    101.8376
  1361.7500      0.0000    783.0615      5.0958    108.7471
  1362.0000      0.0000    778.7642      4.9045    115.1975
  1362.2500      0.0000    769.4663      4.8134    119.6093
  1362.5000      0.0000    750.8514      4.8109    122.3041
  1362.7500      0.0000    717.9279      4.8256    124.6482
  1363.0000      0.0000    669.8829      4.7886    127.3728
  1363.2500      0.0000    615.2426      4.6881    130.4844
  1363.5000      0.0000    568.8564      4.5782    134.4326
  1363.7500      0.0000    540.8734      4.5317    140.2218
  1364.0000      0.0000    530.0241      4.5746    148.0661
  1364.2500      0.0000    528.6508      4.6606    156.5460
  1364.5000      0.0000    531.5837      4.7190    163.3573
  1364.7500      0.0000    538.7228      4.7329    166.6390
  1365.0000      0.0000    551.7653      4.7591    165.8808
  1365.2500      0.0000    570.8835      4.8621    162.3242
  1365.5000      0.0000    593.3948      5.0416    158.4900
  1365.7500      0.0000    613.5130      5.2337    156.4850
  1366.0000      0.0000    623.7935      5.3693    156.3047
  1366.2500      0.0000    619.2051      5.4178    156.2055
  1366.5000      0.0000    601.9677      5.3823    154.8604
  1366.7500      0.0000    583.3314      5.2766    152.4688
  1367.0000      0.0000    579.4561      5.1168    149.5490
  1367.2500      0.0000    602.3594      4.9309    145.6199
  1367.5000      0.0000    651.3138      4.7722    139.8966
  1367.7500      0.0000    711.7278      4.7097    132.8604
  1368.0000      0.0000    763.7836      4.7895    126.3774
  1368.2500      0.0000    794.4925      4.9938    122.1212
  1368.5000      0.0000    803.7690      5.2420    120.1736
  1368.7500      0.0000    801.1542      5.4379    119.3232
  1369.0000      0.0000    796.6754      5.5156    118.6956
  1369.2500      0.0000    791.9218      5.4563    118.8857
  1369.5000      0.0000    778.0913      5.2933    121.2378
  1369.7500      0.0000    743.9474      5.1135    126.1888
  1370.0000      0.0000    687.6223      5.0282    132.8428
  1370.2500      0.0000    620.9918      5.1086    140.1832
