~Version Information
VERS.                      2.0: CWLS Log ASCII Standard - VERSION 2.0
WRAP.                       NO: One line per depth step
~Well Information Block
STRT.FT               595.0000: 
STOP.FT              1508.7500: 
STEP.FT                 0.2500: 
NULL.                -999.2500: 
COMP.          Pioneer Natural Resources: COMPANY
WELL.          Sumatra 34-22 Tr: WELL
FLD.           Purgatoire River: FIELD
LOC.           443' FSL & 2424' FEL--: LOCATION
PROV.                 Colorado: PROVINCE
CNTY.               Las Animas: COUNTRY
SRVC.                Patterson: SERVICE COMPANY
DATE.          Wed Jun 08 23:53:01 2005: LOG DATE
UWI.           05 071 08383 00: UNIQUE WELL ID
~Curve Information Block
DEPT.FT            0 000 00 00: Depth
SN.Ohm-m                      : IEL Short Normal
SP.mV                         : IEL Spontaneous Potential
DIR.Ohm-m                     : IEL Induction Resistivity
GR.GAPI                       : Gamma Ray
~Parameter Information Block
~A  Depth        SN          SP         DIR          GR     
# ...
  1164.5000    682.8896   -529.1245      8.5523    151.9548
  1164.7500    682.8896   -529.1236      8.4199    154.4348
  1165.0000    682.8896   -529.1225      8.3004    156.2092
  1165.2500    682.8896   -529.1212      8.2077    156.4220
  1165.5000    682.8896   -529.1196      8.1556    155.5698
  1165.7500    682.8896   -529.1178      8.1564    154.1607
  1166.0000    682.8896   -529.1161      8.2199    150.7377
  1166.2500    682.8896   -529.1149      8.3535    147.6683
  1166.5000    682.8896   -529.1142      8.5640    142.0623
  1166.7500    682.8896   -529.1144      8.8589    137.8958
  1167.0000    682.8896   -529.1154      9.2469    132.0467
  1167.2500    682.8896   -529.1170      9.7361    129.2195
  1167.5000    682.8896   -529.1188     10.3305    127.1360
  1167.7500    682.8896   -529.1203     11.0262    126.5783
  1168.0000    682.8896   -529.1212     11.8071    124.9385
  1168.2500    682.8896   -529.1210     12.6442    122.3536
  1168.5000    682.8896   -529.1200     13.4976    116.1515
  1168.7500    682.8896   -529.1182     14.3245    111.2858
  1169.0000    682.8896   -529.1162     15.0907    104.7019
  1169.2500    682.8896   -529.1144     15.7787    101.4256
  1169.5000    682.8896   -529.1132     16.3888     98.1563
  1169.7500    682.8896   -529.1130     16.9329     96.7051
  1170.0000    682.8896   -529.1140     17.4273     95.1014
  1170.2500    682.8896   -529.1158     17.8856     94.3183
  1170.5000    682.8896   -529.1183     18.3101     93.7260
  1170.7500    682.8896   -529.1209     18.6836     93.9103
  1171.0000    682.8896   -529.1230     18.9691     95.2440
  1171.2500    682.8896   -529.1243     19.1174     96.7004
  1171.5000    682.8896   -529.1244     19.0801     99.1253
  1171.7500    682.8896   -529.1232     18.8206    100.5380
  1172.0000    682.8896   -529.1207     18.3245    102.1162
  1172.2500    682.8896   -529.1172     17.6065    103.0112
  1172.5000    682.8896   -529.1130     16.7105    104.9457
  1172.7500    682.8896   -529.1086     15.6998    107.1678
  1173.0000    682.8896   -529.1044     14.6431    112.4204
  1173.2500    682.8896   -529.1006     13.6035    117.1020
  1173.5000    682.8896   -529.0977     12.6299    124.9460
  1173.7500    682.8896   -529.0956     11.7530    129.7464
  1174.0000    682.8896   -529.0943     10.9861    134.4719
  1174.2500    682.8896   -529.0936     10.3296    135.4391
  1174.5000    682.8896   -529.0930      9.7787    134.3820
  1174.7500    682.8896   -529.0922      9.3292    133.1410
  1175.0000    682.8896   -529.0905      8.9801    132.2818
  1175.2500    682.8896   -529.0878      8.7334    132.8373
  1175.5000    682.8896   -529.0839      8.5915    134.9943
  1175.7500    682.8896   -529.0789      8.5548    136.6860
  1176.0000    682.8896   -529.0732      8.6207    138.5485
  1176.2500    682.8896   -529.0672      8.7842    138.9876
  1176.5000    682.8896   -529.0615      9.0398    138.2557
  1176.7500    682.8896   -529.0566      9.3830    136.9037
  1177.0000    682.8896   -529.0529      9.8099    133.9881
  1177.2500    682.8896   -529.0507     10.3139    131.7594
  1177.5000    682.8893   -529.0501     10.8829    128.1839
  1177.7500    682.8684   -529.0511     11.4976    125.5200
  1178.0000    682.7535   -529.0534     12.1320    120.9634
  1178.2500    682.2073   -529.0569     12.7562    117.7345
  1178.5000    680.2179   -529.0613     13.3418    113.1339
  1178.7500    674.7240   -529.0663     13.8668    110.4372
  1179.0000    663.4206   -529.0717     14.3171    107.1943
  1179.2500    646.6902   -529.0771     14.6826    105.8514
  1179.5000    630.4163   -529.0825     14.9511    105.8179
  1179.7500    623.6031   -529.0878     15.1051    107.3980
  1180.0000    630.6887   -529.0930     15.1271    111.7188
  1180.2500    647.0763   -529.0981     15.0096    115.0959
  1180.5000    663.7467   -529.1030     14.7646    119.4831
  1180.7500    674.9183   -529.1075     14.4234    121.6294
  1181.0000    680.3039   -529.1118     14.0261    124.1454
  1181.2500    682.2363   -529.1155     13.6111    125.8390
  1181.5000    682.7610   -529.1187     13.2090    128.7432
  1181.7500    682.8699   -529.1210     12.8419    130.6580
  1182.0000    682.8896   -529.1225     12.5267    132.7617
  1182.2500    682.8896   -529.1230     12.2772    133.5677
  1182.5000    682.8896   -529.1224     12.1072    134.7241
  1182.7500    682.8896   -529.1207     12.0313    136.0634
  1183.0000    682.8896   -529.1179     12.0648    138.7471
  1183.2500    682.8896   -529.1139     12.2194    139.9447
  1183.5000    682.8896   -529.1088     12.5003    138.6033
  1183.7500    682.8896   -529.1029     12.9050    134.8320
  1184.0000    682.8896   -529.0963     13.4277    124.9375
  1184.2500    682.8896   -529.0892     14.0657    116.2515
  1184.5000    682.8896   -529.0820     14.8245    102.1908
  1184.7500    682.8896   -529.0747     15.7153     93.5007
  1185.0000    682.8896   -529.0674     16.7411     83.0563
  1185.2500    682.8896   -529.0600     17.8693     77.9647
  1185.5000    682.8896   -529.0522     19.0024     72.6242
  1185.7500    682.8896   -529.0438     19.9677     70.4580
  1186.0000    682.8896   -529.0344     20.5591     69.8298
  1186.2500    682.8896   -529.0240     20.6282     71.6757
  1186.5000    682.8896   -529.0129     20.1646     78.4410
  1186.7500    682.8896   -529.0016     19.2938     85.7296
  1187.0000    682.8896   -528.9908     18.2025    100.6597
  1187.2500    682.8698   -528.9816     17.0620    112.6452
  1187.5000    682.7478   -528.9749     15.9936    130.9141
  1187.7500    682.1514   -528.9714     15.0703    140.9895
  1188.0000    679.8776   -528.9716     14.3295    149.9512
  1188.2500    673.2460   -528.9751     13.7837    151.6002
  1188.5000    658.6287   -528.9813     13.4277    149.4439
  1188.7500    634.8605   -528.9891     13.2438    146.2825
  1189.0000    607.9564   -528.9971     13.2093    140.3031
  1189.2500    590.6298   -529.0042     13.3022    135.6651
  1189.5000    593.1425   -529.0091     13.5062    127.8714
  1189.7500    613.8579   -529.0112     13.8110    122.6123
  1190.0000    640.8884   -529.0104     14.2087    116.2328
  1190.2500    662.6772   -529.0067     14.6854    113.8264
  1190.5000    675.1989   -529.0010     15.2115    113.3058
  1190.7500    680.5505   -528.9942     15.7359    114.6298
  1191.0000    682.1674   -528.9875     16.1889    118.2347
  1191.2500    681.9576   -528.9819     16.5002    121.2069
  1191.5000    679.7736   -528.9785     16.6263    125.5255
  1191.7500    673.7597   -528.9775     16.5723    127.8235
  1192.0000    661.7897   -528.9791     16.3910    130.1589
  1192.2500    644.6362   -528.9830     16.1604    131.0894
  1192.5000    628.5527   -528.9885     15.9549    131.6507
  1192.7500    622.4841   -528.9947     15.8279    131.3854
  1193.0000    630.3835   -529.0010     15.8055    129.7966
  1193.2500    647.2318   -529.0068     15.8911    127.8027
  1193.5000    663.9822   -529.0117     16.0706    123.3839
  1193.7500    675.0659   -529.0155     16.3167    119.8661
  1194.0000    680.3643   -529.0183     16.5926    115.1709
  1194.2500    682.2540   -529.0203     16.8578    113.2350
  1194.5000    682.7649   -529.0217     17.0771    112.4200
  1194.7500    682.8704   -529.0229     17.2269    112.9226
  1195.0000    682.8771   -529.0244     17.2949    114.7928
  1195.2500    682.8112   -529.0266     17.2776    116.7776
  1195.5000    682.5035   -529.0300     17.1789    120.6304
  1195.7500    681.3996   -529.0345     17.0126    123.2799
  1196.0000    678.3893   -529.0403     16.8032    126.3545
  1196.2500    672.2606   -529.0469     16.5794    127.4599
  1196.5000    663.2744   -529.0535     16.3679    127.7634
  1196.7500    654.6243   -529.0596     16.1890    127.4564
  1197.0000    651.1033   -529.0643     16.0564    127.2020
  1197.2500    655.0049   -529.0674     15.9778    127.4773
  1197.5000    663.8140   -529.0685     15.9552    127.9971
  1197.7500    672.7163   -529.0677     15.9860    127.7323
