~Version Information
VERS.                      2.0: CWLS Log ASCII Standard - VERSION 2.0
WRAP.                       NO: One line per depth step
~Well Information Block
STRT.FT               375.0000: 
STOP.FT              1727.7000: 
STEP.FT                 0.1000: 
NULL.                -999.2500: 
COMP.          Pioneer Natural Resources: COMPANY
WELL.          Warrior 33-1 Tr: WELL
FLD.           Purgatoire River: FIELD
LOC.           2648' FSL & 2341' FEL--: LOCATION
PROV.                 Colorado: PROVINCE
CNTY.               Las Animas: COUNTRY
SRVC.                Patterson: SERVICE COMPANY
DATE.          Sat Jun 18 07:53:12 2005: LOG DATE
UWI.           05 071 08412 00: UNIQUE WELL ID
~Curve Information Block
DEPT.FT            0 000 00 00: Depth
DCAL.in                       : CDL Caliper
RHOB.g/cc                     : CDL Bulk Density
RHOC.g/cc                     : CDL Density Correction
DPOR.pu                       : CDL Density Porosity
NPOR.pu                       : Neutron Porosity
GR.GAPI                       : Gamma Ray
~Parameter Information Block
~A  Depth       DCAL        RHOB        RHOC        DPOR        NPOR         GR     
# ...
  1344.6000      8.0671      2.6712      0.0416     -1.2824     23.4873     93.7868
  1344.7000      8.0671      2.6397     -0.0291      0.6226     22.9572     88.6268
  1344.8000      8.0566      2.6122      0.0539      2.2929     22.3097     86.0112
  1344.9000      8.0566      2.5837     -0.0155      4.0153     22.3801     89.3375
  1345.0000      8.0498      2.5614      0.0089      5.3690     23.0598     96.2701
  1345.1000      8.0498      2.5433      0.0518      6.4667     23.8424    100.7735
  1345.2000      8.0498      2.5169      0.0105      8.0664     24.4381    100.4654
  1345.3000      8.0493      2.4844      0.0328     10.0345     24.8368     99.6505
  1345.4000      8.0493      2.4576     -0.0276     11.6596     25.0115    103.4698
  1345.5000      8.0500      2.4571     -0.0374     11.6919     25.1857    110.9321
  1345.6000      8.0500      2.4965      0.0174      9.3049     25.5926    119.5361
  1345.7000      8.0500      2.5613      0.0655      5.3754     25.6422    127.0956
  1345.8000      8.0462      2.6171      0.1540      1.9929     25.0749    129.9798
  1345.9000      8.0462      2.6382      0.1336      0.7177     24.5921    128.9984
  1346.0000      8.0357      2.6382      0.1059      0.7140     24.2666    125.7430
  1346.1000      8.0357      2.6449      0.1556      0.3088     23.5231    119.3747
  1346.2000      8.0357      2.6623      0.1493     -0.7478     22.4644    111.9373
  1346.3000      8.0274      2.6794      0.2278     -1.7815     21.7765    105.0295
  1346.4000      8.0274      2.6862      0.1565     -2.1920     21.7775    101.0736
  1346.5000      8.0270      2.6871      0.1194     -2.2455     22.0282     99.1806
  1346.6000      8.0270      2.6845      0.1219     -2.0903     21.9647     93.1553
  1346.7000      8.0270      2.6708      0.0605     -1.2626     21.5526     85.2263
  1346.8000      8.0335      2.6519      0.0471     -0.1143     21.1518     81.4631
  1346.9000      8.0335      2.6376      0.0614      0.7487     20.9532     82.1155
  1347.0000      8.0433      2.6216      0.0423      1.7214     20.5014     84.8940
  1347.1000      8.0433      2.5983      0.0592      3.1344     19.5477     84.5468
  1347.2000      8.0433      2.5747      0.0480      4.5631     18.7177     78.1060
  1347.3000      8.0484      2.5593      0.0061      5.4985     18.5156     71.3928
  1347.4000      8.0484      2.5559      0.0531      5.7041     18.6192     68.2316
  1347.5000      8.0500      2.5650      0.0251      5.1485     18.3277     64.9465
  1347.6000      8.0500      2.5801      0.1064      4.2336     17.5574     59.6452
  1347.7000      8.0500      2.5836      0.0902      4.0255     16.6707     54.9143
  1347.8000      8.0508      2.5709      0.0807      4.7966     15.9798     52.6542
  1347.9000      8.0508      2.5523      0.0513      5.9204     15.7298     50.3354
  1348.0000      8.0505      2.5383      0.0728      6.7716     15.6954     47.3261
  1348.1000      8.0505      2.5389      0.0352      6.7352     15.7451     47.8663
  1348.2000      8.0505      2.5581      0.0828      5.5725     15.7960     53.0601
  1348.3000      8.0523      2.5782      0.1010      4.3530     15.7017     59.7746
  1348.4000      8.0523      2.5747      0.0951      4.5653     15.7062     64.8254
  1348.5000      8.0608      2.5533      0.0490      5.8585     16.1069     65.7519
  1348.6000      8.0608      2.5409      0.0585      6.6137     16.8648     62.3132
  1348.7000      8.0608      2.5450      0.0768      6.3614     17.6429     59.3872
  1348.8000      8.0718      2.5502      0.0952      6.0457     18.2374     60.6274
  1348.9000      8.0718      2.5458      0.0496      6.3127     18.6005     64.2500
  1349.0000      8.0752      2.5401      0.0310      6.6619     18.7060     68.4801
  1349.1000      8.0752      2.5352      0.0938      6.9551     18.5918     74.0575
  1349.2000      8.0752      2.5237      0.0486      7.6538     18.1737     79.8985
  1349.3000      8.0690      2.5142      0.0376      8.2332     17.5519     82.3413
  1349.4000      8.0690      2.5192      0.0539      7.9269     17.0775     82.4811
  1349.5000      8.0604      2.5316      0.0442      7.1729     16.8342     84.1168
  1349.6000      8.0604      2.5269      0.1107      7.4582     16.8176     85.8404
  1349.7000      8.0604      2.4959      0.0186      9.3375     17.1138     83.8744
  1349.8000      8.0564      2.4667      0.0419     11.1094     17.5612     79.8286
  1349.9000      8.0564      2.4645     -0.0146     11.2445     17.8003     78.5776
  1350.0000      8.0574      2.4861      0.0155      9.9317     17.7489     82.3864
  1350.1000      8.0574      2.5122      0.0614      8.3534     17.4758     88.4527
  1350.2000      8.0574      2.5303      0.0317      7.2569     17.1271     87.0943
  1350.3000      8.0651      2.5381      0.0872      6.7816     16.9162     75.0184
  1350.4000      8.0651      2.5357      0.0103      6.9253     16.8458     64.1772
  1350.5000      8.0744      2.5351      0.0337      6.9653     16.6277     62.0459
  1350.6000      8.0744      2.5416      0.0707      6.5677     16.2850     63.1211
  1350.7000      8.0744      2.5481      0.0227      6.1758     16.1610     63.8949
  1350.8000      8.0780      2.5463      0.0961      6.2829     16.1445     64.8437
  1350.9000      8.0780      2.5336      0.0035      7.0548     16.0480     65.2357
  1351.0000      8.0774      2.5216      0.0206      7.7846     15.9685     63.9976
  1351.1000      8.0774      2.5192      0.0470      7.9248     15.7426     65.2265
  1351.2000      8.0774      2.5335      0.0068      7.0614     15.5447     73.0303
  1351.3000      8.0744      2.5718      0.0475      4.7413     15.8284     81.8837
  1351.4000      8.0744      2.6153      0.0996      2.1003     16.6490     85.1494
  1351.5000      8.0683      2.6348      0.0873      0.9209     17.6050     81.2140
  1351.6000      8.0683      2.6204      0.1008      1.7923     18.4476     74.4057
  1351.7000      8.0683      2.5820      0.0536      4.1205     19.3932     72.2295
  1351.8000      8.0622      2.5477     -0.0205      6.2011     20.3548     77.3929
  1351.9000      8.0622      2.5388      0.0267      6.7406     21.2447     85.2008
  1352.0000      8.0599      2.5480      0.0335      6.1835     22.5364     91.1656
  1352.1000      8.0599      2.5582      0.0607      5.5635     24.0735     96.5602
  1352.2000      8.0599      2.5646      0.0564      5.1754     24.9662    104.9010
  1352.3000      8.0680      2.5754      0.0509      4.5188     25.0665    116.6050
  1352.4000      8.0680      2.5913      0.1033      3.5604     25.2972    128.2737
  1352.5000      8.0905      2.6026      0.0677      2.8740     26.1362    138.6895
  1352.6000      8.0905      2.6094      0.0797      2.4597     26.8110    149.0995
  1352.7000      8.0905      2.6134      0.1002      2.2153     26.7393    158.3323
  1352.8000      8.1108      2.6066      0.1320      2.6308     26.5088    165.7199
  1352.9000      8.1108      2.5888      0.0985      3.7070     26.5731    169.3068
  1353.0000      8.1131      2.5731      0.0888      4.6611     26.4251    165.3692
  1353.1000      8.1131      2.5634      0.0626      5.2479     25.9840    157.4615
  1353.2000      8.1131      2.5533      0.0673      5.8582     25.6467    153.0670
  1353.3000      8.1075      2.5445      0.0564      6.3948     25.5391    151.4167
  1353.4000      8.1075      2.5476      0.0687      6.2078     25.7199    150.7904
  1353.5000      8.1055      2.5641      0.0286      5.2066     25.9080    151.7852
  1353.6000      8.1055      2.5830      0.1170      4.0594     25.8498    151.1443
  1353.7000      8.1055      2.5926      0.0800      3.4773     25.7210    150.2324
  1353.8000      8.1075      2.5925      0.0652      3.4842     25.6914    154.9806
  1353.9000      8.1075      2.5883      0.0611      3.7380     25.7817    160.9515
  1354.0000      8.1117      2.5829      0.0821      4.0657     25.9794    160.1195
  1354.1000      8.1117      2.5770      0.1081      4.4223     26.0006    156.6203
