~Version Information
VERS.                      2.0: CWLS Log ASCII Standard - VERSION 2.0
WRAP.                       NO: One line per depth step
~Well Information Block
STRT.FT               480.1000: 
STOP.FT              2029.0000: 
STEP.FT                 0.1000: 
NULL.                -999.2500: 
COMP.          Petrogulf Corporation: COMPANY
WELL.            Montoya 7-12R: WELL
FLD.           Purgatorie River: FIELD
LOC.           1769' FNL & 658' FWL: LOCATION
CNTY.               Las Animas: COUNTY
SRVC.                         : SERVICE COMPANY
DATE.          Mon Nov 22 07:21:54 2004: LOG DATE
UWI.           05 071 08240 00: UNIQUE WELL ID
STAT.                 Colorado: STATE
~Curve Information Block
DEPT.FT            0 000 00 00: Depth
DCAL.in                       : CDL Caliper
RHOB.g/cc                     : CDL Bulk Density
RHOC.g/cc                     : CDL Density Correction
DPOR.pu                       : CDL Density Porosity
GR.GAPI                       : Gamma Ray
NPOR.pu                       : Neutron Porosity
~Parameter Information Block
~A  Depth       DCAL        RHOB        RHOC        DPOR         GR         NPOR    
# ...
   499.3000   -999.2500   -999.2500   -999.2500   -999.2500     77.2169     44.3757
   499.4000   -999.2500   -999.2500   -999.2500   -999.2500     79.9564     44.6412
   499.5000   -999.2500   -999.2500   -999.2500   -999.2500     84.2901     45.1551
   499.6000   -999.2500   -999.2500   -999.2500   -999.2500     86.8892     45.3877
   499.7000   -999.2500   -999.2500   -999.2500   -999.2500     87.4789     44.9806
   499.8000   -999.2500   -999.2500   -999.2500   -999.2500     86.5852     44.6284
   499.9000   -999.2500   -999.2500   -999.2500   -999.2500     83.6284     45.0559
   500.0000   -999.2500   -999.2500   -999.2500   -999.2500     80.2448     45.7678
   500.1000   -999.2500   -999.2500   -999.2500   -999.2500     78.9805     46.2240
   500.2000   -999.2500   -999.2500   -999.2500   -999.2500     77.9205     46.4448
   500.3000   -999.2500   -999.2500   -999.2500   -999.2500     74.0416     46.4132
   500.4000   -999.2500   -999.2500   -999.2500   -999.2500     68.8518     45.9650
   500.5000   -999.2500   -999.2500   -999.2500   -999.2500     65.4559     45.1595
   500.6000   -999.2500   -999.2500   -999.2500   -999.2500     64.5321     44.5159
   500.7000   -999.2500   -999.2500   -999.2500   -999.2500     65.5443     44.2287
   500.8000   -999.2500   -999.2500   -999.2500   -999.2500     67.9841     44.2008
   500.9000   -999.2500   -999.2500   -999.2500   -999.2500     70.0319     44.6281
   501.0000   -999.2500   -999.2500   -999.2500   -999.2500     70.0460     45.3840
   501.1000   -999.2500   -999.2500   -999.2500   -999.2500     68.0998     45.6460
   501.2000   -999.2500   -999.2500   -999.2500   -999.2500     65.6666     44.9354
   501.3000   -999.2500   -999.2500   -999.2500   -999.2500     63.6438     43.9229
   501.4000   -999.2500   -999.2500   -999.2500   -999.2500     59.1313     43.3306
   501.5000   -999.2500   -999.2500   -999.2500   -999.2500     51.7905     42.9986
   501.6000   -999.2500   -999.2500   -999.2500   -999.2500     47.3209     42.5112
   501.7000   -999.2500   -999.2500   -999.2500   -999.2500     48.1704     42.0171
   501.8000   -999.2500   -999.2500   -999.2500   -999.2500     51.0351     42.1632
   501.9000   -999.2500   -999.2500   -999.2500   -999.2500     54.7284     42.9267
   502.0000   -999.2500   -999.2500   -999.2500   -999.2500     59.7172     43.5391
   502.1000   -999.2500   -999.2500   -999.2500   -999.2500     64.8417     43.7774
   502.2000   -999.2500   -999.2500   -999.2500   -999.2500     69.9535     43.9345
   502.3000   -999.2500   -999.2500   -999.2500   -999.2500     74.2966     43.8011
   502.4000   -999.2500   -999.2500     -0.0807   -999.2500     76.2802     43.6254
   502.5000      4.8891   -999.2500      0.0011   -999.2500     75.7435     44.0973
   502.6000      4.8891   -999.2500      0.1063   -999.2500     74.8084     44.8387
   502.7000      4.8891   -999.2500      0.0587   -999.2500     77.0315     45.2565
   502.8000      4.9256   -999.2500      0.1097   -999.2500     83.8555     45.4483
   502.9000      4.9256      1.8627      0.1054     47.7140     93.1651     45.7020
   503.0000      4.9022      1.9338      0.2335     43.4050     99.7635     45.9431
   503.1000      4.9022      2.0277      0.3674     37.7151     99.8700     45.9436
   503.2000      4.9022      2.1206      0.4190     32.0864     95.1765     45.8406
   503.3000      4.8911      2.2130      0.4225     26.4846     90.7312     45.8624
   503.4000      4.8911      2.3099      0.5311     20.6128     90.3286     45.9281
   503.5000      4.8761      2.3887      0.6081     15.8391     92.0217     46.0050
   503.6000      4.8761      2.4207      0.5844     13.8945     91.3201     46.1185
   503.7000      4.8761      2.4119      0.5347     14.4279     87.9228     46.1123
   503.8000      4.8814      2.3864      0.5158     15.9754     85.5304     45.8855
   503.9000      4.8814      2.3469      0.5002     18.3719     85.2130     45.5350
   504.0000      4.8967      2.2822      0.4551     22.2901     84.5278     45.2764
   504.1000      4.8967      2.1978      0.3901     27.4045     84.2454     45.3693
   504.2000      4.8967      2.1129      0.3277     32.5485     85.1206     45.8963
   504.3000      4.8998      2.0442      0.2996     36.7154     83.7212     46.6405
   504.4000      4.8998      2.0028      0.2748     39.2248     79.5325     47.3075
   504.5000      4.8975      2.0015      0.2685     39.3011     77.1852     47.6763
   504.6000      4.8975      2.0481      0.3632     36.4816     77.7139     47.4596
   504.7000      4.8975      2.1247      0.4491     31.8368     78.7366     46.5887
   504.8000      4.8990      2.2046      0.4838     26.9936     80.5722     45.7308
   504.9000      4.8990      2.2751      0.5556     22.7230     82.9438     45.6154
   505.0000      4.9191      2.3282      0.5713     19.5052     83.2934     46.1454
   505.1000      4.9191      2.3575      0.6006     17.7258     82.7876     46.8858
   505.2000      4.9191      2.3608      0.5860     17.5267     84.9495     47.4795
   505.3000      4.9117      2.3390      0.5528     18.8493     89.4037     47.6067
   505.4000      4.9117      2.2937      0.5635     21.5917     93.4928     47.2537
   505.5000      4.8710      2.2291      0.4935     25.5077     96.3800     46.8677
   505.6000      4.8710      2.1552      0.4546     29.9880     98.0745     46.9118
   505.7000      4.8710      2.0773      0.4610     34.7067     95.7128     47.3094
   505.8000      4.9152      1.9982      0.3624     39.5000     90.0919     47.7036
   505.9000      4.9152      1.9350      0.3126     43.3313     88.2510     47.8993
   506.0000      4.8992      1.9045      0.3814     45.1826     91.9463     47.6194
   506.1000      4.8992      1.9021      0.4074     45.3296     94.8158     46.7855
   506.2000      4.8992      1.9127      0.4768     44.6819     94.5088     45.8933
   506.3000      4.8629      1.9260      0.4869     43.8810     95.3749     45.4825
   506.4000      4.8629      1.9444      0.5073     42.7645     97.1937     45.6087
   506.5000      4.8777      1.9767      0.5141     40.8049     95.1642     45.9809
   506.6000      4.8777      2.0106      0.6323     38.7505     90.3589     46.3345
   506.7000      4.8777      2.0166      0.5908     38.3890     86.0687     46.5807
   506.8000      4.9176      1.9906      0.5747     39.9658     84.8776     46.7359
   506.9000      4.9176      1.9506      0.5441     42.3891     88.6749     46.8215
   507.0000      4.8948      1.9012      0.5641     45.3808     91.9775     46.6460
   507.1000      4.8948      1.8308      0.5452     49.6514     89.3799     46.2347
   507.2000      4.8948      1.7309      0.5322     55.7011     84.7916     45.8847
   507.3000      4.8721      1.6147      0.4500     62.7447     84.1889     45.7580
   507.4000      4.8721      1.5077      0.4477     69.2274     86.6607     45.6782
   507.5000      4.8867      1.4144      0.4853     74.8833     88.0002     45.3331
   507.6000      4.8867      1.3240      0.3945     80.3630     86.5233     44.9466
   507.7000      4.8867      1.2331      0.4014     85.8755     83.9577     44.8045
   507.8000      4.9019      1.1358      0.3509     91.7700     81.1901     44.6870
   507.9000      4.9019      1.0296      0.2668     98.2056     77.6122     44.4675
   508.0000      4.8642      0.9219      0.1905    104.7361     74.4456     44.3940
   508.1000      4.8642      0.8186      0.0830    110.9921     72.7156     44.5817
   508.2000      4.8642      0.7190      0.0059    117.0306     73.1392     44.8471
   508.3000      4.8453      0.6194     -0.0824    123.0639     76.1300     45.1211
   508.4000      4.8453      0.5303     -0.2370    128.4692     77.7620     45.3115
   508.5000      4.8507      0.4664     -0.2417    132.3384     73.8127     44.8310
   508.6000      4.8507      0.4229     -0.2766    134.9785     68.7675     43.9633
   508.7000      4.8507      0.3889     -0.3167    137.0358     70.3915     44.0316
   508.8000      4.8401      0.3607     -0.3231    138.7426     77.3593     44.8112
