~Version Information
VERS.                      2.0: CWLS Log ASCII Standard - VERSION 2.0
WRAP.                       NO: One line per depth step
~Well Information Block
STRT.FT               910.3000: 
STOP.FT              1932.5000: 
STEP.FT                 0.1000: 
NULL.                -999.2500: 
COMP.          Petrogulf Corporation: COMPANY
WELL.             State 16-34R: WELL
FLD.           Purgatorie River: FIELD
LOC.           1095' FSL & 1498' FEL: LOCATION
CNTY.               Las Animas: COUNTY
SRVC.                         : SERVICE COMPANY
DATE.          Thu May 06 14:28:18 2004: LOG DATE
UWI.           05 071 08032 00: UNIQUE WELL ID
STAT.                 Colorado: STATE
~Curve Information Block
DEPT.FT            0 000 00 00: Depth
DCAL.in                       : CDL Caliper
RHOB.g/cc                     : CDL Bulk Density
RHOC.g/cc                     : CDL Density Correction
DPOR.pu                       : CDL Density Porosity
NPOR.pu                       : Neutron Porosity
GR.GAPI                       : Gamma Ray
~Parameter Information Block
~A  Depth       DCAL        RHOB        RHOC        DPOR        NPOR         GR     
# ...
  1563.1000      7.8943      2.5193     -0.0453      7.9231     26.9113    118.1124
  1563.2000      7.8943      2.4937     -0.0202      9.4725     26.5337    118.5454
  1563.3000      7.9087      2.4726     -0.0360     10.7515     25.8039    121.5848
  1563.4000      7.9087      2.4575      0.0061     11.6670     25.1126    125.2610
  1563.5000      7.9333      2.4548      0.0023     11.8318     24.7910    129.7259
  1563.6000      7.9333      2.4766      0.0460     10.5110     24.9234    140.2216
  1563.7000      7.9333      2.5122      0.0906      8.3540     25.2385    156.0059
  1563.8000      7.9789      2.5263      0.1255      7.4946     25.2365    166.5042
  1563.9000      7.9789      2.4988      0.0913      9.1645     25.0936    168.0218
  1564.0000      7.9817      2.4515      0.0138     12.0273     25.1886    165.9569
  1564.1000      7.9817      2.4268      0.0264     13.5280     25.2229    164.5757
  1564.2000      7.9817      2.4372      0.0625     12.8992     25.0251    164.7818
  1564.3000      7.9463      2.4617      0.0999     11.4119     25.0534    163.8631
  1564.4000      7.9463      2.4739      0.1208     10.6710     25.3094    162.1106
  1564.5000      7.9491      2.4668      0.0985     11.1057     25.1514    163.7509
  1564.6000      7.9491      2.4553      0.1033     11.8003     24.4908    166.5177
  1564.7000      7.9491      2.4492      0.0941     12.1707     24.0606    168.0416
  1564.8000      7.9661      2.4482      0.0857     12.2291     24.2155    170.8048
  1564.9000      7.9661      2.4542      0.1184     11.8667     24.6199    172.5670
  1565.0000      8.0108      2.4706      0.1286     10.8707     24.7680    170.0748
  1565.1000      8.0108      2.5011      0.1071      9.0221     24.4309    166.7332
  1565.2000      8.0108      2.5336      0.1664      7.0557     24.0437    166.3347
  1565.3000      7.9822      2.5411      0.1248      6.5976     23.9572    167.7070
  1565.4000      7.9822      2.5212      0.0870      7.8049     23.8930    167.4191
  1565.5000      8.0016      2.4969      0.0986      9.2810     23.7386    166.1150
  1565.6000      8.0016      2.4876      0.0881      9.8435     23.6899    169.2945
  1565.7000      8.0016      2.4960      0.1023      9.3316     23.6517    174.1251
  1565.8000      7.9782      2.5011      0.1757      9.0242     23.4957    171.0331
  1565.9000      7.9782      2.4848      0.0581     10.0112     23.4396    161.7316
  1566.0000      8.0036      2.4675      0.0008     11.0620     23.4377    153.4973
  1566.1000      8.0036      2.4697      0.0703     10.9298     23.0705    148.7165
  1566.2000      8.0036      2.4792      0.0721     10.3504     22.3996    147.4617
  1566.3000      8.0028      2.4818      0.0919     10.1960     21.9311    149.2538
  1566.4000      8.0028      2.4816      0.0592     10.2033     21.7475    150.7056
  1566.5000      8.0262      2.4867      0.0558      9.8979     21.6695    147.4736
  1566.6000      8.0262      2.4943      0.0408      9.4369     21.9314    139.2350
  1566.7000      8.0262      2.5037      0.0309      8.8659     22.6952    130.5509
  1566.8000      8.0241      2.5206      0.0545      7.8424     23.7071    124.7512
  1566.9000      8.0241      2.5414      0.0621      6.5830     24.6881    119.1609
  1567.0000      8.0023      2.5582      0.0653      5.5607     25.3365    112.4417
  1567.1000      8.0023      2.5744     -0.0041      4.5829     25.6308    110.5444
  1567.2000      8.0023      2.5888      0.0186      3.7119     26.1912    115.3954
  1567.3000      7.9701      2.5845      0.0494      3.9712     27.2128    119.8346
  1567.4000      7.9701      2.5582      0.0240      5.5655     27.8441    119.2680
  1567.5000      7.9665      2.5309     -0.0004      7.2153     27.7139    116.4405
  1567.6000      7.9665      2.5194      0.0029      7.9172     27.4719    113.5918
  1567.7000      7.9665      2.5207      0.0082      7.8374     27.4794    109.7462
  1567.8000      7.9493      2.5262     -0.0092      7.5020     27.6516    107.0563
  1567.9000      7.9493      2.5296      0.0295      7.2956     27.9346    110.3095
  1568.0000      7.9375      2.5267      0.0157      7.4738     28.0570    118.1167
  1568.1000      7.9375      2.5240     -0.0001      7.6351     27.8448    125.0206
  1568.2000      7.9375      2.5350      0.0441      6.9680     27.5928    131.0762
  1568.3000      7.9472      2.5536      0.0654      5.8454     27.2784    136.3647
  1568.4000      7.9472      2.5542      0.0783      5.8054     26.8104    138.0505
  1568.5000      7.9589      2.5314     -0.0377      7.1897     26.5063    135.5563
  1568.6000      7.9589      2.5119      0.0174      8.3676     26.5325    133.2339
  1568.7000      7.9589      2.5224     -0.0126      7.7311     26.7098    134.2975
  1568.8000      7.9523      2.5566      0.1038      5.6600     26.8617    137.8505
  1568.9000      7.9523      2.5758      0.1034      4.4995     26.8995    141.8099
  1569.0000      7.9573      2.5641      0.0195      5.2041     26.7876    143.5458
  1569.1000      7.9573      2.5435      0.0585      6.4549     26.5629    143.5741
  1569.2000      7.9573      2.5296      0.0301      7.2992     26.4431    144.3362
  1569.3000      7.9571      2.5181      0.0416      7.9969     26.6726    145.0127
  1569.4000      7.9571      2.5074     -0.0266      8.6425     27.2107    145.0927
  1569.5000      7.9604      2.5050      0.0059      8.7909     27.7683    146.2049
  1569.6000      7.9604      2.5051     -0.0202      8.7815     27.8258    149.2681
  1569.7000      7.9604      2.5008     -0.0013      9.0398     27.2403    151.7954
  1569.8000      7.9794      2.4963      0.0022      9.3162     26.7104    150.4736
  1569.9000      7.9794      2.4971      0.0320      9.2647     26.7522    147.4042
  1570.0000      8.0033      2.5071      0.0281      8.6600     26.9739    146.3965
  1570.1000      8.0033      2.5251      0.0659      7.5673     26.7892    146.9632
  1570.2000      8.0033      2.5369      0.0907      6.8523     26.2500    146.3938
  1570.3000      8.0137      2.5319      0.0149      7.1555     25.8758    142.9334
  1570.4000      8.0137      2.5210      0.0453      7.8188     25.8912    137.8376
  1570.5000      8.0439      2.5157      0.0407      8.1420     26.0758    136.0988
  1570.6000      8.0439      2.5148      0.0803      8.1960     26.2430    138.8774
  1570.7000      8.0439      2.5139      0.0557      8.2482     26.3419    143.4202
  1570.8000      8.0627      2.5117      0.0516      8.3828     26.4647    148.5037
  1570.9000      8.0627      2.5089      0.0092      8.5529     26.7430    150.7561
  1571.0000      8.0591      2.5099      0.0207      8.4920     27.1653    147.6555
  1571.1000      8.0591      2.5129      0.0548      8.3063     27.3766    142.0438
  1571.2000      8.0591      2.5038      0.0976      8.8614     27.0007    139.8816
  1571.3000      8.0349      2.4766      0.0799     10.5084     26.3335    145.0105
  1571.4000      8.0349      2.4541     -0.0154     11.8697     25.9538    152.1819
  1571.5000      8.0293      2.4572      0.0250     11.6863     25.7786    155.1140
  1571.6000      8.0293      2.4725      0.0701     10.7596     25.3898    155.0234
  1571.7000      8.0293      2.4810      0.0652     10.2411     24.9934    153.2591
  1571.8000      8.0502      2.4815      0.0630     10.2149     24.8066    150.9837
  1571.9000      8.0502      2.4755      0.0891     10.5733     24.6021    150.8488
  1572.0000      8.0392      2.4655      0.0602     11.1829     24.3146    153.1492
  1572.1000      8.0392      2.4555      0.0802     11.7879     24.2178    154.9304
  1572.2000      8.0392      2.4448      0.0656     12.4343     24.4472    154.7807
  1572.3000      8.0800      2.4414      0.0406     12.6413     24.7071    155.7036
  1572.4000      8.0800      2.4550      0.0483     11.8165     24.7341    160.6810
  1572.5000      8.0953      2.4726      0.0973     10.7519     24.6847    165.9874
  1572.6000      8.0953      2.4729      0.0688     10.7309     24.7528    166.6141
