~Version Information
VERS.                      2.0: CWLS Log ASCII Standard - VERSION 2.0
WRAP.                       NO: One line per depth step
~Well Information Block
STRT.FT               -11.7500: 
STOP.FT              2025.5000: 
STEP.FT                 0.2500: 
NULL.                -999.2500: 
COMP.          Evergreen Operating Corp.: COMPANY
WELL.            Sumatra 34-22: WELL
FLD.           Purgatorie River: FIELD
LOC.           542 FSL & 2438 FEL--: LOCATION
PROV.                       CO: PROVINCE
CNTY.               Las Animas: COUNTRY
SRVC.          Patterson Wireline, Inc.: SERVICE COMPANY
DATE.          Wed Apr 02 10:17:21 2003: LOG DATE
UWI.           05 071 07804 00: UNIQUE WELL ID
~Curve Information Block
DEPT.FT            0 000 00 00: Depth
CCL.                          : Casing Collar Locator
TT3.usec                      : CBL 3' Travel Time
AMP3.mV                       : CBL 3' Amplitude
GR.GAPI                       : Gamma Ray
~Parameter Information Block
~A  Depth       CCL         TT3         AMP3         GR     
# ...
  1194.2500      0.0000    757.3182      3.1420    171.3265
  1194.5000      0.0000    757.7479      2.9478    177.5838
  1194.7500      0.0000    758.9124      2.7607    182.1614
  1195.0000      0.0000    761.9429      2.5925    182.4991
  1195.2500      0.0000    766.6718      2.4728    177.7020
  1195.5000      0.0000    770.3385      2.4325    167.9254
  1195.7500      0.0000    771.3707      2.4635    154.0586
  1196.0000      0.0000    771.4385      2.5243    138.0823
  1196.2500      0.0000    770.4641      2.5813    123.1414
  1196.5000      0.0000    766.5612      2.6226    112.7735
  1196.7500      0.0000    761.2238      2.6478    109.4327
  1197.0000      0.0000    757.6337      2.6635    113.1293
  1197.2500      0.0000    756.4684      2.6948    121.5714
  1197.5000      0.0000    756.4404      2.7786    131.9179
  1197.7500      0.0000    756.2292      2.9330    142.3359
  1198.0000      0.0000    754.8644      3.1411    152.1239
  1198.2500      0.0000    751.5877      3.3459    160.9474
  1198.5000      0.0000    747.2654      3.4504    168.1673
  1198.7500      0.0000    745.3672      3.4037    172.7077
  1199.0000      0.0000    748.0172      3.2667    173.5608
  1199.2500      0.0000    752.6151      3.1334    170.6708
  1199.5000      0.0000    755.7802      3.0641    165.3510
  1199.7500      0.0000    757.1025      3.0822    159.7044
  1200.0000      0.0000    757.5941      3.1638    155.5529
  1200.2500      0.0000    757.7994      3.2682    153.6749
  1200.5000      0.0000    757.8014      3.3849    153.4515
  1200.7500      0.0000    757.6232      3.5032    153.1453
  1201.0000      0.0000    757.3574      3.5695    151.4010
  1201.2500      0.0000    757.1115      3.5547    149.1182
  1201.5000      0.0000    756.9080      3.5199    149.1591
  1201.7500      0.0000    756.7302      3.5306    153.2733
  1202.0000      0.0000    756.6696      3.5776    159.6029
  1202.2500      0.0000    756.8597      3.6304    163.9810
  1202.5000      0.0000    757.2374      3.6888    163.7313
  1202.7500      0.0000    757.5970      3.7544    159.9865
  1203.0000      0.0000    757.8588      3.8087    156.4465
  1203.2500      0.0000    758.0357      3.8355    156.1112
  1203.5000      0.0000    758.1015      3.8339    159.0687
  1203.7500      0.0000    758.0741      3.8094    162.9096
  1204.0000      0.0000    758.0350      3.7716    164.7691
  1204.2500      0.0000    758.0349      3.7281    163.1691
  1204.5000      0.0000    758.0743      3.6807    158.5824
  1204.7500      0.0000    758.1036      3.6277    152.5694
  1205.0000      0.0000    758.0521      3.5757    146.2384
  1205.2500      0.0000    757.9468      3.5297    139.5588
  1205.5000      0.0000    757.9304      3.4685    132.2944
  1205.7500      0.0000    758.2668      3.3862    125.1544
  1206.0000      0.0000    759.4779      3.3418    119.4612
  1206.2500      0.0000    761.2013      3.3850    115.8651
  1206.5000      0.0000    759.6638      3.4698    113.8624
  1206.7500      0.0000    752.0256      3.4855    112.5464
  1207.0000      0.0000    747.3217      3.3608    111.6512
  1207.2500      0.0000    758.7662      3.1499    111.8716
  1207.5000      0.0000    781.9753      2.9863    114.1119
  1207.7500      0.0000    799.4528      2.9424    118.3793
  1208.0000      0.0000    802.7038      2.9786    123.6956
  1208.2500     -1.5833    797.1356      3.0232    129.2942
  1208.5000      1.9305    791.8456      3.0439    135.4688
  1208.7500      1.6693    791.3448      3.0300    142.8318
  1209.0000      0.0000    793.3633      2.9704    150.9384
  1209.2500      0.0000    789.9880      2.9039    158.0641
  1209.5000      0.0000    774.6627      2.9575    162.4686
  1209.7500      0.0000    752.4980      3.1796    163.7499
  1210.0000      0.0000    737.0437      3.3796    162.8243
  1210.2500      0.0000    735.4061      3.3806    160.8005
  1210.5000      0.0000    742.8758      3.2732    158.2909
  1210.7500      0.0000    750.8126      3.2150    155.7544
  1211.0000      0.0000    755.0750      3.2302    153.8772
  1211.2500      0.0000    756.5157      3.2792    153.2534
  1211.5000      0.0000    756.9674      3.3603    153.8300
  1211.7500      0.0000    757.1824      3.4749    154.7058
  1212.0000      0.0000    757.2516      3.5568    154.5363
  1212.2500      0.0000    757.2153      3.5469    152.4796
  1212.5000      0.0000    757.1423      3.4804    148.9651
  1212.7500      0.0000    757.1599      3.4242    145.4690
  1213.0000      0.0000    757.4467      3.4282    143.4974
  1213.2500      0.0000    757.9979      3.5189    143.7383
  1213.5000      0.0000    758.5378      3.6600    145.7838
  1213.7500      0.0000    758.7660      3.7820    148.3508
  1214.0000      0.0000    758.6215      3.8660    149.9398
  1214.2500      0.0000    758.2682      3.9400    149.6705
  1214.5000      0.0000    757.8998      4.0091    147.7290
  1214.7500      0.0000    757.6103      4.0339    145.2885
  1215.0000      0.0000    757.3560      3.9885    143.9946
  1215.2500      0.0000    757.0347      3.9047    144.8985
  1215.5000      0.0000    756.6766      3.8306    147.3649
  1215.7500      0.0000    756.5239      3.7898    149.4078
  1216.0000      0.0000    756.9806      3.7800    149.5000
  1216.2500      0.0000    758.7445      3.7802    147.7524
  1216.5000      0.0000    762.6110      3.7774    145.2654
  1216.7500      0.0000    767.6675      3.7699    142.8258
  1217.0000      0.0000    770.4282      3.7579    140.2938
  1217.2500      0.0000    769.5703      3.7526    136.8476
  1217.5000      0.0000    769.9208      3.7636    131.7149
  1217.7500      0.0000    776.6155      3.7755    124.7184
  1218.0000      0.0000    787.7804      3.7590    116.2245
  1218.2500      0.0000    797.0184      3.6931    106.9833
  1218.5000      0.0000    800.2861      3.5807     98.1741
  1218.7500      0.0000    796.9193      3.4611     91.1715
  1219.0000      0.0000    787.6795      3.3916     86.9558
  1219.2500      0.0000    775.7339      3.4148     85.7509
  1219.5000      0.0000    765.9552      3.5082     87.0779
  1219.7500      0.0000    760.6363      3.5779     89.8553
  1220.0000      0.0000    758.5375      3.5616     92.5510
  1220.2500      0.0000    757.7918      3.5009     93.8701
  1220.5000      0.0000    757.4686      3.4625     93.7369
  1220.7500      0.0000    757.2578      3.4309     93.4895
  1221.0000      0.0000    757.0746      3.3656     94.8357
  1221.2500      0.0000    756.8842      3.3154     98.4256
  1221.5000      0.0000    756.6493      3.3484    103.2991
  1221.7500      0.0000    756.4118      3.4223    107.5891
  1222.0000      0.0000    756.3016      3.4179    109.7658
  1222.2500      0.0000    756.3834      3.2926    109.4061
  1222.5000      0.0000    756.5684      3.1511    107.0897
  1222.7500      0.0000    756.7436      3.1155    103.7572
  1223.0000      0.0000    756.9076      3.1782    100.1355
  1223.2500      0.0000    757.0993      3.2326     96.5354
  1223.5000      0.0000    757.4893      3.2128     92.9216
  1223.7500      0.0000    758.8522      3.1519     89.1557
  1224.0000      0.0000    762.3748      3.0852     85.5107
  1224.2500      0.0000    767.6600      3.0093     83.0693
  1224.5000      0.0000    771.9813      2.9587     83.2048
  1224.7500      0.0000    774.8392      2.9893     86.2643
  1225.0000      0.0000    780.0681      3.1052     90.9190
  1225.2500      0.0000    788.9858      3.2598     95.0109
  1225.5000      0.0000    797.4818      3.3879     96.8743
  1225.7500      0.0000    802.2756      3.4531     95.8694
  1226.0000      0.0000    803.9937      3.4555     92.3179
  1226.2500      0.0000    804.4128      3.3866     87.4833
  1226.5000      0.0000    804.4926      3.2496     83.2740
  1226.7500      0.0000    804.5390      3.0913     81.1606
  1227.0000      0.0000    804.7563      2.9411     81.1855
  1227.2500      0.0000    805.5978      2.7914     82.2264
  1227.5000      0.0000    807.6231      2.6662     83.0016
