~Version Information
VERS.                      2.0: CWLS Log ASCII Standard - VERSION 2.0
WRAP.                       NO: One line per depth step
~Well Information Block
STRT.FT               962.7000: 
STOP.FT              2435.5000: 
STEP.FT                 0.1000: 
NULL.                -999.2500: 
COMP.          Petrogulf Corporation: COMPANY
WELL.              Hand 8-44 V: WELL
FLD.           Purgatorie River: FIELD
LOC.           1076' FEL & 820' FSL: LOCATION
CNTY.               Las Animas: COUNTY
SRVC.                         : SERVICE COMPANY
DATE.          Fri Nov 21 14:12:41 2003: LOG DATE
UWI.                          : UNIQUE WELL ID
STAT.                 Colorado: STATE
~Curve Information Block
DEPT.FT            0 000 00 00: Depth
DCAL.in                       : CDL Caliper
RHOB.g/cc                     : CDL Bulk Density
RHOC.g/cc                     : CDL Density Correction
DPOR.pu                       : CDL Density Porosity
GR.GAPI                       : Gamma Ray
NPOR.pu                       : Neutron Porosity
~Parameter Information Block
~A  Depth       DCAL        RHOB        RHOC        DPOR         GR         NPOR    
# ...
  1461.9000      8.2057      2.5559      0.0790      5.7009     98.1202     23.2038
  1462.0000      8.2092      2.5456      0.0628      6.3270     96.8400     22.9265
  1462.1000      8.2092      2.5557      0.0883      5.7151     94.0425     22.8681
  1462.2000      8.2092      2.5684      0.1236      4.9452     92.4781     22.8751
  1462.3000      8.2049      2.5596      0.0759      5.4787     90.3553     22.5162
  1462.4000      8.2049      2.5301      0.0854      7.2659     89.2351     22.0910
  1462.5000      8.1998      2.4990      0.0412      9.1544     89.9700     21.9724
  1462.6000      8.1998      2.4791      0.0371     10.3549     90.4644     21.9350
  1462.7000      8.1998      2.4751      0.0244     10.6019     90.8869     21.9247
  1462.8000      8.1973      2.4840      0.0746     10.0632     92.8454     22.0479
  1462.9000      8.1973      2.4991      0.0207      9.1472     94.0297     22.1777
  1463.0000      8.1940      2.5143      0.1043      8.2230     93.3040     22.3184
  1463.1000      8.1940      2.5202      0.0600      7.8674     93.0159     22.4861
  1463.2000      8.1940      2.5267     -0.0197      7.4721     92.3349     22.4668
  1463.3000      8.1766      2.5494      0.0512      6.0962     91.0094     22.3179
  1463.4000      8.1766      2.5703      0.1386      4.8314     94.6810     22.2254
  1463.5000      8.1684      2.5691      0.1242      4.9044    102.7292     22.2433
  1463.6000      8.1684      2.5569      0.0801      5.6405    106.0696     22.5381
  1463.7000      8.1684      2.5468      0.0888      6.2531    101.0358     22.9742
  1463.8000      8.1743      2.5442      0.0722      6.4131     93.1967     23.1107
  1463.9000      8.1743      2.5542      0.0621      5.8048     87.2690     23.0279
  1464.0000      8.1740      2.5645      0.0920      5.1843     83.6382     23.3362
  1464.1000      8.1740      2.5527      0.0941      5.8992     80.3026     24.1142
  1464.2000      8.1740      2.5258     -0.0489      7.5286     77.0422     24.8470
  1464.3000      8.1668      2.5117     -0.0198      8.3805     75.7661     25.2733
  1464.4000      8.1668      2.5120      0.0466      8.3643     77.8246     25.5232
  1464.5000      8.1850      2.5200     -0.0381      7.8811     80.4990     25.7636
  1464.6000      8.1850      2.5430      0.0381      6.4849     78.5080     25.8771
  1464.7000      8.1850      2.5748      0.0577      4.5583     74.2359     25.8088
  1464.8000      8.2040      2.5944      0.0746      3.3697     74.2545     25.7722
  1464.9000      8.2040      2.5869      0.1204      3.8262     78.7117     25.9269
  1465.0000      8.2081      2.5530      0.0056      5.8814     84.7083     26.1321
  1465.1000      8.2081      2.5141      0.0272      8.2374     91.9472     26.2245
  1465.2000      8.2081      2.4987     -0.0175      9.1683     96.6980     26.4496
  1465.3000      8.2093      2.5149      0.0181      8.1884     96.7054     26.8687
  1465.4000      8.2093      2.5369      0.0238      6.8529     98.8071     26.9837
  1465.5000      8.2088      2.5355      0.0585      6.9388    107.3091     26.6871
  1465.6000      8.2088      2.5188     -0.0426      7.9494    114.0726     26.3886
  1465.7000      8.2088      2.5191      0.0012      7.9329    109.2421     26.3462
  1465.8000      8.1967      2.5413      0.0710      6.5882     97.0406     26.6500
  1465.9000      8.1967      2.5551      0.1546      5.7514     87.2892     27.1729
  1466.0000      8.1861      2.5490      0.0383      6.1187     84.4080     27.3898
  1466.1000      8.1861      2.5522      0.0783      5.9266     88.3340     27.2015
  1466.2000      8.1861      2.5823      0.0961      4.1049     94.6282     27.0259
  1466.3000      8.1691      2.6233      0.1634      1.6197     99.1849     26.9999
  1466.4000      8.1691      2.6499      0.1375      0.0038    101.0543     26.9050
  1466.5000      8.1694      2.6552      0.0833     -0.3139    101.4422     26.5160
  1466.6000      8.1694      2.6514      0.0865     -0.0869    102.2240     26.0258
  1466.7000      8.1694      2.6451      0.1589      0.2982    100.9221     25.8224
  1466.8000      8.1706      2.6339      0.0565      0.9745     94.5482     25.8853
  1466.9000      8.1706      2.6255      0.0644      1.4875     87.6345     25.7350
  1467.0000      8.1771      2.6297      0.0363      1.2277     86.0686     25.1047
  1467.1000      8.1771      2.6401      0.0702      0.6028     89.8810     24.3956
  1467.2000      8.1771      2.6424      0.0542      0.4585     96.5952     23.7693
  1467.3000      8.1793      2.6387      0.0182      0.6865    101.9272     23.0284
  1467.4000      8.1793      2.6298      0.1139      1.2247    104.3480     22.2806
  1467.5000      8.1681      2.6080      0.0065      2.5466    107.4324     21.7669
  1467.6000      8.1681      2.5749      0.0111      4.5531    113.4874     21.5445
  1467.7000      8.1681      2.5407     -0.0329      6.6222    125.0598     21.1835
  1467.8000      8.2110      2.5163     -0.0752      8.1004    143.1721     20.4887
  1467.9000      8.2110      2.4915      0.0237      9.6082    162.5987     19.9952
  1468.0000      8.3564      2.4406      0.0019     12.6911    173.7086     19.9144
  1468.1000      8.3564      2.3617     -0.0486     17.4734    168.1364     20.1374
  1468.2000      8.3564      2.2739      0.0156     22.7920    151.7139     20.6317
  1468.3000      8.5275      2.1870      0.0720     28.0621    143.1651     21.0749
  1468.4000      8.5275      2.0966      0.0413     33.5382    148.3206     21.0718
  1468.5000      8.6222      1.9946      0.0629     39.7232    155.3572     20.8833
  1468.6000      8.6222      1.8805     -0.0257     46.6338    157.6811     21.0350
  1468.7000      8.6222      1.7945     -0.0778     51.8474    161.2287     21.4647
  1468.8000      8.7317      1.8070      0.0737     51.0935    167.4435     21.8257
  1468.9000      8.7317      1.9506      0.3248     42.3852    168.1200     22.0201
  1469.0000      8.9313      2.1738      0.7150     28.8612    164.8561     22.2079
  1469.1000      8.9313      2.3951      0.8314     15.4473    168.8146     22.8060
  1469.2000      8.9313      2.5863      0.8493      3.8606    179.7951     24.0792
  1469.3000      8.9003      2.7346      0.9311     -5.1258    187.3046     25.4900
  1469.4000      8.9003      2.8048      0.8530     -9.3834    187.0437     26.3616
  1469.5000      8.8112      2.8062      0.6249     -9.4696    184.4969     26.7720
  1469.6000      8.8112      2.7936      0.5781     -8.7015    185.7739     27.1203
  1469.7000      8.8112      2.7760      0.6567     -7.6349    187.8913     27.2760
  1469.8000      8.7506      2.7158      0.5360     -3.9902    184.9001     26.9497
  1469.9000      8.7506      2.6077      0.4544      2.5641    176.2748     26.4768
  1470.0000      8.8486      2.5049      0.1260      8.7938    166.9759     26.2284
  1470.1000      8.8486      2.4635      0.1008     11.3060    164.9030     26.0923
  1470.2000      8.8486      2.4670      0.1256     11.0925    171.7773     26.0623
  1470.3000      8.9734      2.4603      0.1347     11.4954    177.4250     26.1443
  1470.4000      8.9734      2.4216      0.1435     13.8416    175.2730     26.0898
  1470.5000      8.9501      2.3586      0.1402     17.6618    170.1785     25.5847
  1470.6000      8.9501      2.2857      0.0657     22.0782    163.9009     24.5654
  1470.7000      8.9501      2.2257      0.0692     25.7132    156.6044     23.3617
  1470.8000      8.5956      2.2187     -0.0406     26.1423    151.2887     22.3003
  1470.9000      8.5956      2.2974      0.0516     21.3703    150.8622     21.6246
  1471.0000      8.5034      2.4359      0.2183     12.9754    154.3899     21.3907
  1471.1000      8.5034      2.5712      0.3917      4.7774    159.7290     21.1993
  1471.2000      8.5034      2.6637      0.4650     -0.8296    166.7491     20.7696
  1471.3000      8.6358      2.7039      0.5479     -3.2651    172.0145     20.4400
  1471.4000      8.6358      2.6882      0.5370     -2.3144    169.6145     20.4694
