~Version Information
VERS.                      2.0: CWLS Log ASCII Standard - VERSION 2.0
WRAP.                       NO: One line per depth step
~Well Information Block
STRT.FT               -13.5000: 
STOP.FT              2092.5000: 
STEP.FT                 0.2500: 
NULL.                -999.2500: 
COMP.          Petrogulf Corporation: COMPANY
WELL.          Robinson 15-11V: WELL
FLD.           Purgatorie River: FIELD
LOC.           226' FNL & 592' FWL--: LOCATION
CNTY.               Las Animas: COUNTY
SRVC.                         : SERVICE COMPANY
DATE.          Tue Aug 17 13:05:46 2004: LOG DATE
UWI.                          : UNIQUE WELL ID
STAT.                       CO: STATE
~Curve Information Block
DEPT.FT            0 000 00 00: Depth
CCL.                          : Casing Collar Locator
TT3.usec                      : CBL 3' Travel Time
AMP3.mV                       : CBL 3' Amplitude
GR.GAPI                       : Gamma Ray
~Parameter Information Block
~A  Depth       CCL         TT3         AMP3         GR     
# ...
  1360.0000      0.0000    720.0140      6.1262     85.2125
  1360.2500      0.0000    719.2657      6.1390     80.8679
  1360.5000      0.0000    719.4621      6.1735     80.3034
  1360.7500      0.0000    721.4897      6.2304     85.1932
  1361.0000      0.0000    724.8029      6.2797     95.8722
  1361.2500      0.0000    728.6016      6.3530    111.2525
  1361.5000      0.0000    732.7767      6.5210    128.8330
  1361.7500      0.0000    737.0463      6.7834    145.1736
  1362.0000      0.0000    738.4287      7.0601    157.1897
  1362.2500      0.0000    729.8383      7.3069    163.8437
  1362.5000      0.0000    703.3137      7.5683    166.6712
  1362.7500      0.0000    658.2509      7.8767    167.9147
  1363.0000      0.0000    608.1958      8.1475    167.9188
  1363.2500      0.0000    576.4528      8.2360    165.1031
  1363.5000      0.0000    579.6380      8.0905    158.5233
  1363.7500      0.0000    613.8237      7.7953    149.5043
  1364.0000      0.0000    658.5345      7.4585    140.5581
  1364.2500      0.0000    693.8676      7.1115    133.4610
  1364.5000      0.0000    711.9674      6.7467    128.4208
  1364.7500      0.0000    714.6011      6.4019    124.3989
  1365.0000      0.0000    704.5208      6.1421    120.0594
  1365.2500      0.0000    680.5205      5.9746    114.6326
  1365.5000      0.0000    640.0709      5.8484    107.9896
  1365.7500      0.0000    587.7698      5.7417    100.2193
  1366.0000      0.0000    540.9904      5.6895     91.6777
  1366.2500      0.0000    522.5331      5.6982     83.5774
  1366.5000      0.0000    543.2031      5.6882     77.9492
  1366.7500      0.0000    592.0345      5.5755     76.3137
  1367.0000      0.0000    645.4164      5.3945     78.2974
  1367.2500      0.0000    684.9916      5.2847     81.8299
  1367.5000      0.0000    706.4797      5.3447     84.6989
  1367.7500      0.0000    715.2906      5.5299     85.8460
  1368.0000      0.0000    718.2828      5.7099     85.4512
  1368.2500      0.0000    719.5892      5.7993     84.2582
  1368.5000      0.0000    720.6823      5.8020     82.8147
  1368.7500      0.0000    721.7548      5.7483     81.0860
  1369.0000      0.0000    722.6591      5.6497     78.8368
  1369.2500      0.0000    723.1709      5.5311     76.3437
  1369.5000      0.0000    722.7767      5.4493     74.3377
  1369.7500      0.0000    720.4164      5.4373     73.2415
  1370.0000      0.0000    714.8353      5.4729     73.0250
  1370.2500      0.0000    706.1825      5.5332     73.9933
  1370.5000      0.0000    697.7230      5.6308     77.2724
  1370.7500      0.0000    694.6525      5.7621     84.1922
  1371.0000      0.0000    699.4245      5.8686     95.1903
  1371.2500      0.0000    708.3857      5.9023    109.0839
  1371.5000      0.0000    713.8367      5.8904    123.2006
  1371.7500      0.0000    708.9584      5.8865    134.5993
  1372.0000      0.0000    691.2490      5.8897    141.6950
  1372.2500      0.0000    664.3782      5.8719    144.7794
  1372.5000      0.0000    638.4622      5.8743    145.2050
  1372.7500      0.0000    625.8256      6.0119    144.6018
  1373.0000      0.0000    632.8397      6.3581    144.5097
  1373.2500      0.0000    655.2554      6.8467    145.7352
  1373.5000      0.0000    681.9664      7.3066    147.8593
  1373.7500      0.0000    702.5782      7.5998    149.7007
  1374.0000      0.0000    710.7711      7.7409    150.2216
  1374.2500      0.0000    702.9433      7.8903    148.9515
  1374.5000      0.0000    677.6776      8.2105    146.0078
  1374.7500      0.0000    638.2651      8.7010    142.0558
  1375.0000      0.0000    594.5735      9.1702    138.1538
  1375.2500      0.0000    561.2095      9.3866    135.5647
  1375.5000      0.0000    552.6223      9.2657    135.4788
  1375.7500      0.0000    575.6741      8.9112    138.2601
  1376.0000      0.0000    623.0333      8.4854    142.6535
  1376.2500      0.0000    675.9173      8.0603    146.2121
  1376.5000      0.0000    716.5551      7.6106    146.9219
  1376.7500      0.0000    738.0327      7.1349    144.3381
  1377.0000      0.0000    743.5471      6.7264    139.1231
  1377.2500      0.0000    740.0110      6.4805    131.8680
  1377.5000      0.0000    733.0020      6.3694    122.7263
  1377.7500      0.0000    725.1132      6.2777    112.0775
  1378.0000      0.0000    716.9084      6.1533    101.2357
  1378.2500      0.0000    709.1208      6.0551     92.3187
  1378.5000      0.0000    703.6884      6.0328     87.3059
  1378.7500      0.0000    702.6183      6.0276     87.0808
  1379.0000      0.0000    706.1716      5.9385     91.2489
  1379.2500      0.0000    712.1215      5.7592     98.5619
  1379.5000      0.0000    716.6461      5.5987    107.2480
  1379.7500      0.0000    716.6090      5.5609    115.2277
  1380.0000      0.0000    711.9461      5.6312    120.6088
  1380.2500      0.0000    706.0028      5.6933    122.4441
  1380.5000      0.0000    703.1887      5.6466    121.1511
  1380.7500      0.0000    706.0024      5.5027    118.1238
  1381.0000      0.0000    713.8193      5.3677    114.8370
  1381.2500      0.0000    723.7181      5.3217    112.2179
  1381.5000      0.0000    731.9304      5.3184    110.4556
  1381.7500      0.0000    735.1754      5.2251    108.9149
  1382.0000      0.0000    731.9865      4.9707    106.6033
  1382.2500      0.0000    723.4476      4.6358    103.4637
  1382.5000      0.0000    712.5906      4.3788    100.8491
  1382.7500      0.0000    703.0357      4.2718    100.1080
  1383.0000      0.0000    697.8433      4.2239    101.3759
  1383.2500      0.0000    698.5602      4.0762    104.4457
  1383.5000      0.0000    704.3826      3.7717    109.9309
  1383.7500      0.0000    712.1797      3.4190    118.2935
  1384.0000      0.0000    718.1653      3.1857    127.7168
  1384.2500      0.0000    720.3429      3.1362    133.9657
  1384.5000      0.0000    719.3652      3.1816    133.1988
  1384.7500      0.0000    716.9836      3.1749    125.0459
  1385.0000      0.0000    714.0320      3.0369    112.7794
  1385.2500      0.0000    709.9843      2.7978    100.4786
  1385.5000      0.0000    703.9528      2.5504     90.0771
  1385.7500      0.0000    695.8787      2.3795     81.1125
  1386.0000      0.0000    686.9653      2.3117     72.7634
  1386.2500      0.0000    678.9923      2.2944     65.2258
  1386.5000      0.0000    673.0912      2.2271     59.0912
  1386.7500      0.0000    669.0228      2.0558     54.5006
  1387.0000      0.0000    665.3641      1.8502     51.6220
  1387.2500      0.0000    660.0934      1.7600     51.3227
  1387.5000      0.0000    651.4440      1.8796     54.4048
  1387.7500      0.0000    639.4586      2.1617     60.2788
  1388.0000      0.0000    626.8151      2.4662     67.0591
  1388.2500      0.0000    616.7041      2.6894     73.0403
  1388.5000      0.0000    609.4113      2.8471     77.8002
  1388.7500      0.0000    603.0234      3.0419     82.0463
  1389.0000      0.0000    597.9785      3.3539     86.8112
  1389.2500      0.0000    598.0965      3.7554     92.7175
  1389.5000      0.0000    605.6990      4.1167     99.6544
  1389.7500      0.0000    617.7601      4.2883    106.9439
  1390.0000      0.0000    628.7592      4.1924    113.6867
  1390.2500      0.0000    636.5619      3.8675    118.9938
  1390.5000      0.0000    643.6823      3.4439    122.0953
  1390.7500      0.0000    653.0609      3.0648    122.3577
  1391.0000      0.0000    664.7210      2.8074    119.3117
  1391.2500      0.0000    676.5154      2.6565    112.9636
  1391.5000      0.0000    686.0472      2.5359    104.1376
  1391.7500      0.0000    691.4401      2.3696     94.3796
  1392.0000      0.0000    691.7992      2.1394     85.5986
  1392.2500      0.0000    687.9288      1.9006     79.7134
  1392.5000      0.0000    682.0511      1.7387     77.8504
  1392.7500      0.0000    676.4431      1.7109     79.2521
  1393.0000     -2.0000    672.3115      1.8220     81.3554
  1393.2500      2.0000    669.7488      2.0309     81.6883
