~Version Information
VERS.                      2.0: CWLS Log ASCII Standard - VERSION 2.0
WRAP.                       NO: One line per depth step
~Well Information Block
STRT.FT               245.0000: 
STOP.FT              1919.7000: 
STEP.FT                 0.1000: 
NULL.                -999.2500: 
COMP.          Pioneer Natural Resources: COMPANY
WELL.          Oink Oink 14-36 Tr: WELL
FLD.           Purgatoire River: FIELD
LOC.           236' FSL & 164' FWL--: LOCATION
PROV.                 Colorado: PROVINCE
CNTY.               Las Animas: COUNTRY
SRVC.                Patterson: SERVICE COMPANY
DATE.          Fri Jun 10 08:23:18 2005: LOG DATE
UWI.           05 071 08393 00: UNIQUE WELL ID
~Curve Information Block
DEPT.FT            0 000 00 00: Depth
DCAL.in                       : CDL Caliper
RHOB.g/cc                     : CDL Bulk Density
RHOC.g/cc                     : CDL Density Correction
DPOR.pu                       : CDL Density Porosity
NPOR.pu                       : Neutron Porosity
GR.GAPI                       : Gamma Ray
~Parameter Information Block
~A  Depth       DCAL        RHOB        RHOC        DPOR        NPOR         GR     
# ...
  1886.6000      7.8788      2.4939      0.0546      9.4605     28.0160    137.8125
  1886.7000      7.8788      2.5008      0.0954      9.0414     27.5888    129.1826
  1886.8000      7.8769      2.5004      0.0653      9.0657     27.1480    123.8576
  1886.9000      7.8769      2.4905      0.0742      9.6659     27.4642    121.8428
  1887.0000      7.8757      2.4831      0.0331     10.1144     28.4125    120.6443
  1887.1000      7.8757      2.4878      0.0472      9.8313     29.1802    124.9701
  1887.2000      7.8757      2.4921      0.0989      9.5691     29.8255    135.7360
  1887.3000      7.8758      2.4720      0.1029     10.7869     30.5349    143.6952
  1887.4000      7.8758      2.4266      0.0575     13.5372     31.2580    136.1400
  1887.5000      7.8764      2.3747      0.0187     16.6843     32.1952    102.2497
  1887.6000      7.8764      2.3195      0.0220     20.0282     33.3693     52.8505
  1887.7000      7.8764      2.2519     -0.0245     24.1282     34.4020     16.8231
  1887.8000      7.8761      2.1705     -0.0258     29.0579     34.8904      3.0763
  1887.9000      7.8761      2.0734     -0.0235     34.9477     34.8932      0.3103
  1888.0000      7.8733      1.9561     -0.0560     42.0564     34.8272      0.0164
  1888.1000      7.8733      1.8286     -0.1036     49.7808     34.8749      0.0000
  1888.2000      7.8733      1.7204     -0.1511     56.3401     35.0470   -999.2500
  1888.3000      7.8705      1.6561     -0.0471     60.2370     35.1999   -999.2500
  1888.4000      7.8705      1.6353     -0.0726     61.4971     34.9235   -999.2500
  1888.5000      7.8849      1.6523     -0.0198     60.4691     34.0216   -999.2500
  1888.6000      7.8849      1.7044      0.0439     57.3089     32.8230   -999.2500
  1888.7000      7.8849      1.7854      0.1378     52.4000     32.0538   -999.2500
  1888.8000      7.9569      1.8841      0.2147     46.4204     32.1106   -999.2500
  1888.9000      7.9569      1.9864      0.2579     40.2192     32.6013   -999.2500
  1889.0000      8.0380      2.0797      0.2895     34.5617     32.6674   -999.2500
  1889.1000      8.0380      2.1600      0.2668     29.6941     31.7912   -999.2500
  1889.2000      8.0380      2.2296      0.2441     25.4784     30.6183   -999.2500
  1889.3000      7.9943      2.2803      0.2063     22.4046     29.9766   -999.2500
  1889.4000      7.9943      2.3010      0.1687     21.1541     29.7686   -999.2500
  1889.5000      7.8759      2.3032      0.1138     21.0192     29.7801   -999.2500
  1889.6000      7.8759      2.3118      0.1014     20.4959     30.0290   -999.2500
  1889.7000      7.8759      2.3302      0.1231     19.3830     30.1503   -999.2500
  1889.8000      7.8115      2.3431      0.1064     18.5981     29.9423   -999.2500
  1889.9000      7.8115      2.3509      0.0740     18.1256     29.6066   -999.2500
  1890.0000      7.7984      2.3660      0.0554     17.2134     29.0371   -999.2500
  1890.1000      7.7984      2.3895      0.0988     15.7867     28.2427   -999.2500
  1890.2000      7.7984      2.4127      0.0725     14.3828     27.5944   -999.2500
  1890.3000      7.7970      2.4270      0.0728     13.5157     27.3364   -999.2500
  1890.4000      7.7970      2.4298      0.0794     13.3480     27.5813   -999.2500
  1890.5000      7.7982      2.4305      0.0517     13.3025     28.0902   -999.2500
  1890.6000      7.7982      2.4394      0.0707     12.7654     28.5677   -999.2500
  1890.7000      7.7982      2.4503      0.0695     12.1050     28.8352   -999.2500
  1890.8000      7.7995      2.4573      0.0366     11.6764     28.6894   -999.2500
  1890.9000      7.7995      2.4672      0.0651     11.0796     28.2099   -999.2500
  1891.0000      7.7987      2.4791      0.0879     10.3562     27.6739   -999.2500
  1891.1000      7.7987      2.4842      0.0629     10.0513     27.2994   -999.2500
  1891.2000      7.7987      2.4830      0.0635     10.1202     27.2515   -999.2500
  1891.3000      7.7970      2.4794      0.0714     10.3387     27.2833   -999.2500
  1891.4000      7.7970      2.4760      0.0570     10.5426     27.2858   -999.2500
  1891.5000      7.7966      2.4809      0.0637     10.2488     27.5821   -999.2500
  1891.6000      7.7966      2.4932      0.1026      9.5047     28.0674   -999.2500
  1891.7000      7.7966      2.5014      0.0683      9.0055     28.1688   -999.2500
  1891.8000      7.7964      2.4995      0.0872      9.1209     27.8138   -999.2500
  1891.9000      7.7964      2.4861      0.0600      9.9345     27.3370   -999.2500
  1892.0000      7.7963      2.4709      0.0315     10.8537     26.5393   -999.2500
  1892.1000      7.7963      2.4747      0.0066     10.6237     25.6088   -999.2500
  1892.2000      7.7963      2.4980      0.0868      9.2126     25.3465   -999.2500
  1892.3000      7.7947      2.5152      0.0493      8.1709     25.9092   -999.2500
  1892.4000      7.7947      2.5169      0.0376      8.0678     26.6437   -999.2500
  1892.5000      7.7900      2.5164      0.0592      8.0969     27.0550   -999.2500
  1892.6000      7.7900      2.5244      0.0546      7.6095     27.4515   -999.2500
  1892.7000      7.7900      2.5400      0.0699      6.6654     27.9088   -999.2500
  1892.8000      7.7876      2.5572      0.0630      5.6261     28.4016   -999.2500
  1892.9000      7.7876      2.5748      0.0937      4.5549     30.2352   -999.2500
  1893.0000      7.7927      2.5871      0.1275      3.8141     35.6262   -999.2500
  1893.1000      7.7927      2.5822      0.1051      4.1066     43.5378   -999.2500
  1893.2000      7.7927      2.5679      0.0510      4.9781     49.2047   -999.2500
  1893.3000      7.7976      2.5638      0.0530      5.2253     51.2956   -999.2500
  1893.4000      7.7976      2.5702      0.0590      4.8351     51.7119   -999.2500
  1893.5000      7.7982      2.5672      0.1015      5.0192     51.7562   -999.2500
  1893.6000      7.7982      2.5471      0.0576      6.2338     51.7587   -999.2500
  1893.7000      7.7982      2.5354      0.0279      6.9447   -999.2500   -999.2500
  1893.8000      7.7964      2.5504      0.0573      6.0334   -999.2500   -999.2500
  1893.9000      7.7964      2.5748      0.0956      4.5569   -999.2500   -999.2500
  1894.0000      7.7894      2.5822      0.1049      4.1115   -999.2500   -999.2500
  1894.1000      7.7894      2.5654      0.0999      5.1256   -999.2500   -999.2500
  1894.2000      7.7894      2.5393      0.0847      6.7100   -999.2500   -999.2500
  1894.3000      7.7777      2.5233      0.0500      7.6782   -999.2500   -999.2500
  1894.4000      7.7777      2.5219      0.0685      7.7627   -999.2500   -999.2500
  1894.5000      7.7723      2.5278      0.0738      7.4039   -999.2500   -999.2500
  1894.6000      7.7723      2.5428      0.0908      6.4973   -999.2500   -999.2500
  1894.7000      7.7723      2.5614      0.1169      5.3712   -999.2500   -999.2500
  1894.8000      7.7737      2.5628      0.0879      5.2878   -999.2500   -999.2500
  1894.9000      7.7737      2.5491      0.0550      6.1131   -999.2500   -999.2500
  1895.0000      7.7756      2.5426      0.0495      6.5085   -999.2500   -999.2500
  1895.1000      7.7756      2.5433      0.0491      6.4643   -999.2500   -999.2500
  1895.2000      7.7756      2.5356      0.0356      6.9362   -999.2500   -999.2500
  1895.3000      7.7749      2.5222      0.0255      7.7476   -999.2500   -999.2500
  1895.4000      7.7749      2.5145      0.0642      8.2145   -999.2500   -999.2500
  1895.5000      7.7723      2.5122      0.0591      8.3490   -999.2500   -999.2500
  1895.6000      7.7723      2.5144      0.0736      8.2206   -999.2500   -999.2500
  1895.7000      7.7723      2.5160      0.0556      8.1203   -999.2500   -999.2500
  1895.8000      7.7709      2.5146      0.0364      8.2049   -999.2500   -999.2500
  1895.9000      7.7709      2.5193      0.0446      7.9206   -999.2500   -999.2500
  1896.0000      7.7704      2.5311      0.0590      7.2044   -999.2500   -999.2500
  1896.1000      7.7704      2.5429      0.0296      6.4893   -999.2500   -999.2500
