~Version Information
VERS.                      2.0: CWLS Log ASCII Standard - VERSION 2.0
WRAP.                       NO: One line per depth step
~Well Information Block
STRT.FT               651.5000: 
STOP.FT              2190.5000: 
STEP.FT                 0.2500: 
NULL.                -999.2500: 
COMP.          Pioneer Natural Resources: COMPANY
WELL.               King 22-13: WELL
FLD.           Purgatoire River: FIELD
LOC.           2419' FNL & 1806' FWL----: LOCATION
PROV.                 Colorado: PROVINCE
CNTY.               Las Animas: COUNTRY
SRVC.                Patterson: SERVICE COMPANY
DATE.          Thu Mar 31 14:33:28 2005: LOG DATE
UWI.           05 071 08318 00: UNIQUE WELL ID
~Curve Information Block
DEPT.FT            0 000 00 00: Depth
SN.Ohm-m                      : IEL Short Normal
SP.mV                         : IEL Spontaneous Potential
DIR.Ohm-m                     : IEL Induction Resistivity
GR.GAPI                       : Gamma Ray
~Parameter Information Block
~A  Depth        SN          SP         DIR          GR     
# ...
   953.0000     42.1531   -127.2885     34.0910    111.7206
   953.2500     40.2771   -126.3828     32.1255    112.7855
   953.5000     38.4255   -125.5676     30.2974    116.1121
   953.7500     36.5681   -124.9002     28.6497    118.3984
   954.0000     34.7652   -124.4180     27.1914    121.1002
   954.2500     33.1111   -124.1414     25.9157    122.8567
   954.5000     31.6674   -124.0618     24.8173    125.9662
   954.7500     30.4579   -124.1255     23.9020    128.0197
   955.0000     29.4804   -124.2437     23.1864    130.0914
   955.2500     28.7156   -124.3349     22.6870    130.4400
   955.5000     28.1511   -124.3686     22.4115    129.6353
   955.7500     27.7977   -124.3775     22.3543    128.9187
   956.0000     27.6757   -124.4316     22.4997    129.1549
   956.2500     27.7992   -124.5960     22.8269    130.6117
   956.5000     28.1885   -124.9004     23.3127    133.9720
   956.7500     28.8939   -125.3338     23.9318    136.0072
   957.0000     30.0098   -125.8550     24.6541    137.0600
   957.2500     31.6746   -126.4027     25.4435    135.7341
   957.5000     34.0980   -126.9025     26.2578    130.2370
   957.7500     37.6690   -127.2848     27.0546    124.3411
   958.0000     43.0797   -127.5174     27.7999    112.6563
   958.2500     51.0947   -127.6292     28.4747    103.4748
   958.5000     61.5794   -127.6989     29.0728     89.0532
   958.7500     72.3829   -127.8128     29.5898     79.9816
   959.0000     79.7202   -128.0249     30.0074     68.3331
   959.2500     80.5454   -128.3394     30.2856     62.1981
   959.5000     74.8608   -128.7128     30.3669     55.9653
   959.7500     65.6195   -129.0737     30.1914     54.3377
   960.0000     56.3425   -129.3534     29.7134     56.9223
   960.2500     48.9261   -129.5167     28.9165     62.3906
   960.5000     43.5098   -129.5759     27.8267     75.0373
   960.7500     39.5558   -129.5762     26.5199     84.6025
   961.0000     36.5149   -129.5616     25.1096     97.1677
   961.2500     33.8768   -129.5445     23.7167    103.0374
   961.5000     31.1795   -129.4985     22.4364    107.3608
   961.7500     28.1838   -129.3792     21.3219    107.5109
   962.0000     25.0205   -129.1571     20.3865    105.2103
   962.2500     22.1542   -128.8417     19.6170    103.5035
   962.5000     20.1585   -128.4802     18.9876    103.0966
   962.7500     19.3592   -128.1365     18.4706    104.5873
   963.0000     19.5771   -127.8643     18.0422    107.7124
   963.2500     20.2568   -127.6903     17.6830    108.9893
   963.5000     20.8682   -127.6098     17.3773    109.0096
   963.7500     21.1690   -127.5919     17.1124    108.6511
   964.0000     21.1758   -127.5925     16.8800    109.4549
   964.2500     21.0004   -127.5763     16.6786    111.0837
   964.5000     20.7259   -127.5374     16.5125    114.1523
   964.7500     20.3893   -127.5019     16.3895    116.3681
   965.0000     20.0171   -127.5079     16.3155    120.9716
   965.2500     19.6584   -127.5805     16.2919    125.3742
   965.5000     19.3843   -127.7230     16.3149    132.8237
   965.7500     19.2418   -127.9257     16.3763    137.0367
   966.0000     19.2158   -128.1792     16.4652    141.2684
   966.2500     19.2554   -128.4765     16.5709    143.2614
   966.5000     19.3312   -128.8060     16.6865    146.3032
   966.7500     19.4476   -129.1476     16.8128    148.4559
   967.0000     19.5973   -129.4781     16.9588    150.9482
   967.2500     19.7263   -129.7790     17.1373    151.4879
   967.5000     19.7718   -130.0408     17.3594    150.1953
   967.7500     19.7360   -130.2621     17.6324    148.1430
   968.0000     19.7062   -130.4475     17.9611    143.9670
   968.2500     19.7951   -130.6015     18.3483    140.7538
   968.5000     20.0561   -130.7235     18.7890    135.7850
   968.7500     20.4438   -130.8051     19.2641    132.9052
   969.0000     20.8614   -130.8314     19.7390    130.2931
   969.2500     21.2647   -130.7880     20.1738    129.8749
   969.5000     21.6935   -130.6711     20.5425    130.3465
   969.7500     22.1941   -130.4929     20.8467    130.5086
   970.0000     22.7706   -130.2768     21.1133    129.3333
   970.2500     23.4075   -130.0464     21.3770    127.3908
   970.5000     24.0904   -129.8175     21.6626    123.3238
   970.7500     24.8092   -129.5973     21.9787    120.6717
   971.0000     25.5334   -129.3896     22.3238    118.2600
   971.2500     26.1783   -129.1987     22.6947    117.9641
   971.5000     26.6396   -129.0322     23.0891    118.5576
   971.7500     26.8719   -128.9049     23.5017    118.8459
   972.0000     26.9160   -128.8414     23.9183    118.6892
   972.2500     26.8618   -128.8719     24.3150    118.6563
   972.5000     26.7883   -129.0198     24.6655    119.7083
   972.7500     26.7276   -129.2913     24.9536    121.2073
   973.0000     26.6776   -129.6778     25.1852    123.7416
   973.2500     26.6424   -130.1646     25.3889    124.8092
   973.5000     26.6582   -130.7364     25.6062    124.3238
   973.7500     26.7804   -131.3754     25.8790    122.5041
   974.0000     27.0425   -132.0605     26.2417    118.6201
   974.2500     27.4301   -132.7707     26.7168    116.1507
   974.5000     27.8919   -133.4904     27.3127    113.5513
   974.7500     28.3778   -134.2143     28.0214    112.8587
   975.0000     28.8863   -134.9526     28.8222    113.7434
   975.2500     29.4948   -135.7374     29.6895    115.1939
   975.5000     30.3219   -136.6138     30.5994    116.1280
   975.7500     31.4370   -137.6176     31.5298    114.3155
   976.0000     32.7988   -138.7526     32.4573    107.6706
   976.2500     34.2781   -139.9884     33.3570    102.1511
   976.5000     35.7518   -141.2697     34.2074     95.3674
   976.7500     37.1658   -142.5212     34.9997     92.7244
   977.0000     38.4981   -143.6535     35.7451     91.4858
   977.2500     39.7118   -144.5857     36.4740     92.1597
   977.5000     40.7655   -145.2805     37.2262     94.5766
   977.7500     41.6322   -145.7608     38.0343     96.0254
   978.0000     42.2936   -146.0879     38.9085     95.4832
   978.2500     42.7226   -146.3200     39.8278     92.6587
   978.5000     42.8923   -146.4846     40.7400     86.1947
   978.7500     42.8302   -146.5820     41.5741     82.1704
   979.0000     42.6323   -146.6077     42.2686     79.3611
   979.2500     42.4126   -146.5712     42.8052     80.6345
   979.5000     42.2827   -146.4968     43.2224     87.4488
   979.7500     42.3552   -146.4120     43.5921     94.2324
   980.0000     42.7062   -146.3366     43.9747    104.2712
   980.2500     43.3289   -146.2755     44.3835    108.6221
   980.5000     44.1243   -146.2170     44.7854    109.6003
   980.7500     44.9704   -146.1351     45.1378    107.0581
   981.0000     45.8448   -146.0022     45.4337    100.8715
   981.2500     46.8523   -145.8049     45.7201     96.0492
   981.5000     48.1025   -145.5520     46.0716     87.6278
   981.7500     49.5790   -145.2706     46.5423     81.2273
   982.0000     51.1243   -144.9937     47.1325     72.2477
   982.2500     52.5281   -144.7469     47.7898     68.2193
   982.5000     53.6273   -144.5368     48.4360     66.4176
   982.7500     54.3658   -144.3482     48.9964     67.5970
   983.0000     54.8049   -144.1566     49.4142     70.8054
   983.2500     55.0797   -143.9439     49.6554     72.4992
   983.5000     55.3111   -143.7010     49.7159     73.1091
   983.7500     55.5393   -143.4186     49.6312     72.7526
   984.0000     55.7244   -143.0817     49.4747     73.3078
   984.2500     55.7858   -142.6792     49.3328     75.1844
   984.5000     55.6374   -142.2121     49.2701     79.3671
   984.7500     55.2073   -141.6905     49.3109     81.7810
   985.0000     54.4520   -141.1206     49.4438     83.3373
   985.2500     53.3832   -140.4949     49.6393     83.2366
   985.5000     52.1170   -139.7952     49.8611     83.5666
   985.7500     50.8909   -139.0065     50.0707     85.6078
   986.0000     49.9766   -138.1301     50.2332     92.4217
   986.2500     49.5582   -137.1888     50.3289     98.4594
