~Version Information
VERS.                      2.0: CWLS Log ASCII Standard - VERSION 2.0
WRAP.                       NO: One line per depth step
~Well Information Block
STRT.FT               998.8000: 
STOP.FT              2235.5000: 
STEP.FT                 0.1000: 
NULL.                -999.2500: 
COMP.          Petrogulf Corporation: COMPANY
WELL.          Latiluppe 8-13R: WELL
FLD.           Purgatorie River: FIELD
LOC.           1495' FSL & 946' FWL: LOCATION
CNTY.               Las Animas: COUNTY
SRVC.                         : SERVICE COMPANY
DATE.          Wed Apr 21 10:46:16 2004: LOG DATE
UWI.           05 071 08035 00: UNIQUE WELL ID
STAT.                 Colorado: STATE
~Curve Information Block
DEPT.FT            0 000 00 00: Depth
DCAL.in                       : CDL Caliper
RHOB.g/cc                     : CDL Bulk Density
RHOC.g/cc                     : CDL Density Correction
DPOR.pu                       : CDL Density Porosity
NPOR.pu                       : Neutron Porosity
GR.GAPI                       : Gamma Ray
~Parameter Information Block
~A  Depth       DCAL        RHOB        RHOC        DPOR        NPOR         GR     
# ...
  1171.6000      7.9072      2.5128     -0.0325      8.3178     29.5406    125.8793
  1171.7000      7.9072      2.5034     -0.0228      8.8872     29.6581    128.2719
  1171.8000      7.9116      2.4999      0.0001      9.0960     29.5846    130.4783
  1171.9000      7.9116      2.5056      0.0088      8.7530     29.1844    132.6907
  1172.0000      7.9092      2.5192      0.0414      7.9268     28.5499    133.6930
  1172.1000      7.9092      2.5329      0.0335      7.0957     28.0249    133.4245
  1172.2000      7.9092      2.5435      0.0713      6.4520     27.6145    134.0461
  1172.3000      7.9094      2.5542      0.0983      5.8066     27.1500    136.1634
  1172.4000      7.9094      2.5622      0.1586      5.3187     26.8306    137.6877
  1172.5000      7.9091      2.5642      0.1165      5.1994     26.8233    138.2666
  1172.6000      7.9091      2.5636      0.1360      5.2377     27.1264    136.7011
  1172.7000      7.9091      2.5603      0.1277      5.4367     27.6872    130.6823
  1172.8000      7.9066      2.5543      0.1028      5.8000     28.1344    124.6845
  1172.9000      7.9066      2.5496      0.0946      6.0849     28.3044    125.0742
  1173.0000      7.9068      2.5370      0.0815      6.8490     28.5925    131.0727
  1173.1000      7.9068      2.5029      0.0352      8.9160     29.1809    136.1761
  1173.2000      7.9068      2.4627     -0.0278     11.3493     29.4548    136.3031
  1173.3000      7.9119      2.4520     -0.0168     12.0009     28.8906    134.6224
  1173.4000      7.9119      2.4713      0.0583     10.8276     27.9222    134.8880
  1173.5000      7.9116      2.4777      0.1037     10.4440     27.0908    138.5489
  1173.6000      7.9116      2.4454      0.0498     12.3990     26.2470    145.4406
  1173.7000      7.9116      2.3939      0.0804     15.5239     25.1649    150.9118
  1173.8000      7.8760      2.3522      0.0403     18.0487     24.2424    151.9084
  1173.9000      7.8760      2.3388      0.0464     18.8576     23.8098    152.3894
  1174.0000      7.9022      2.3584      0.0941     17.6755     23.5040    153.8792
  1174.1000      7.9022      2.3998      0.1413     15.1656     22.8407    151.4866
  1174.2000      7.9022      2.4418      0.2271     12.6157     21.7902    144.9274
  1174.3000      7.9089      2.4733      0.1637     10.7083     20.8138    140.3574
  1174.4000      7.9089      2.5027      0.1645      8.9290     20.6179    138.9662
  1174.5000      7.9126      2.5282      0.2142      7.3847     21.2867    135.6908
  1174.6000      7.9126      2.5366      0.1937      6.8711     22.1187    128.7637
  1174.7000      7.9126      2.5319      0.1149      7.1587     22.6054    122.2808
  1174.8000      7.9099      2.5284      0.0625      7.3718     22.9775    119.9437
  1174.9000      7.9099      2.5353      0.0602      6.9515     23.5938    119.9092
  1175.0000      7.9099      2.5552      0.0363      5.7460     24.4116    118.6768
  1175.1000      7.9099      2.5787      0.0688      4.3197     25.4617    116.1297
  1175.2000      7.9099      2.5881      0.0772      3.7523     26.6636    114.6097
  1175.3000      7.9127      2.5837      0.0240      4.0191     27.3702    115.7487
  1175.4000      7.9127      2.5840      0.0309      3.9981     27.3665    117.4970
  1175.5000      7.9098      2.5978      0.0629      3.1640     27.3281    117.5461
  1175.6000      7.9098      2.6162      0.0547      2.0506     27.6639    117.9076
  1175.7000      7.9098      2.6238      0.0420      1.5881     28.1459    120.4398
  1175.8000      7.9091      2.6169      0.0371      2.0065     28.4870    123.1703
  1175.9000      7.9091      2.6083      0.0334      2.5274     28.6314    123.7365
  1176.0000      7.9115      2.6118      0.0429      2.3180     28.7099    125.0159
  1176.1000      7.9115      2.6266      0.0498      1.4163     28.7933    130.2970
  1176.2000      7.9115      2.6458      0.0256      0.2543     28.8701    134.6129
  1176.3000      7.9109      2.6666      0.0666     -1.0091     28.8765    131.7005
  1176.4000      7.9109      2.6787      0.0835     -1.7403     28.8868    124.3002
  1176.5000      7.9096      2.6723      0.0484     -1.3500     28.9616    119.7606
  1176.6000      7.9096      2.6577      0.0681     -0.4660     28.9861    119.5404
  1176.7000      7.9096      2.6495      0.0462      0.0285     29.0120    118.1297
  1176.8000      7.9148      2.6483      0.0858      0.1059     29.2545    113.5409
  1176.9000      7.9148      2.6462      0.0663      0.2291     29.7263    109.0912
  1177.0000      7.9169      2.6408      0.0670      0.5558     30.2755    105.9291
  1177.1000      7.9169      2.6427     -0.0268      0.4448     30.7711    104.7058
  1177.2000      7.9169      2.6603      0.0481     -0.6212     31.1804    107.0516
  1177.3000      7.9142      2.6820      0.0150     -1.9422     31.4574    111.0711
  1177.4000      7.9142      2.6894      0.0640     -2.3882     31.4686    114.1162
  1177.5000      7.9146      2.6702      0.0518     -1.2214     31.2111    117.5692
  1177.6000      7.9146      2.6342      0.0044      0.9562     30.7023    120.7291
  1177.7000      7.9146      2.6083     -0.0226      2.5275     30.1258    121.0434
  1177.8000      7.9114      2.6066     -0.0053      2.6288     29.9397    119.5794
  1177.9000      7.9114      2.6143      0.0276      2.1610     30.0904    117.5230
  1178.0000      7.9097      2.6163      0.0082      2.0396     30.1906    114.7143
  1178.1000      7.9097      2.6267     -0.0019      1.4144     30.1358    113.2687
  1178.2000      7.9097      2.6495      0.0586      0.0274     29.9201    116.2991
  1178.3000      7.9097      2.6656      0.0324     -0.9434     29.6318    122.9311
  1178.4000      7.9097      2.6735      0.0564     -1.4240     29.6591    127.8162
  1178.5000      7.9112      2.6810      0.0252     -1.8799     30.1679    128.2417
  1178.6000      7.9112      2.6841      0.0420     -2.0658     30.7956    125.2812
  1178.7000      7.9112      2.6800      0.0142     -1.8203     31.4366    120.3642
  1178.8000      7.9126      2.6653     -0.0146     -0.9260     32.0434    117.1981
  1178.9000      7.9126      2.6307     -0.0214      1.1708     32.2825    119.0829
  1179.0000      7.9086      2.5883     -0.0977      3.7389     32.3285    124.0224
  1179.1000      7.9086      2.5671     -0.1086      5.0253     32.4253    125.7573
  1179.2000      7.9086      2.5632     -0.0754      5.2621     32.2673    122.9520
  1179.3000      7.9145      2.5532     -0.0792      5.8673     31.7275    120.6882
  1179.4000      7.9145      2.5388     -0.0010      6.7388     30.9659    122.7290
  1179.5000      7.9156      2.5309      0.0055      7.2209     30.1224    126.7653
  1179.6000      7.9156      2.5272      0.0131      7.4441     29.4025    127.6017
  1179.7000      7.9156      2.5280      0.0350      7.3966     28.7865    127.2885
  1179.8000      7.9095      2.5339      0.1272      7.0334     28.0940    130.1740
  1179.9000      7.9095      2.5309      0.1240      7.2207     27.3285    134.4355
  1180.0000      7.9179      2.5110      0.1332      8.4255     26.7166    139.0257
  1180.1000      7.9179      2.4813      0.0708     10.2266     26.2865    143.1424
  1180.2000      7.9179      2.4534      0.1200     11.9153     25.7855    145.8739
  1180.3000      7.9136      2.4414      0.1489     12.6453     25.2873    146.1196
  1180.4000      7.9136      2.4527      0.1523     11.9551     24.9440    143.6469
  1180.5000      7.9140      2.4801      0.0761     10.2973     24.7061    141.4407
  1180.6000      7.9140      2.5053      0.0765      8.7709     24.3640    140.9136
  1180.7000      7.9140      2.5129      0.1153      8.3062     23.6199    142.0438
  1180.8000      7.9171      2.5091      0.0479      8.5381     22.7659    143.6109
  1180.9000      7.9171      2.5116      0.1027      8.3855     22.1952    140.8826
  1181.0000      7.9115      2.5219      0.1186      7.7660     21.4955    132.9674
  1181.1000      7.9115      2.5301      0.1011      7.2646     20.4576    124.6279
