~Version Information
VERS.                      2.0: CWLS Log ASCII Standard - VERSION 2.0
WRAP.                       NO: One line per depth step
~Well Information Block
STRT.FT                 3.7500: 
STOP.FT               979.7500: 
STEP.FT                 0.2500: 
NULL.                -999.2500: 
COMP.          Pioneer Natural Resources: COMPANY
WELL.          Rising Star 22-11: WELL
FLD.           Purgatoire River: FIELD
LOC.           2152' FNL & 2105' FWL: LOCATION
PROV.                 Colorado: PROVINCE
CNTY.               Las Animas: COUNTRY
SRVC.                Patterson: SERVICE COMPANY
DATE.          Sat Apr 16 09:17:01 2005: LOG DATE
UWI.           05 071 08354 00: UNIQUE WELL ID
~Curve Information Block
DEPT.FT            0 000 00 00: Depth
GR.GAPI                       : Gamma Ray
CCL.                          : Casing Collar Locator
TT3.usec                      : CBL 3' Travel Time
AMP3.mV                       : CBL 3' Amplitude
~Parameter Information Block
~A  Depth        GR         CCL         TT3         AMP3    
# ...
   807.7500     80.6394      0.0000   1156.6854     10.6840
   808.0000     86.0457      0.0000   1158.9790     10.5992
   808.2500     91.3560      0.0000   1162.2444     10.4900
   808.5000     95.2425      0.0000   1168.0970     10.3717
   808.7500     96.3440      0.0000   1177.7677     10.2721
   809.0000     94.8330      0.0000   1192.6555     10.2017
   809.2500     92.8018      0.0000   1212.9545     10.1431
   809.5000     92.4987      0.0000   1235.0519     10.0656
   809.7500     94.1553      0.0000   1251.5321      9.9532
   810.0000     95.9913      0.0000   1255.7068      9.8220
   810.2500     96.5592      0.0000   1246.0594      9.7073
   810.5000     96.6183      0.0000   1224.9357      9.6343
   810.7500     98.2045      0.0000   1194.4312      9.6008
   811.0000    102.2218      0.0000   1156.0458      9.5823
   811.2500    107.6269      0.0000   1112.8148      9.5488
   811.5000    112.7142      0.0000   1069.4244      9.4832
   811.7500    116.3505      0.0000   1031.6221      9.3907
   812.0000    118.0213      0.0000   1006.2791      9.2924
   812.2500    117.5473      0.0000    998.5903      9.2121
   812.5000    115.1075      0.0000   1007.0091      9.1654
   812.7500    111.1933      0.0000   1023.0527      9.1505
   813.0000    106.3634      0.0000   1037.6229      9.1462
   813.2500    101.0450      0.0000   1046.5973      9.1275
   813.5000     95.5451      0.0000   1050.7455      9.0872
   813.7500     90.3213      0.0000   1052.6987      9.0377
   814.0000     86.2885      0.0000   1054.9728      8.9940
   814.2500     84.5908      0.0000   1059.4730      8.9614
   814.5000     85.8544      0.0000   1066.8099      8.9330
   814.7500     89.6473      0.0000   1075.2645      8.8914
   815.0000     94.5860      0.0000   1081.4971      8.8091
   815.2500     98.8751      0.0000   1084.2052      8.6479
   815.5000    101.1040      0.0000   1087.8604      8.3584
   815.7500    100.9940      0.0000   1101.8226      7.9017
   816.0000     99.3482      0.0000   1134.0018      7.2984
   816.2500     97.0434      0.0000   1183.6957      6.6450
   816.5000     94.2283      0.0000   1240.1322      6.0444
   816.7500     90.5380      0.0000   1288.9542      5.5389
   817.0000     85.7617      0.0000   1321.0366      5.1512
   817.2500     80.2179      0.0000   1335.5624      4.9518
   817.5000     74.6503      0.0000   1336.6715      5.0104
   817.7500     69.6826      0.0000   1329.7042      5.3045
   818.0000     65.3733      0.0000   1320.0922      5.7401
   818.2500     61.6886      0.0000   1311.9320      6.2530
   818.5000     59.3945      0.0000   1304.7836      6.8643
   818.7500     59.7252      0.0000   1293.5804      7.6539
   819.0000     62.8610      0.0000   1274.4926      8.6729
   819.2500     67.3054      0.0000   1249.9465      9.8373
   819.5000     71.1823      0.0000   1225.4669     10.9228
   819.7500     73.9639      0.0000   1202.9268     11.7430
   820.0000     76.8516      0.0000   1180.0874     12.3259
   820.2500     81.6143      0.0000   1155.8459     12.8592
   820.5000     88.9840      0.0000   1132.4905     13.4783
   820.7500     97.8300      0.0000   1112.7255     14.1545
   821.0000    105.5769      0.0000   1097.0436     14.7622
   821.2500    109.4267      0.0000   1084.7339     15.1984
   821.5000    107.7107      0.0000   1076.1281     15.4285
   821.7500    100.8933      0.0000   1072.6357     15.4588
   822.0000     91.6042      0.0000   1074.5742     15.3079
   822.2500     83.4746      0.0000   1079.6689     15.0085
   822.5000     79.5198      0.0000   1084.1484     14.6210
   822.7500     80.9545      0.0000   1085.4564     14.2284
   823.0000     86.8767      0.0000   1083.8408     13.9164
   823.2500     95.0608      0.0000   1081.2672     13.7390
   823.5000    103.4359      0.0000   1078.7567     13.6853
   823.7500    110.9884      0.0000   1075.2764     13.6830
   824.0000    117.5078      0.0000   1069.6101     13.6438
   824.2500    123.0161      0.0000   1062.5084     13.5114
   824.5000    127.4437      0.0000   1056.1089     13.2781
   824.7500    130.3228      0.0000   1051.8109     12.9735
   825.0000    130.8055      0.0000   1049.2791     12.6458
   825.2500    128.4607      0.0000   1046.8546     12.3421
   825.5000    124.0407      0.0000   1042.0619     12.0921
   825.7500    119.1526      0.0000   1032.3119     11.9050
   826.0000    115.2112      0.0000   1016.7155     11.7775
   826.2500    112.8362      0.0000    997.5233     11.7028
   826.5000    111.9737      0.0000    977.8610     11.6781
   826.7500    112.1559      0.0000    957.1921     11.7101
   827.0000    112.6189      0.0000    931.6818     11.8126
   827.2500    112.6419      0.0000    900.7405     11.9899
   827.5000    112.0920      0.0000    870.5612     12.2189
   827.7500    111.5177      0.0000    849.0817     12.4515
   828.0000    111.4854      0.0000    838.7462     12.6368
   828.2500    111.8601      0.0000    834.8880     12.7428
   828.5000    111.9472      0.0000    830.3223     12.7643
   828.7500    111.5713      0.0000    821.6125     12.7191
   829.0000    111.7222      0.0000    811.1971     12.6437
   829.2500    113.4216      0.0000    803.6250     12.5829
   829.5000    115.8970      0.0000    800.8163     12.5685
   829.7500    116.5586      0.0000    801.7302     12.5965
   830.0000    113.0107      0.0000    805.0432     12.6192
   830.2500    104.9452      0.0000    810.3532     12.5695
   830.5000     94.4752      0.0000    817.4348     12.4060
   830.7500     85.0602      0.0000    826.5832     12.1483
   831.0000     79.7526      0.0000    840.1485     11.8649
   831.2500     79.7671      0.0000    861.1223     11.6228
   831.5000     84.2050      0.0000    888.7319     11.4498
   831.7500     90.9094      0.0000    917.6318     11.3423
   832.0000     97.5322      0.0000    943.1556     11.2928
   832.2500    102.0840      0.0000    965.7036     11.2997
   832.5000    103.1482      0.0000    988.7012     11.3547
   832.7500    100.2205      0.0000   1013.4797     11.4405
   833.0000     93.9949      0.0000   1037.4983     11.5482
   833.2500     86.2508      0.0000   1057.3213     11.6935
   833.5000     79.2628      0.0000   1072.1798     11.9003
   833.7500     74.8399      0.0000   1084.0712     12.1641
   834.0000     73.4279      0.0000   1094.7085     12.4321
   834.2500     74.0296      0.0000   1103.0004     12.6295
   834.5000     75.2344      0.0000   1106.0378     12.7110
   834.7500     76.4687      0.0000   1102.6627     12.6959
   835.0000     78.1617      0.0000   1095.6285     12.6501
   835.2500     80.6742      0.0000   1090.0737     12.6339
   835.5000     83.3286      0.0000   1091.2903     12.6654
   835.7500     84.7449      0.0000   1104.7778     12.7296
   836.0000     84.0529      0.0000   1135.4939     12.8066
   836.2500     81.6454      0.0000   1182.8230     12.8809
   836.5000     78.7398      0.0000   1236.4818     12.9302
   836.7500     76.2696      0.0000   1280.4176     12.9191
   837.0000     74.2938      0.0000   1302.1604     12.8129
   837.2500     72.4136      0.0000   1298.6720     12.6038
   837.5000     70.4058      0.0000   1275.0533     12.3266
   837.7500     68.3527      0.0000   1239.2993     12.0438
   838.0000     66.4957      0.0000   1197.9449     11.8060
   838.2500     65.2277      0.0000   1155.6313     11.6238
   838.5000     65.0053      0.0000   1117.0153     11.4753
   838.7500     65.9720      0.0000   1086.6875     11.3310
   839.0000     67.6297      0.0000   1066.8186     11.1629
   839.2500     68.9675      0.0000   1056.1123     10.9456
   839.5000     69.0291      0.0000   1051.3643     10.6660
   839.7500     67.5312      0.0000   1049.5341     10.3369
   840.0000     65.1473      0.0000   1048.4700      9.9958
   840.2500     63.3692      0.0000   1046.2400      9.6903
   840.5000     63.8568      0.0000   1039.9445      9.4577
   840.7500     67.3882      0.0000   1025.4790      9.3083
   841.0000     73.1228      0.0000    999.9509      9.2295
