~Version Information
VERS.                      2.0: CWLS Log ASCII Standard - VERSION 2.0
WRAP.                       NO: One line per depth step
~Well Information Block
STRT.FT               546.0000: 
STOP.FT              1771.5000: 
STEP.FT                 0.1000: 
NULL.                -999.2500: 
COMP.          Petrogulf Corporation: COMPANY
WELL.             McLeod 9-42R: WELL
FLD.           Purgatorie River: FIELD
LOC.           1748' FNL & 372' FEL: LOCATION
PROV.                 Colorado: PROVINCE
CNTY.               Las Animas: COUNTRY
SRVC.                Patterson: SERVICE COMPANY
DATE.          Tue Aug 16 11:11:38 2005: LOG DATE
UWI.                071 08092 : UNIQUE WELL ID
~Curve Information Block
DEPT.FT            0 000 00 00: Depth
DCAL.in                       : CDL Caliper
RHOB.g/cc                     : CDL Bulk Density
RHOC.g/cc                     : CDL Density Correction
DPOR.pu                       : CDL Density Porosity
GR.GAPI                       : Gamma Ray
NPOR.pu                       : Neutron Porosity
~Parameter Information Block
~A  Depth       DCAL        RHOB        RHOC        DPOR         GR         NPOR    
   546.0000      8.1304      2.0627     -0.4805     35.5915     70.1382     37.5146
   546.1000      8.1304      2.0539     -0.4049     36.1295     71.6423     37.7030
   546.2000      8.1304      2.0492     -0.4094     36.4100     72.5857     37.8816
   546.3000      8.1478      2.0408     -0.4206     36.9218     73.3852     38.1315
   546.4000      8.1478      2.0338     -0.4114     37.3430     75.6741     38.2361
   546.5000      8.1499      2.0351     -0.4294     37.2637     78.6380     38.0756
   546.6000      8.1499      2.0438     -0.4048     36.7414     81.5780     38.0354
   546.7000      8.1499      2.0586     -0.3884     35.8402     84.3549     38.3750
   546.8000      8.1561      2.0707     -0.3614     35.1105     87.3042     38.7884
   546.9000      8.1561      2.0655     -0.4005     35.4247     91.5597     38.9421
   547.0000      8.1455      2.0480     -0.4031     36.4822     96.2588     39.0328
   547.1000      8.1455      2.0345     -0.4463     37.3045     99.1448     39.2842
   547.2000      8.1455      2.0291     -0.4098     37.6317     99.1077     39.5582
   547.3000      8.1343      2.0265     -0.4155     37.7893     96.3621     39.7513
   547.4000      8.1343      2.0254     -0.4193     37.8525     91.7433     39.8029
   547.5000      8.1283      2.0253     -0.3839     37.8588     86.6850     39.6733
   547.6000      8.1283      2.0216     -0.4079     38.0819     83.6763     39.4821
   547.7000      8.1283      2.0187     -0.4366     38.2629     82.8407     39.3854
   547.8000      8.1210      2.0267     -0.4382     37.7777     83.6637     39.4248
   547.9000      8.1210      2.0465     -0.4243     36.5733     86.5236     39.4758
   548.0000      8.1165      2.0680     -0.3821     35.2711     88.7361     39.4692
   548.1000      8.1165      2.0792     -0.3797     34.5929     88.2434     39.4639
   548.2000      8.1165      2.0790     -0.4272     34.6058     86.1814     39.4550
   548.3000      8.1001      2.0728     -0.3846     34.9806     82.8461     39.4631
   548.4000      8.1001      2.0641     -0.4325     35.5111     78.2634     39.5143
   548.5000      8.1024      2.0562     -0.4151     35.9890     75.4252     39.3760
   548.6000      8.1024      2.0503     -0.3970     36.3459     76.7404     38.7804
   548.7000      8.1024      2.0517     -0.4567     36.2611     79.1746     37.9767
   548.8000      8.0891      2.0606     -0.3802     35.7194     78.8222     37.4404
   548.9000      8.0891      2.0615     -0.3726     35.6667     76.7472     37.2289
   549.0000      8.0874      2.0542     -0.4611     36.1112     75.8080     37.2221
   549.1000      8.0874      2.0579     -0.4383     35.8845     77.5676     37.3559
   549.2000      8.0874      2.0738     -0.4111     34.9223     80.2503     37.5448
   549.3000      8.0791      2.0854     -0.3809     34.2202     79.3494     37.7887
   549.4000      8.0791      2.0853     -0.4255     34.2256     76.1060     37.9503
   549.5000      8.0748      2.0783     -0.4018     34.6459     74.3014     37.8592
   549.6000      8.0748      2.0719     -0.3921     35.0364     72.4272     37.6869
   549.7000      8.0748      2.0735     -0.4301     34.9365     68.8273     37.6172
   549.8000      8.0799      2.0791     -0.3706     34.6012     66.0605     37.6051
   549.9000      8.0799      2.0729     -0.3997     34.9762     66.4512     37.6598
   550.0000      8.0827      2.0563     -0.3921     35.9820     68.1295     37.7365
   550.1000      8.0827      2.0443     -0.4279     36.7091     68.4915     37.6831
   550.2000      8.0827      2.0386     -0.3919     37.0560     67.9004     37.5894
   550.3000      8.0795      2.0369     -0.4407     37.1585     67.0735     37.6176
   550.4000      8.0795      2.0459     -0.4505     36.6145     64.8765     37.6925
   550.5000      8.0821      2.0584     -0.3657     35.8538     62.0279     37.6714
   550.6000      8.0821      2.0581     -0.4106     35.8709     61.2728     37.5599
   550.7000      8.0821      2.0464     -0.4021     36.5813     62.9805     37.4923
   550.8000      8.0862      2.0320     -0.4270     37.4573     64.6621     37.5111
   550.9000      8.0862      2.0227     -0.4488     38.0180     64.5037     37.4061
   551.0000      8.0853      2.0202     -0.3899     38.1689     62.7364     37.1514
   551.1000      8.0853      2.0244     -0.4403     37.9126     61.3839     36.9929
   551.2000      8.0853      2.0457     -0.4249     36.6247     61.8240     37.0055
   551.3000      8.0832      2.0769     -0.3732     34.7310     62.9155     37.1396
   551.4000      8.0832      2.0946     -0.3537     33.6636     62.5654     37.2840
   551.5000      8.0795      2.0931     -0.3817     33.7544     61.4753     37.2275
   551.6000      8.0795      2.0878     -0.3996     34.0741     61.4324     36.9832
   551.7000      8.0795      2.0895     -0.3765     33.9700     61.2143     36.7294
   551.8000      8.0814      2.0928     -0.3970     33.7677     59.5933     36.5150
   551.9000      8.0814      2.0913     -0.3952     33.8625     58.3306     36.4255
   552.0000      8.0801      2.0823     -0.3442     34.4037     59.1358     36.5585
   552.1000      8.0801      2.0747     -0.4891     34.8686     61.0788     36.8743
   552.2000      8.0801      2.0830     -0.4310     34.3650     62.0081     37.2081
   552.3000      8.0780      2.0969     -0.3519     33.5207     61.5445     37.4320
   552.4000      8.0780      2.0990     -0.3899     33.3952     61.7938     37.6644
   552.5000      8.0820      2.0915     -0.3867     33.8463     64.3798     37.8630
   552.6000      8.0820      2.0825     -0.4269     34.3952     68.5954     37.7748
   552.7000      8.0820      2.0761     -0.4499     34.7803     71.7703     37.4829
   552.8000      8.0765      2.0702     -0.4178     35.1383     72.6119     37.3651
   552.9000      8.0765      2.0654     -0.4491     35.4320     73.5653     37.4669
   553.0000      8.0818      2.0698     -0.4100     35.1615     75.0513     37.5230
   553.1000      8.0818      2.0829     -0.4106     34.3719     74.5045     37.6217
   553.2000      8.0818      2.0956     -0.3701     33.6030     73.1783     37.9400
   553.3000      8.1137      2.1035     -0.4052     33.1212     73.6315     38.1973
   553.4000      8.1137      2.1132     -0.4540     32.5340     74.1632     38.2719
   553.5000      8.1580      2.1254     -0.3720     31.7923     73.2762     38.3534
   553.6000      8.1580      2.1215     -0.3986     32.0326     73.2396     38.4696
   553.7000      8.1580      2.0911     -0.4911     33.8709     74.8288     38.6083
   553.8000      8.1731      2.0456     -0.5455     36.6289     76.1431     38.8921
   553.9000      8.1731      1.9936     -0.5442     39.7816     77.0153     39.3064
   554.0000      8.1699      1.9386     -0.5925     43.1130     77.8919     39.6247
   554.1000      8.1699      1.8886     -0.5694     46.1446     76.8896     39.7507
   554.2000      8.1699      1.8449     -0.5904     48.7959     73.2502     39.7702
   554.3000      8.1735      1.8017     -0.5628     51.4105     69.7358     39.8245
   554.4000      8.1735      1.7633     -0.6305     53.7408     68.5377     40.0995
   554.5000      8.1770      1.7444     -0.6646     54.8868     68.4344     40.6256
   554.6000      8.1770      1.7457     -0.6315     54.8089     68.2831     41.2005
   554.7000      8.1770      1.7520     -0.6444     54.4258     68.4233     41.6604
   554.8000      8.1805      1.7599     -0.6885     53.9457     69.0992     41.9828
   554.9000      8.1805      1.7755     -0.6272     53.0028     71.2397     42.1570
   555.0000      8.1844      1.7978     -0.5952     51.6457     74.6649     42.3839
   555.1000      8.1844      1.8252     -0.6072     49.9907     77.8955     42.7992
   555.2000      8.1844      1.8509     -0.5198     48.4274     81.1532     43.0585
   555.3000      8.1812      1.8711     -0.5942     47.2067     84.2079     42.8480
   555.4000      8.1812      1.8970     -0.5721     45.6377     86.6368     42.2957
   555.5000      8.1732      1.9270     -0.5010     43.8183     89.8740     41.8070
