~Version Information
 VERS.                                  2.0 : CWLS LAS VERSION
 WRAP.                                   NO : WRAPING MODE
 SWARE .                 MController 2.5.0J : SOFTWARE VERSION
~Well Information
 WELL.                       Rancher 12-35 Tr : WELL
 COMP.    Pioneer Natural Resources USA Inc : COMPANY
 FLD.                      Purgatoire River : FIELD
 LOC.                2242' FNL & 308' FWL SWNW 35 32S 67W : LOCATION
 DATE.                            7/02/2005 : DATE(S) LOGGED
 SRVC.       BLANCO Geological Services LLC : SERVICE COMPANY
 STAT.                                   CO : STATE
 CNTY.                           Las Animas : COUNTY
 CTRY.                                  USA : COUNTRY
 API.                       05-071-08430-00 : API NUMBER
 STRT.FT                             369.00 : START DEPTH
 STOP.FT                            1735.00 : STOP DEPTH
 STEP.FT                               1.00 : DEPTH INCREMENT
 NULL.                                -9999 : NULL VALUE
~Curve information
 DEPTH.FT                                   :
 ROP.MIN/FT                                 :
 GAS.UNITS                                  :
~ASCII Log data
# ...
       969.0         0.17        451.3 
       970.0         0.17        441.9 
       971.0         0.17        440.0 
       972.0         0.13        141.6 
       973.0         0.13        146.6 
       974.0         0.15        156.3 
       975.0         0.10        164.1 
       976.0         0.17        165.8 
       977.0         0.13        162.1 
       978.0         0.17        167.0 
       979.0         0.13        174.6 
       980.0         0.23        200.2 
       981.0         0.17        209.1 
       982.0         0.20        211.4 
       983.0         0.17        209.9 
       984.0         0.23        207.1 
       985.0         0.30        189.5 
       986.0         1.45       1702.3 
       987.0         0.70       1463.0 
       988.0         0.30       1113.0 
       989.0         0.27       1042.6 
       990.0         0.23        978.2 
       991.0         0.20        932.1 
       992.0         0.20        897.4 
       993.0         0.23        866.7 
       994.0         0.27        827.3 
       995.0         0.27        807.7 
       996.0         0.23        793.9 
       997.0         0.20        778.1 
       998.0         0.32        791.9 
       999.0         0.20        871.1 
      1000.0         0.13        923.3 
      1001.0         0.20       1025.7 
      1002.0         0.23       1066.2 
      1003.0         0.27       1094.5 
      1004.0         0.23       1133.5 
      1005.0         0.20       1163.9 
      1006.0         0.17       1173.3 
      1007.0         0.20       1179.7 
      1008.0         0.20       1178.0 
      1009.0         0.17       1167.9 
      1010.0         0.20       1126.1 
      1011.0         0.13       1042.2 
      1012.0         0.17        958.3 
      1013.0         0.13        816.8 
      1014.0         0.13        768.7 
      1015.0         0.10        815.5 
      1016.0         2.68       3421.2 
      1017.0         0.30       1056.4 
      1018.0         2.92       1743.4 
      1019.0         0.57       1710.7 
      1020.0         0.55       1558.1 
      1021.0         0.53       1451.9 
      1022.0         0.50       1371.1 
      1023.0         0.33       1233.3 
      1024.0         0.23       1162.2 
      1025.0         0.13       1196.5 
      1026.0         0.17       1232.9 
      1027.0         0.13       1264.3 
      1028.0         0.17       1267.3 
      1029.0         0.20       1259.9 
      1030.0         0.20       1231.9 
      1031.0         0.17       1219.1 
      1032.0         0.17       1238.3 
      1033.0         0.18       1252.1 
      1034.0         0.13       1254.8 
      1035.0         0.17       1257.2 
      1036.0         0.20       1267.0 
      1037.0         0.17       1273.4 
      1038.0         0.23       1280.4 
      1039.0         0.20       1279.4 
      1040.0         0.23       1272.7 
      1041.0         0.23       1236.0 
      1042.0         0.17        959.0 
      1043.0         0.23        828.0 
      1044.0         0.27        792.9 
      1045.0         0.10        813.8 
      1046.0         1.75       5228.7 
      1047.0         0.20       5482.1 
      1048.0         0.43       5224.0 
      1049.0         0.40       3857.2 
      1050.0         0.30       2679.6 
      1051.0         0.47       2139.2 
      1052.0         0.27       1936.4 
      1053.0         0.23       1899.3 
      1054.0         0.25       1859.6 
      1055.0         0.23       1858.2 
      1056.0         0.23       1822.9 
      1057.0         0.27       1724.2 
      1058.0         0.27       1588.7 
      1059.0         0.20       1564.1 
      1060.0         0.23       1455.6 
      1061.0         0.23       1264.9 
      1062.0         0.20       1325.9 
      1063.0         0.13       1410.5 
      1064.0         0.30       1494.0 
      1065.0         0.23       1520.7 
      1066.0         0.20       1520.0 
      1067.0         0.20       1451.6 
      1068.0         0.20       1387.6 
      1069.0         0.18       1347.1 
      1070.0         0.20       1334.7 
      1071.0         0.13       1332.0 
      1072.0         0.20       1315.5 
      1073.0         0.17       1211.4 
      1074.0         0.20        995.1 
      1075.0         0.20        895.0 
      1076.0         1.93       2819.8 
      1077.0         0.20       2824.5 
      1078.0         0.45       2769.9 
      1079.0         0.30       2432.3 
      1080.0         0.23       2043.2 
      1081.0         0.20       1789.8 
      1082.0         0.10       1773.3 
      1083.0         0.20       1806.4 
      1084.0         0.20       1858.9 
      1085.0         0.23       1880.5 
      1086.0         0.30       1874.8 
      1087.0         0.30       1736.3 
      1088.0         0.27       1606.9 
      1089.0         0.23       1477.9 
      1090.0         0.27       1402.1 
      1091.0         0.32       1275.7 
      1092.0         0.23       1247.1 
      1093.0         0.30       1364.0 
      1094.0         0.10       1376.8 
      1095.0         0.20       1394.6 
      1096.0         0.20       1395.7 
      1097.0         0.20       1390.9 
      1098.0         0.13       1385.2 
      1099.0         0.17       1379.5 
      1100.0         0.17       1380.8 
      1101.0         0.20       1364.0 
      1102.0         0.17       1244.7 
      1103.0         0.20       1064.8 
      1104.0         0.20        876.1 
      1105.0         0.17        886.6 
      1106.0         1.42       2760.8 
      1107.0         0.30       2818.4 
      1108.0         0.33       2783.4 
      1109.0         0.27       2482.9 
      1110.0         0.13       2201.9 
      1111.0         0.13       2091.7 
      1112.0         0.23       2037.1 
      1113.0         0.27       1930.7 
      1114.0         0.30       1967.4 
      1115.0         0.27       1988.0 
      1116.0         0.35       1959.3 
      1117.0         0.20       1693.8 
      1118.0         0.13       1631.5 
      1119.0         0.20       1619.0 
      1120.0         0.17       1627.8 
      1121.0         0.20       1626.1 
      1122.0         0.23       1604.2 
      1123.0         0.27       1519.6 
      1124.0         0.23       1313.1 
      1125.0         0.20       1303.7 
      1126.0         0.20       1309.1 
      1127.0         0.20       1313.8 
      1128.0         0.17       1326.6 
      1129.0         0.20       1344.8 
      1130.0         0.17       1380.5 
      1131.0         0.20       1420.9 
      1132.0         0.17       1424.3 
      1133.0         0.18       1286.8 
      1134.0         0.20       1240.7 
      1135.0         0.13        929.7 
      1136.0         9.20       4030.0 
      1137.0         0.23       2339.0 
      1138.0         0.17       2156.7 
      1139.0         0.18       2070.8 
      1140.0         0.23       2036.8 
      1141.0         0.17       2029.7 
      1142.0         0.27       2009.5 
      1143.0         0.23       1956.3 
      1144.0         0.30       1882.2 
      1145.0         0.27       1761.9 
      1146.0         0.23       1555.7 
      1147.0         0.23       1507.9 
      1148.0         0.23       1438.4 
      1149.0         0.27       1418.2 
      1150.0         0.23       1419.2 
      1151.0         0.27       1387.9 
      1152.0         0.23       1347.8 
      1153.0         0.28       1334.0 
      1154.0         0.20       1313.5 
      1155.0         0.27       1284.1 
      1156.0         0.20       1261.6 
      1157.0         0.20       1255.2 
      1158.0         0.27       1255.8 
      1159.0         0.23       1257.9 
      1160.0         0.20       1275.4 
      1161.0         0.23       1317.2 
      1162.0         0.23       1305.0 
      1163.0         0.23       1174.0 
      1164.0         0.20        982.6 
      1165.0         0.20       1049.3 
      1166.0         3.42       2337.7 
      1167.0         0.23       1809.1 
      1168.0         0.18       1729.2 
