~Version Information
VERS.                      2.0: CWLS Log ASCII Standard - VERSION 2.0
WRAP.                       NO: One line per depth step
~Well Information Block
STRT.FT               583.0000: 
STOP.FT              1700.0000: 
STEP.FT                 0.1000: 
NULL.                -999.2500: 
COMP.          Pioneer Natural Resources: COMPANY
WELL.          Scott Canyon 11-18 Tr: WELL
FLD.           Purgatoire River: FIELD
LOC.           411' FNL & 580' FWL: LOCATION
PROV.                 Colorado: PROVINCE
CNTY.               Las Animas: COUNTRY
SRVC.                Patterson: SERVICE COMPANY
DATE.          Thu Feb 17 15:41:32 2005: LOG DATE
UWI.           05 071 08286 00: UNIQUE WELL ID
~Curve Information Block
DEPT.FT            0 000 00 00: Depth
DCAL.in                       : CDL Caliper
RHOB.g/cc                     : CDL Bulk Density
RHOC.g/cc                     : CDL Density Correction
DPOR.pu                       : CDL Density Porosity
GR.GAPI                       : Gamma Ray
NPOR.pu                       : Neutron Porosity
~Parameter Information Block
~A  Depth       DCAL        RHOB        RHOC        DPOR         GR         NPOR    
# ...
   659.8000      8.1440      2.4800      0.0911     10.3046    158.5852     25.0565
   659.9000      8.1440      2.4777      0.1303     10.4414    157.1538     25.3334
   660.0000      8.1425      2.4717      0.1359     10.8041    159.3681     25.3595
   660.1000      8.1425      2.4851      0.0706      9.9930    161.8331     25.0448
   660.2000      8.1425      2.5208      0.2108      7.8317    160.3354     24.7107
   660.3000      8.1414      2.5526      0.1801      5.9041    156.3108     24.9375
   660.4000      8.1414      2.5629      0.1851      5.2785    158.3667     25.6233
   660.5000      8.1423      2.5512      0.1751      5.9901    163.3994     26.3105
   660.6000      8.1423      2.5198      0.1467      7.8910    163.9029     26.7537
   660.7000      8.1423      2.4771      0.0745     10.4807    166.0671     26.7825
   660.8000      8.1305      2.4440      0.0457     12.4824    173.7901     26.4147
   660.9000      8.1305      2.4345      0.0736     13.0580    180.9086     25.9316
   661.0000      8.0452      2.4421      0.0743     12.6020    183.1764     25.5354
   661.1000      8.0452      2.4546      0.0762     11.8416    177.3530     25.4070
   661.2000      8.0452      2.4608      0.0999     11.4657    166.2023     25.6233
   661.3000      8.0337      2.4590      0.0398     11.5763    162.6910     25.8883
   661.4000      8.0337      2.4624      0.0729     11.3721    171.8244     26.1521
   661.5000      8.0332      2.4724      0.1050     10.7611    181.6831     26.5215
   661.6000      8.0332      2.4803      0.0995     10.2853    183.7323     26.6369
   661.7000      8.0332      2.4890      0.1034      9.7577    185.8556     26.3764
   661.8000      8.0327      2.5046      0.0795      8.8145    188.4254     26.1496
   661.9000      8.0327      2.5210      0.1256      7.8167    180.8486     26.3553
   662.0000      8.0321      2.5282      0.1049      7.3838    168.4053     26.7795
   662.1000      8.0321      2.5313      0.0558      7.1948    161.5051     27.0162
   662.2000      8.0321      2.5411      0.0967      6.5972    161.0207     26.8786
   662.3000      8.0325      2.5490      0.1617      6.1207    165.7837     26.3607
   662.4000      8.0325      2.5413      0.1193      6.5849    171.4589     25.7815
   662.5000      8.0315      2.5198      0.0897      7.8900    170.9214     25.5074
   662.6000      8.0315      2.4917      0.0819      9.5937    163.9924     25.3678
   662.7000      8.0315      2.4673      0.0392     11.0706    158.0996     25.1097
   662.8000      8.0332      2.4529      0.0635     11.9425    155.1328     25.2400
   662.9000      8.0332      2.4459      0.0646     12.3685    151.4063     25.8619
   663.0000      8.0328      2.4540      0.0407     11.8805    147.2977     26.1457
   663.1000      8.0328      2.4886      0.0661      9.7819    140.6590     25.8161
   663.2000      8.0328      2.5437      0.0932      6.4444    130.4171     25.4893
   663.3000      8.0349      2.6013      0.1254      2.9526    122.3547     25.4419
   663.4000      8.0349      2.6434      0.1886      0.3980    117.4717     25.2107
   663.5000      8.0316      2.6668      0.1836     -1.0204    111.7164     24.6549
   663.6000      8.0316      2.6786      0.1786     -1.7311    106.1354     24.1367
   663.7000      8.0316      2.6767      0.1505     -1.6211    102.8414     23.9766
   663.8000      8.0217      2.6623      0.0997     -0.7469    100.3644     24.1189
   663.9000      8.0217      2.6419      0.1163      0.4892     98.8044     24.0319
   664.0000      8.0301      2.6098      0.0957      2.4388     99.1703     23.5343
   664.1000      8.0301      2.5685     -0.0020      4.9373    101.8204     23.0263
   664.2000      8.0301      2.5462     -0.0486      6.2896    106.8403     22.6192
   664.3000      8.0290      2.5481      0.0519      6.1731    111.1416     22.3364
   664.4000      8.0290      2.5432      0.0460      6.4715    110.4187     22.2178
   664.5000      8.0315      2.5210      0.0287      7.8207    104.6448     22.0296
   664.6000      8.0315      2.5011     -0.0128      9.0245     98.4203     21.6367
   664.7000      8.0315      2.4983      0.0242      9.1957     94.9379     21.2702
   664.8000      8.0342      2.5110      0.0422      8.4263     93.4335     21.2103
   664.9000      8.0342      2.5298      0.0552      7.2878     91.8233     21.5469
   665.0000      8.0315      2.5512      0.0317      5.9908     89.6681     22.0708
   665.1000      8.0315      2.5708      0.0663      4.7979     90.4260     22.4068
   665.2000      8.0315      2.5703      0.0524      4.8315     96.0167     22.4392
   665.3000      8.0313      2.5506     -0.0025      6.0240    101.7211     22.3126
   665.4000      8.0313      2.5365      0.0234      6.8803    103.8263     22.0550
   665.5000      8.0310      2.5256      0.0610      7.5371    102.9708     21.5333
   665.6000      8.0310      2.5052     -0.0141      8.7731     99.3850     20.9673
   665.7000      8.0310      2.4893      0.0439      9.7375     94.3045     20.9263
   665.8000      8.0307      2.4909      0.0337      9.6394     91.6385     21.4990
   665.9000      8.0307      2.5070      0.0506      8.6688     91.0702     22.2387
   666.0000      8.0315      2.5234      0.0645      7.6703     90.3005     22.8803
   666.1000      8.0315      2.5284      0.0418      7.3682     91.2086     23.6523
   666.2000      8.0315      2.5324      0.0699      7.1272     93.2049     24.5294
   666.3000      8.0325      2.5458      0.1419      6.3163     93.2559     25.0937
   666.4000      8.0325      2.5629      0.1215      5.2789     90.8910     25.2086
   666.5000      8.0321      2.5846      0.1111      3.9612     86.9149     24.9134
   666.6000      8.0321      2.6136      0.1194      2.2040     83.7447     24.4957
   666.7000      8.0321      2.6432      0.1302      0.4110     82.9152     24.2890
   666.8000      8.0330      2.6605      0.1431     -0.6346     82.9032     24.1134
   666.9000      8.0330      2.6552      0.1058     -0.3137     81.3790     23.8671
   667.0000      8.0324      2.6360      0.0786      0.8474     78.6294     23.7159
   667.1000      8.0324      2.6191      0.0874      1.8717     77.6964     23.6671
   667.2000      8.0324      2.6052      0.0894      2.7173     80.4773     23.5688
   667.3000      8.0324      2.5820      0.1003      4.1194     86.5535     23.2970
   667.4000      8.0324      2.5492      0.0113      6.1115     93.9117     22.9628
   667.5000      8.0321      2.5293      0.0008      7.3178     99.1409     22.6945
   667.6000      8.0321      2.5389      0.0087      6.7335     99.8575     22.4159
   667.7000      8.0321      2.5680      0.0196      4.9723     98.1389     22.1166
   667.8000      8.0280      2.5971      0.0896      3.2061     96.4844     21.8777
   667.9000      8.0280      2.6131      0.1248      2.2363     94.4079     21.6176
   668.0000      8.0308      2.6147      0.1283      2.1398     92.7657     21.5122
   668.1000      8.0308      2.6087      0.1142      2.5012     94.7273     21.8202
   668.2000      8.0308      2.5920      0.0944      3.5174    100.3009     22.1331
   668.3000      8.0299      2.5587      0.0299      5.5310    103.1391     21.9684
   668.4000      8.0299      2.5316     -0.0200      7.1743    100.3941     21.6801
   668.5000      8.0303      2.5408      0.0178      6.6167     99.7196     21.5865
   668.6000      8.0303      2.5730      0.0966      4.6655    104.1061     21.4425
   668.7000      8.0303      2.5934      0.0316      3.4278    104.9009     20.9734
   668.8000      8.0293      2.5913      0.0682      3.5548     98.6008     20.2624
   668.9000      8.0293      2.5778      0.0490      4.3740     92.5208     19.8305
   669.0000      8.0290      2.5753      0.0556      4.5268     89.0427     20.0782
   669.1000      8.0290      2.5902      0.0932      3.6233     85.2186     20.5973
   669.2000      8.0290      2.5946      0.0488      3.3585     81.5927     20.8853
   669.3000      8.0281      2.5663     -0.0063      5.0732     78.7602     21.0676
