~Version Information
 VERS.                                  2.0 : CWLS LAS VERSION
 WRAP.                                   NO : WRAPING MODE
 SWARE .                 MController 2.5.0J : SOFTWARE VERSION
~Well Information
 WELL.                        MOO MOO 31-36 : WELL
 COMP.    PIONEER NATURAL RESOURCES USA INC : COMPANY
 FLD.                      PURGATOIRE RIVER : FIELD
 LOC.                NW/NE SEC 36 T32S R67W : LOCATION
 DATE.                             06/16/05 : DATE(S) LOGGED
 SRVC.       BLANCO GEOLOGICAL SERVICES LLC : SERVICE COMPANY
 STAT.                             COLORADO : STATE
 CNTY.                           LAS ANIMAS : COUNTY
 CTRY.                                  USA : COUNTRY
 API.                       05-071-08395-00 : API NUMBER
 STRT.FT                             303.00 : START DEPTH
 STOP.FT                            2275.00 : STOP DEPTH
 STEP.FT                               1.00 : DEPTH INCREMENT
 NULL.                                -9999 : NULL VALUE
~Curve information
 DEPTH.FT                                   :
 ROP.MIN/FT                                 :
 GAS.UNITS                                  :
~ASCII Log data
# ...
      1903.0         0.30       1452.4 
      1904.0         0.32       1450.7 
      1905.0         0.33       1442.2 
      1906.0         0.33       1424.2 
      1907.0         0.33       1405.6 
      1908.0         0.33       1396.4 
      1909.0         0.33       1385.3 
      1910.0         0.27       1374.2 
      1911.0         0.33       1355.9 
      1912.0         0.30       1352.3 
      1913.0         0.30       1339.5 
      1914.0         0.38       1239.4 
      1915.0         0.33       1064.4 
      1916.0         2.88        870.0 
      1917.0         0.23        863.8 
      1918.0         0.27        861.5 
      1919.0         0.33        825.9 
      1920.0         0.33        864.5 
      1921.0         0.30        871.4 
      1922.0         0.27        867.4 
      1923.0         0.23        866.1 
      1924.0         0.27        864.8 
      1925.0         0.23        872.0 
      1926.0         0.23        868.4 
      1927.0         0.20        864.8 
      1928.0         0.33        867.4 
      1929.0         0.25        867.8 
      1930.0         0.23        865.5 
      1931.0         0.23        866.1 
      1932.0         0.27        873.3 
      1933.0         0.17        868.7 
      1934.0         0.23        875.9 
      1935.0         0.23        870.7 
      1936.0         0.33        869.4 
      1937.0         0.30        879.5 
      1938.0         0.30        872.7 
      1939.0         0.30        876.3 
      1940.0         0.33        878.2 
      1941.0         0.23        873.3 
      1942.0         0.28        874.3 
      1943.0         0.27        876.3 
      1944.0         0.27        876.3 
      1945.0         0.30        885.7 
      1946.0         2.03        878.6 
      1947.0         0.48        874.6 
      1948.0         0.37        851.1 
      1949.0         0.40        892.6 
      1950.0         0.33        893.3 
      1951.0         0.33        893.9 
      1952.0         0.33        892.3 
      1953.0         0.33        892.0 
      1954.0         0.40        891.3 
      1955.0         0.30        885.7 
      1956.0         0.42        878.2 
      1957.0         0.57        879.9 
      1958.0         0.57        878.2 
      1959.0         0.43        884.4 
      1960.0         0.40        882.1 
      1961.0         0.40        445.7 
      1962.0         0.40        101.4 
      1963.0         0.45          1.5 
      1964.0         0.47          2.1 
      1965.0         0.47          2.3 
      1966.0         0.43        119.3 
      1967.0         0.40        190.0 
      1968.0         0.37        210.8 
      1969.0         0.30        218.0 
      1970.0         0.40        220.2 
      1971.0         0.37        217.0 
      1972.0         0.35        215.9 
      1973.0         0.33        230.7 
      1974.0         0.27        247.4 
      1975.0         0.27        256.1 
      1976.0         2.58        275.4 
      1977.0         0.23        351.6 
      1978.0         0.40        881.8 
      1979.0         0.40        982.9 
      1980.0         0.37        950.9 
      1981.0         0.37       1036.6 
      1982.0         0.33       1039.5 
      1983.0         0.30        958.0 
      1984.0         0.30        825.9 
      1985.0         0.30        722.8 
      1986.0         0.38        632.2 
      1987.0         0.63        568.1 
      1988.0         0.63        529.5 
      1989.0         0.47        504.0 
      1990.0         0.17        502.0 
      1991.0         0.10        491.5 
      1992.0         0.13        440.0 
      1993.0         0.13        477.5 
      1994.0         0.20        465.0 
      1995.0         0.23        464.7 
      1996.0         0.20        458.8 
      1997.0         0.25        449.3 
      1998.0         0.17        461.4 
      1999.0         0.20        473.9 
      2000.0         0.20        480.7 
      2001.0         0.27        464.7 
      2002.0         0.23        458.2 
      2003.0         0.23        440.0 
      2004.0         0.23        236.1 
      2005.0         0.27        246.9 
      2006.0         4.08       1096.1 
      2007.0         0.47        958.7 
      2008.0         0.38        989.8 
      2009.0         0.37       1014.0 
      2010.0         0.43        907.3 
      2011.0         0.37        738.2 
      2012.0         0.37        676.0 
      2013.0         0.40        597.9 
      2014.0         0.47        540.0 
      2015.0         0.33        517.1 
      2016.0         0.35        526.5 
      2017.0         0.30        491.5 
      2018.0         0.33        477.5 
      2019.0         0.30        456.9 
      2020.0         0.30        491.2 
      2021.0         0.30        487.6 
      2022.0         0.20        489.6 
      2023.0         0.13        490.6 
      2024.0         0.10        478.8 
      2025.0         0.13        475.8 
      2026.0         0.17        466.7 
      2027.0         0.20        466.0 
      2028.0         0.30        440.0 
      2029.0         0.27        261.7 
      2030.0         0.28        269.6 
      2031.0         0.37        317.9 
      2032.0         0.40        356.5 
      2033.0         0.37        351.4 
      2034.0         0.77        334.6 
      2035.0         0.57        279.8 
      2036.0         1.78        451.6 
      2037.0         0.60        946.3 
      2038.0         0.50       1033.3 
      2039.0         0.43       1007.4 
      2040.0         0.43        863.2 
      2041.0         0.52        719.2 
      2042.0         0.37        620.4 
      2043.0         0.30        590.7 
      2044.0         0.33        570.7 
      2045.0         0.37        515.7 
      2046.0         0.33        531.4 
      2047.0         0.33        507.2 
      2048.0         0.30        487.6 
      2049.0         0.33        460.8 
      2050.0         0.37        497.4 
      2051.0         0.32        487.9 
      2052.0         0.33        481.1 
      2053.0         0.33        470.3 
      2054.0         0.30        461.1 
      2055.0         0.37        440.0 
      2056.0         0.27        440.0 
      2057.0         0.27        440.0 
      2058.0         0.23        440.0 
      2059.0         0.27        440.0 
      2060.0         0.23        456.5 
      2061.0         0.20        453.9 
      2062.0         0.27        451.9 
      2063.0         0.28        440.0 
      2064.0         0.40        265.4 
      2065.0         0.37        247.7 
      2066.0         2.30        321.5 
      2067.0         0.55        901.8 
      2068.0         0.43        965.9 
      2069.0         0.47        897.9 
      2070.0         0.50        974.1 
      2071.0         0.47        891.3 
      2072.0         0.47        753.3 
      2073.0         0.40        652.2 
      2074.0         0.48        584.1 
      2075.0         0.57        542.2 
      2076.0         0.40        514.4 
      2077.0         0.33        484.0 
      2078.0         0.33        459.1 
      2079.0         0.27        490.6 
      2080.0         0.23        470.6 
      2081.0         0.23        455.2 
      2082.0         0.23        454.2 
      2083.0         0.27        440.0 
      2084.0         0.27        440.0 
      2085.0         0.35        268.2 
      2086.0         0.27        265.9 
      2087.0         0.27        268.9 
      2088.0         0.30        275.8 
      2089.0         0.33        277.9 
      2090.0         0.37        274.6 
      2091.0         0.40        268.6 
      2092.0         0.37        263.3 
      2093.0         0.37        261.5 
      2094.0         0.45        262.0 
      2095.0         0.27        260.1 
      2096.0         3.62        906.0 
      2097.0         0.30        922.4 
      2098.0         0.60        672.1 
      2099.0         0.23        599.5 
      2100.0         0.30        584.8 
      2101.0         0.40        723.5 
      2102.0         0.47        759.8 
