~Version Information
VERS.                      2.0: CWLS Log ASCII Standard - VERSION 2.0
WRAP.                       NO: One line per depth step
~Well Information Block
STRT.FT               577.0000: 
STOP.FT              2643.2000: 
STEP.FT                 0.1000: 
NULL.                -999.2500: 
COMP.          Petrogulf Corporation: COMPANY
WELL.           Montoya 12-41V: WELL
FLD.           Purgatorie River: FIELD
LOC.           1081' FNL & 605' FEL: LOCATION
CNTY.               Las Animas: COUNTY
SRVC.                         : SERVICE COMPANY
DATE.          Tue Aug 10 14:17:12 2004: LOG DATE
UWI.           05 071 08094 00: UNIQUE WELL ID
STAT.                 Colorado: STATE
~Curve Information Block
DEPT.FT            0 000 00 00: Depth
DCAL.in                       : CDL Caliper
RHOB.g/cc                     : CDL Bulk Density
RHOC.g/cc                     : CDL Density Correction
DPOR.pu                       : CDL Density Porosity
GR.GAPI                       : Gamma Ray
NPOR.pu                       : Neutron Porosity
~Parameter Information Block
~A  Depth       DCAL        RHOB        RHOC        DPOR         GR         NPOR    
# ...
   586.6000   -999.2500   -999.2500   -999.2500   -999.2500     92.0764     42.5839
   586.7000   -999.2500   -999.2500   -999.2500   -999.2500     88.5661     42.4140
   586.8000   -999.2500   -999.2500   -999.2500   -999.2500     81.9301     42.1664
   586.9000   -999.2500   -999.2500   -999.2500   -999.2500     76.7745     42.0458
   587.0000   -999.2500   -999.2500   -999.2500   -999.2500     78.5864     42.0497
   587.1000   -999.2500   -999.2500   -999.2500   -999.2500     84.3843     42.0259
   587.2000   -999.2500   -999.2500   -999.2500   -999.2500     86.5249     42.0327
   587.3000   -999.2500   -999.2500   -999.2500   -999.2500     84.5279     42.3444
   587.4000   -999.2500   -999.2500   -999.2500   -999.2500     84.3106     42.8474
   587.5000   -999.2500   -999.2500   -999.2500   -999.2500     85.9021     43.0912
   587.6000   -999.2500   -999.2500   -999.2500   -999.2500     85.5817     42.8586
   587.7000   -999.2500   -999.2500   -999.2500   -999.2500     83.1700     42.3417
   587.8000   -999.2500   -999.2500   -999.2500   -999.2500     80.1019     42.0166
   587.9000   -999.2500   -999.2500   -999.2500   -999.2500     78.2719     42.0822
   588.0000   -999.2500   -999.2500   -999.2500   -999.2500     77.4751     42.2946
   588.1000   -999.2500   -999.2500   -999.2500   -999.2500     78.4127     42.4425
   588.2000   -999.2500   -999.2500   -999.2500   -999.2500     82.9588     42.4745
   588.3000   -999.2500   -999.2500   -999.2500   -999.2500     88.5090     42.3763
   588.4000   -999.2500   -999.2500   -999.2500   -999.2500     89.1518     42.1566
   588.5000   -999.2500   -999.2500   -999.2500   -999.2500     83.6682     41.8598
   588.6000   -999.2500   -999.2500   -999.2500   -999.2500     79.3960     41.5487
   588.7000   -999.2500   -999.2500   -999.2500   -999.2500     81.0014     41.3578
   588.8000   -999.2500   -999.2500   -999.2500   -999.2500     80.0053     41.3567
   588.9000   -999.2500   -999.2500   -999.2500   -999.2500     72.0940     41.3902
   589.0000   -999.2500   -999.2500   -999.2500   -999.2500     70.3603     41.2923
   589.1000   -999.2500   -999.2500   -999.2500   -999.2500     80.4697     41.1098
   589.2000   -999.2500   -999.2500   -999.2500   -999.2500     90.0271     40.9853
   589.3000   -999.2500   -999.2500   -999.2500   -999.2500     91.0150     40.8402
   589.4000   -999.2500   -999.2500   -999.2500   -999.2500     86.5712     40.5913
   589.5000   -999.2500   -999.2500   -999.2500   -999.2500     81.6353     40.4718
   589.6000   -999.2500   -999.2500   -999.2500   -999.2500     78.8351     40.5773
   589.7000   -999.2500   -999.2500   -999.2500   -999.2500     80.4539     40.8001
   589.8000   -999.2500   -999.2500   -999.2500   -999.2500     85.0918     41.0437
   589.9000   -999.2500   -999.2500      0.4151   -999.2500     86.3314     41.1975
   590.0000      3.3170   -999.2500      0.4106   -999.2500     83.6803     41.3159
   590.1000      3.3170   -999.2500      0.4068   -999.2500     82.8012     41.4222
   590.2000      3.3170   -999.2500      0.3640   -999.2500     85.0743     41.3954
   590.3000      3.3188   -999.2500      0.3608   -999.2500     89.4697     41.2615
   590.4000      3.3188      2.0669      0.4168     35.3401     93.8889     41.1895
   590.5000      3.3206      2.0729      0.3719     34.9786     92.4894     41.2693
   590.6000      3.3206      2.0783      0.3579     34.6512     84.2458     41.4692
   590.7000      3.3206      2.0875      0.4016     34.0919     77.8058     41.6545
   590.8000      3.3222      2.0903      0.3948     33.9237     78.3734     41.7562
   590.9000      3.3222      2.0824      0.3943     34.3995     82.1953     41.8087
   591.0000      3.3214      2.0750      0.3767     34.8475     87.4481     41.7876
   591.1000      3.3214      2.0756      0.3693     34.8142     95.3658     41.8532
   591.2000      3.3214      2.0778      0.3994     34.6783    101.0829     42.1110
   591.3000      3.3209      2.0751      0.3908     34.8407     99.4498     42.1941
   591.4000      3.3209      2.0737      0.3830     34.9260     95.3570     42.0140
   591.5000      3.3208      2.0758      0.4187     34.8028     95.3945     42.0856
   591.6000      3.3208      2.0735      0.3868     34.9402     98.0457     42.3688
   591.7000      3.3208      2.0704      0.3619     35.1297     98.6981     42.3971
   591.8000      3.3218      2.0757      0.3763     34.8049     96.3340     42.3148
   591.9000      3.3218      2.0842      0.3994     34.2900     91.7120     42.4596
   592.0000      3.3188      2.0852      0.3862     34.2296     85.3114     42.7260
   592.1000      3.3188      2.0803      0.3881     34.5251     79.6334     42.7500
   592.2000      3.3188      2.0764      0.3586     34.7654     77.3774     42.4392
   592.3000      3.3201      2.0729      0.3847     34.9744     79.3419     42.0985
   592.4000      3.3201      2.0659      0.3585     35.3992     85.5461     41.9322
   592.5000      3.3214      2.0572      0.3763     35.9256     93.2091     41.8181
   592.6000      3.3214      2.0500      0.3669     36.3650     97.4818     41.7393
   592.7000      3.3214      2.0423      0.3823     36.8327     99.5864     41.9009
   592.8000      3.3206      2.0332      0.3532     37.3804    104.7504     42.1514
   592.9000      3.3206      2.0263      0.3648     37.8008    112.0547     42.1875
   593.0000      3.3201      2.0215      0.3788     38.0911    114.8597     42.1601
   593.1000      3.3201      2.0175      0.3519     38.3307    110.0840     42.2815
   593.2000      3.3201      2.0195      0.3382     38.2126    101.9611     42.4260
   593.3000      3.3223      2.0296      0.3742     37.5977     95.5054     42.4110
   593.4000      3.3223      2.0399      0.3930     36.9762     93.5510     42.3099
   593.5000      3.3230      2.0414      0.3887     36.8849     96.7353     42.3155
   593.6000      3.3230      2.0350      0.3730     37.2725    102.6118     42.2897
   593.7000      3.3230      2.0290      0.3679     37.6370    106.9578     42.0138
   593.8000      3.3218      2.0275      0.3633     37.7296    106.7641     41.6434
   593.9000      3.3218      2.0259      0.3897     37.8261    102.6259     41.4937
   594.0000      3.3211      2.0205      0.3554     38.1539     95.9620     41.5479
   594.1000      3.3211      2.0158      0.3609     38.4349     87.1842     41.5706
   594.2000      3.3211      2.0162      0.3482     38.4111     79.9047     41.5012
   594.3000      3.3217      2.0193      0.3401     38.2233     77.5202     41.4621
   594.4000      3.3217      2.0210      0.3570     38.1208     78.4455     41.4909
   594.5000      3.3222      2.0204      0.3401     38.1549     80.2376     41.6269
   594.6000      3.3222      2.0180      0.3618     38.3056     81.3830     41.9275
   594.7000      3.3222      2.0134      0.3328     38.5836     79.5576     42.2214
   594.8000      3.3207      2.0115      0.3341     38.6958     74.7357     42.2823
   594.9000      3.3207      2.0213      0.3219     38.1005     73.1219     42.2324
   595.0000      3.3202      2.0504      0.3429     36.3371     77.3695     42.4375
   595.1000      3.3202      2.0950      0.3755     33.6344     79.4481     42.9148
   595.2000      3.3202      2.1344      0.4104     31.2495     75.3573     43.3862
   595.3000      3.3203      2.1507      0.3997     30.2620     70.9107     43.8863
   595.4000      3.3203      2.1542      0.3802     30.0458     67.5746     44.5211
   595.5000      3.3209      2.1679      0.3700     29.2158     63.2786     45.1190
   595.6000      3.3209      2.1966      0.3837     27.4803     60.9615     45.5862
   595.7000      3.3209      2.2290      0.4169     25.5147     60.7106     46.1216
   595.8000      3.3184      2.2545      0.4269     23.9669     59.6634     46.8357
   595.9000      3.3184      2.2731      0.3951     22.8425     56.5545     47.6171
   596.0000      3.3148      2.2953      0.4045     21.4966     49.6854     48.0348
   596.1000      3.3148      2.3309      0.4143     19.3369     42.0099     47.6830
