~Version Information
 VERS.                                  2.0 : CWLS LAS VERSION
 WRAP.                                   NO : WRAPING MODE
 SWARE .                 MController 2.5.0N : SOFTWARE VERSION
~Well Information
 WELL.                           Zink 44-10 : WELL
 COMP.    Pioneer Natural Resources USA Inc : COMPANY
 FLD.                      Purgatoire River : FIELD
 LOC.                SE/SE Sec 10 T32S R66W : LOCATION
 DATE.                              5/29/05 : DATE(S) LOGGED
 SRVC.       Blanco Geological Services LLC : SERVICE COMPANY
 STAT.                                   CO : STATE
 CNTY.                           Las Animas : COUNTY
 CTRY.                                  USA : COUNTRY
 API.                       05-071-08380-00 : API NUMBER
 STRT.FT                             620.00 : START DEPTH
 STOP.FT                            2635.00 : STOP DEPTH
 STEP.FT                               1.00 : DEPTH INCREMENT
 NULL.                                -9999 : NULL VALUE
~Curve information
 DEPTH.FT                                   :
 ROP.MIN/FT                                 :
 GAS.UNITS                                  :
~ASCII Log data
# ...
      2420.0         0.30        923.4 
      2421.0         0.27        776.5 
      2422.0         0.27        623.7 
      2423.0         0.27        555.3 
      2424.0         0.13        545.2 
      2425.0         0.17        577.6 
      2426.0         2.28       1829.6 
      2427.0         0.70       1837.1 
      2428.0         0.57       1692.2 
      2429.0         0.47       1469.1 
      2430.0         0.42       1341.8 
      2431.0         0.40       1236.8 
      2432.0         0.40       1121.3 
      2433.0         0.33       1020.9 
      2434.0         0.40       1171.3 
      2435.0         0.30       1320.2 
      2436.0         0.17       1386.6 
      2437.0         0.20       1433.7 
      2438.0         0.27       1456.6 
      2439.0         0.30       1458.9 
      2440.0         0.30       1450.4 
      2441.0         0.28       1420.0 
      2442.0         0.30       1400.7 
      2443.0         0.30       1373.9 
      2444.0         0.33       1388.9 
      2445.0         0.33       1391.5 
      2446.0         0.30       1456.3 
      2447.0         0.30       1476.6 
      2448.0         0.30       1407.5 
      2449.0         0.33       1220.7 
      2450.0         0.23       1059.8 
      2451.0         0.20        947.9 
      2452.0         0.10        867.1 
      2453.0         0.15        839.0 
      2454.0         0.10        796.4 
      2455.0         0.27        797.7 
      2456.0         2.00       1993.1 
      2457.0         0.27       1993.1 
      2458.0         0.37       1950.6 
      2459.0         0.23       1820.1 
      2460.0         0.25       1741.2 
      2461.0         0.13       1672.5 
      2462.0         0.20       1644.4 
      2463.0         0.37       1598.3 
      2464.0         0.30       1510.9 
      2465.0         0.23       1433.4 
      2466.0         0.37       1373.9 
      2467.0         0.33       1290.1 
      2468.0         0.37       1269.8 
      2469.0         0.30       1250.2 
      2470.0         0.30       1241.0 
      2471.0         0.28       1233.2 
      2472.0         0.27       1220.7 
      2473.0         0.30       1213.6 
      2474.0         0.37       1201.4 
      2475.0         0.20       1193.3 
      2476.0         0.17       1234.8 
      2477.0         0.20       1322.2 
      2478.0         0.20       1372.5 
      2479.0         0.23       1361.1 
      2480.0         0.20       1302.2 
      2481.0         0.20       1218.5 
      2482.0         0.17       1113.1 
      2483.0         0.30       1012.7 
      2484.0         0.27        828.5 
      2485.0         0.28        717.9 
      2486.0         1.63       1607.1 
      2487.0         0.67       1876.0 
      2488.0         0.63       1891.7 
      2489.0         0.45       1806.7 
      2490.0         0.57       1649.3 
      2491.0         0.40       1468.7 
      2492.0         0.37       1344.1 
      2493.0         0.40       1262.3 
      2494.0         0.37       1189.7 
      2495.0         0.33       1168.1 
      2496.0         0.33       1164.8 
      2497.0         0.30       1155.6 
      2498.0         0.28       1147.8 
      2499.0         0.23       1132.7 
      2500.0         0.23       1122.3 
      2501.0         0.23       1111.8 
      2502.0         0.27       1099.4 
      2503.0         0.23       1095.1 
      2504.0         0.20       1090.2 
      2505.0         0.23       1084.0 
      2506.0         0.20       1135.4 
      2507.0         0.23       1212.9 
      2508.0         0.23       1232.9 
      2509.0         0.27       1204.7 
      2510.0         0.23       1109.8 
      2511.0         0.20       1061.1 
      2512.0         0.22        967.9 
      2513.0         0.20        846.2 
      2514.0         0.27        759.5 
      2515.0         0.23        690.1 
      2516.0         3.15       1672.2 
      2517.0         0.47       1680.4 
      2518.0         0.47       1613.7 
      2519.0         0.33       1498.8 
      2520.0         0.47       1416.4 
      2521.0         0.30       1308.4 
      2522.0         0.47       1254.8 
      2523.0         0.27       1179.2 
      2524.0         0.32       1141.9 
      2525.0         0.27       1107.9 
      2526.0         0.23       1095.1 
      2527.0         0.27       1089.6 
      2528.0         0.23       1086.9 
      2529.0         0.27       1084.7 
      2530.0         0.23       1078.8 
      2531.0         0.23       1068.3 
      2532.0         0.27       1068.3 
      2533.0         0.27       1060.4 
      2534.0         0.23       1046.7 
      2535.0         0.27       1037.9 
      2536.0         0.27       1105.9 
      2537.0         0.25       1171.0 
      2538.0         0.23       1179.9 
      2539.0         0.27       1144.5 
      2540.0         0.20       1089.2 
      2541.0         0.23       1015.0 
      2542.0         0.23        891.6 
      2543.0         0.27        780.1 
      2544.0         0.20        680.0 
      2545.0         0.17        652.2 
      2546.0         2.65       1950.9 
      2547.0         0.57       1929.7 
      2548.0         0.47       1724.9 
      2549.0         0.43       1542.3 
      2550.0         0.43       1423.9 
      2551.0         0.38       1314.6 
      2552.0         0.40       1243.3 
      2553.0         0.33       1181.2 
      2554.0         0.43       1129.1 
      2555.0         0.37       1076.8 
      2556.0         0.33       1060.1 
      2557.0         0.33       1047.7 
      2558.0         0.33       1041.8 
      2559.0         0.37       1030.7 
      2560.0         0.38       1016.9 
      2561.0         0.33        989.8 
      2562.0         0.30        978.3 
      2563.0         0.33        968.5 
      2564.0         0.33        966.6 
      2565.0         0.37        963.3 
      2566.0         0.37        958.0 
      2567.0         0.37        953.1 
      2568.0         0.40       1016.6 
      2569.0         0.42       1137.0 
      2570.0         0.37       1135.0 
      2571.0         0.40       1073.2 
      2572.0         0.30        882.5 
      2573.0         0.27        741.1 
      2574.0         0.27        649.9 
      2575.0         0.23        623.7 
      2576.0         1.88       1613.7 
      2577.0         0.70       1690.9 
      2578.0         0.50       1649.6 
      2579.0         0.43       1512.2 
      2580.0         0.40       1405.6 
      2581.0         0.40       1318.9 
      2582.0         0.40       1237.1 
      2583.0         0.35       1165.1 
      2584.0         0.33       1121.9 
      2585.0         0.30       1088.9 
      2586.0         0.30       1076.1 
      2587.0         0.33       1069.9 
      2588.0         0.30       1064.0 
      2589.0         0.30       1056.5 
      2590.0         0.30       1049.0 
      2591.0         0.33       1035.6 
      2592.0         0.30       1022.5 
      2593.0         0.35       1012.0 
      2594.0         0.30       1000.2 
      2595.0         0.30        990.8 
      2596.0         0.30        982.3 
      2597.0         0.27       1010.1 
      2598.0         0.30       1088.9 
      2599.0         0.27       1115.7 
      2600.0         0.27       1098.7 
      2601.0         0.27       1040.5 
      2602.0         0.23        931.2 
      2603.0         0.27        803.3 
      2604.0         0.27        673.4 
      2605.0         0.25        588.4 
      2606.0         7.70       2994.9 
      2607.0         1.07        364.5 
      2608.0         0.63        414.3 
      2609.0         0.57        415.8 
      2610.0         0.58        407.4 
      2611.0         0.37        396.6 
      2612.0         0.53        372.9 
      2613.0         0.43        345.7 
      2614.0         0.37        307.5 
      2615.0         0.83        297.9 
      2616.0         0.88        278.3 
      2617.0         0.53        253.0 
      2618.0         0.70        263.0 
      2619.0         0.63        267.3 
