~Version Information
VERS.                      2.0: CWLS Log ASCII Standard - VERSION 2.0
WRAP.                       NO: One line per depth step
~Well Information Block
STRT.FT                -4.7500: 
STOP.FT              1784.7500: 
STEP.FT                 0.2500: 
NULL.                -999.2500: 
COMP.          Pioneer Natural Resources: COMPANY
WELL.          Buckeye 11-13 Tr: WELL
FLD.           Purgatorie River: FIELD
LOC.           211' FNL & 1054' FWL--: LOCATION
STAT.                       CO: State
CNTY.               Las Animas: COUNTY
CTRY. USA : Country
SECT. 13 : Section
TOWN. 33S : Township
RANG. 67W : range
SRVC.          Patterson Wireline: SERVICE COMPANY
DATE.          Wed Mar 16 09:19:21 2005: LOG DATE
API.           05 071 08317 00: UNIQUE WELL ID
~Curve Information Block
DEPT.FT            0 000 00 00: Depth
CCL.                          : Casing Collar Locator
TT3.usec                      : CBL 3' Travel Time
AMP3.mV                       : CBL 3' Amplitude
GR.GAPI                       : Gamma Ray
~Parameter Information Block
~A  Depth       CCL         TT3         AMP3         GR     
# ...
  1636.7500      0.0000    767.8446      5.0123    145.0180
  1637.0000      0.0000    769.7657      5.1862    140.3374
  1637.2500      0.0000    773.7180      5.3491    135.6679
  1637.5000      0.0000    778.4117      5.4053    130.6573
  1637.7500      0.0000    781.5180      5.3515    125.2525
  1638.0000      0.0000    781.6936      5.2299    119.8001
  1638.2500      0.0000    779.3546      5.0719    114.8275
  1638.5000      0.0000    775.8126      4.9134    110.5760
  1638.7500      0.0000    771.7971      4.8094    106.9070
  1639.0000      0.0000    766.5611      4.8080    103.9342
  1639.2500      0.0000    758.4427      4.9240    102.4154
  1639.5000      0.0000    746.7818      5.1211    103.1666
  1639.7500      0.0000    733.6814      5.3046    106.2846
  1640.0000      0.0000    723.3636      5.3745    111.0340
  1640.2500      0.0000    718.8444      5.3159    116.1626
  1640.5000      0.0000    718.9866      5.2076    120.3773
  1640.7500      0.0000    719.4910      5.1230    123.1166
  1641.0000      0.0000    717.2596      5.0542    125.1251
  1641.2500      0.0000    713.3762      4.9585    127.9145
  1641.5000      0.0000    711.7431      4.8524    132.4482
  1641.7500      0.0000    715.4482      4.8214    138.3176
  1642.0000      0.0000    724.5357      4.9347    144.1018
  1642.2500      0.0000    736.5895      5.1695    148.4991
  1642.5000      0.0000    748.8376      5.4263    151.2474
  1642.7500      0.0000    759.4093      5.5972    153.0727
  1643.0000      0.0000    766.8486      5.6008    154.6780
  1643.2500      0.0000    769.4950      5.3946    155.5761
  1643.5000      0.0000    766.5099      5.0200    154.0375
  1643.7500      0.0000    759.5626      4.6275    148.7663
  1644.0000      0.0000    752.6163      4.3885    140.9631
  1644.2500      0.0000    749.4532      4.3640    134.2809
  1644.5000      0.0000    751.0686      4.4882    132.0168
  1644.7500      0.0000    755.1237      4.6638    134.2193
  1645.0000      0.0000    757.8843      4.8289    137.8179
  1645.2500      0.0000    757.3954      4.9416    139.4658
  1645.5000      0.0000    755.2373      4.9712    138.2148
  1645.7500      0.0000    754.7824      4.9376    135.9160
  1646.0000      0.0000    757.7538      4.9226    135.4654
  1646.2500      0.0000    763.0107      4.9866    138.4998
  1646.5000      0.0000    768.3265      5.0848    144.4697
  1646.7500      0.0000    772.5798      5.1184    151.5455
  1647.0000      0.0000    776.3209      5.0710    158.0416
  1647.2500      0.0000    780.8203      5.0369    163.1679
  1647.5000      0.0000    786.7350      5.0888    167.0332
  1647.7500      0.0000    793.4416      5.1667    169.9678
  1648.0000      0.0000    799.5152      5.1403    171.5914
  1648.2500      0.0000    803.8005      4.9781    170.8837
  1648.5000      0.0000    805.9591      4.8154    167.4686
  1648.7500      0.0000    806.1260      4.8258    162.3005
  1649.0000      0.0000    804.2975      5.0347    156.6398
  1649.2500      0.0000    800.2247      5.2879    150.9635
  1649.5000      0.0000    793.8088      5.3978    145.5223
  1649.7500      0.0000    785.2418      5.3013    141.3650
  1650.0000      0.0000    774.3838      5.0933    139.7759
  1650.2500      0.0000    760.2795      4.9357    140.7169
  1650.5000      0.0000    742.1627      4.9140    142.6800
  1650.7500      0.0000    721.3688      4.9563    144.1767
  1651.0000      0.0000    701.7095      4.9015    145.0096
  1651.2500      0.0000    687.5141      4.6720    146.1371
  1651.5000      0.0000    681.3219      4.3742    148.4236
  1651.7500      0.0000    683.1853      4.2150    151.3512
  1652.0000      0.0000    691.0222      4.3127    153.1290
  1652.2500      0.0000    701.0887      4.5889    152.4375
  1652.5000      0.0000    709.1702      4.8477    149.9182
  1652.7500      0.0000    712.4039      4.9547    147.5506
  1653.0000      0.0000    709.4711      4.9354    146.7551
  1653.2500      0.0000    699.2329      4.9094    147.4824
  1653.5000      0.0000    681.7591      4.9570    148.9330
  1653.7500      0.0000    661.9185      5.0709    150.6935
  1654.0000      0.0000    649.1255      5.2090    152.9289
  1654.2500      0.0000    651.0309      5.3362    155.5564
  1654.5000      0.0000    667.8467      5.4071    157.5527
  1654.7500      0.0000    693.1319      5.3632    157.5218
  1655.0000      0.0000    719.4160      5.1919    155.1808
  1655.2500      0.0000    742.7573      4.9762    151.9473
  1655.5000      0.0000    762.4244      4.8524    149.8282
  1655.7500      0.0000    777.9974      4.9032    149.9342
  1656.0000      0.0000    788.2469      5.0975    152.1785
  1656.2500      0.0000    792.3720      5.3273    155.7716
  1656.5000      0.0000    791.2448      5.4796    159.4560
  1656.7500      0.0000    787.4039      5.4729    161.6067
  1657.0000      0.0000    783.8911      5.2652    160.5684
  1657.2500      0.0000    782.6959      4.8766    155.0228
  1657.5000      0.0000    783.8696      4.4135    144.7477
  1657.7500      0.0000    786.0068      4.0443    131.8838
  1658.0000      0.0000    787.3676      3.9151    120.8317
  1658.2500      0.0000    786.4130      4.0670    115.6418
  1658.5000      0.0000    781.6823      4.4256    117.3745
  1658.7500      0.0000    772.1124      4.8577    124.2326
  1659.0000      0.0000    758.2905      5.2378    133.4982
  1659.2500      0.0000    743.2596      5.4860    142.5614
  1659.5000      0.0000    731.3091      5.5702    148.5572
  1659.7500      0.0000    725.1679      5.4891    148.3189
  1660.0000      0.0000    723.4302      5.2558    139.7461
  1660.2500      0.0000    720.1700      4.9008    123.4803
  1660.5000      0.0000    708.7444      4.4811    103.1304
  1660.7500      0.0000    688.9010      4.0743     83.7241
  1661.0000      0.0000    669.8788      3.7563     69.3985
  1661.2500      0.0000    663.3250      3.5817     61.5503
  1661.5000      0.0000    672.4771      3.5761     58.5443
  1661.7500      0.0000    690.3316      3.7318     57.3432
  1662.0000      0.0000    707.5538      4.0091     55.7615
  1662.2500      0.0000    719.0402      4.3505     53.4710
  1662.5000      0.0000    723.3372      4.6988     51.3488
  1662.7500      0.0000    719.8914      5.0071     50.2837
  1663.0000      0.0000    709.7767      5.2428     50.4224
  1663.2500      0.0000    698.1384      5.3974     51.1595
  1663.5000      0.0000    692.7579      5.4943     51.8248
  1663.7500      0.0000    698.3019      5.5770     52.4594
  1664.0000      0.0000    712.4769      5.6728     53.6673
  1664.2500      0.0000    728.3577      5.7676     55.5540
  1664.5000      0.0000    739.8179      5.8180     57.0638
  1664.7500      0.0000    744.8729      5.7929     56.6396
  1665.0000      0.0000    745.4886      5.7124     53.5691
  1665.2500      0.0000    745.1463      5.6435     48.7961
  1665.5000      0.0000    745.8930      5.6482     44.5376
  1665.7500      0.0000    746.9921      5.7332     42.8781
  1666.0000      2.0000    746.2831      5.8511     44.3619
  1666.2500      2.0000    742.8642      5.9427     47.8604
  1666.5000      0.0000    738.5891      5.9809     51.7210
  1666.7500      0.0000    736.7143      5.9825     54.8183
  1667.0000      0.0000    738.1964      5.9806     56.6322
  1667.2500      0.0000    738.7455      5.9744     57.0833
  1667.5000      0.0000    730.5169      5.9201     56.8477
  1667.7500      0.0000    708.2621      5.7898     57.3855
  1668.0000      0.0000    675.3648      5.6330     60.0426
  1668.2500      0.0000    644.4982      5.5482     65.2176
  1668.5000      0.0000    630.5453      5.5936     72.5445
  1668.7500      0.0000    639.7592      5.7429     81.5365
  1669.0000      0.0000    664.7629      5.9242     91.8530
  1669.2500      0.0000    690.6044      6.0793    103.0586
  1669.5000      0.0000    705.6170      6.1829    114.2126
  1669.7500      0.0000    707.0925      6.2344    123.8889
  1670.0000      0.0000    699.3293      6.2526    130.8971
