~Version Information
VERS.                      2.0: CWLS Log ASCII Standard - VERSION 2.0
WRAP.                       NO: One line per depth step
~Well Information Block
STRT.FT               698.9000: 
STOP.FT              2459.5000: 
STEP.FT                 0.1000: 
NULL.                -999.2500: 
COMP.          Petrogulf Corporation: COMPANY
WELL.             State 16-23V: WELL
FLD.           Purgatorie River: FIELD
LOC.           2414' FSL & 2215' FWL: LOCATION
PROV.                 Colorado: PROVINCE
CNTY.               Las Animas: COUNTRY
SRVC.                         : SERVICE COMPANY
DATE.          Mon Jun 09 12:47:39 2003: LOG DATE
UWI.           05 071 07865 00: UNIQUE WELL ID
~Curve Information Block
DEPT.FT            0 000 00 00: Depth
SP.mV                         : DIL Spontaneous Potential
RILD.Ohm-m                    : DIL Deep Resistivity
RILM.Ohm-m                    : DIL Medium Resistivity
RLL3.Ohm-m                    : DIL Shallow Resistivity
GR.GAPI                       : Gamma Ray
~Parameter Information Block
~A  Depth        SP         RILD        RILM        RLL3         GR     
# ...
   945.3000   2000.0000     12.0710     12.7397   1998.0000    149.1402
   945.4000   2000.0000     12.0710     12.7397   1998.0000    150.6637
   945.5000   2000.0000     11.7232     12.3881   1998.0000    152.2997
   945.6000   2000.0000     11.7232     12.3881   1998.0000    153.9536
   945.7000   2000.0000     11.7232     12.3881   1998.0000    155.5114
   945.8000   2000.0000     11.3302     12.0726   1998.0000    156.8534
   945.9000   2000.0000     11.3302     12.0726   1998.0000    157.8744
   946.0000   2000.0000     10.9220     11.8094   1998.0000    158.4980
   946.1000   2000.0000     10.9220     11.8094   1998.0000    158.6905
   946.2000   2000.0000     10.9220     11.8094   1998.0000    158.4603
   946.3000   2000.0000     10.5410     11.6036   1998.0000    157.8549
   946.4000   2000.0000     10.5410     11.6036   1998.0000    156.9565
   946.5000   2000.0000     10.2294     11.4351   1998.0000    155.8626
   946.6000   2000.0000     10.2294     11.4351   1998.0000    154.6797
   946.7000   2000.0000     10.2294     11.4351   1998.0000    153.5119
   946.8000   2000.0000     10.0173     11.2727   1998.0000    152.4482
   946.9000   2000.0000     10.0173     11.2727   1998.0000    151.5593
   947.0000   2000.0000      9.9079     11.0998   1998.0000    150.8939
   947.1000   2000.0000      9.9079     11.0998   1998.0000    150.4700
   947.2000   2000.0000      9.9079     11.0998   1998.0000    150.2847
   947.3000   2000.0000      9.8732     10.9243   1998.0000    150.3130
   947.4000   2000.0000      9.8732     10.9243   1998.0000    150.5121
   947.5000   2000.0000      9.8795     10.7680   1998.0000    150.8318
   947.6000   2000.0000      9.8795     10.7680   1998.0000    151.2213
   947.7000   2000.0000      9.8795     10.7680   1998.0000    151.6369
   947.8000   2000.0000      9.9236     10.6530   1998.0000    152.0471
   947.9000   2000.0000      9.9236     10.6530   1998.0000    152.4340
   948.0000   2000.0000     10.0373     10.5970   1998.0000    152.7961
   948.1000   2000.0000     10.0373     10.5970   1998.0000    153.1376
   948.2000   2000.0000     10.0373     10.5970   1998.0000    153.4687
   948.3000   2000.0000     10.2533     10.6152   1998.0000    153.7930
   948.4000   2000.0000     10.2533     10.6152   1998.0000    154.1061
   948.5000   2000.0000     10.5689     10.7236   1998.0000    154.3896
   948.6000   2000.0000     10.5689     10.7236   1998.0000    154.6152
   948.7000   2000.0000     10.5689     10.7236   1998.0000    154.7456
   948.8000   2000.0000     10.9351     10.9375   1998.0000    154.7420
   948.9000   2000.0000     10.9351     10.9375   1998.0000    154.5701
   949.0000   2000.0000     11.2781     11.2654   1998.0000    154.2074
   949.1000   2000.0000     11.2781     11.2654   1998.0000    153.6462
   949.2000   2000.0000     11.2781     11.2654   1998.0000    152.8897
   949.3000   2000.0000     11.5441     11.7065   1998.0000    151.9512
   949.4000   2000.0000     11.5441     11.7065   1998.0000    150.8479
   949.5000   2000.0000     11.7360     12.2570   1998.0000    149.5965
   949.6000   2000.0000     11.7360     12.2570   1998.0000    148.2101
   949.7000   2000.0000     11.7360     12.2570   1998.0000    146.7001
   949.8000   2000.0000     11.9033     12.9191   1998.0000    145.0743
   949.9000   2000.0000     11.9033     12.9191   1998.0000    143.3456
   950.0000   2000.0000     12.0965     13.7032   1998.0000    141.5340
   950.1000   2000.0000     12.0965     13.7032   1998.0000    139.6747
   950.2000   2000.0000     12.0965     13.7032   1998.0000    137.8198
   950.3000   2000.0000     12.3368     14.6115   1998.0000    136.0395
   950.4000   2000.0000     12.3368     14.6115   1998.0000    134.4155
   950.5000   2000.0000     12.6277     15.6016   1998.0000    133.0345
   950.6000   2000.0000     12.6277     15.6016   1998.0000    131.9768
   950.7000   2000.0000     12.6277     15.6016   1998.0000    131.3033
   950.8000   2000.0000     12.9819     16.5679   1998.0000    131.0446
   950.9000   2000.0000     12.9819     16.5679   1998.0000    131.1945
   951.0000   2000.0000     13.4231     17.3968   1998.0000    131.7129
   951.1000   2000.0000     13.4231     17.3968   1998.0000    132.5287
   951.2000   2000.0000     13.4231     17.3968   1998.0000    133.5554
   951.3000   2000.0000     13.9653     18.0629   1998.0000    134.6993
   951.4000   2000.0000     13.9653     18.0629   1998.0000    135.8768
   951.5000   2000.0000     14.6023     18.6409   1998.0000    137.0236
   951.6000   2000.0000     14.6023     18.6409   1998.0000    138.1001
   951.7000   2000.0000     14.6023     18.6409   1998.0000    139.0915
   951.8000   2000.0000     15.3134     19.2244   1998.0000    140.0019
   951.9000   2000.0000     15.3134     19.2244   1998.0000    140.8477
   952.0000   2000.0000     16.0683     19.8706   1998.0000    141.6471
   952.1000   2000.0000     16.0683     19.8706   1998.0000    142.4088
   952.2000   2000.0000     16.0683     19.8706   1998.0000    143.1272
   952.3000   2000.0000     16.8252     20.6146   1998.0000    143.7733
   952.4000   2000.0000     16.8252     20.6146   1998.0000    144.2959
   952.5000   2000.0000     17.5308     21.5067   1998.0000    144.6253
   952.6000   2000.0000     17.5308     21.5067   1998.0000    144.6810
   952.7000   2000.0000     17.5308     21.5067   1998.0000    144.3820
   952.8000   2000.0000     18.1282     22.6168   1998.0000    143.6624
   952.9000   2000.0000     18.1282     22.6168   1998.0000    142.4782
   953.0000   2000.0000     18.5831     24.0052   1998.0000    140.8173
   953.1000   2000.0000     18.5831     24.0052   1998.0000    138.7008
   953.2000   2000.0000     18.5831     24.0052   1998.0000    136.1780
   953.3000   2000.0000     18.9291     25.6945   1998.0000    133.3232
   953.4000   2000.0000     18.9291     25.6945   1998.0000    130.2252
   953.5000   2000.0000     19.2797     27.6753   1998.0000    126.9787
   953.6000   2000.0000     19.2797     27.6753   1998.0000    123.6787
   953.7000   2000.0000     19.2797     27.6753   1998.0000    120.4137
   953.8000   2000.0000     19.7572     29.9371   1998.0000    117.2618
   953.9000   2000.0000     19.7572     29.9371   1998.0000    114.2913
   954.0000   2000.0000     20.4020     32.4796   1998.0000    111.5539
   954.1000   2000.0000     20.4020     32.4796   1998.0000    109.0842
   954.2000   2000.0000     20.4020     32.4796   1998.0000    106.8928
   954.3000   2000.0000     21.1567     35.2700   1998.0000    104.9687
   954.4000   2000.0000     21.1567     35.2700   1998.0000    103.2799
   954.5000   2000.0000     21.9205     38.1995   1998.0000    101.7779
   954.6000   2000.0000     21.9205     38.1995   1998.0000    100.4067
   954.7000   2000.0000     21.9205     38.1995   1998.0000     99.1130
   954.8000   2000.0000     22.6127     41.1532   1998.0000     97.8530
   954.9000   2000.0000     22.6127     41.1532   1998.0000     96.6030
   955.0000   2000.0000     23.2192     44.1687   1998.0000     95.3592
   955.1000   2000.0000     23.2192     44.1687   1998.0000     94.1312
   955.2000   2000.0000     23.2192     44.1687   1998.0000     92.9400
   955.3000   2000.0000     23.8102     47.4411   1998.0000     91.8034
   955.4000   2000.0000     23.8102     47.4411   1998.0000     90.7308
   955.5000   2000.0000     24.4840     51.0639   1998.0000     89.7155
   955.6000   2000.0000     24.4840     51.0639   1998.0000     88.7369
   955.7000   2000.0000     24.4840     51.0639   1998.0000     87.7592
   955.8000   2000.0000     25.2701     54.7714   1998.0000     86.7452
   955.9000   2000.0000     25.2701     54.7714   1998.0000     85.6639
   956.0000   2000.0000     26.1136     58.0227   1998.0000     84.4989
   956.1000   2000.0000     26.1136     58.0227   1998.0000     83.2581
   956.2000   2000.0000     26.1136     58.0227   1998.0000     81.9728
   956.3000   2000.0000     26.9606     60.4997   1998.0000     80.6960
   956.4000   2000.0000     26.9606     60.4997   1998.0000     79.4963
