~Version Information
VERS.                      2.0: CWLS Log ASCII Standard - VERSION 2.0
WRAP.                       NO: One line per depth step
~Well Information Block
STRT.FT                -7.7500: 
STOP.FT              1532.2500: 
STEP.FT                 0.2500: 
NULL.                -999.2500: 
COMP.          Pioneer Natural Resources: COMPANY
WELL.          Big Cat Federal 44-1: WELL
FLD.           Purgatorie River: FIELD
LOC.           197' FSL & 973' FEL--: LOCATION
CNTY.               Las Animas: COUNTY
SRVC.          Patterson Wireline: SERVICE COMPANY
DATE.          Fri Apr 28 12:21:06 2006: LOG DATE
UWI.           05 071 08042 00: UNIQUE WELL ID
STAT.                       CO: STATE
~Curve Information Block
DEPT.FT            0 000 00 00: Depth
CCL.                          : Casing Collar Locator
TT3.usec                      : CBL 3' Travel Time
AMP3.mV                       : CBL 3' Amplitude
GR.GAPI                       : Gamma Ray
~Parameter Information Block
~A  Depth       CCL         TT3         AMP3         GR     
# ...
  1399.2500      0.0000    844.9540      8.8501     80.3372
  1399.5000      0.0000    844.9243      8.8177     79.9812
  1399.7500      0.0000    842.4097      8.7633     79.4724
  1400.0000      0.0000    836.6663      8.6994     78.7157
  1400.2500      0.0000    827.8441      8.6477     78.3044
  1400.5000      0.0000    817.4191      8.6219     78.8026
  1400.7500      0.0000    808.8245      8.6167     80.1537
  1401.0000      0.0000    806.4135      8.6121     81.6655
  1401.2500      0.0000    812.1631      8.5903     82.5395
  1401.5000      0.0000    823.4525      8.5522     82.5478
  1401.7500      0.0000    835.0087      8.5173     81.9878
  1402.0000      0.0000    842.8570      8.5071     80.8767
  1402.2500      0.0000    846.0710      8.5279     78.7992
  1402.5000      0.0000    845.8224      8.5681     75.7058
  1402.7500      0.0000    843.8946      8.6093     72.0952
  1403.0000      0.0000    841.7407      8.6382     68.3964
  1403.2500      0.0000    839.9471      8.6476     64.9575
  1403.5000      0.0000    838.3690      8.6330     62.5248
  1403.7500      0.0000    836.9017      8.5931     61.8279
  1404.0000      0.0000    835.7925      8.5335     62.5894
  1404.2500      0.0000    834.9833      8.4641     63.5620
  1404.5000      0.0000    833.5492      8.3908     63.7390
  1404.7500      0.0000    830.3363      8.3146     63.2816
  1405.0000      0.0000    825.1667      8.2401     63.2706
  1405.2500      0.0000    818.9236      8.1796     64.7066
  1405.5000      0.0000    812.3433      8.1443     67.6375
  1405.7500      0.0000    805.3170      8.1335     71.1068
  1406.0000      0.0000    797.8005      8.1346     74.0669
  1406.2500      0.0000    790.9671      8.1350     76.4355
  1406.5000      0.0000    786.7092      8.1328     78.9510
  1406.7500      0.0000    785.7904      8.1342     81.7430
  1407.0000      0.0000    786.7372      8.1417     83.4004
  1407.2500      0.0000    786.6007      8.1476     81.9431
  1407.5000      0.0000    783.0297      8.1406     76.7200
  1407.7500      0.0000    776.2852      8.1185     69.0771
  1408.0000      0.0000    769.3871      8.0917     61.2219
  1408.2500      0.0000    765.4395      8.0730     54.6318
  1408.5000      0.0000    764.7159      8.0699     49.5175
  1408.7500      0.0000    765.3806      8.0846     45.4959
  1409.0000      0.0000    766.8701      8.1206     42.3718
  1409.2500      0.0000    770.9719      8.1801     40.2453
  1409.5000      0.0000    779.1904      8.2539     39.3159
  1409.7500      0.0000    790.3563      8.3157     39.8441
  1410.0000      0.0000    801.5010      8.3331     42.1431
  1410.2500      0.0000    810.1821      8.2876     46.5887
  1410.5000      0.0000    815.3378      8.1869     53.6045
  1410.7500      0.0000    816.8274      8.0607     63.1914
  1411.0000      0.0000    815.3235      7.9461     74.1754
  1411.2500      0.0000    812.5182      7.8716     84.3302
  1411.5000      0.0000    810.6635      7.8490     91.6437
  1411.7500      0.0000    811.5861      7.8779     95.4554
  1412.0000      0.0000    815.9153      7.9490     96.5210
  1412.2500      0.0000    822.7358      8.0390     96.2090
  1412.5000      0.0000    829.9252      8.1109     95.4006
  1412.7500      0.0000    835.6672      8.1314     93.8936
  1413.0000      0.0000    839.9935      8.0944     91.0259
  1413.2500      0.0000    843.9273      8.0217     86.8425
  1413.5000      0.0000    846.4598      7.9425     82.3367
  1413.7500      0.0000    843.7343      7.8755     78.5941
  1414.0000      0.0000    832.8353      7.8254     75.9532
  1414.2500      0.0000    815.7551      7.7896     73.9485
  1414.5000      0.0000    798.3282      7.7614     71.8830
  1414.7500      0.0000    785.8369      7.7323     69.5535
  1415.0000      0.0000    780.3926      7.6968     67.6717
  1415.2500      0.0000    781.3610      7.6560     67.5147
  1415.5000      0.0000    786.6265      7.6159     69.8265
  1415.7500      0.0000    793.3813      7.5798     73.9357
  1416.0000      0.0000    798.8752      7.5401     78.0824
  1416.2500      0.0000    801.3674      7.4803     80.7521
  1416.5000      0.0000    800.6378      7.3886     81.7798
  1416.7500      0.0000    797.5607      7.2692     82.3514
  1417.0000      0.0000    792.8132      7.1414     84.0170
  1417.2500      0.0000    785.8582      7.0281     87.4374
  1417.5000      0.0000    775.7780      6.9451     91.9199
  1417.7500      0.0000    763.7490      6.8949     96.1543
  1418.0000      0.0000    754.1203      6.8699     99.1992
  1418.2500      0.0000    751.8167      6.8641    100.8038
  1418.5000      0.0000    758.0431      6.8811    101.4465
  1418.7500      0.0000    768.6948      6.9245    102.2526
  1419.0000      0.0000    777.3456      6.9818    104.0269
  1419.2500      0.0000    780.0475      7.0233    105.9392
  1419.5000      0.0000    777.5115      7.0202    105.8860
  1419.7500      0.0000    773.3386      6.9569    102.6769
  1420.0000      0.0000    770.7634      6.8304     97.5257
  1420.2500      0.0000    770.7388      6.6530     92.9814
  1420.5000      0.0000    772.0404      6.4567     90.5314
  1420.7500      0.0000    772.6835      6.2856     89.5110
  1421.0000      0.0000    771.6296      6.1762     88.1377
  1421.2500      0.0000    769.5574      6.1475     85.1193
  1421.5000      0.0000    768.2008      6.2055     80.2439
  1421.7500      0.0000    769.1645      6.3484     74.0657
  1422.0000      0.0000    773.1327      6.5630     67.7269
  1422.2500      0.0000    779.3967      6.8221     62.9468
  1422.5000      0.0000    785.8016      7.0851     61.3603
  1422.7500      0.0000    789.7468      7.2996     63.4502
  1423.0000      0.0000    789.8075      7.4107     68.3710
  1423.2500      0.0000    786.3811      7.3832     74.7430
  1423.5000      0.0000    780.8619      7.2213     81.0727
  1423.7500      0.0000    774.6011      6.9587     85.5138
  1424.0000      0.0000    768.5650      6.6251     86.1732
  1424.2500      0.0000    763.3618      6.2355     82.2719
  1424.5000      0.0000    759.4758      5.8212     74.9846
  1424.7500      0.0000    757.8845      5.4504     66.8530
  1425.0000      0.0000    760.3474      5.1818     60.0838
  1425.2500      0.0000    768.2117      5.0112     55.2391
  1425.5000      0.0000    780.3292      4.8989     51.5239
  1425.7500      0.0000    792.7809      4.8360     48.1837
  1426.0000      0.0000    801.4994      4.8542     45.5438
  1426.2500      2.0000    804.8274      4.9848     44.8137
  1426.5000      0.0000    802.3491      5.2412     47.0004
  1426.7500      0.0000    791.4210      5.6339     51.9709
  1427.0000      0.0000    767.0161      6.1875     58.4821
  1427.2500      0.0000    727.7991      6.9316     64.9501
  1427.5000      0.0000    683.4202      7.8437     70.1013
  1427.7500      0.0000    653.4305      8.7866     73.2032
  1428.0000      0.0000    654.4200      9.5597     74.0755
  1428.2500      0.0000    685.9868     10.0638     73.0404
  1428.5000      0.0000    730.8993     10.3702     70.8647
  1428.7500      0.0000    769.5981     10.5885     68.6249
  1429.0000      0.0000    792.9437     10.7254     67.3980
  1429.2500      0.0000    802.3284     10.7123     67.7989
  1429.5000      0.0000    802.4526     10.5130     69.4905
  1429.7500      0.0000    796.5932     10.1607     71.1484
  1430.0000      0.0000    786.8968      9.7232     71.3556
  1430.2500      0.0000    776.2598      9.2699     69.7326
  1430.5000      0.0000    768.1765      8.8616     67.0521
  1430.7500      0.0000    764.6471      8.5449     64.3769
  1431.0000      0.0000    764.7399      8.3425     62.4485
  1431.2500      0.0000    765.4830      8.2465     61.7044
  1431.5000      0.0000    763.7996      8.2181     62.1363
  1431.7500      0.0000    757.7723      8.2012     62.9763
  1432.0000      0.0000    746.8466      8.1473     63.0859
  1432.2500      0.0000    731.6195      8.0372     62.0077
  1432.5000      0.0000    713.9035      7.8829     60.4571
