~Version Information
VERS.                      2.0: CWLS Log ASCII Standard - VERSION 2.0
WRAP.                       NO: One line per depth step
~Well Information Block
STRT.FT               555.6000: 
STOP.FT              2132.0000: 
STEP.FT                 0.1000: 
NULL.                -999.2500: 
COMP.          Petrogulf Corporation: COMPANY
WELL.           Montoya 12-41R: WELL
FLD.           Purgatorie River: FIELD
LOC.           1086' FNL & 610' FEL: LOCATION
CNTY.               Las Animas: COUNTY
SRVC.                         : SERVICE COMPANY
DATE.          Thu Nov 18 08:45:51 2004: LOG DATE
UWI.           05 071 08241 00: UNIQUE WELL ID
STAT.                 Colorado: STATE
~Curve Information Block
DEPT.FT            0 000 00 00: Depth
DCAL.in                       : CDL Caliper
RHOB.g/cc                     : CDL Bulk Density
RHOC.g/cc                     : CDL Density Correction
DPOR.pu                       : CDL Density Porosity
GR.GAPI                       : Gamma Ray
NPOR.pu                       : Neutron Porosity
~Parameter Information Block
~A  Depth       DCAL        RHOB        RHOC        DPOR         GR         NPOR    
# ...
  1813.2000      8.1058      2.5486      0.2666      6.1444    132.5983     29.0172
  1813.3000      8.0640      2.5586      0.1766      5.5376    128.8900     29.1989
  1813.4000      8.0640      2.5632      0.1358      5.2621    123.6690     29.3116
  1813.5000      8.0076      2.5766      0.1680      4.4503    120.5605     29.3587
  1813.6000      8.0076      2.5902      0.1939      3.6260    120.4815     28.7975
  1813.7000      8.0076      2.6010      0.1839      2.9726    119.9599     28.1046
  1813.8000      7.9671      2.6147      0.2008      2.1423    119.8296     27.8879
  1813.9000      7.9671      2.6265      0.2057      1.4234    122.6666     27.5612
  1814.0000      7.9613      2.6295      0.1635      1.2446    126.0019     26.7498
  1814.1000      7.9613      2.6239      0.1722      1.5788    125.8602     25.6867
  1814.2000      7.9613      2.6088      0.1373      2.4965    123.5807     24.7269
  1814.3000      7.9465      2.5853      0.0784      3.9204    124.3987     24.3104
  1814.4000      7.9465      2.5573      0.0890      5.6167    129.4947     24.7375
  1814.5000      7.8910      2.5277      0.0724      7.4122    132.9660     25.5976
  1814.6000      7.8910      2.5103      0.0459      8.4694    132.2772     26.5318
  1814.7000      7.8910      2.5183      0.0342      7.9818    132.9213     27.5983
  1814.8000      7.8516      2.5402      0.0682      6.6550    134.0376     28.1082
  1814.9000      7.8516      2.5522      0.0764      5.9250    132.6950     27.9703
  1815.0000      7.8549      2.5501      0.0796      6.0539    131.5132     28.0655
  1815.1000      7.8549      2.5468      0.0888      6.2555    130.8453     28.0880
  1815.2000      7.8549      2.5512      0.0950      5.9883    128.5550     27.8764
  1815.3000      7.8805      2.5589      0.1115      5.5229    126.3976     27.7222
  1815.4000      7.8805      2.5600      0.0759      5.4529    130.6440     27.2773
  1815.5000      7.8908      2.5545      0.0555      5.7856    138.4912     26.6312
  1815.6000      7.8908      2.5500      0.0633      6.0581    140.6752     26.3748
  1815.7000      7.8908      2.5530      0.0676      5.8766    135.9639     26.9841
  1815.8000      7.8774      2.5642      0.0897      5.2000    128.7720     27.9589
  1815.9000      7.8774      2.5772      0.0947      4.4130    122.4279     27.7524
  1816.0000      7.8659      2.5892      0.0964      3.6842    118.4318     26.4490
  1816.1000      7.8659      2.6057      0.1114      2.6877    116.9153     25.7832
  1816.2000      7.8659      2.6225      0.1494      1.6692    115.4823     26.1794
  1816.3000      7.8621      2.6258      0.1353      1.4653    112.1858     26.6118
  1816.4000      7.8621      2.6165      0.0712      2.0293    110.7131     26.3258
  1816.5000      7.8539      2.6070      0.0678      2.6044    113.5659     25.6496
  1816.6000      7.8539      2.5957      0.0840      3.2919    118.2506     25.4317
  1816.7000      7.8539      2.5734      0.0542      4.6420    123.4364     25.8163
  1816.8000      7.8473      2.5465      0.0359      6.2715    128.4869     26.1976
  1816.9000      7.8473      2.5309      0.0102      7.2175    131.5571     26.1130
  1817.0000      7.8526      2.5319      0.0492      7.1569    131.2233     25.4626
  1817.1000      7.8526      2.5431      0.0327      6.4817    127.6884     25.0375
  1817.2000      7.8526      2.5560      0.0665      5.6946    120.7271     25.4294
  1817.3000      7.8575      2.5651      0.0699      5.1477    113.3829     25.7494
  1817.4000      7.8575      2.5731      0.0377      4.6634    110.7296     25.5511
  1817.5000      7.8568      2.5863      0.0415      3.8607    113.3536     25.4414
  1817.6000      7.8568      2.5962      0.0769      3.2632    118.8687     25.6353
  1817.7000      7.8568      2.5915      0.0732      3.5426    125.8868     26.1976
  1817.8000      7.8594      2.5786      0.0668      4.3268    130.0430     27.1540
  1817.9000      7.8594      2.5656      0.0564      5.1128    127.6199     27.8962
  1818.0000      7.8576      2.5581      0.0054      5.5696    123.5475     27.7804
  1818.1000      7.8576      2.5643      0.0321      5.1910    122.5284     27.4674
  1818.2000      7.8576      2.5867      0.0284      3.8364    122.9976     27.8027
  1818.3000      7.8527      2.6085      0.0656      2.5125    125.5690     28.1437
  1818.4000      7.8527      2.6054      0.0945      2.7040    130.5554     27.4145
  1818.5000      7.8487      2.5804      0.0579      4.2171    130.3088     26.0523
  1818.6000      7.8487      2.5579      0.0487      5.5812    123.0277     25.3202
  1818.7000      7.8487      2.5500      0.0532      6.0593    118.2569     25.3875
  1818.8000      7.8420      2.5592      0.0599      5.5058    119.8599     25.3145
  1818.9000      7.8420      2.5807      0.0773      4.1989    124.7844     24.9230
  1819.0000      7.8338      2.6037      0.1138      2.8036    132.8146     25.3971
  1819.1000      7.8338      2.6274      0.1091      1.3721    141.2540     26.6846
  1819.2000      7.8338      2.6558      0.1533     -0.3516    144.5505     26.9865
  1819.3000      7.8305      2.6751      0.1694     -1.5210    142.0378     25.6682
  1819.4000      7.8305      2.6632      0.1466     -0.7991    135.9400     24.2935
  1819.5000      7.8275      2.6244      0.1198      1.5525    127.6464     24.1053
  1819.6000      7.8275      2.5888      0.0576      3.7062    121.3215     24.4789
  1819.7000      7.8275      2.5819      0.0478      4.1285    119.6368     24.7994
  1819.8000      7.8131      2.5976      0.0904      3.1766    119.8908     25.0234
  1819.9000      7.8131      2.6107      0.0945      2.3847    121.8342     24.9285
  1820.0000      7.7924      2.6122      0.0867      2.2929    126.7509     24.3317
  1820.1000      7.7924      2.6083      0.0853      2.5249    130.9335     23.1929
  1820.2000      7.7924      2.5993      0.0812      3.0742    128.9310     21.5893
  1820.3000      7.7789      2.5869      0.0528      3.8253    120.9130     20.0030
  1820.4000      7.7789      2.5759      0.0738      4.4924    111.9072     19.6080
  1820.5000      7.7645      2.5633      0.0458      5.2526    108.4321     20.7085
  1820.6000      7.7645      2.5505      0.0563      6.0300    112.0498     21.9095
  1820.7000      7.7645      2.5426      0.0355      6.5095    116.7847     22.5799
  1820.8000      7.7564      2.5407      0.0284      6.6233    120.1523     23.0090
  1820.9000      7.7564      2.5466      0.0231      6.2692    123.6065     22.7825
  1821.0000      7.7606      2.5590      0.0675      5.5127    125.1496     22.1129
  1821.1000      7.7606      2.5694      0.0634      4.8878    123.8124     22.0521
  1821.2000      7.7606      2.5697      0.1113      4.8677    121.8334     22.8625
  1821.3000      7.7535      2.5614      0.0814      5.3705    121.3018     23.9283
  1821.4000      7.7535      2.5579      0.0848      5.5794    122.3784     24.2795
  1821.5000      7.7325      2.5672      0.0969      5.0186    122.1152     23.7533
  1821.6000      7.7325      2.5829      0.1027      4.0687    119.7109     23.1656
  1821.7000      7.7325      2.5979      0.1225      3.1586    118.2700     22.6082
  1821.8000      7.7288      2.6056      0.1227      2.6911    119.8024     21.7753
  1821.9000      7.7288      2.6003      0.1123      3.0101    120.8328     21.1201
  1822.0000      7.7402      2.5830      0.0971      4.0594    116.9908     20.7820
  1822.1000      7.7402      2.5670      0.0637      5.0278    112.6362     20.2610
  1822.2000      7.7402      2.5639      0.0912      5.2210    113.6841     19.5361
  1822.3000      7.7467      2.5682      0.0623      4.9560    116.6280     18.9729
  1822.4000      7.7467      2.5718      0.0656      4.7408    116.2331     18.5958
  1822.5000      7.7499      2.5720      0.0504      4.7296    115.7532     18.2105
  1822.6000      7.7499      2.5719      0.0560      4.7308    118.5425     17.7698
  1822.7000      7.7499      2.5756      0.0763      4.5112    121.1444     17.4710
