~Version Information
VERS.                      2.0: CWLS Log ASCII Standard - VERSION 2.0
WRAP.                       NO: One line per depth step
~Well Information Block
STRT.FT               845.0000: 
STOP.FT              2308.2000: 
STEP.FT                 0.1000: 
NULL.                -999.2500: 
COMP.          Pioneer Natural Resources: COMPANY
WELL.             Vector 33-23: WELL
FLD.           Purgatoire River: FIELD
LOC.           1560' FEL & 1988' FSL----: LOCATION
PROV.                 Colorado: PROVINCE
CNTY.               Las Animas: COUNTRY
SRVC.                Patterson: SERVICE COMPANY
DATE.          Mon Mar 28 08:17:25 2005: LOG DATE
UWI.           05 071 08336 00: UNIQUE WELL ID
~Curve Information Block
DEPT.FT            0 000 00 00: Depth
DCAL.in                       : CDL Caliper
RHOB.g/cc                     : CDL Bulk Density
RHOC.g/cc                     : CDL Density Correction
DPOR.pu                       : CDL Density Porosity
NPOR.pu                       : Neutron Porosity
GR.GAPI                       : Gamma Ray
~Parameter Information Block
~A  Depth       DCAL        RHOB        RHOC        DPOR        NPOR         GR     
# ...
  1987.4000      8.0287      2.5177      0.0217      8.0192     26.3562    135.6577
  1987.5000      8.0265      2.5246      0.0055      7.6016     26.2297    134.4051
  1987.6000      8.0265      2.5376      0.0352      6.8132     26.1124    126.4642
  1987.7000      8.0265      2.5387      0.0154      6.7476     25.8758    123.2023
  1987.8000      8.0256      2.5194     -0.0009      7.9128     25.1886    129.6485
  1987.9000      8.0256      2.4985     -0.0250      9.1809     24.2841    137.3125
  1988.0000      8.0261      2.4993     -0.0336      9.1318     23.8290    138.6085
  1988.1000      8.0261      2.5243      0.0231      7.6179     24.1549    134.3329
  1988.2000      8.0261      2.5523      0.0654      5.9216     24.7077    129.5542
  1988.3000      8.0254      2.5610      0.0585      5.3937     24.7799    125.5007
  1988.4000      8.0254      2.5523      0.0334      5.9229     24.3296    121.0381
  1988.5000      8.0239      2.5413     -0.0087      6.5867     23.6651    118.2767
  1988.6000      8.0239      2.5313      0.0495      7.1919     23.3191    121.2824
  1988.7000      8.0239      2.5204     -0.0176      7.8575     23.5033    130.6533
  1988.8000      8.0247      2.5195     -0.0047      7.9119     23.7086    138.7158
  1988.9000      8.0247      2.5286      0.0238      7.3553     23.8740    140.6074
  1989.0000      8.0276      2.5290      0.0459      7.3306     24.6062    138.8692
  1989.1000      8.0276      2.5186     -0.0065      7.9609     25.5540    136.5973
  1989.2000      8.0276      2.5119     -0.0116      8.3677     25.6353    134.4973
  1989.3000      8.0296      2.5067      0.0113      8.6820     25.0155    130.7686
  1989.4000      8.0296      2.4973     -0.0022      9.2536     24.5602    125.6502
  1989.5000      8.0302      2.4933     -0.0050      9.4956     24.6784    120.3991
  1989.6000      8.0302      2.4995      0.0273      9.1206     25.2771    116.6871
  1989.7000      8.0302      2.5078      0.0429      8.6168     25.8881    118.1698
  1989.8000      8.0324      2.5106      0.0588      8.4512     26.1423    125.8687
  1989.9000      8.0324      2.5083      0.0408      8.5882     25.8032    132.8876
  1990.0000      8.0391      2.5072      0.0309      8.6547     25.1726    137.8647
  1990.1000      8.0391      2.5078      0.0302      8.6208     25.1026    143.6062
  1990.2000      8.0391      2.5055      0.0297      8.7598     25.7180    144.9462
  1990.3000      8.0466      2.5016      0.0432      8.9910     26.3574    140.2479
  1990.4000      8.0466      2.5047     -0.0012      8.8034     26.5104    133.9418
  1990.5000      8.0501      2.5184      0.0579      7.9759     26.3323    129.9047
  1990.6000      8.0501      2.5333      0.0623      7.0709     26.3170    127.6666
  1990.7000      8.0501      2.5430      0.0775      6.4850     26.4328    122.4948
  1990.8000      8.0494      2.5502      0.0486      6.0486     26.2118    113.7179
  1990.9000      8.0494      2.5505      0.0862      6.0280     25.7617    108.6328
  1991.0000      8.0495      2.5402      0.0332      6.6562     25.7048    109.9922
  1991.1000      8.0495      2.5306      0.0458      7.2375     26.1266    111.0592
  1991.2000      8.0495      2.5260      0.0306      7.5150     26.4619    110.8078
  1991.3000      8.0510      2.5217      0.0682      7.7737     26.2921    114.5419
  1991.4000      8.0510      2.5164      0.0201      8.0940     25.8885    122.5378
  1991.5000      8.0505      2.5100      0.0242      8.4830     25.6844    131.1371
  1991.6000      8.0505      2.5039      0.0231      8.8569     25.6382    137.0286
  1991.7000      8.0505      2.5102      0.0216      8.4728     25.7329    136.4073
  1991.8000      8.0473      2.5340      0.0288      7.0333     26.0475    130.0918
  1991.9000      8.0473      2.5487      0.1012      6.1384     26.3835    125.2106
  1992.0000      8.0455      2.5365      0.0182      6.8781     26.4488    129.4352
  1992.1000      8.0455      2.5220      0.0188      7.7581     26.0645    137.8809
  1992.2000      8.0455      2.5307      0.0246      7.2300     25.3799    140.2260
  1992.3000      8.0474      2.5571      0.0440      5.6321     24.9939    140.7469
  1992.4000      8.0474      2.5776      0.0681      4.3905     25.2336    145.2278
  1992.5000      8.0513      2.5772      0.0578      4.4121     25.5098    147.9725
  1992.6000      8.0513      2.5652      0.0294      5.1423     25.3682    146.6138
  1992.7000      8.0513      2.5596      0.0256      5.4780     25.1335    144.2856
  1992.8000      8.0539      2.5644      0.0494      5.1888     25.1000    140.5365
  1992.9000      8.0539      2.5709      0.0527      4.7956     25.2767    136.2645
  1993.0000      8.0524      2.5681      0.0659      4.9635     25.5849    135.0845
  1993.1000      8.0524      2.5494      0.0648      6.0972     25.9117    135.5418
  1993.2000      8.0524      2.5290     -0.0001      7.3362     26.0995    134.6413
  1993.3000      8.0466      2.5313      0.0023      7.1967     26.1750    131.0191
  1993.4000      8.0466      2.5525      0.0564      5.9087     26.2037    126.6526
  1993.5000      8.0402      2.5697      0.0380      4.8677     25.9131    123.4112
  1993.6000      8.0402      2.5759      0.0423      4.4919     25.1855    121.9303
  1993.7000      8.0402      2.5729      0.0489      4.6729     24.5111    125.2020
  1993.8000      8.0378      2.5583      0.0718      5.5571     24.5522    132.9527
  1993.9000      8.0378      2.5394     -0.0052      6.7014     25.1540    141.2344
  1994.0000      8.0394      2.5276      0.0390      7.4154     25.2532    144.3680
  1994.1000      8.0394      2.5189      0.0253      7.9481     24.8113    138.4668
  1994.2000      8.0394      2.5152      0.0138      8.1720     24.6792    126.6209
  1994.3000      8.0417      2.5326     -0.0287      7.1142     24.8278    118.9086
  1994.4000      8.0417      2.5657      0.0668      5.1069     24.9982    120.4614
  1994.5000      8.0454      2.5808      0.0818      4.1935     25.3748    123.8429
  1994.6000      8.0454      2.5647      0.0575      5.1724     25.8567    120.3185
  1994.7000      8.0454      2.5397      0.0384      6.6853     26.2387    114.8699
  1994.8000      8.0499      2.5283      0.0220      7.3780     26.4680    118.2910
  1994.9000      8.0499      2.5320      0.0452      7.1489     26.5908    131.2111
  1995.0000      8.0521      2.5433      0.0593      6.4644     26.6722    142.8008
  1995.1000      8.0521      2.5551      0.0613      5.7506     26.8661    143.1029
  1995.2000      8.0521      2.5625      0.0713      5.3058     27.2902    134.9944
  1995.3000      8.0533      2.5682      0.0604      4.9558     27.5069    129.8809
  1995.4000      8.0533      2.5788      0.0492      4.3160     27.2669    129.4662
  1995.5000      8.0531      2.5868      0.0804      3.8312     26.8337    131.7772
  1995.6000      8.0531      2.5805      0.0372      4.2148     26.4797    134.6161
  1995.7000      8.0531      2.5670      0.0079      5.0291     26.3575    130.9666
  1995.8000      8.0531      2.5601      0.0541      5.4487     26.5533    122.3498
  1995.9000      8.0531      2.5597      0.0348      5.4739     26.9370    113.7437
  1996.0000      8.0530      2.5573      0.0553      5.6156     27.2654    108.7494
  1996.1000      8.0530      2.5497      0.0077      6.0808     27.6336    110.9482
  1996.2000      8.0530      2.5450      0.0303      6.3664     27.8912    119.9086
  1996.3000      8.0522      2.5486      0.0510      6.1464     27.6836    131.8640
  1996.4000      8.0522      2.5506      0.0708      6.0257     27.2410    139.2829
  1996.5000      8.0517      2.5372      0.0521      6.8354     27.1331    136.8610
  1996.6000      8.0517      2.5135     -0.0163      8.2748     27.3363    131.0780
  1996.7000      8.0517      2.4973      0.0091      9.2545     27.2028    129.0058
  1996.8000      8.0508      2.4927      0.0021      9.5354     26.3857    128.1319
  1996.9000      8.0508      2.4974      0.0058      9.2490     25.5233    127.2519
