~Version Information
VERS.                      2.0: CWLS Log ASCII Standard - VERSION 2.0
WRAP.                       NO: One line per depth step
~Well Information Block
STRT.FT               840.0000: 
STOP.FT              2268.0000: 
STEP.FT                 0.2500: 
NULL.                -999.2500: 
COMP.          Pioneer Natural Resources: COMPANY
WELL.              Tonto 42-23: WELL
FLD.           Purgatoire River: FIELD
LOC.           2217' FNL & 423' FEL: LOCATION
PROV.                 Colorado: PROVINCE
CNTY.               Las Animas: COUNTRY
SRVC.                Patterson: SERVICE COMPANY
DATE.          Sun Apr 17 01:24:47 2005: LOG DATE
UWI.           05 071 08335 00: UNIQUE WELL ID
~Curve Information Block
DEPT.FT            0 000 00 00: Depth
SN.Ohm-m                      : IEL Short Normal
SP.mV                         : IEL Spontaneous Potential
DIR.Ohm-m                     : IEL Induction Resistivity
GR.GAPI                       : Gamma Ray
~Parameter Information Block
~A  Depth        SN          SP         DIR          GR     
# ...
  1677.5000     14.4444    -72.8797     11.7243    102.3037
  1677.7500     14.7162    -72.8131     11.5545    101.0088
  1678.0000     14.8418    -72.7871     11.3964    103.8295
  1678.2500     14.8384    -72.8098     11.2449    108.5265
  1678.5000     14.6486    -72.8743     11.0818    118.2175
  1678.7500     14.2846    -72.9621     10.8886    125.4696
  1679.0000     13.9140    -73.0482     10.6584    136.2815
  1679.2500     13.6312    -73.1097     10.3986    142.7926
  1679.5000     13.3091    -73.1373     10.1237    150.2640
  1679.7500     12.8142    -73.1419      9.8477    153.1295
  1680.0000     12.2158    -73.1516      9.5801    154.3263
  1680.2500     11.6986    -73.1968      9.3286    153.8142
  1680.5000     11.3361    -73.2931      9.1006    152.6703
  1680.7500     11.0856    -73.4303      8.9037    152.0779
  1681.0000     10.9458    -73.5769      8.7448    151.0251
  1681.2500     10.8774    -73.6956      8.6290    149.8596
  1681.5000     10.7396    -73.7598      8.5577    147.7767
  1681.7500     10.4997    -73.7589      8.5275    146.9335
  1682.0000     10.2976    -73.6941      8.5306    147.5528
  1682.2500     10.2960    -73.5762      8.5577    149.0798
  1682.5000     10.5734    -73.4329      8.6032    151.4325
  1682.7500     11.0185    -73.3081      8.6666    151.9093
  1683.0000     11.3669    -73.2425      8.7517    150.1320
  1683.2500     11.4880    -73.2455      8.8637    147.7155
  1683.5000     11.5110    -73.2881      9.0088    143.7734
  1683.7500     11.5639    -73.3231      9.1954    141.6785
  1684.0000     11.5960    -73.3160      9.4332    139.9505
  1684.2500     11.5763    -73.2596      9.7279    139.7348
  1684.5000     11.6101    -73.1716     10.0748    140.0681
  1684.7500     11.7780    -73.0825     10.4549    139.9230
  1685.0000     12.0585    -73.0228     10.8378    137.7516
  1685.2500     12.4226    -73.0120     11.1884    134.4332
  1685.5000     12.8947    -73.0534     11.4768    126.0650
  1685.7500     13.5246    -73.1370     11.6857    118.1723
  1686.0000     14.2657    -73.2471     11.8130    103.9906
  1686.2500     14.9397    -73.3669     11.8714     94.5772
  1686.5000     15.4795    -73.4773     11.8850     84.0775
  1686.7500     16.0291    -73.5532     11.8831     81.2295
  1687.0000     16.6048    -73.5649     11.8911     84.4765
  1687.2500     16.9197    -73.4898     11.9219     91.1589
  1687.5000     16.7217    -73.3266     11.9730    105.0986
  1687.7500     16.1089    -73.1012     12.0286    114.7597
  1688.0000     15.3815    -72.8576     12.0639    126.7689
  1688.2500     14.7252    -72.6405     12.0502    132.4300
  1688.5000     14.1395    -72.4765     11.9630    137.6934
  1688.7500     13.5776    -72.3614     11.7944    139.5354
  1689.0000     13.0462    -72.2632     11.5619    140.7738
  1689.2500     12.5846    -72.1424     11.3042    141.3376
  1689.5000     12.2681    -71.9760     11.0652    143.1728
  1689.7500     12.1839    -71.7676     10.8798    145.3678
  1690.0000     12.2787    -71.5408     10.7650    149.0218
  1690.2500     12.3792    -71.3284     10.7200    150.4023
  1690.5000     12.4020    -71.1636     10.7295    149.0140
  1690.7500     12.3632    -71.0684     10.7718    145.5137
  1691.0000     12.3029    -71.0390     10.8271    137.5184
  1691.2500     12.3101    -71.0434     10.8835    131.6469
  1691.5000     12.4499    -71.0392     10.9387    124.3884
  1691.7500     12.6703    -70.9998     10.9978    121.5109
  1692.0000     12.8662    -70.9305     11.0710    120.4904
  1692.2500     13.0026    -70.8649     11.1721    121.6149
  1692.5000     13.1124    -70.8447     11.3155    124.8084
  1692.7500     13.1957    -70.8980     11.5117    127.1602
  1693.0000     13.2628    -71.0272     11.7607    129.9226
  1693.2500     13.4134    -71.2148     12.0486    130.8869
  1693.5000     13.6738    -71.4403     12.3480    130.8668
  1693.7500     13.9198    -71.6946     12.6228    130.0170
  1694.0000     14.0938    -71.9797     12.8353    128.1116
  1694.2500     14.2568    -72.2922     12.9559    126.9489
  1694.5000     14.4311    -72.6084     12.9733    126.1296
  1694.7500     14.5889    -72.8861     12.9003    126.2214
  1695.0000     14.7101    -73.0846     12.7677    126.4827
  1695.2500     14.7705    -73.1868     12.6089    126.1856
  1695.5000     14.7941    -73.2065     12.4458    125.1989
  1695.7500     14.8567    -73.1780     12.2829    125.0488
  1696.0000     14.8921    -73.1357     12.1116    127.1240
  1696.2500     14.6693    -73.0989     11.9188    130.1691
  1696.5000     14.1041    -73.0670     11.6951    136.0467
  1696.7500     13.4113    -73.0229     11.4374    139.9295
  1697.0000     12.8585    -72.9408     11.1480    144.6648
  1697.2500     12.5007    -72.7933     10.8326    146.8302
  1697.5000     12.2063    -72.5603     10.4998    148.5404
  1697.7500     11.8600    -72.2382     10.1608    148.8971
  1698.0000     11.4608    -71.8484      9.8285    149.1907
  1698.2500     11.0439    -71.4349      9.5144    149.9165
  1698.5000     10.6416    -71.0498      9.2268    152.6924
  1698.7500     10.3428    -70.7314      8.9695    155.7410
  1699.0000     10.2467    -70.4863      8.7419    161.1087
  1699.2500     10.2970    -70.2883      8.5400    164.1113
  1699.5000     10.3029    -70.0927      8.3577    166.0751
  1699.7500     10.2161    -69.8595      8.1897    165.4524
  1700.0000     10.1783    -69.5726      8.0340    162.3791
  1700.2500     10.2588    -69.2431      7.8923    159.4889
  1700.5000     10.3776    -68.8977      7.7670    154.5969
  1700.7500     10.4112    -68.5657      7.6589    151.3541
  1701.0000     10.2821    -68.2760      7.5665    147.5779
  1701.2500     10.0451    -68.0598      7.4865    146.5204
  1701.5000      9.8525    -67.9485      7.4156    147.5315
  1701.7500      9.7880    -67.9603      7.3505    149.2720
  1702.0000      9.7673    -68.0848      7.2882    151.5169
  1702.2500      9.6402    -68.2810      7.2261    152.0103
  1702.5000      9.3933    -68.4911      7.1620    151.3212
  1702.7500      9.1623    -68.6644      7.0945    150.3327
  1703.0000      9.0495    -68.7775      7.0226    148.3465
  1703.2500      9.0130    -68.8358      6.9453    146.5729
  1703.5000      8.9584    -68.8542      6.8601    143.4546
  1703.7500      8.9073    -68.8422      6.7632    141.6539
  1704.0000      8.9875    -68.8110      6.6512    140.2710
  1704.2500      9.2218    -68.7841      6.5251    140.1414
  1704.5000      9.4429    -68.7839      6.3905    140.1729
  1704.7500      9.4497    -68.8041      6.2550    140.0020
  1705.0000      9.1972    -68.8019      6.1248    140.0732
  1705.2500      8.8405    -68.7214      6.0024    141.1500
  1705.5000      8.5748    -68.5275      5.8882    145.1836
  1705.7500      8.4515    -68.2274      5.7831    149.1733
  1706.0000      8.4459    -67.8687      5.6893    155.4010
  1706.2500      8.5892    -67.5216      5.6095    158.6614
  1706.5000      8.8443    -67.2542      5.5446    161.2128
  1706.7500      9.0093    -67.1051      5.4941    161.2092
  1707.0000      8.9678    -67.0658      5.4570    158.5645
  1707.2500      8.8349    -67.0867      5.4346    155.0018
  1707.5000      8.7125    -67.1051      5.4304    147.5187
  1707.7500      8.5605    -67.0745      5.4499    142.1243
  1708.0000      8.3689    -66.9792      5.4986    135.7019
  1708.2500      8.2340    -66.8319      5.5798    133.1745
  1708.5000      8.2607    -66.6602      5.6940    130.9818
  1708.7500      8.4727    -66.4895      5.8400    129.3996
  1709.0000      8.8148    -66.3345      6.0170    125.8396
  1709.2500      9.2175    -66.2060      6.2269    123.0471
  1709.5000      9.5978    -66.1209      6.4750    119.6535
  1709.7500      9.8695    -66.1016      6.7674    118.5707
  1710.0000     10.0303    -66.1641      7.1085    118.5955
  1710.2500     10.1444    -66.3053      7.4990    118.7767
  1710.5000     10.2593    -66.4978      7.9359    117.2730
  1710.7500     10.4090    -66.6959      8.4144    114.5965
