~Version Information
 VERS.                                  2.0 : CWLS LAS VERSION
 WRAP.                                   NO : WRAPING MODE
 SWARE .                 MController 2.5.0J : SOFTWARE VERSION
~Well Information
 WELL.                          Silva 6-22V : WELL
 COMP.                       Petrogulf Corp : COMPANY
 FLD.                      Purgatoire River : FIELD
 LOC.                 SE/NW Sec 6 T33S R67W : LOCATION
 DATE.                            11/7-9/04 : DATE(S) LOGGED
 SRVC.       Blanco Geological Services LLC : SERVICE COMPANY
 STAT.                                   CO : STATE
 CNTY.                           Las Animas : COUNTY
 CTRY.                                  USA : COUNTRY
 API.                       05-071-08143-00 : API NUMBER
 STRT.FT                              35.00 : START DEPTH
 STOP.FT                            2732.00 : STOP DEPTH
 STEP.FT                               1.00 : DEPTH INCREMENT
 NULL.                                -9999 : NULL VALUE
~Curve information
 DEPTH.FT                                   :
 ROP.MIN/FT                                 :
 GAS.UNITS                                  :
~ASCII Log data
# ...
      1435.0         0.40         27.8 
      1436.0         0.27         27.3 
      1437.0         0.62         25.4 
      1438.0         0.60         24.3 
      1439.0         0.63         22.3 
      1440.0         0.43         23.4 
      1441.0         0.37         23.0 
      1442.0         0.37         40.4 
      1443.0         0.33         26.6 
      1444.0         0.23         26.0 
      1445.0         0.13         24.9 
      1446.0         0.18         22.3 
      1447.0         0.13         22.1 
      1448.0         0.20         21.1 
      1449.0         0.20         21.0 
      1450.0         0.23         20.4 
      1451.0         0.20         21.5 
      1452.0         0.20         21.5 
      1453.0         0.27         21.9 
      1454.0         0.30         23.3 
      1455.0         0.30         23.0 
      1456.0         0.23         23.2 
      1457.0         0.17        115.5 
      1458.0         0.17         28.2 
      1459.0         0.30         28.3 
      1460.0         0.33         27.4 
      1461.0         0.33         27.0 
      1462.0         0.37         27.9 
      1463.0         0.27         28.0 
      1464.0         0.28         28.0 
      1465.0         0.27         28.3 
      1466.0         0.27         27.5 
      1467.0         0.53         28.6 
      1468.0         0.47         28.1 
      1469.0         0.22         28.3 
      1470.0         0.17         29.1 
      1471.0         0.20         29.1 
      1472.0         0.33         31.3 
      1473.0         0.47         31.6 
      1474.0         0.53         29.7 
      1475.0         0.53         27.9 
      1476.0         0.57         28.9 
      1477.0         0.43         29.5 
      1478.0         0.28         28.9 
      1479.0         0.20         27.0 
      1480.0         0.23         26.9 
      1481.0         0.20         25.5 
      1482.0         0.30         26.1 
      1483.0         0.23         26.2 
      1484.0         0.30         26.7 
      1485.0         0.27         26.4 
      1486.0         0.33         26.1 
      1487.0         0.33         22.1 
      1488.0         0.33         17.6 
      1489.0         0.37         15.7 
      1490.0         0.45         14.8 
      1491.0         0.37         13.0 
      1492.0         0.27         12.2 
      1493.0         0.27         11.3 
      1494.0         0.27         13.5 
      1495.0         0.37         16.0 
      1496.0         1.47         17.3 
      1497.0         0.85         12.4 
      1498.0         0.40         10.9 
      1499.0         0.33         12.3 
      1500.0         0.33         10.4 
      1501.0         0.40         11.0 
      1502.0         0.63         10.8 
      1503.0         0.92         10.6 
      1504.0         0.60         10.4 
      1505.0         0.53         11.3 
      1506.0         0.52         11.6 
      1507.0         0.50         10.0 
      1508.0         0.50         10.3 
      1509.0         0.37         10.4 
      1510.0         0.57         10.5 
      1511.0         0.50          9.6 
      1512.0         0.63         10.5 
      1513.0         0.48         10.4 
      1514.0         0.43          9.3 
      1515.0         0.60         10.4 
      1516.0         0.60         10.3 
      1517.0         0.47         18.7 
      1518.0         0.50         11.1 
      1519.0         0.38         11.2 
      1520.0         0.30         10.9 
      1521.0         0.23         10.7 
      1522.0         0.17         10.4 
      1523.0         0.13         10.6 
      1524.0         0.27         10.1 
      1525.0         0.27         10.4 
      1526.0         0.27         10.5 
      1527.0         0.82         10.7 
      1528.0         0.80         10.5 
      1529.0         0.80         10.6 
      1530.0         0.77         11.5 
      1531.0         0.98         11.5 
      1532.0         0.77          9.8 
      1533.0         0.63          9.7 
      1534.0         0.53          9.7 
      1535.0         0.50         10.3 
      1536.0         0.50         10.3 
      1537.0         0.48         10.5 
      1538.0         0.57          9.6 
      1539.0         0.50         10.0 
      1540.0         0.50          9.9 
      1541.0         0.73         10.0 
      1542.0         0.73         10.1 
      1543.0         0.72         10.0 
      1544.0         0.60          9.8 
      1545.0         0.40          9.5 
      1546.0         0.47          9.9 
      1547.0         0.47         10.8 
      1548.0         0.57         10.7 
      1549.0         0.32         20.3 
      1550.0         0.33         16.5 
      1551.0         0.43         14.9 
      1552.0         0.40         12.1 
      1553.0         0.40          9.7 
      1554.0         0.33         10.6 
      1555.0         0.33         10.3 
      1556.0         0.27         11.6 
      1557.0         0.40         11.3 
      1558.0         0.73         10.3 
      1559.0         1.45         10.5 
      1560.0         0.47         10.4 
      1561.0         0.70         10.3 
      1562.0         0.43         10.4 
      1563.0         0.52          9.4 
      1564.0         0.43          9.5 
      1565.0         0.60          9.8 
      1566.0         0.87          9.8 
      1567.0         1.23          9.6 
      1568.0         0.78         10.0 
      1569.0         0.33          9.7 
      1570.0         0.68          9.7 
      1571.0         0.73          9.9 
      1572.0         0.57         10.3 
      1573.0         0.53          9.8 
      1574.0         0.47         10.4 
      1575.0         0.62         10.2 
      1576.0         0.67          9.9 
      1577.0         0.87          9.7 
      1578.0         1.03         10.8 
      1579.0         0.88         64.5 
      1580.0         0.47         40.1 
      1581.0         0.40         22.4 
      1582.0         0.37         21.4 
      1583.0         0.37         28.1 
      1584.0         0.33         32.0 
      1585.0         0.37         35.7 
      1586.0         0.50         35.7 
      1587.0         0.73         33.9 
      1588.0         1.22         26.3 
      1589.0         0.83         28.6 
      1590.0         0.40         30.2 
      1591.0         0.40         29.2 
      1592.0         0.40         29.4 
      1593.0         0.37         29.2 
      1594.0         0.47         27.5 
      1595.0         0.72         27.6 
      1596.0         0.70         25.4 
      1597.0         0.77         25.7 
      1598.0         0.63         24.7 
      1599.0         0.53         25.1 
      1600.0         0.58         26.2 
      1601.0         0.53         26.5 
      1602.0         0.53         24.0 
      1603.0         0.47         25.0 
      1604.0         0.37         25.2 
      1605.0         0.33         26.3 
      1606.0         0.33         26.5 
      1607.0         0.35         26.3 
      1608.0         0.37         26.7 
      1609.0         0.37         26.2 
      1610.0         0.40         27.1 
      1611.0         0.57         27.4 
      1612.0         0.73       9731.5 
      1613.0         0.63        599.5 
      1614.0         0.82        562.2 
      1615.0         0.47        514.1 
      1616.0         0.10        505.6 
      1617.0         0.27        503.6 
      1618.0         0.27        501.3 
      1619.0         0.27        501.7 
      1620.0         0.17        519.0 
      1621.0         0.27        513.5 
      1622.0         0.30        514.8 
      1623.0         0.37        513.5 
      1624.0         0.43        510.5 
      1625.0         0.27        503.3 
      1626.0         0.27        499.1 
      1627.0         0.28        502.3 
      1628.0         0.27        507.9 
      1629.0         0.20        509.9 
      1630.0         0.20        509.2 
      1631.0         0.23        508.5 
      1632.0         0.23        509.5 
      1633.0         0.27        498.7 
      1634.0         0.20        493.8 
