~Version Information
VERS.                      2.0: CWLS Log ASCII Standard - VERSION 2.0
WRAP.                       NO: One line per depth step
~Well Information Block
STRT.FT                -7.5000: 
STOP.FT              1129.7500: 
STEP.FT                 0.2500: 
NULL.                -999.2500: 
COMP.          Pioneer Natural Resources: COMPANY
WELL.          Drewmeister 34-34: WELL
FLD.           Purgatorie River: FIELD
LOC.           958' FSL & 1857' FEL: LOCATION
STAT.                       CO: State
CNTY.               Las Animas: COUNTRY
CTRY. USA : Country
SECT. 34 : Section
TOWN. 32S : Township
RANG. 65W : Range
SRVC.          Patterson Wireline: SERVICE COMPANY
DATE.          Fri Oct 14 14:02:00 2005: LOG DATE
API.           05 071 08131 00: UNIQUE WELL ID
~Curve Information Block
DEPT.FT            0 000 00 00: Depth
CCL.                          : Casing Collar Locator
TT3.usec                      : CBL 3' Travel Time
AMP3.mV                       : CBL 3' Amplitude
GR.GAPI                       : Gamma Ray
~Parameter Information Block
~A  Depth       CCL         TT3         AMP3         GR     
# ...
    59.5000      0.0000   1092.9869      8.5809     70.9883
    59.7500      0.0000   1112.7159      8.7754     61.4973
    60.0000      0.0000   1125.5995      8.9802     52.3638
    60.2500      0.0000   1130.5344      9.1612     44.3838
    60.5000      0.0000   1129.1510      9.2846     38.4089
    60.7500      0.0000   1123.8473      9.3460     34.7709
    61.0000      0.0000   1117.1456      9.3694     33.1942
    61.2500      0.0000   1112.8319      9.3731     33.4067
    61.5000      0.0000   1114.9802      9.3470     35.4869
    61.7500      0.0000   1124.2526      9.2721     39.4875
    62.0000      0.0000   1136.7151      9.1552     44.8837
    62.2500      0.0000   1147.3195      9.0331     50.5269
    62.5000      0.0000   1153.6632      8.9385     55.3593
    62.7500      0.0000   1156.0712      8.8666     59.4136
    63.0000      0.0000   1155.1331      8.7774     63.8794
    63.2500      0.0000   1149.6343      8.6352     69.8343
    63.5000      0.0000   1136.6228      8.4453     76.9968
    63.7500      0.0000   1114.3733      8.2544     84.0557
    64.0000      0.0000   1086.6897      8.1143     90.0124
    64.2500      0.0000   1062.9868      8.0391     94.5238
    64.5000      0.0000   1051.3105      7.9947     97.0128
    64.7500      0.0000   1051.9232      7.9271     96.6717
    65.0000      0.0000   1060.3735      7.8039     94.0561
    65.2500      0.0000   1074.5743      7.6414     91.5948
    65.5000      0.0000   1094.2512      7.5040     91.3111
    65.7500      0.0000   1115.1912      7.4724     92.6147
    66.0000      0.0000   1128.9269      7.5936     93.3029
    66.2500      0.0000   1128.2833      7.8454     92.1753
    66.5000      0.0000   1112.3853      8.1505     89.8042
    66.7500      0.0000   1088.7303      8.4288     87.2519
    67.0000      0.0000   1070.8661      8.6363     85.0254
    67.2500      0.0000   1069.5631      8.7655     83.4204
    67.5000      0.0000   1082.8560      8.8276     83.1853
    67.7500      0.0000   1095.7595      8.8358     85.1158
    68.0000      0.0000   1091.2102      8.7937     89.0407
    68.2500      0.0000   1062.9750      8.6904     93.8324
    68.5000      0.0000   1021.9811      8.5066     98.4986
    68.7500      0.0000    991.7234      8.2285    102.7217
    69.0000      0.0000    992.6784      7.8667    106.2149
    69.2500      0.0000   1026.2289      7.4697    107.9321
    69.5000      0.0000   1074.3444      7.1120    106.3077
    69.7500      0.0000   1115.7990      6.8494    100.6058
    70.0000      0.0000   1140.6492      6.6868     92.1292
    70.2500      0.0000   1150.1381      6.5928     83.8941
    70.5000     -2.0000   1148.0771      6.5314     78.9674
    70.7500      0.0000   1135.4008      6.4785     78.8904
    71.0000      0.0000   1112.2926      6.4511     83.0282
    71.2500      0.0000   1084.2390      6.5544     88.9302
    71.5000      0.0000   1063.7844      6.9492     93.7126
    71.7500      0.0000   1062.8059      7.6777     95.8003
    72.0000      0.0000   1081.9408      8.5183     95.6156
    72.2500      0.0000   1109.9802      9.1102     94.6363
    72.5000      0.0000   1134.0553      9.2528     93.9746
    72.7500      0.0000   1148.4855      9.0355     93.8334
    73.0000      0.0000   1154.4722      8.6887     93.8436
    73.2500      0.0000   1154.6820      8.3803     93.5644
    73.5000      0.0000   1149.1584      8.1535     92.8454
    73.7500      0.0000   1134.8663      7.9786     91.8796
    74.0000      0.0000   1108.7620      7.8128     90.9093
    74.2500      0.0000   1073.0763      7.6295     90.1106
    74.5000      0.0000   1037.8965      7.4275     89.9189
    74.7500      0.0000   1016.0985      7.2275     90.9929
    75.0000      0.0000   1013.8392      7.0598     93.5527
    75.2500      0.0000   1025.9899      6.9484     97.0514
    75.5000      0.0000   1040.2506      6.9037    100.5473
    75.7500      0.0000   1044.8802      6.9216    103.0695
    76.0000      0.0000   1035.3271      6.9846    103.9264
    76.2500      0.0000   1016.9686      7.0675    103.2898
    76.5000      0.0000   1000.3629      7.1506    102.4080
    76.7500      0.0000    991.6985      7.2302    102.7988
    77.0000      0.0000    989.7486      7.3133    105.1642
    77.2500      0.0000    993.1364      7.4024    108.9914
    77.5000      0.0000   1005.8510      7.4911    112.7634
    77.7500      0.0000   1031.5455      7.5742    114.5725
    78.0000      0.0000   1064.7914      7.6550    113.1293
    78.2500      0.0000   1092.7588      7.7384    108.5560
    78.5000      0.0000   1106.3925      7.8204    102.2149
    78.7500      0.0000   1108.3160      7.8886     95.6973
    79.0000      0.0000   1109.0703      7.9309     89.9049
    79.2500      0.0000   1116.3878      7.9374     84.9243
    79.5000      0.0000   1128.9315      7.8985     80.5485
    79.7500      0.0000   1139.2003      7.8112     76.6986
    80.0000      0.0000   1139.2799      7.6919     73.4773
    80.2500      0.0000   1123.2185      7.5747     71.0250
    80.5000      0.0000   1088.6783      7.4914     69.4692
    80.7500      0.0000   1041.4576      7.4585     69.1052
    81.0000      0.0000    997.4532      7.4798     70.5154
    81.2500      0.0000    973.6324      7.5516     74.1181
    81.5000      0.0000    972.6630      7.6660     79.4341
    81.7500      0.0000    978.4815      7.8165     84.9143
    82.0000      0.0000    970.9855      7.9931     88.5744
    82.2500      0.0000    945.3878      8.1648     88.9755
    82.5000      0.0000    916.1224      8.2837     86.0152
    82.7500      0.0000    904.1241      8.3207     81.1382
    83.0000      0.0000    922.1428      8.2924     76.6984
    83.2500      0.0000    967.9149      8.2421     74.6777
    83.5000      0.0000   1025.6396      8.2036     75.6501
    83.7500      0.0000   1074.2098      8.1904     78.6860
    84.0000      0.0000   1098.6737      8.2049     81.9729
    84.2500      0.0000   1098.1516      8.2459     83.5584
    84.5000      0.0000   1085.2091      8.3085     82.1086
    84.7500      0.0000   1076.8392      8.3819     77.6607
    85.0000      0.0000   1082.6370      8.4451     71.8619
    85.2500      0.0000   1099.8264      8.4648     67.2112
    85.5000      0.0000   1119.0032      8.4059     65.6383
    85.7500      0.0000   1132.4850      8.2567     67.5413
    86.0000      0.0000   1136.5046      8.0460     72.0160
    86.2500      0.0000   1129.2029      7.8296     77.6766
    86.5000      0.0000   1110.8340      7.6573     83.1091
    86.7500      0.0000   1085.3723      7.5475     87.0279
    87.0000      0.0000   1057.5798      7.4907     88.7791
    87.2500      0.0000   1026.8447      7.4697     88.8911
    87.5000      0.0000    987.8893      7.4747     88.6111
    87.7500      0.0000    939.9949      7.4984     88.4709
    88.0000      0.0000    891.7338      7.5197     87.7067
    88.2500      0.0000    853.9842      7.5007     85.5985
    88.5000      0.0000    831.6975      7.4089     82.9790
    88.7500      0.0000    824.6199      7.2436     81.6845
    89.0000      0.0000    832.9854      7.0399     82.8285
    89.2500      0.0000    859.4373      6.8439     86.2671
    89.5000      0.0000    905.3448      6.6853     91.2763
    89.7500      0.0000    965.5463      6.5695     97.0149
    90.0000      0.0000   1026.3027      6.4911    102.6054
    90.2500      0.0000   1069.8596      6.4459    107.4044
    90.5000      0.0000   1083.5763      6.4283    111.0782
    90.7500      0.0000   1066.4186      6.4253    113.1726
    91.0000      0.0000   1027.9756      6.4191    112.9501
    91.2500      0.0000    981.9329      6.3941    110.0367
    91.5000      0.0000    939.4037      6.3406    105.2536
    91.7500      0.0000    906.0063      6.2569    100.5642
    92.0000      0.0000    882.6978      6.1558     97.8104
    92.2500      0.0000    867.9491      6.0668     97.3759
    92.5000      0.0000    859.3317      6.0212     98.2872
    92.7500      0.0000    854.2369      6.0324     99.4855
