~Version Information
VERS.                      2.0: CWLS Log ASCII Standard - VERSION 2.0
WRAP.                       NO: One line per depth step
~Well Information Block
STRT.FT               520.0000: 
STOP.FT              1105.5000: 
STEP.FT                 0.1000: 
NULL.                -999.2500: 
COMP.          Pioneer Natural Resources: COMPANY
WELL.            Redland 23-24: WELL
FLD.           Purgatoire River: FIELD
LOC.           2356' FSL & 1880' FWL: LOCATION
PROV.                 Colorado: PROVINCE
CNTY.               Las Animas: COUNTRY
SRVC.                Patterson: SERVICE COMPANY
DATE.          Mon Mar 21 07:08:20 2005: LOG DATE
UWI.           05 071 08221 00: UNIQUE WELL ID
~Curve Information Block
DEPT.FT            0 000 00 00: Depth
DCAL.in                       : CDL Caliper
RHOB.g/cc                     : CDL Bulk Density
RHOC.g/cc                     : CDL Density Correction
DPOR.pu                       : CDL Density Porosity
GR.GAPI                       : Gamma Ray
NPOR.pu                       : Neutron Porosity
~Parameter Information Block
~A  Depth       DCAL        RHOB        RHOC        DPOR         GR         NPOR    
# ...
   856.0000      7.9966      1.2759     -0.0429     83.2769     33.1413     32.9368
   856.1000      7.9966      1.2998     -0.0319     81.8315     39.4134     33.1755
   856.2000      7.9966      1.3581      0.0108     78.2984     47.2421     33.8332
   856.3000      7.9518      1.4508      0.0459     72.6802     55.4507     34.6044
   856.4000      7.9518      1.5720      0.0516     65.3324     61.2462     34.8113
   856.5000      8.1603      1.7120      0.1046     56.8463     62.8727     34.3633
   856.6000      8.1603      1.8581      0.1638     47.9920     62.1648     33.9162
   856.7000      8.1603      2.0009      0.1916     39.3377     62.3719     33.7082
   856.8000      8.3167      2.1357      0.1989     31.1681     63.8476     33.3911
   856.9000      8.3167      2.2601      0.1931     23.6280     65.1964     33.1948
   857.0000      8.3416      2.3713      0.1931     16.8932     67.9485     33.1859
   857.1000      8.3416      2.4529      0.1560     11.9468     72.8549     32.9234
   857.2000      8.3416      2.4875      0.1135      9.8459     77.3238     32.2696
   857.3000      8.1761      2.4812      0.0684     10.2284     77.9873     30.7311
   857.4000      8.1761      2.4530      0.0778     11.9424     74.7206     28.4360
   857.5000      7.9302      2.4275     -0.0185     13.4826     71.0184     26.8113
   857.6000      7.9302      2.4297      0.0143     13.3541     68.8662     26.5832
   857.7000      7.9302      2.4543      0.0475     11.8617     69.0836     27.2299
   857.8000      7.8771      2.4718      0.0501     10.8003     70.3717     27.7595
   857.9000      7.8771      2.4685      0.0041     11.0012     71.1015     27.8089
   858.0000      7.8883      2.4657      0.0030     11.1724     72.3390     27.3541
   858.1000      7.8883      2.4813      0.0546     10.2269     73.6037     26.3111
   858.2000      7.8883      2.4960      0.0992      9.3317     72.0279     25.5611
   858.3000      7.8792      2.4885      0.0765      9.7849     68.2614     25.3944
   858.4000      7.8792      2.4751      0.0224     10.5999     66.8044     25.1537
   858.5000      7.8595      2.4840      0.0352     10.0605     70.8245     24.9028
   858.6000      7.8595      2.5141      0.0588      8.2352     77.8111     24.5384
   858.7000      7.8595      2.5450      0.1050      6.3652     81.9102     24.1786
   858.8000      7.8246      2.5574      0.1261      5.6129     82.7714     24.5784
   858.9000      7.8246      2.5499      0.0976      6.0643     84.5648     25.5368
   859.0000      7.8087      2.5397      0.0604      6.6846     87.6504     26.1181
   859.1000      7.8087      2.5275      0.1299      7.4247     88.5784     25.9983
   859.2000      7.8087      2.5022      0.0645      8.9597     85.1974     25.8071
   859.3000      7.7852      2.4778      0.0256     10.4361     81.0193     26.1017
   859.4000      7.7852      2.4716      0.0261     10.8124     79.4370     26.9799
   859.5000      7.8234      2.4750      0.0619     10.6091     80.1524     28.2154
   859.6000      7.8234      2.4793      0.0047     10.3482     81.1258     28.6863
   859.7000      7.8234      2.4892      0.0741      9.7437     81.6871     27.6816
   859.8000      7.8751      2.4984      0.0853      9.1868     83.6461     26.3780
   859.9000      7.8751      2.4955      0.0374      9.3613     85.2821     25.9590
   860.0000      7.8852      2.4793      0.0322     10.3444     83.0883     26.1595
   860.1000      7.8852      2.4525      0.0311     11.9678     79.9372     26.3877
   860.2000      7.8852      2.4286     -0.0066     13.4152     79.3816     26.6366
   860.3000      7.8666      2.4259      0.0093     13.5796     78.1126     26.7587
   860.4000      7.8666      2.4394      0.0511     12.7661     75.5977     26.4858
   860.5000      7.8636      2.4439      0.0387     12.4936     75.5758     25.7832
   860.6000      7.8636      2.4231      0.0343     13.7529     79.0420     24.9798
   860.7000      7.8636      2.3764      0.0526     16.5823     84.3578     25.0043
   860.8000      7.8520      2.3183     -0.0053     20.1025     86.2990     25.9499
   860.9000      7.8520      2.2707      0.0084     22.9874     80.9198     26.7596
   861.0000      7.8619      2.2407      0.0096     24.8031     73.3828     26.9680
   861.1000      7.8619      2.2217      0.0649     25.9560     71.0071     27.1190
   861.2000      7.8619      2.2149      0.0239     26.3691     74.1760     27.5827
   861.3000      7.8697      2.2348      0.0300     25.1643     76.8794     27.8484
   861.4000      7.8697      2.2812      0.1243     22.3539     76.1870     27.6915
   861.5000      7.8235      2.3387      0.1110     18.8646     74.9391     27.8977
   861.6000      7.8235      2.3985      0.1767     15.2439     73.1698     29.1266
   861.7000      7.8235      2.4473      0.1694     12.2877     69.2058     30.8979
   861.8000      7.8521      2.4693      0.1953     10.9498     66.2954     32.1355
   861.9000      7.8521      2.4697      0.0835     10.9275     66.4901     32.1686
   862.0000      7.9047      2.4718      0.0936     10.7985     65.4863     30.9568
   862.1000      7.9047      2.4829      0.0735     10.1303     61.2214     28.7359
   862.2000      7.9047      2.4853      0.0868      9.9797     56.7458     26.6643
   862.3000      7.9115      2.4702      0.0169     10.8961     53.5635     25.9585
   862.4000      7.9115      2.4572     -0.0150     11.6840     52.9145     25.7139
   862.5000      7.8912      2.4694      0.0153     10.9463     55.3333     24.7020
   862.6000      7.8912      2.5064      0.0402      8.7001     57.7028     23.7336
   862.7000      7.8912      2.5453      0.0848      6.3478     57.3855     23.2543
   862.8000      7.8981      2.5640      0.0512      5.2119     56.0326     22.5097
   862.9000      7.8981      2.5714      0.0069      4.7656     55.9288     21.5581
   863.0000      7.8747      2.5873      0.0798      3.7975     54.8416     21.0094
   863.1000      7.8747      2.5981      0.1251      3.1431     49.8454     20.6288
   863.2000      7.8747      2.5789      0.0621      4.3084     44.8121     20.2840
   863.3000      7.8609      2.5441     -0.0166      6.4184     45.5123     20.5085
   863.4000      7.8609      2.5259     -0.0278      7.5238     49.3126     21.0030
   863.5000      7.8493      2.5250      0.0006      7.5765     49.0835     20.9344
   863.6000      7.8493      2.5239      0.0026      7.6452     44.9283     20.4353
   863.7000      7.8493      2.5233     -0.0486      7.6796     40.7886     20.0170
   863.8000      7.8649      2.5346     -0.0003      6.9919     38.8720     19.8284
   863.9000      7.8649      2.5534      0.0316      5.8540     39.9927     19.5761
   864.0000      7.8716      2.5685      0.0122      4.9365     41.1444     18.8241
   864.1000      7.8716      2.5791      0.0445      4.2990     38.6563     18.1689
   864.2000      7.8716      2.5903      0.0466      3.6178     34.7012     18.5232
   864.3000      7.8775      2.6013      0.0677      2.9506     34.5549     19.3857
   864.4000      7.8775      2.6070      0.0141      2.6059     38.1010     19.6318
   864.5000      7.8595      2.6075      0.0309      2.5728     40.4002     19.4540
   864.6000      7.8595      2.6000      0.0909      3.0277     39.6592     19.2313
   864.7000      7.8595      2.5803      0.0382      4.2233     37.0983     18.9625
   864.8000      7.8781      2.5633     -0.0094      5.2560     34.2961     18.9782
   864.9000      7.8781      2.5637      0.0574      5.2280     33.3407     19.1249
   865.0000      7.8791      2.5654      0.0977      5.1283     33.5763     19.1664
   865.1000      7.8791      2.5571     -0.0066      5.6302     33.8586     19.7386
   865.2000      7.8791      2.5536      0.0298      5.8418     35.4096     20.7249
   865.3000      7.8658      2.5608      0.0082      5.4042     39.2613     20.8891
   865.4000      7.8658      2.5702      0.0163      4.8341     43.8323     20.1716
   865.5000      7.8699      2.5646      0.0382      5.1755     45.2350     19.4353
