~Version Information
VERS.                      2.0: CWLS Log ASCII Standard - VERSION 2.0
WRAP.                       NO: One line per depth step
~Well Information Block
STRT.FT               450.0000: 
STOP.FT              1642.0000: 
STEP.FT                 0.1000: 
NULL.                -999.2500: 
COMP.          Pioneer Natural Resources: COMPANY
WELL.           Buckhorn 12-21: WELL
FLD.           Purgatoire River: FIELD
LOC.           2450' FNL & 608' FWL: LOCATION
PROV.                 Colorado: PROVINCE
CNTY.               Las Animas: COUNTRY
SRVC.                Patterson: SERVICE COMPANY
DATE.          Wed Dec 01 15:08:21 2004: LOG DATE
UWI.           05 071 08129 00: UNIQUE WELL ID
~Curve Information Block
DEPT.FT            0 000 00 00: Depth
NPOR.pu                       : Neutron Porosity
CCL.                          : Casing Collar Locator
GR.GAPI                       : Gamma Ray
~Parameter Information Block
~A  Depth       NPOR        CCL          GR     
# ...
   533.5000     36.9630      0.0000     71.4028
   533.6000     36.9630      0.0000     71.4028
   533.7000     36.9630      0.0000     71.4028
   533.8000     37.8604      0.0000     74.8651
   533.9000     37.8604      0.0000     74.8651
   534.0000     38.3172      0.0000     79.2849
   534.1000     38.3172      0.0000     79.2849
   534.2000     38.3172      0.0000     79.2849
   534.3000     38.4734      0.0000     85.3605
   534.4000     38.4734      0.0000     85.3605
   534.5000     38.5102      0.0000     91.7316
   534.6000     38.5102      0.0000     91.7316
   534.7000     38.5102      0.0000     91.7316
   534.8000     38.5530      0.0000     96.0657
   534.9000     38.5530      0.0000     96.0657
   535.0000     38.6110      0.0000     97.1775
   535.1000     38.6110      0.0000     97.1775
   535.2000     38.6110      0.0000     97.1775
   535.3000     38.5971      0.0000     95.7786
   535.4000     38.5971      0.0000     95.7786
   535.5000     38.4111      0.0000     93.4409
   535.6000     38.4111      0.0000     93.4409
   535.7000     38.4111      0.0000     93.4409
   535.8000     38.0388      0.0000     91.3084
   535.9000     38.0388      0.0000     91.3084
   536.0000     37.5957      0.0000     89.7987
   536.1000     37.5957      0.0000     89.7987
   536.2000     37.5957      0.0000     89.7987
   536.3000     37.2641      0.0000     89.0443
   536.4000     37.2641      0.0000     89.0443
   536.5000     37.1677      0.0000     89.1483
   536.6000     37.1677      0.0000     89.1483
   536.7000     37.1677      0.0000     89.1483
   536.8000     37.2979      0.0000     89.9896
   536.9000     37.2979      0.0000     89.9896
   537.0000     37.5356      0.0000     91.1007
   537.1000     37.5356      0.0000     91.1007
   537.2000     37.5356      0.0000     91.1007
   537.3000     37.7201      0.0000     91.9023
   537.4000     37.7201      0.0000     91.9023
   537.5000     37.7086      0.0000     92.0594
   537.6000     37.7086      0.0000     92.0594
   537.7000     37.7086      0.0000     92.0594
   537.8000     37.4229      0.0000     91.5902
   537.9000     37.4229      0.0000     91.5902
   538.0000     36.8926      0.0000     90.6898
   538.1000     36.8926      0.0000     90.6898
   538.2000     36.8926      0.0000     90.6898
   538.3000     36.2503      0.0000     89.7387
   538.4000     36.2503      0.0000     89.7387
   538.5000     35.6410      0.0000     89.5246
   538.6000     35.6410      0.0000     89.5246
   538.7000     35.6410      0.0000     89.5246
   538.8000     35.1247      0.0000     90.8499
   538.9000     35.1247      0.0000     90.8499
   539.0000     34.6773      0.0000     93.5273
   539.1000     34.6773      0.0000     93.5273
   539.2000     34.6773      0.0000     93.5273
   539.3000     34.2543      0.0000     96.1939
   539.4000     34.2543      0.0000     96.1939
   539.5000     33.8257      0.0000     97.4233
   539.6000     33.8257      0.0000     97.4233
   539.7000     33.8257      0.0000     97.4233
   539.8000     33.3946      0.0000     96.7022
   539.9000     33.3946      0.0000     96.7022
   540.0000     33.0204      0.0000     94.1710
   540.1000     33.0204      0.0000     94.1710
   540.2000     33.0204      0.0000     94.1710
   540.3000     32.7838      0.0000     89.9332
   540.4000     32.7838      0.0000     89.9332
   540.5000     32.6962      0.0000     84.0873
   540.6000     32.6962      0.0000     84.0873
   540.7000     32.6962      0.0000     84.0873
   540.8000     32.6710      0.0000     77.2630
   540.9000     32.6710      0.0000     77.2630
   541.0000     32.6026      0.0000     70.7172
   541.1000     32.6026      0.0000     70.7172
   541.2000     32.6026      0.0000     70.7172
   541.3000     32.4338      0.0000     65.7392
   541.4000     32.4338      0.0000     65.7392
   541.5000     32.1320      0.0000     62.9220
   541.6000     32.1320      0.0000     62.9220
   541.7000     32.1320      0.0000     62.9220
   541.8000     31.6380      0.0000     61.7814
   541.9000     31.6380      0.0000     61.7814
   542.0000     30.8777      0.0000     61.0094
   542.1000     30.8777      0.0000     61.0094
   542.2000     30.8777      0.0000     61.0094
   542.3000     29.8345      0.0000     59.4104
   542.4000     29.8345      0.0000     59.4104
   542.5000     28.6269      0.0000     56.8611
   542.6000     28.6269      0.0000     56.8611
   542.7000     28.6269      0.0000     56.8611
   542.8000     27.5179      0.0000     54.2993
   542.9000     27.5179      0.0000     54.2993
   543.0000     26.7917      0.0000     52.8364
   543.1000     26.7917      0.0000     52.8364
   543.2000     26.7917      0.0000     52.8364
   543.3000     26.5552      0.0000     53.1397
   543.4000     26.5552      0.0000     53.1397
   543.5000     26.6617      0.0000     55.4298
   543.6000     26.6617      0.0000     55.4298
   543.7000     26.6617      0.0000     55.4298
   543.8000     26.8457      0.0000     59.3175
   543.9000     26.8457      0.0000     59.3175
   544.0000     26.9093      0.0000     63.4954
   544.1000     26.9093      0.0000     63.4954
   544.2000     26.9093      0.0000     63.4954
   544.3000     26.7758      0.0000     66.3136
   544.4000     26.7758      0.0000     66.3136
   544.5000     26.4412      0.0000     67.0704
   544.6000     26.4412      0.0000     67.0704
   544.7000     26.4412      0.0000     67.0704
   544.8000     25.9501      0.0000     66.3419
   544.9000     25.9501      0.0000     66.3419
   545.0000     25.3960      0.0000     64.9116
   545.1000     25.3960      0.0000     64.9116
   545.2000     25.3960      0.0000     64.9116
   545.3000     24.8996      0.0000     62.9809
   545.4000     24.8996      0.0000     62.9809
   545.5000     24.5781      0.0000     60.6446
   545.6000     24.5781      0.0000     60.6446
   545.7000     24.5781      0.0000     60.6446
   545.8000     24.5105      0.0000     58.4900
   545.9000     24.5105      0.0000     58.4900
   546.0000     24.7041      0.0000     57.3193
   546.1000     24.7041      0.0000     57.3193
   546.2000     24.7041      0.0000     57.3193
   546.3000     25.0967      0.0000     57.5628
   546.4000     25.0967      0.0000     57.5628
   546.5000     25.5923      0.0000     59.1552
   546.6000     25.5923      0.0000     59.1552
   546.7000     25.5923      0.0000     59.1552
   546.8000     26.0816      0.0000     61.8636
   546.9000     26.0816      0.0000     61.8636
   547.0000     26.4694      0.0000     65.6315
   547.1000     26.4694      0.0000     65.6315
   547.2000     26.4694      0.0000     65.6315
   547.3000     26.7453      0.0000     70.5631
   547.4000     26.7453      0.0000     70.5631
   547.5000     27.0151      0.0000     76.7794
   547.6000     27.0151      0.0000     76.7794
   547.7000     27.0151      0.0000     76.7794
   547.8000     27.4154      0.0000     84.5906
   547.9000     27.4154      0.0000     84.5906
   548.0000     27.9927      0.0000     94.6911
   548.1000     27.9927      0.0000     94.6911
   548.2000     27.9927      0.0000     94.6911
   548.3000     28.6639      0.0000    107.6247
   548.4000     28.6639      0.0000    107.6247
   548.5000     29.2569      0.0000    122.6543
   548.6000     29.2569      0.0000    122.6543
   548.7000     29.2569      0.0000    122.6543
   548.8000     29.5874      0.0000    137.2653
   548.9000     29.5874      0.0000    137.2653
   549.0000     29.5600      0.0000    148.2781
   549.1000     29.5600      0.0000    148.2781
   549.2000     29.5600      0.0000    148.2781
   549.3000     29.2559      0.0000    153.8965
   549.4000     29.2559      0.0000    153.8965
   549.5000     28.9195      0.0000    154.7806
   549.6000     28.9195      0.0000    154.7806
   549.7000     28.9195      0.0000    154.7806
   549.8000     28.8325      0.0000    153.1541
   549.9000     28.8325      0.0000    153.1541
   550.0000     29.1793      0.0000    151.0186
   550.1000     29.1793      0.0000    151.0186
