~Version Information
VERS.                      2.0: CWLS Log ASCII Standard - VERSION 2.0
WRAP.                       NO: One line per depth step
~Well Information Block
STRT.FT               682.0000: 
STOP.FT              2190.5000: 
STEP.FT                 0.1000: 
NULL.                -999.2500: 
COMP.          Pioneer Natural Resources: COMPANY
WELL.               King 22-13: WELL
FLD.           Purgatoire River: FIELD
LOC.           2419' FNL & 1806' FWL----: LOCATION
PROV.                 Colorado: PROVINCE
CNTY.               Las Animas: COUNTRY
SRVC.                Patterson: SERVICE COMPANY
DATE.          Fri Apr 01 07:38:12 2005: LOG DATE
UWI.           05 071 08318 00: UNIQUE WELL ID
~Curve Information Block
DEPT.FT            0 000 00 00: Depth
DCAL.in                       : CDL Caliper
RHOB.g/cc                     : CDL Bulk Density
RHOC.g/cc                     : CDL Density Correction
DPOR.pu                       : CDL Density Porosity
NPOR.pu                       : Neutron Porosity
GR.GAPI                       : Gamma Ray
~Parameter Information Block
~A  Depth       DCAL        RHOB        RHOC        DPOR        NPOR         GR     
# ...
  1181.2000      8.0464      2.6716      0.0501     -1.3107     20.0106     75.8870
  1181.3000      8.0461      2.6758      0.0539     -1.5633     20.5003     77.4400
  1181.4000      8.0461      2.6799      0.0675     -1.8139     21.0904     77.1989
  1181.5000      8.0472      2.6846      0.0144     -2.0975     21.0445     78.8535
  1181.6000      8.0472      2.6957      0.0573     -2.7689     20.7415     81.9302
  1181.7000      8.0472      2.7105      0.0046     -3.6696     20.8943     84.1346
  1181.8000      8.0484      2.7168      0.0707     -4.0468     21.5284     83.7853
  1181.9000      8.0484      2.7073     -0.0008     -3.4715     22.2937     81.4314
  1182.0000      8.0492      2.6809      0.0931     -1.8742     22.6383     79.8174
  1182.1000      8.0492      2.6371      0.0191      0.7837     22.0389     77.3838
  1182.2000      8.0492      2.6028     -0.0783      2.8615     20.9377     74.0766
  1182.3000      8.0488      2.6032     -0.0122      2.8362     20.2400     72.3701
  1182.4000      8.0488      2.6221      0.0092      1.6939     19.8806     73.0333
  1182.5000      8.0483      2.6374      0.0213      0.7633     19.3119     78.1898
  1182.6000      8.0483      2.6446      0.0377      0.3245     18.6227     83.6117
  1182.7000      8.0483      2.6475      0.0339      0.1528     18.2045     82.1566
  1182.8000      8.0456      2.6551      0.0528     -0.3079     18.0401     76.9342
  1182.9000      8.0456      2.6708      0.0429     -1.2585     18.1326     71.3407
  1183.0000      8.0411      2.6827      0.0756     -1.9800     18.7109     65.5384
  1183.1000      8.0411      2.6745      0.0759     -1.4856     19.4856     62.3441
  1183.2000      8.0411      2.6419      0.0485      0.4915     19.7181     62.7082
  1183.3000      8.0409      2.6001      0.0096      3.0263     19.4617     64.2611
  1183.4000      8.0409      2.5651      0.0300      5.1484     19.3536     66.3501
  1183.5000      8.0433      2.5376      0.0294      6.8099     19.8581     69.6416
  1183.6000      8.0433      2.5253     -0.0354      7.5572     21.0061     72.6859
  1183.7000      8.0433      2.5384      0.0050      6.7633     22.1842     75.8063
  1183.8000      8.0453      2.5560      0.0537      5.6951     22.8944     80.5162
  1183.9000      8.0453      2.5541      0.0015      5.8118     22.9892     84.5390
  1184.0000      8.0456      2.5425     -0.0031      6.5168     22.6826     85.6971
  1184.1000      8.0456      2.5342      0.0720      7.0209     22.4099     85.0675
  1184.2000      8.0456      2.5292      0.0552      7.3225     22.1080     83.0747
  1184.3000      8.0466      2.5283      0.0482      7.3782     21.4904     80.5186
  1184.4000      8.0466      2.5296      0.0632      7.2999     20.5729     79.9062
  1184.5000      8.0524      2.5235      0.0890      7.6687     19.6575     82.3841
  1184.6000      8.0524      2.5035      0.0293      8.8813     19.2740     85.3814
  1184.7000      8.0524      2.4843      0.0340     10.0424     19.8526     87.1524
  1184.8000      8.0589      2.4865      0.0264      9.9114     21.0368     87.4707
  1184.9000      8.0589      2.5093      0.0370      8.5255     21.8147     85.2630
  1185.0000      8.0625      2.5383      0.0445      6.7682     22.0278     81.2776
  1185.1000      8.0625      2.5621      0.0895      5.3263     22.3026     77.1900
  1185.2000      8.0625      2.5796      0.0613      4.2663     22.6341     73.9139
  1185.3000      8.0642      2.5955      0.0723      3.3040     22.8148     73.3167
  1185.4000      8.0642      2.6008      0.1244      2.9847     23.1521     76.3742
  1185.5000      8.0654      2.5888      0.0260      3.7112     23.5578     83.0726
  1185.6000      8.0654      2.5751      0.0487      4.5374     23.7809     90.3266
  1185.7000      8.0654      2.5682      0.0469      4.9574     24.0858     92.0474
  1185.8000      8.0639      2.5597      0.0618      5.4740     24.4130     88.7517
  1185.9000      8.0639      2.5490     -0.0241      6.1228     24.5498     86.6810
  1186.0000      8.0594      2.5490      0.0171      6.1239     24.6724     89.3190
  1186.1000      8.0594      2.5562      0.0583      5.6853     24.8412     94.7473
  1186.2000      8.0594      2.5478      0.0724      6.1938     24.6034     99.5095
  1186.3000      8.0549      2.5251      0.0031      7.5693     23.9125    100.6197
  1186.4000      8.0549      2.5171      0.0151      8.0566     23.3729     99.1041
  1186.5000      8.0505      2.5271      0.0602      7.4478     23.0292     96.8305
  1186.6000      8.0505      2.5363      0.0428      6.8880     22.5682     91.0256
  1186.7000      8.0505      2.5397      0.0425      6.6837     22.1648     84.6360
  1186.8000      8.0478      2.5358      0.0236      6.9193     21.7257     83.7180
  1186.9000      8.0478      2.5226      0.0309      7.7208     21.0004     85.6754
  1187.0000      8.0469      2.5088      0.0278      8.5605     20.5679     81.9785
  1187.1000      8.0469      2.5050      0.0441      8.7853     20.9663     71.2218
  1187.2000      8.0469      2.5108      0.0690      8.4388     21.7853     62.2489
  1187.3000      8.0461      2.5194      0.0367      7.9161     22.2200     60.1251
  1187.4000      8.0461      2.5252      0.0766      7.5618     22.3025     61.8850
  1187.5000      8.0472      2.5254      0.0634      7.5524     22.5028     63.8781
  1187.6000      8.0472      2.5233      0.0744      7.6779     22.4392     65.7234
  1187.7000      8.0472      2.5188      0.0270      7.9500     21.6831     69.2080
  1187.8000      8.0553      2.5120      0.0236      8.3659     20.9819     72.5081
  1187.9000      8.0553      2.5071      0.0191      8.6603     21.0014     70.2300
  1188.0000      8.0665      2.5041      0.0266      8.8428     21.3587     61.8314
  1188.1000      8.0665      2.4986      0.0391      9.1753     21.3947     52.7351
  1188.2000      8.0665      2.4927      0.0144      9.5312     21.0670     48.0696
  1188.3000      8.0729      2.4977      0.0530      9.2333     20.8762     49.1246
  1188.4000      8.0729      2.5138      0.0559      8.2545     20.9463     50.5234
  1188.5000      8.0726      2.5219      0.1079      7.7610     21.0239     48.0696
  1188.6000      8.0726      2.5094      0.0600      8.5192     20.9356     46.9995
  1188.7000      8.0726      2.4932      0.0715      9.5052     20.4997     49.4837
  1188.8000      8.0693      2.4848      0.0900     10.0121     19.8952     48.8065
  1188.9000      8.0693      2.4745      0.0268     10.6358     19.6416     45.2607
  1189.0000      8.0672      2.4613      0.0394     11.4362     19.7473     46.5036
  1189.1000      8.0672      2.4570     -0.0154     11.6959     19.7756     52.5058
  1189.2000      8.0672      2.4650      0.0458     11.2139     19.7018     53.7436
  1189.3000      8.0664      2.4729      0.0343     10.7356     19.7604     45.3990
  1189.4000      8.0664      2.4752      0.0647     10.5957     20.0283     35.0518
  1189.5000      8.0676      2.4773      0.0492     10.4683     20.4672     30.8178
  1189.6000      8.0676      2.4774      0.0476     10.4579     20.7100     31.1206
  1189.7000      8.0676      2.4681      0.0492     11.0232     20.3010     31.1377
  1189.8000      8.0691      2.4527      0.0291     11.9553     19.5488     31.7528
  1189.9000      8.0691      2.4461      0.0219     12.3550     18.9852     35.7394
  1190.0000      8.0689      2.4563      0.0232     11.7422     18.6563     41.0611
  1190.1000      8.0689      2.4759      0.0261     10.5536     18.6700     43.6923
  1190.2000      8.0689      2.4905      0.0430      9.6691     19.1754     41.8644
  1190.3000      8.0688      2.4917      0.0470      9.5959     19.7591     37.0627
  1190.4000      8.0688      2.4889      0.0181      9.7607     19.9863     34.4552
  1190.5000      8.0695      2.4949      0.0448      9.3970     19.9722     36.6717
  1190.6000      8.0695      2.5040      0.0646      8.8482     20.0854     39.7571
  1190.7000      8.0695      2.5070      0.0366      8.6696     20.3750     41.6271
