~Version Information
VERS.                      2.0: CWLS Log ASCII Standard - VERSION 2.0
WRAP.                       NO: One line per depth step
~Well Information Block
STRT.FT               -12.5000: 
STOP.FT              1647.5000: 
STEP.FT                 0.2500: 
NULL.                -999.2500: 
COMP.          Pioneer Natural Resources: COMPANY
WELL.            Harlee L 34-9: WELL
FLD.           Purgatorie River`: FIELD
LOC.           600' FSL & 2125' FEL----: LOCATION
PROV.                       CO: PROVINCE
CNTY.               Las Animas: COUNTRY
SRVC.                Patterson: SERVICE COMPANY
DATE.          Sat Feb 12 09:31:33 2005: LOG DATE
UWI.           05 071 08009 00: UNIQUE WELL ID
~Curve Information Block
DEPT.FT            0 000 00 00: Depth
CCL.                          : Casing Collar Locator
TT3.usec                      : CBL 3' Travel Time
AMP3.mV                       : CBL 3' Amplitude
AMP5.mV                       : CBL 5' Amplitude
GR.GAPI                       : Gamma Ray
~Parameter Information Block
~A  Depth       CCL         TT3         AMP3        AMP5         GR     
# ...
  1499.5000      0.0000    645.5241      2.3539      0.2811    105.4318
  1499.7500      0.0000    646.5365      2.3640      0.4338    112.5090
  1500.0000      0.0000    646.5145      2.3632      0.4338    115.9857
  1500.2500      0.0000    646.1233      2.3585      0.2047    115.7710
  1500.5000      0.0000    645.9470      2.3577      0.3192    112.5380
  1500.7500      0.0000    646.1816      2.3671      0.1283    106.9561
  1501.0000      0.0000    646.6367      2.3894      0.3192     99.6489
  1501.2500      0.0000    646.8646      2.4217      0.0519     91.4663
  1501.5000      0.0000    646.3007      2.4554      0.3574     83.4657
  1501.7500      0.0000    644.4926      2.4799      0.3192     76.7076
  1502.0000      0.0000    641.5389      2.4889      0.3574     72.0611
  1502.2500      0.0000    638.3885      2.4822      0.3192     69.8477
  1502.5000      0.0000    636.1704      2.4640      0.3574     69.6132
  1502.7500      0.0000    634.8445      2.4390      0.3192     70.6265
  1503.0000      0.0000    632.8338      2.4090      0.2429     72.6052
  1503.2500      0.0000    628.0944      2.3750      0.4720     75.5053
  1503.5000      0.0000    618.4371      2.3407      0.3574     78.6235
  1503.7500      0.0000    600.3577      2.3143      0.1283     80.5381
  1504.0000      0.0000    569.6644      2.3039      0.2047     80.2621
  1504.2500      0.0000    525.9104      2.3120      0.2429     78.1421
  1504.5000      0.0000    476.0509      2.3349      0.4338     75.3948
  1504.7500      0.0000    431.6381      2.3671      0.2429     73.0161
  1505.0000      0.0000    401.8315      2.4054      0.4720     71.3005
  1505.2500      0.0000    389.9536      2.4469      0.4720     70.1233
  1505.5000      0.0000    395.5108      2.4838      0.5102     69.3993
  1505.7500      0.0000    415.6452      2.5038      0.2811     69.2313
  1506.0000      0.0000    442.5202      2.4959      0.2429     69.6295
  1506.2500      0.0000    462.4858      2.4599      0.2429     70.3026
  1506.5000      0.0000    463.4259      2.4116      0.2429     71.0421
  1506.7500      0.0000    444.6993      2.3778      0.1283     72.0973
  1507.0000      0.0000    417.4013      2.3787      0.2811     73.6191
  1507.2500      0.0000    394.2316      2.4106      0.2429     74.9143
  1507.5000      0.0000    380.8298      2.4485      0.1665     74.8893
  1507.7500     -1.9489    376.1415      2.4673      0.2429     73.2725
  1508.0000      1.7581    377.7523      2.4562      0.2811     70.9879
  1508.2500      0.0000    385.6399      2.4173      0.3192     69.3833
  1508.5000      0.0000    401.8405      2.3612      0.3574     69.3060
  1508.7500      0.0000    426.6971      2.3037      0.2811     70.6666
  1509.0000      0.0000    455.1998      2.2621      0.2811     72.5776
  1509.2500      0.0000    479.1758      2.2461      0.2429     74.1054
  1509.5000      0.0000    495.6700      2.2529      0.0519     75.2087
  1509.7500      0.0000    511.4799      2.2709      0.2429     76.9070
  1510.0000      0.0000    535.3173      2.2882      0.1665     80.3630
  1510.2500      0.0000    565.2104      2.2988      0.0901     85.7717
  1510.5000      0.0000    587.2443      2.3033      0.2429     92.1015
  1510.7500      0.0000    588.6714      2.3061      0.2811     97.8807
  1511.0000      0.0000    571.2910      2.3107      0.3574    102.1860
  1511.2500      0.0000    551.1441      2.3194      0.3192    104.8625
  1511.5000      0.0000    545.5847      2.3359      0.3574    106.1625
  1511.7500      0.0000    560.2278      2.3660      0.3192    106.7296
  1512.0000      0.0000    586.2012      2.4167      0.2429    107.8548
  1512.2500      0.0000    607.8438      2.4947      0.1283    111.0483
  1512.5000      0.0000    612.8766      2.6047      0.1665    116.8692
  1512.7500      0.0000    597.8867      2.7485      0.2047    124.1378
  1513.0000      0.0000    568.2780      2.9259     -0.0244    130.4375
  1513.2500      0.0000    535.0685      3.1345      0.2047    133.4999
  1513.5000      0.0000    509.8344      3.3678      0.2811    132.3676
  1513.7500      0.0000    499.4006      3.6139      0.3956    127.8385
  1514.0000      0.0000    503.1899      3.8586      0.3956    122.3490
  1514.2500      0.0000    514.7327      4.0932      0.3956    119.0144
  1514.5000      0.0000    525.9949      4.3159      0.3574    119.6031
  1514.7500      0.0000    531.5232      4.5234      0.3574    123.0208
  1515.0000      0.0000    529.8850      4.7039      0.0519    126.2263
  1515.2500      0.0000    522.1941      4.8415      0.1283    126.7947
  1515.5000      0.0000    510.1412      4.9268      0.1665    124.3645
  1515.7500      0.0000    495.6042      4.9590      0.1283    119.9702
  1516.0000      0.0000    481.2327      4.9364      0.3192    114.8749
  1516.2500      0.0000    469.9288      4.8525      0.4338    110.3757
  1516.5000      0.0000    463.0444      4.7000      0.4338    108.0203
  1516.7500      0.0000    459.3112      4.4808      0.4338    108.9114
  1517.0000      0.0000    456.3008      4.2092      0.4338    112.4004
  1517.2500      0.0000    453.2269      3.9097      0.3956    116.0365
  1517.5000      0.0000    451.3297      3.6099     -0.0244    117.3784
  1517.7500      0.0000    450.8735      3.3340      0.2811    115.8324
  1518.0000      0.0000    449.3676      3.0962      0.3192    112.5877
  1518.2500      0.0000    444.2348      2.9014      0.4338    109.0105
  1518.5000      0.0000    436.0521      2.7511      0.3192    105.6011
  1518.7500      0.0000    427.7530      2.6476      0.3192    102.5747
  1519.0000      0.0000    421.5366      2.5884      0.3956    100.7360
  1519.2500      0.0000    417.5926      2.5597      0.0519    101.1580
  1519.5000      0.0000    415.0512      2.5407      0.3956    104.0341
  1519.7500      0.0000    413.0892      2.5171      0.3574    108.0528
  1520.0000      0.0000    411.2737      2.4876      0.3956    111.0290
  1520.2500      0.0000    409.4733      2.4580      0.3956    111.5271
  1520.5000      0.0000    407.7514      2.4308      0.2429    110.1416
  1520.7500      0.0000    406.2674      2.4019      0.2429    108.8961
  1521.0000      0.0000    405.1879      2.3651      0.2047    109.0987
  1521.2500      0.0000    404.6041      2.3182      0.0519    110.0705
  1521.5000      0.0000    404.5115      2.2649      0.2429    110.2069
  1521.7500      0.0000    404.8457      2.2114      0.2429    108.9524
  1522.0000      0.0000    405.5275      2.1627      0.3192    107.3019
  1522.2500      0.0000    406.4680      2.1221      0.2811    106.5222
  1522.5000      0.0000    407.5522      2.0930      0.2429    106.8634
  1522.7500      0.0000    408.6434      2.0796      0.2429    107.5501
  1523.0000      0.0000    409.5970      2.0840      0.2429    107.7740
  1523.2500      0.0000    410.2387      2.1036      0.3192    107.6267
  1523.5000      0.0000    410.3379      2.1315      0.2811    108.0742
  1523.7500      0.0000    409.6718      2.1606      0.3574    109.8906
  1524.0000      0.0000    408.1987      2.1872      0.2429    112.5256
  1524.2500      0.0000    406.1684      2.2115      0.1283    114.1336
  1524.5000      0.0000    404.0145      2.2339      0.3192    112.8684
  1524.7500      0.0000    402.1437      2.2517      0.3956    108.2282
  1525.0000      0.0000    401.0721      2.2614      0.2429    101.2663
  1525.2500      0.0000    402.2370      2.2628      0.3192     93.8282
  1525.5000      0.0000    409.1547      2.2587      0.3192     87.6755
  1525.7500      0.0000    427.4054      2.2518      0.2047     83.7610
  1526.0000      0.0000    461.6834      2.2421      0.3192     81.7171
  1526.2500      0.0000    510.7887      2.2290      0.0137     80.0460
  1526.5000      0.0000    565.4819      2.2144      0.3192     77.0820
  1526.7500      0.0000    613.1811      2.2026      0.0901     71.9823
  1527.0000      0.0000    645.9713      2.1972      0.3574     65.1604
  1527.2500      0.0000    664.0080      2.1976      0.3574     58.0484
