~Version Information
VERS.                      2.0: CWLS Log ASCII Standard - VERSION 2.0
WRAP.                       NO: One line per depth step
~Well Information Block
STRT.FT               454.0000: 
STOP.FT              1392.0000: 
STEP.FT                 0.2500: 
NULL.                -999.2500: 
COMP.          Pioneer Natural Resources: COMPANY
WELL.          Lorencito 6-3-34-66: WELL
FLD.           Purgatoire River: FIELD
LOC.           2545' FNL & 1914' FWL: LOCATION
STAT.                 Colorado: State
CNTY.               Las Animas: COUNTY
CTRY. USA : Country
SECT. 3 : Section
TOWN. 34S : Township
RANG. 66W : Range
SRVC.                Patterson: SERVICE COMPANY
DATE.          Fri Sep 09 22:07:39 2005: LOG DATE
API.           05 071 08369 00: UNIQUE WELL ID
~Curve Information Block
DEPT.FT            0 000 00 00: Depth
SN.Ohm-m                      : IEL Short Normal
SP.mV                         : IEL Spontaneous Potential
DIR.Ohm-m                     : IEL Induction Resistivity
GR.GAPI                       : Gamma Ray
~Parameter Information Block
~A  Depth        SN          SP         DIR          GR     
# ...
   588.0000   2000.0000   2000.0000     12.1802    195.9348
   588.2500   2000.0000   2000.0000     11.9102    194.5205
   588.5000   2000.0000   2000.0000     11.6635    187.9792
   588.7500   2000.0000   2000.0000     11.4285    181.6217
   589.0000   2000.0000   2000.0000     11.1992    170.6492
   589.2500   2000.0000   2000.0000     10.9750    163.0075
   589.5000   2000.0000   2000.0000     10.7598    152.1103
   589.7500   2000.0000   2000.0000     10.5589    146.1442
   590.0000   2000.0000   2000.0000     10.3770    141.0781
   590.2500   2000.0000   2000.0000     10.2161    141.0544
   590.5000   2000.0000   2000.0000     10.0742    145.8011
   590.7500   2000.0000   2000.0000      9.9461    151.1792
   591.0000   2000.0000   2000.0000      9.8248    160.4789
   591.2500   2000.0000   2000.0000      9.7038    166.4669
   591.5000   2000.0000   2000.0000      9.5798    173.8902
   591.7500   2000.0000   2000.0000      9.4538    177.4079
   592.0000   2000.0000   2000.0000      9.3320    180.3316
   592.2500   2000.0000   2000.0000      9.2248    180.6683
   592.5000   2000.0000   2000.0000      9.1444    178.8307
   592.7500   2000.0000   2000.0000      9.1024    176.5069
   593.0000   2000.0000   2000.0000      9.1077    173.0524
   593.2500   2000.0000   2000.0000      9.1649    171.7744
   593.5000   2000.0000   2000.0000      9.2733    172.0985
   593.7500   2000.0000   2000.0000      9.4278    173.6007
   594.0000   2000.0000   2000.0000      9.6195    177.0871
   594.2500   2000.0000   2000.0000      9.8383    179.8894
   594.5000   2000.0000   2000.0000     10.0749    184.1709
   594.7500   2000.0000   2000.0000     10.3235    186.4798
   595.0000   2000.0000   2000.0000     10.5824    187.6664
   595.2500   2000.0000   2000.0000     10.8547    186.1763
   595.5000   2000.0000   2000.0000     11.1464    180.3884
   595.7500   2000.0000   2000.0000     11.4650    174.8903
   596.0000   2000.0000   2000.0000     11.8184    165.6609
   596.2500   2000.0000   2000.0000     12.2143    159.1886
   596.5000   2000.0000   2000.0000     12.6611    148.9190
   596.7500   2000.0000   2000.0000     13.1695    141.8850
   597.0000   2000.0000   2000.0000     13.7546    132.1871
   597.2500   2000.0000   2000.0000     14.4349    127.0368
   597.5000   2000.0000   2000.0000     15.2307    121.8534
   597.7500   2000.0000   2000.0000     16.1607    119.9451
   598.0000   2000.0000   2000.0000     17.2338    118.7455
   598.2500   2000.0000   2000.0000     18.4397    118.6119
   598.5000   2000.0000   2000.0000     19.7404    118.6560
   598.7500   2000.0000   2000.0000     21.0662    118.4952
   599.0000   2000.0000   2000.0000     22.3204    117.6529
   599.2500   2000.0000   2000.0000     23.4008    116.6826
   599.5000   2000.0000   2000.0000     24.2288    114.9087
   599.7500   2000.0000   2000.0000     24.7743    113.8256
   600.0000   2000.0000   2000.0000     25.0633    112.7593
   600.2500   2000.0000   2000.0000     25.1544    112.4729
   600.5000   2000.0000   2000.0000     25.1147    112.7479
   600.7500   2000.0000   2000.0000     24.9876    113.5608
   601.0000   2000.0000   2000.0000     24.7807    115.7644
   601.2500   2000.0000   2000.0000     24.4645    117.5091
   601.5000   2000.0000   2000.0000     23.9930    119.6045
   601.7500   2000.0000   2000.0000     23.3283    120.5031
   602.0000   2000.0000   2000.0000     22.4664    122.0251
   602.2500   2000.0000   2000.0000     21.4478    124.0498
   602.5000   2000.0000   2000.0000     20.3439    129.5544
   602.7500   2000.0000   2000.0000     19.2337    134.5889
   603.0000   2000.0000   2000.0000     18.1815    142.4621
   603.2500   2000.0000   2000.0000     17.2275    146.9035
   603.5000   2000.0000   2000.0000     16.3899    151.7885
   603.7500   2000.0000   2000.0000     15.6710    154.1694
   604.0000   2000.0000   2000.0000     15.0657    157.1306
   604.2500   2000.0000   2000.0000     14.5657    158.8150
   604.5000   2000.0000   2000.0000     14.1626    160.2633
   604.7500   2000.0000   2000.0000     13.8493    159.6833
   605.0000   2000.0000   2000.0000     13.6189    155.5049
   605.2500   2000.0000   2000.0000     13.4668    151.1366
   605.5000   2000.0000   2000.0000     13.3906    145.3147
   605.7500   2000.0000   2000.0000     13.3907    143.4873
   606.0000   2000.0000   2000.0000     13.4713    143.6278
   606.2500   2000.0000   2000.0000     13.6385    144.1874
   606.5000   2000.0000   2000.0000     13.8989    143.6901
   606.7500   2000.0000   2000.0000     14.2546    142.4741
   607.0000   2000.0000   2000.0000     14.6998    140.9433
   607.2500   2000.0000   2000.0000     15.2161    141.3165
   607.5000   2000.0000   2000.0000     15.7704    145.2145
   607.7500   2000.0000   2000.0000     16.3172    149.6837
   608.0000   2000.0000   2000.0000     16.8076    156.4057
   608.2500   2000.0000   2000.0000     17.2026    158.7903
   608.5000   2000.0000   2000.0000     17.4862    157.1192
   608.7500   2000.0000   2000.0000     17.6690    152.7323
   609.0000   2000.0000   2000.0000     17.7844    143.2386
   609.2500   2000.0000   2000.0000     17.8743    136.3570
   609.5000   2000.0000   2000.0000     17.9770    127.3570
   609.7500   2000.0000   2000.0000     18.1163    123.2249
   610.0000   2000.0000   2000.0000     18.2995    120.5695
   610.2500   2000.0000   2000.0000     18.5181    120.7917
   610.5000   2000.0000   2000.0000     18.7529    122.4607
   610.7500   2000.0000   2000.0000     18.9819    123.5942
   611.0000   2000.0000   2000.0000     19.1887    125.1311
   611.2500   2000.0000   2000.0000     19.3683    126.5718
   611.5000   2000.0000   2000.0000     19.5288    130.0297
   611.7500   2000.0000   2000.0000     19.6876    132.8527
   612.0000   2000.0000   2000.0000     19.8651    136.0924
   612.2500   2000.0000   2000.0000     20.0760    136.4191
   612.5000   2000.0000   2000.0000     20.3247    132.9785
   612.7500   2000.0000   2000.0000     20.6008    128.1734
   613.0000   2000.0000   2000.0000     20.8822    118.8158
   613.2500   2000.0000   2000.0000     21.1382    112.6476
   613.5000   2000.0000   2000.0000     21.3376    105.9876
   613.7500   2000.0000   2000.0000     21.4569    104.0220
   614.0000   2000.0000   2000.0000     21.4858    104.1914
   614.2500   2000.0000   2000.0000     21.4273    105.0727
   614.5000   2000.0000   2000.0000     21.2936    104.8099
   614.7500   2000.0000   2000.0000     21.0991    102.6495
   615.0000   2000.0000   2000.0000     20.8539     97.4055
   615.2500   2000.0000   2000.0000     20.5636     94.4540
   615.5000   2000.0000   2000.0000     20.2292     94.2003
   615.7500   2000.0000   2000.0000     19.8516     97.7522
   616.0000   2000.0000   2000.0000     19.4350    108.0993
   616.2500   2000.0000   2000.0000     18.9879    117.1208
   616.5000   2000.0000   2000.0000     18.5212    130.9977
   616.7500   2000.0000   2000.0000     18.0473    138.8679
   617.0000   2000.0000   2000.0000     17.5757    146.9275
   617.2500   2000.0000   2000.0000     17.1118    149.7240
   617.5000   2000.0000   2000.0000     16.6579    151.0500
   617.7500   2000.0000   2000.0000     16.2126    150.8774
   618.0000   2000.0000   2000.0000     15.7727    150.5999
   618.2500   2000.0000   2000.0000     15.3344    151.2187
   618.5000   2000.0000   2000.0000     14.8959    153.9049
   618.7500   2000.0000   2000.0000     14.4584    156.4433
   619.0000   2000.0000   2000.0000     14.0277    159.9503
   619.2500   2000.0000   2000.0000     13.6150    161.4924
   619.5000   2000.0000   2000.0000     13.2358    162.4962
   619.7500   2000.0000   2000.0000     12.9075    162.5667
   620.0000   2000.0000   2000.0000     12.6474    162.3998
   620.2500   2000.0000   2000.0000     12.4689    162.4192
   620.5000   2000.0000   2000.0000     12.3797    162.4487
   620.7500   2000.0000   2000.0000     12.3795    161.5261
   621.0000   2000.0000   2000.0000     12.4603    156.2587
   621.2500   2000.0000   2000.0000     12.6069    149.4588
