~Version Information
VERS.                      2.0: CWLS Log ASCII Standard - VERSION 2.0
WRAP.                       NO: One line per depth step
~Well Information Block
STRT.FT               650.0000: 
STOP.FT              1999.0000: 
STEP.FT                 0.2500: 
NULL.                -999.2500: 
COMP.          Pioneer Natural Resources: COMPANY
WELL.           Firehawk 34-26: WELL
FLD.           Purgatoire River: FIELD
LOC.           1196' FSL & 1595' FEL--: LOCATION
STAT.                 Colorado: State
CNTY.               Las Animas: COUNTY
CTRY. USA : Country
SECT. 26 : Section
TOWN. 32S : Township
RANG. 66W : Range
SRVC.                Patterson: SERVICE COMPANY
DATE.          Sun Oct 16 16:57:28 2005: LOG DATE
API.           05 071 08389 00: UNIQUE WELL ID
~Curve Information Block
DEPT.FT            0 000 00 00: Depth
SN.Ohm-m                      : IEL Short Normal
SP.mV                         : IEL Spontaneous Potential
DIR.Ohm-m                     : IEL Induction Resistivity
GR.GAPI                       : Gamma Ray
~Parameter Information Block
~A  Depth        SN          SP         DIR          GR     
# ...
   750.5000   2000.0000   2018.0000     23.2123    114.4837
   750.7500   2000.0000   2018.0000     23.6317    114.5041
   751.0000   2000.0000   2018.0000     23.9546    112.6047
   751.2500   2000.0000   2018.0000     24.0277    110.4821
   751.5000   2000.0000   2018.0000     23.8138    106.7879
   751.7500   2000.0000   2018.0000     23.4108    104.2106
   752.0000   2000.0000   2018.0000     22.9768    100.1782
   752.2500   2000.0000   2018.0000     22.6424     97.2624
   752.5000   2000.0000   2018.0000     22.4768     92.4953
   752.7500   2000.0000   2018.0000     22.4987     89.3122
   753.0000   2000.0000   2018.0000     22.7003     85.4075
   753.2500   2000.0000   2018.0000     23.0622     83.8337
   753.5000   2000.0000   2018.0000     23.5568     83.0378
   753.7500   2000.0000   2018.0000     24.1459     83.0710
   754.0000   2000.0000   2018.0000     24.7824     82.8933
   754.2500   2000.0000   2018.0000     25.4229     82.2917
   754.5000   2000.0000   2018.0000     26.0453     80.8581
   754.7500   2000.0000   2018.0000     26.6567     79.8863
   755.0000   2000.0000   2018.0000     27.2852     78.8943
   755.2500   2000.0000   2018.0000     27.9584     78.6948
   755.5000   2000.0000   2018.0000     28.6817     79.0457
   755.7500   2000.0000   2018.0000     29.4237     79.4494
   756.0000   2000.0000   2018.0000     30.1218     79.6138
   756.2500   2000.0000   2018.0000     30.7104     79.1580
   756.5000   2000.0000   2018.0000     31.1592     77.7114
   756.7500   2000.0000   2018.0000     31.4832     76.4820
   757.0000   2000.0000   2018.0000     31.7075     74.5804
   757.2500   2000.0000   2018.0000     31.8182     73.3781
   757.5000   2000.0000   2018.0000     31.7575     71.7829
   757.7500   2000.0000   2018.0000     31.4833     70.8993
   758.0000   2000.0000   2018.0000     31.0402     69.8716
   758.2500   2000.0000   2018.0000     30.5644     69.3139
   758.5000   2000.0000   2018.0000     30.2082     68.1964
   758.7500   2000.0000   2018.0000     30.0569     66.9209
   759.0000   2000.0000   2018.0000     30.1016     64.2030
   759.2500   2000.0000   2018.0000     30.2762     62.3261
   759.5000   2000.0000   2018.0000     30.5239     60.4453
   759.7500   2000.0000   2018.0000     30.8381     60.1377
   760.0000   2000.0000   2018.0000     31.2441     60.8322
   760.2500   2000.0000   2018.0000     31.7368     61.5242
   760.5000   2000.0000   2018.0000     32.2289     61.9090
   760.7500   2000.0000   2018.0000     32.5620     61.4759
   761.0000   2000.0000   2018.0000     32.5948     60.1387
   761.2500   2000.0000   2018.0000     32.3036     59.2306
   761.5000   2000.0000   2018.0000     31.7984     58.3682
   761.7500   2000.0000   2018.0000     31.2407     58.0802
   762.0000   2000.0000   2018.0000     30.7522     57.6848
   762.2500   2000.0000   2018.0000     30.3886     57.4521
   762.5000   2000.0000   2018.0000     30.1686     57.8739
   762.7500   2000.0000   2018.0000     30.1098     59.0891
   763.0000   2000.0000   2018.0000     30.2378     62.0396
   763.2500   2000.0000   2018.0000     30.5730     64.0278
   763.5000   2000.0000   2018.0000     31.1138     65.8087
   763.7500   2000.0000   2018.0000     31.8339     65.9683
   764.0000   2000.0000   2018.0000     32.6809     65.2164
   764.2500   2000.0000   2018.0000     33.5622     64.6339
   764.5000   2000.0000   2018.0000     34.3225     64.4961
   764.7500   2000.0000   2018.0000     34.7603     65.1793
   765.0000   2000.0000   2018.0000     34.7211     67.4397
   765.2500   2000.0000   2018.0000     34.2152     69.4716
   765.5000   2000.0000   2018.0000     33.4352     72.0527
   765.7500   2000.0000   2018.0000     32.6474     72.5702
   766.0000   2000.0000   2018.0000     32.0691     70.8830
   766.2500   2000.0000   2018.0000     31.8273     68.5981
   766.5000   2000.0000   2018.0000     31.9832     65.0648
   766.7500   2000.0000   2018.0000     32.5654     63.3672
   767.0000   2000.0000   2018.0000     33.5695     62.1209
   767.2500   2000.0000   2018.0000     34.9246     61.9393
   767.5000   2000.0000   2018.0000     36.4522     61.9112
   767.7500   2000.0000   2018.0000     37.8687     61.5428
   768.0000   2000.0000   2018.0000     38.8813     59.8842
   768.2500   2000.0000   2018.0000     39.3436     58.1035
   768.5000   2000.0000   2018.0000     39.3494     55.0795
   768.7500   2000.0000   2018.0000     39.1646     53.2415
   769.0000   2000.0000   2018.0000     39.0576     51.1993
   769.2500   2000.0000   2018.0000     39.1572     50.4340
   769.5000   2000.0000   2018.0000     39.3934     50.1015
   769.7500   2000.0000   2018.0000     39.5180     50.1728
   770.0000   2000.0000   2018.0000     39.2029     50.2290
   770.2500   2000.0000   2018.0000     38.1964     50.1831
   770.5000   2000.0000   2018.0000     36.4544     50.3872
   770.7500   2000.0000   2018.0000     34.1533     50.9916
   771.0000   2000.0000   2018.0000     31.5848     52.8221
   771.2500   2000.0000   2018.0000     29.0277     54.6898
   771.5000   2000.0000   2018.0000     26.6682     58.7395
   771.7500   2000.0000   2018.0000     24.5817     62.6541
   772.0000   2000.0000   2018.0000     22.7550     71.0095
   772.2500   2000.0000   2018.0000     21.1295     78.2675
   772.5000   2000.0000   2018.0000     19.6461     90.8080
   772.7500   2000.0000   2018.0000     18.2735     99.3572
   773.0000   2000.0000   2018.0000     17.0091    110.8350
   773.2500   2000.0000   2018.0000     15.8611    116.9573
   773.5000   2000.0000   2018.0000     14.8341    123.6858
   773.7500   2000.0000   2018.0000     13.9246    126.8699
   774.0000   2000.0000   2018.0000     13.1267    130.3486
   774.2500   2000.0000   2018.0000     12.4380    131.9215
   774.5000   2000.0000   2018.0000     11.8624    132.8886
   774.7500   2000.0000   2018.0000     11.4071    132.4642
   775.0000   2000.0000   2018.0000     11.0781    130.5711
   775.2500   2000.0000   2018.0000     10.8746    128.9132
   775.5000   2000.0000   2018.0000     10.7868    126.1102
   775.7500   2000.0000   2018.0000     10.7963    123.6191
   776.0000   2000.0000   2018.0000     10.8797    117.8101
   776.2500   2000.0000   2018.0000     11.0135    112.2546
   776.5000   2000.0000   2018.0000     11.1790    102.0927
   776.7500   2000.0000   2018.0000     11.3640     95.0548
   777.0000   2000.0000   2018.0000     11.5612     86.0173
   777.2500   2000.0000   2018.0000     11.7626     81.9531
   777.5000   2000.0000   2018.0000     11.9543     79.5574
   777.7500   2000.0000   2018.0000     12.1163     80.0972
   778.0000   2000.0000   2018.0000     12.2257     82.3749
   778.2500   2000.0000   2018.0000     12.2622     83.7813
   778.5000   2000.0000   2018.0000     12.2118     84.9787
   778.7500   2000.0000   2018.0000     12.0687     85.5131
   779.0000   2000.0000   2018.0000     11.8355     86.9191
   779.2500   2000.0000   2018.0000     11.5256     88.5462
   779.5000   2000.0000   2018.0000     11.1625     91.7767
   779.7500   2000.0000   2018.0000     10.7776     94.0505
   780.0000   2000.0000   2018.0000     10.4025     96.8067
   780.2500   2000.0000   2018.0000     10.0621     97.8435
   780.5000     12.5446   2018.0000      9.7690     98.3295
   780.7500     12.2420   2018.0000      9.5223     98.4832
   781.0000     12.5260   2018.0000      9.3119     99.3167
   781.2500     12.9739   2018.0000      9.1242    100.2656
   781.5000     13.2157   2018.0000      8.9492    101.6263
   781.7500     13.0702   2018.0000      8.7845    102.2298
   782.0000     12.6106   -128.7016      8.6344    102.8233
   782.2500     12.0742   -128.3741      8.5068    103.1880
   782.5000     11.6816   -128.3911      8.4086    103.6076
   782.7500     11.4939   -128.5390      8.3434    103.5520
   783.0000     11.4337   -128.6994      8.3107    102.5658
   783.2500     11.4536   -128.8365      8.3075    101.1456
   783.5000     11.5902   -128.9585      8.3298     97.7812
   783.7500     11.7915   -129.0630      8.3724     95.0185
