~Version Information
VERS.                      2.0: CWLS Log ASCII Standard - VERSION 2.0
WRAP.                       NO: One line per depth step
~Well Information Block
STRT.FT                -7.0500: 
STOP.FT              3072.6000: 
STEP.FT                 0.0500: 
NULL.                -999.2500: 
COMP.          Pioneer Natural Resources: COMPANY
WELL.              Stones 24-8: WELL
FLD.           Purgatoire River: FIELD
LOC.           648' FSL & 2264' FWL--: LOCATION
PROV.                 Colorado: PROVINCE
CNTY.               Las Animas: COUNTRY
SRVC.                Patterson: SERVICE COMPANY
DATE.          Fri Feb 04 12:43:19 2005: LOG DATE
UWI.           05 071 07945 00: UNIQUE WELL ID
~Curve Information Block
DEPT.FT            0 000 00 00: Depth
CCL.                          : Casing Collar Locator
TT3.usec                      : CBL 3' Travel Time
AMP3.mV                       : CBL 3' Amplitude
GR.GAPI                       : Gamma Ray
~Parameter Information Block
~A  Depth       CCL         TT3         AMP3         GR     
# ...
  1627.7500      0.0000    676.0131      2.7381    108.3611
  1627.8000      0.0000    676.0131      2.7381    108.3611
  1627.8500      0.0000    676.0131      2.7381    108.3611
  1627.9000      0.0000    676.0131      2.7381    108.3611
  1627.9500      0.0000    676.0131      2.7381    108.3611
  1628.0000      0.0000    695.6879      2.7622    103.0058
  1628.0500      0.0000    695.6879      2.7622    103.0058
  1628.1000      0.0000    695.6879      2.7622    103.0058
  1628.1500      0.0000    695.6879      2.7622    103.0058
  1628.2000      0.0000    695.6879      2.7622    103.0058
  1628.2500      0.0000    729.0639      2.8178    100.2993
  1628.3000      0.0000    729.0639      2.8178    100.2993
  1628.3500      0.0000    729.0639      2.8178    100.2993
  1628.4000      0.0000    729.0639      2.8178    100.2993
  1628.4500      0.0000    729.0639      2.8178    100.2993
  1628.5000      0.0000    772.1443      2.8637    100.0526
  1628.5500      0.0000    772.1443      2.8637    100.0526
  1628.6000      0.0000    772.1443      2.8637    100.0526
  1628.6500      0.0000    772.1443      2.8637    100.0526
  1628.7000      0.0000    772.1443      2.8637    100.0526
  1628.7500      2.0000    810.4167      2.8801    102.0207
  1628.8000      2.0000    810.4167      2.8801    102.0207
  1628.8500      0.0000    810.4167      2.8801    102.0207
  1628.9000     -2.0000    810.4167      2.8801    102.0207
  1628.9500     -2.0000    810.4167      2.8801    102.0207
  1629.0000      0.0000    828.1607      2.8661    106.1195
  1629.0500      0.0000    828.1607      2.8661    106.1195
  1629.1000      2.0000    828.1607      2.8661    106.1195
  1629.1500      0.0000    828.1607      2.8661    106.1195
  1629.2000      0.0000    828.1607      2.8661    106.1195
  1629.2500      0.0000    820.0878      2.8086    112.5813
  1629.3000      0.0000    820.0878      2.8086    112.5813
  1629.3500      0.0000    820.0878      2.8086    112.5813
  1629.4000      0.0000    820.0878      2.8086    112.5813
  1629.4500      0.0000    820.0878      2.8086    112.5813
  1629.5000      0.0000    793.1217      2.6838    121.1829
  1629.5500      0.0000    793.1217      2.6838    121.1829
  1629.6000      0.0000    793.1217      2.6838    121.1829
  1629.6500      0.0000    793.1217      2.6838    121.1829
  1629.7000      0.0000    793.1217      2.6838    121.1829
  1629.7500      0.0000    759.1931      2.4990    130.1164
  1629.8000      0.0000    759.1931      2.4990    130.1164
  1629.8500      0.0000    759.1931      2.4990    130.1164
  1629.9000      0.0000    759.1931      2.4990    130.1164
  1629.9500      0.0000    759.1931      2.4990    130.1164
  1630.0000      0.0000    728.3055      2.3184    136.2943
  1630.0500      0.0000    728.3055      2.3184    136.2943
  1630.1000      0.0000    728.3055      2.3184    136.2943
  1630.1500      0.0000    728.3055      2.3184    136.2943
  1630.2000      0.0000    728.3055      2.3184    136.2943
  1630.2500      0.0000    705.8127      2.2275    137.2354
  1630.3000      0.0000    705.8127      2.2275    137.2354
  1630.3500      0.0000    705.8127      2.2275    137.2354
  1630.4000      0.0000    705.8127      2.2275    137.2354
  1630.4500      0.0000    705.8127      2.2275    137.2354
  1630.5000      0.0000    692.4690      2.2653    132.7760
  1630.5500      0.0000    692.4690      2.2653    132.7760
  1630.6000      0.0000    692.4690      2.2653    132.7760
  1630.6500      0.0000    692.4690      2.2653    132.7760
  1630.7000      0.0000    692.4690      2.2653    132.7760
  1630.7500      0.0000    686.0190      2.3939    125.3258
  1630.8000      0.0000    686.0190      2.3939    125.3258
  1630.8500      0.0000    686.0190      2.3939    125.3258
  1630.9000      0.0000    686.0190      2.3939    125.3258
  1630.9500      0.0000    686.0190      2.3939    125.3258
  1631.0000      0.0000    683.4478      2.5333    118.4857
  1631.0500      0.0000    683.4478      2.5333    118.4857
  1631.1000      0.0000    683.4478      2.5333    118.4857
  1631.1500      0.0000    683.4478      2.5333    118.4857
  1631.2000      0.0000    683.4478      2.5333    118.4857
  1631.2500      0.0000    682.5527      2.6220    114.5967
  1631.3000      0.0000    682.5527      2.6220    114.5967
  1631.3500      0.0000    682.5527      2.6220    114.5967
  1631.4000      0.0000    682.5527      2.6220    114.5967
  1631.4500      0.0000    682.5527      2.6220    114.5967
  1631.5000      0.0000    682.2183      2.6446    112.8949
  1631.5500      0.0000    682.2183      2.6446    112.8949
  1631.6000      0.0000    682.2183      2.6446    112.8949
  1631.6500      0.0000    682.2183      2.6446    112.8949
  1631.7000      0.0000    682.2183      2.6446    112.8949
  1631.7500      0.0000    682.0556      2.6172    110.5796
  1631.8000      0.0000    682.0556      2.6172    110.5796
  1631.8500      0.0000    682.0556      2.6172    110.5796
  1631.9000      0.0000    682.0556      2.6172    110.5796
  1631.9500      0.0000    682.0556      2.6172    110.5796
  1632.0000      0.0000    682.0056      2.5627    106.2453
  1632.0500      0.0000    682.0056      2.5627    106.2453
  1632.1000      0.0000    682.0056      2.5627    106.2453
  1632.1500      0.0000    682.0056      2.5627    106.2453
  1632.2000      0.0000    682.0056      2.5627    106.2453
  1632.2500      0.0000    682.1102      2.5014    101.5061
  1632.3000      0.0000    682.1102      2.5014    101.5061
  1632.3500      0.0000    682.1102      2.5014    101.5061
  1632.4000      0.0000    682.1102      2.5014    101.5061
  1632.4500      0.0000    682.1102      2.5014    101.5061
  1632.5000      0.0000    682.3898      2.4518     98.6322
  1632.5500      0.0000    682.3898      2.4518     98.6322
  1632.6000      0.0000    682.3898      2.4518     98.6322
  1632.6500      0.0000    682.3898      2.4518     98.6322
  1632.7000      0.0000    682.3898      2.4518     98.6322
  1632.7500      0.0000    682.7814      2.4280     97.6189
  1632.8000      0.0000    682.7814      2.4280     97.6189
  1632.8500      0.0000    682.7814      2.4280     97.6189
  1632.9000      0.0000    682.7814      2.4280     97.6189
  1632.9500      0.0000    682.7814      2.4280     97.6189
  1633.0000      0.0000    683.1702      2.4315     96.5774
  1633.0500      0.0000    683.1702      2.4315     96.5774
  1633.1000      0.0000    683.1702      2.4315     96.5774
  1633.1500      0.0000    683.1702      2.4315     96.5774
  1633.2000      0.0000    683.1702      2.4315     96.5774
  1633.2500      0.0000    683.4943      2.4492     94.5188
  1633.3000      0.0000    683.4943      2.4492     94.5188
  1633.3500      0.0000    683.4943      2.4492     94.5188
  1633.4000      0.0000    683.4943      2.4492     94.5188
  1633.4500      0.0000    683.4943      2.4492     94.5188
  1633.5000      0.0000    683.9191      2.4601     92.7619
  1633.5500      0.0000    683.9191      2.4601     92.7619
  1633.6000      0.0000    683.9191      2.4601     92.7619
  1633.6500      0.0000    683.9191      2.4601     92.7619
  1633.7000      0.0000    683.9191      2.4601     92.7619
  1633.7500      0.0000    685.1094      2.4484     93.5214
  1633.8000      0.0000    685.1094      2.4484     93.5214
  1633.8500      0.0000    685.1094      2.4484     93.5214
  1633.9000      0.0000    685.1094      2.4484     93.5214
  1633.9500      0.0000    685.1094      2.4484     93.5214
  1634.0000      0.0000    688.6163      2.4140     97.5016
  1634.0500      0.0000    688.6163      2.4140     97.5016
  1634.1000      0.0000    688.6163      2.4140     97.5016
  1634.1500      0.0000    688.6163      2.4140     97.5016
  1634.2000      0.0000    688.6163      2.4140     97.5016
  1634.2500      0.0000    696.8376      2.3750    102.8687
  1634.3000      0.0000    696.8376      2.3750    102.8687
  1634.3500      0.0000    696.8376      2.3750    102.8687
  1634.4000      0.0000    696.8376      2.3750    102.8687
