~Version Information
VERS.                      2.0: CWLS Log ASCII Standard - VERSION 2.0
WRAP.                       NO: One line per depth step
~Well Information Block
STRT.FT               580.0000: 
STOP.FT              2729.7500: 
STEP.FT                 0.2500: 
NULL.                -999.2500: 
COMP.          Pioneer Natural Resources: COMPANY
WELL.          Sand Pebbles 13-33: WELL
FLD.           Purgatoire River: FIELD
LOC.           1883' FSL & 63' FWL----: LOCATION
PROV.                 Colorado: PROVINCE
CNTY.               Las Animas: COUNTRY
SRVC.                Patterson: SERVICE COMPANY
DATE.          Fri Mar 11 13:47:45 2005: LOG DATE
UWI.           05 071 08224 00: UNIQUE WELL ID
~Curve Information Block
DEPT.FT            0 000 00 00: Depth
SN.Ohm-m                      : IEL Short Normal
SP.mV                         : IEL Spontaneous Potential
DIR.Ohm-m                     : IEL Induction Resistivity
GR.GAPI                       : Gamma Ray
~Parameter Information Block
~A  Depth        SN          SP         DIR          GR     
# ...
  1719.0000     16.6686   -154.4985     17.9353    127.2604
  1719.2500     17.1148   -154.2681     18.1044    131.3998
  1719.5000     17.5010   -154.0948     18.2729    133.8060
  1719.7500     17.7631   -154.0272     18.4143    132.4943
  1720.0000     17.9596   -154.0877     18.5246    126.2470
  1720.2500     18.2776   -154.2713     18.6351    120.1486
  1720.5000     18.9727   -154.5525     18.8080    111.0566
  1720.7500     20.2457   -154.8992     19.1141    106.7555
  1721.0000     22.1089   -155.2878     19.6061    104.3513
  1721.2500     24.3323   -155.7102     20.2961    105.0369
  1721.5000     26.5241   -156.1686     21.1464    107.0730
  1721.7500     28.2960   -156.6629     22.0740    107.4983
  1722.0000     29.4026   -157.1764     22.9698    105.4863
  1722.2500     29.7948   -157.6694     23.7278    102.7310
  1722.5000     29.6126   -158.0799     24.2721     97.7372
  1722.7500     29.1394   -158.3322     24.5719     94.3917
  1723.0000     28.6920   -158.3477     24.6396     90.0650
  1723.2500     28.4529   -158.0595     24.5148     88.1250
  1723.5000     28.3490   -157.4261     24.2382     87.4566
  1723.7500     28.0957   -156.4441     23.8293     88.6812
  1724.0000     27.3912   -155.1521     23.2835     92.4394
  1724.2500     26.1161   -153.6227     22.5925     95.6524
  1724.5000     24.3966   -151.9452     21.7694    101.3518
  1724.7500     22.5119   -150.2077     20.8588    106.3349
  1725.0000     20.7448   -148.4860     19.9237    116.4877
  1725.2500     19.2777   -146.8430     19.0259    124.5292
  1725.5000     18.1620   -145.3333     18.2135    135.7654
  1725.7500     17.3384   -144.0049     17.5157    140.9673
  1726.0000     16.6942   -142.8947     16.9433    143.7007
  1726.2500     16.1379   -142.0222     16.4908    142.1085
  1726.5000     15.6502   -141.3859     16.1435    135.6921
  1726.7500     15.2800   -140.9656     15.8866    129.9295
  1727.0000     15.0968   -140.7290     15.7135    121.8328
  1727.2500     15.1391   -140.6381     15.6290    118.2874
  1727.5000     15.3895   -140.6543     15.6457    116.6022
  1727.7500     15.7799   -140.7431     15.7756    117.0872
  1728.0000     16.2132   -140.8765     16.0205    117.6239
  1728.2500     16.5904   -141.0343     16.3658    116.7118
  1728.5000     16.8423   -141.2015     16.7785    113.5115
  1728.7500     16.9545   -141.3630     17.2093    111.2069
  1729.0000     16.9671   -141.4982     17.5982    109.2778
  1729.2500     16.9382   -141.5795     17.8856    109.2069
  1729.5000     16.8942   -141.5756     18.0255    109.7938
  1729.7500     16.8084   -141.4579     17.9951    109.8640
  1730.0000     16.6260   -141.2074     17.7967    109.3837
  1730.2500     16.3147   -140.8194     17.4517    109.5447
  1730.5000     15.8940   -140.3043     16.9936    112.4772
  1730.7500     15.4205   -139.6871     16.4608    116.6691
  1731.0000     14.9506   -139.0053     15.8915    125.0012
  1731.2500     14.5145   -138.3048     15.3194    130.4248
  1731.5000     14.1164   -137.6348     14.7712    136.1862
  1731.7500     13.7463   -137.0406     14.2663    137.9801
  1732.0000     13.3921   -136.5572     13.8136    138.1677
  1732.2500     13.0482   -136.2049     13.4111    137.3510
  1732.5000     12.7191   -135.9894     13.0485    135.7761
  1732.7500     12.4162   -135.9037     12.7150    134.7742
  1733.0000     12.1495   -135.9315     12.4034    133.4111
  1733.2500     11.9229   -136.0509     12.1102    132.6508
  1733.5000     11.7356   -136.2372     11.8313    132.2731
  1733.7500     11.5832   -136.4657     11.5590    133.0291
  1734.0000     11.4561   -136.7142     11.2857    136.0081
  1734.2500     11.3361   -136.9654     11.0087    138.7621
  1734.5000     11.1996   -137.2091     10.7348    142.7490
  1734.7500     11.0278   -137.4431     10.4793    145.0250
  1735.0000     10.8188   -137.6727     10.2621    148.4914
  1735.2500     10.5916   -137.9080     10.1015    151.0948
  1735.5000     10.3779   -138.1604     10.0104    154.3344
  1735.7500     10.2104   -138.4391      9.9942    154.7592
  1736.0000     10.1160   -138.7479     10.0515    151.1947
  1736.2500     10.1162   -139.0837     10.1768    145.9996
  1736.5000     10.2303   -139.4362     10.3633    135.2725
  1736.7500     10.4761   -139.7896     10.6066    127.3665
  1737.0000     10.8676   -140.1261     10.9072    116.6730
  1737.2500     11.4081   -140.4324     11.2714    111.4961
  1737.5000     12.0858   -140.7049     11.7101    107.8159
  1737.7500     12.8722   -140.9544     12.2348    108.0223
  1738.0000     13.7238   -141.2064     12.8521    110.7841
  1738.2500     14.5875   -141.4979     13.5580    112.8765
  1738.5000     15.4153   -141.8697     14.3371    114.5234
  1738.7500     16.1868   -142.3561     15.1663    114.2517
  1739.0000     16.9267   -142.9748     16.0234    111.9488
  1739.2500     17.6983   -143.7192     16.8940    109.3492
  1739.5000     18.5655   -144.5549     17.7723    104.2857
  1739.7500     19.5349   -145.4222     18.6530    100.4754
  1740.0000     20.5146   -146.2417     19.5161     94.6856
  1740.2500     21.3382   -146.9243     20.3126     91.0950
  1740.5000     21.8578   -147.3844     20.9609     86.9536
  1740.7500     22.0363   -147.5558     21.3666     85.8230
  1741.0000     21.9535   -147.4085     21.4638     88.2183
  1741.2500     21.7332   -146.9615     21.2545     93.1874
  1741.5000     21.4713   -146.2866     20.8146    105.1259
  1741.7500     21.2185   -145.4993     20.2621    114.4977
  1742.0000     20.9945   -144.7398     19.7125    126.8133
  1742.2500     20.7993   -144.1451     19.2512    131.9475
  1742.5000     20.6124   -143.8216     18.9254    133.4641
  1742.7500     20.3916   -143.8200     18.7475    130.3426
  1743.0000     20.0814   -144.1200     18.6983    120.5402
  1743.2500     19.6335   -144.6283     18.7305    111.8571
  1743.5000     19.0351   -145.1930     18.7746     98.6606
  1743.7500     18.3346   -145.6360     18.7544     91.4923
  1744.0000     17.6388   -145.7932     18.6074     85.0160
  1744.2500     17.0624   -145.5513     18.3020     83.8437
  1744.5000     16.6557   -144.8696     17.8392     86.5376
  1744.7500     16.3709   -143.7816     17.2413     91.0329
  1745.0000     16.0969   -142.3807     16.5375    101.4334
  1745.2500     15.7318   -140.7980     15.7602    110.3586
  1745.5000     15.2376   -139.1786     14.9474    124.6818
  1745.7500     14.6441   -137.6594     14.1446    133.0016
  1746.0000     14.0113   -136.3488     13.3978    141.3129
  1746.2500     13.3881   -135.3126     12.7420    144.0522
  1746.5000     12.7958   -134.5671     12.1936    145.2988
  1746.7500     12.2353   -134.0831     11.7506    144.6784
  1747.0000     11.7017   -133.7987     11.3983    141.3606
  1747.2500     11.1964   -133.6367     11.1167    137.6722
  1747.5000     10.7331   -133.5230     10.8857    131.8002
  1747.7500     10.3343   -133.3996     10.6868    129.3902
  1748.0000     10.0221   -133.2325     10.5038    130.1409
  1748.2500      9.8061   -133.0123     10.3231    133.4980
  1748.5000      9.6802   -132.7504     10.1350    140.7267
  1748.7500      9.6258   -132.4718      9.9361    145.4135
  1749.0000      9.6180   -132.2077      9.7299    150.4471
  1749.2500      9.6315   -131.9888      9.5251    152.3162
  1749.5000      9.6457   -131.8405      9.3322    153.5798
  1749.7500      9.6478   -131.7810      9.1605    153.7930
  1750.0000      9.6327   -131.8198      9.0156    153.4225
  1750.2500      9.5991   -131.9570      8.8991    152.8314
  1750.5000      9.5468   -132.1826      8.8094    151.8823
  1750.7500      9.4771   -132.4765      8.7447    151.4828
  1751.0000      9.3986   -132.8110      8.7055    151.3818
  1751.2500      9.3326   -133.1544      8.6973    151.5532
  1751.5000      9.3119   -133.4780      8.7300    151.7270
  1751.7500      9.3720   -133.7627      8.8145    151.3200
  1752.0000      9.5401   -134.0048      8.9591    149.1259
  1752.2500      9.8259   -134.2195      9.1675    146.5805
