~Version Information
 VERS.                                  2.0 : CWLS LAS VERSION
 WRAP.                                   NO : WRAPING MODE
 SWARE .                 MController 2.5.0J : SOFTWARE VERSION
~Well Information
 WELL.                          GETEM 21-21 : WELL
 COMP.    PIONEER NATURAL RESOURCES USA INC : COMPANY
 FLD.                      PURGATOIRE RIVER : FIELD
 LOC.                NE/NW SEC 23 T32S R67W : LOCATION
 DATE.                             06/18/05 : DATE(S) LOGGED
 SRVC.       BLANCO GEOLOGICAL SERVICES LLC : SERVICE COMPANY
 STAT.                             COLORADO : STATE
 CNTY.                           LAS ANIMAS : COUNTY
 CTRY.                                  USA : COUNTRY
 API.                       05-071-08411-00 : API NUMBER
 STRT.FT                             321.00 : START DEPTH
 STOP.FT                            2815.00 : STOP DEPTH
 STEP.FT                               1.00 : DEPTH INCREMENT
 NULL.                                -9999 : NULL VALUE
~Curve information
 DEPTH.FT                                   :
 ROP.MIN/FT                                 :
 GAS.UNITS                                  :
~ASCII Log data
# ...
       921.0         0.23          5.3 
       922.0         0.27          5.5 
       923.0         0.27          5.1 
       924.0         0.28          4.6 
       925.0         0.27          3.8 
       926.0         3.28          6.0 
       927.0         0.30          5.9 
       928.0         0.30          6.2 
       929.0         0.17          7.1 
       930.0         0.10          8.2 
       931.0         0.10          8.7 
       932.0         0.17          9.1 
       933.0         0.27         11.0 
       934.0         0.27         10.0 
       935.0         0.33          7.7 
       936.0         0.27          7.6 
       937.0         0.27          6.7 
       938.0         0.23          6.8 
       939.0         0.28          6.9 
       940.0         0.23          6.2 
       941.0         0.27          5.6 
       942.0         0.33          5.1 
       943.0         0.27          4.6 
       944.0         0.23          5.0 
       945.0         0.23          4.7 
       946.0         0.23          4.4 
       947.0         0.30          4.0 
       948.0         0.23          4.1 
       949.0         0.53          4.6 
       950.0         0.42          4.8 
       951.0         0.30          4.2 
       952.0         0.30          4.1 
       953.0         0.33          3.7 
       954.0         0.40          4.5 
       955.0         0.23          5.0 
       956.0         1.88          4.8 
       957.0         0.30          4.9 
       958.0         0.30          4.6 
       959.0         0.23          4.8 
       960.0         0.33          5.2 
       961.0         0.27          5.3 
       962.0         0.27          5.8 
       963.0         0.23          5.6 
       964.0         0.23          5.5 
       965.0         0.20          5.3 
       966.0         0.10          5.0 
       967.0         0.10          5.5 
       968.0         0.10          5.8 
       969.0         0.10          5.0 
       970.0         0.10          5.2 
       971.0         0.20          4.7 
       972.0         0.22          5.0 
       973.0         0.13          4.9 
       974.0         0.20          5.6 
       975.0         0.23          5.9 
       976.0         0.23          8.5 
       977.0         0.27         11.1 
       978.0         0.20         11.4 
       979.0         0.23         11.9 
       980.0         0.27         11.5 
       981.0         0.20          9.3 
       982.0         0.17          8.1 
       983.0         0.23          7.8 
       984.0         0.23          5.8 
       985.0         0.27          6.5 
       986.0         1.32          6.6 
       987.0         0.37          4.8 
       988.0         0.27          4.6 
       989.0         0.33          5.1 
       990.0         0.33          7.0 
       991.0         0.37          6.3 
       992.0         0.23          7.2 
       993.0         0.27          8.8 
       994.0         0.32          9.5 
       995.0         0.27          8.0 
       996.0         0.20          7.3 
       997.0         0.13          6.8 
       998.0         0.17          6.3 
       999.0         0.20          6.2 
      1000.0         0.13          6.0 
      1001.0         0.17          6.6 
      1002.0         0.30          5.8 
      1003.0         0.27          6.4 
      1004.0         0.23          7.0 
      1005.0         0.23          6.1 
      1006.0         0.27          7.9 
      1007.0         0.20          9.3 
      1008.0         0.13         11.4 
      1009.0         0.30         12.2 
      1010.0         0.32         13.4 
      1011.0         0.27         12.3 
      1012.0         0.27         11.4 
      1013.0         0.27         11.5 
      1014.0         0.30         12.1 
      1015.0         0.30         11.5 
      1016.0         1.47          9.8 
      1017.0         0.32          8.2 
      1018.0         0.40          7.6 
      1019.0         0.27          7.2 
      1020.0         0.20          7.5 
      1021.0         0.20          8.9 
      1022.0         0.17         10.3 
      1023.0         0.17         10.5 
      1024.0         0.13         12.2 
      1025.0         0.13         13.8 
      1026.0         0.17         17.2 
      1027.0         0.20         18.2 
      1028.0         0.27         18.2 
      1029.0         0.23         16.1 
      1030.0         0.30         15.5 
      1031.0         0.48         12.1 
      1032.0         0.23         12.2 
      1033.0         0.23         11.1 
      1034.0         0.27         10.7 
      1035.0         0.20         11.1 
      1036.0         0.30          9.6 
      1037.0         0.20          9.0 
      1038.0         0.23          7.8 
      1039.0         0.27          8.2 
      1040.0         0.27          7.4 
      1041.0         0.27          6.8 
      1042.0         0.20          7.5 
      1043.0         0.23          7.2 
      1044.0         0.27          7.5 
      1045.0         0.22          7.5 
      1046.0         1.97          5.4 
      1047.0         0.33          5.5 
      1048.0         0.37          5.4 
      1049.0         0.23          5.7 
      1050.0         0.20          6.3 
      1051.0         0.22          7.7 
      1052.0         0.23          9.5 
      1053.0         0.20         10.8 
      1054.0         0.20         11.8 
      1055.0         0.17         12.4 
      1056.0         0.17         10.7 
      1057.0         0.17          9.1 
      1058.0         0.20          8.3 
      1059.0         0.17          8.7 
      1060.0         0.13          7.8 
      1061.0         0.17          8.5 
      1062.0         0.20          7.6 
      1063.0         0.20          7.9 
      1064.0         0.23          7.1 
      1065.0         0.20          6.7 
      1066.0         0.17          6.0 
      1067.0         0.20          5.9 
      1068.0         0.10          7.1 
      1069.0         0.15          6.6 
      1070.0         0.17          8.7 
      1071.0         0.17          8.4 
      1072.0         0.20          8.4 
      1073.0         0.20          8.3 
      1074.0         0.23          8.8 
      1075.0         0.33          7.2 
      1076.0         2.02          4.2 
      1077.0         0.37          5.9 
      1078.0         0.20          5.4 
      1079.0         0.23          6.9 
      1080.0         0.27          7.2 
      1081.0         0.27          8.5 
      1082.0         0.23          9.5 
      1083.0         0.23         10.9 
      1084.0         0.23         12.2 
      1085.0         0.30         11.1 
      1086.0         0.27          9.2 
      1087.0         0.33          8.4 
      1088.0         0.23          8.2 
      1089.0         0.25          8.0 
      1090.0         0.23          8.0 
      1091.0         0.20          7.5 
      1092.0         0.20          7.6 
      1093.0         0.20          7.0 
      1094.0         0.20          6.7 
      1095.0         0.20          6.2 
      1096.0         0.20          5.9 
      1097.0         0.20          5.6 
      1098.0         0.20          5.6 
      1099.0         0.23          5.5 
      1100.0         0.23          6.0 
      1101.0         0.23          5.7 
      1102.0         0.20          5.6 
      1103.0         0.27          5.5 
      1104.0         0.25          6.2 
      1105.0         0.27          4.7 
      1106.0         1.97          3.0 
      1107.0         0.33          3.1 
      1108.0         0.27          3.9 
      1109.0         0.27          4.9 
      1110.0         0.38          6.9 
      1111.0         0.27          7.7 
      1112.0         0.37         10.7 
      1113.0         0.33          9.0 
      1114.0         0.30          7.1 
      1115.0         0.23          6.4 
      1116.0         0.20          5.7 
      1117.0         0.23          5.4 
      1118.0         0.30          5.2 
      1119.0         0.27          5.2 
      1120.0         0.20          5.2 
