~Version Information
 VERS.                                  2.0 : CWLS LAS VERSION
 WRAP.                                   NO : WRAPING MODE
 SWARE .                 MController 2.5.0E : SOFTWARE VERSION
~Well Information
 WELL.                          Enzo 43-8TR : WELL
 COMP.        Pioneer Natural Resources Inc : COMPANY
 FLD.                      Purgatorie River : FIELD
 LOC.                 NE/SE Sec 8 T32S R66W : LOCATION
 DATE.                             10/29/04 : DATE(S) LOGGED
 SRVC.       Blanco Geological Services LLC : SERVICE COMPANY
 STAT.                                   CO : STATE
 CNTY.                           Las Animas : COUNTY
 CTRY.                                  USA : COUNTRY
 API.                       05-071-08213-00 : API NUMBER
 STRT.FT                             562.00 : START DEPTH
 STOP.FT                            2170.00 : STOP DEPTH
 STEP.FT                               1.00 : DEPTH INCREMENT
 NULL.                                -9999 : NULL VALUE
~Curve information
 DEPTH.FT                                   :
 ROP.MIN/FT                                 :
 GAS.UNITS                                  :
~ASCII Log data
# ...
      962.00        0.233          7.4 
      963.00        0.300          7.2 
      964.00        0.200          6.4 
      965.00        0.233          6.5 
      966.00        0.200          6.0 
      967.00        0.200          6.0 
      968.00        0.200          5.5 
      969.00        0.133          4.9 
      970.00        0.067          5.1 
      971.00        0.100          4.5 
      972.00        0.100          4.8 
      973.00        0.100          5.1 
      974.00        0.483          5.5 
      975.00        0.367          5.3 
      976.00        0.500          5.4 
      977.00        0.400          5.8 
      978.00        0.267          5.3 
      979.00        0.300          5.3 
      980.00        0.333          4.9 
      981.00        0.267          5.1 
      982.00        0.300          5.2 
      983.00        0.267          4.9 
      984.00        0.317          5.0 
      985.00        0.367          5.5 
      986.00        5.750         13.7 
      987.00        0.350          6.0 
      988.00        0.500          5.1 
      989.00        0.367          4.5 
      990.00        0.433          4.2 
      991.00        0.267          3.8 
      992.00        0.267          4.5 
      993.00        0.367          4.6 
      994.00        0.500          4.6 
      995.00        0.233          4.7 
      996.00        0.233          3.9 
      997.00        0.250          4.1 
      998.00        0.200          4.0 
      999.00        0.233          6.3 
     1000.00        0.233         13.0 
     1001.00        0.200         17.8 
     1002.00        0.233         25.2 
     1003.00        0.267         33.9 
     1004.00        0.200         38.9 
     1005.00        0.167         41.4 
     1006.00        0.167         41.5 
     1007.00        0.167         40.3 
     1008.00        0.100         37.4 
     1009.00        0.133         35.9 
     1010.00        0.100         33.0 
     1011.00        0.100         32.5 
     1012.00        0.133         31.1 
     1013.00        0.267         29.8 
     1014.00        0.233         25.8 
     1015.00        0.150         23.7 
     1016.00        3.850         99.8 
     1017.00        0.700         60.4 
     1018.00        0.200         43.8 
     1019.00        0.233         40.6 
     1020.00        0.233         36.6 
     1021.00        0.467         33.2 
     1022.00        0.233         30.1 
     1023.00        0.133         28.6 
     1024.00        0.200         27.2 
     1025.00        0.233         26.6 
     1026.00        0.183         25.8 
     1027.00        0.233         25.4 
     1028.00        0.233         25.0 
     1029.00        0.200         25.0 
     1030.00        0.200         24.7 
     1031.00        0.267         24.0 
     1032.00        0.233         24.5 
     1033.00        0.200         28.4 
     1034.00        0.233         39.4 
     1035.00        0.200         46.1 
     1036.00        0.300         54.4 
     1037.00        0.200         59.4 
     1038.00        0.200         76.8 
     1039.00        0.200         93.3 
     1040.00        0.300         95.8 
     1041.00        0.283         92.7 
     1042.00        0.267         96.5 
     1043.00        0.233        104.9 
     1044.00        0.200        108.7 
     1045.00        0.233        108.9 
     1046.00        5.833        392.4 
     1047.00        0.333        140.6 
     1048.00        0.267        104.7 
     1049.00        0.267        116.2 
     1050.00        0.267        115.9 
     1051.00        0.233         96.5 
     1052.00        0.167         82.2 
     1053.00        0.133         83.7 
     1054.00        0.167         87.3 
     1055.00        0.100         88.9 
     1056.00        0.167         89.5 
     1057.00        0.167         89.3 
     1058.00        0.267         87.2 
     1059.00        0.200         82.2 
     1060.00        0.233         79.1 
     1061.00        0.317         78.9 
     1062.00        0.267         80.0 
     1063.00        0.633         80.3 
     1064.00        0.300         89.9 
     1065.00        0.267        100.4 
     1066.00        0.267         91.7 
     1067.00        0.233         74.1 
     1068.00        0.300         68.2 
     1069.00        0.200         57.5 
     1070.00        0.267         51.4 
     1071.00        0.300         44.9 
     1072.00        0.283         38.2 
     1073.00        0.267         34.1 
     1074.00        0.233         30.4 
     1075.00        0.233         33.9 
     1076.00        3.617        207.1 
     1077.00        0.533         83.9 
     1078.00        0.300         68.8 
     1079.00        0.233         60.0 
     1080.00        0.267         54.4 
     1081.00        0.167         51.1 
     1082.00        0.300         47.6 
     1083.00        0.233         43.9 
     1084.00        0.183         42.4 
     1085.00        0.167         40.8 
     1086.00        0.200         40.7 
     1087.00        0.200         39.9 
     1088.00        0.233         39.7 
     1089.00        0.200         39.1 
     1090.00        0.200         38.0 
     1091.00        0.200         37.7 
     1092.00        0.200         36.2 
     1093.00        0.233         39.9 
     1094.00        0.167         41.3 
     1095.00        0.200         40.3 
     1096.00        0.267         38.2 
     1097.00        0.200         37.8 
     1098.00        0.200         37.5 
     1099.00        0.267         35.5 
     1100.00        0.183         33.7 
     1101.00        0.233         32.8 
     1102.00        0.200         31.3 
     1103.00        0.200         29.9 
     1104.00        0.267         27.3 
     1105.00        0.400         25.4 
     1106.00        3.883        135.0 
     1107.00        0.267         61.7 
     1108.00        0.367         60.9 
     1109.00        0.300         45.7 
     1110.00        0.233         41.6 
     1111.00        0.267         39.7 
     1112.00        0.283         37.2 
     1113.00        0.233         35.4 
     1114.00        0.267         32.9 
     1115.00        0.233         32.3 
     1116.00        0.233         33.6 
     1117.00        0.300         32.8 
     1118.00        0.600         32.4 
     1119.00        0.233         32.3 
     1120.00        0.233         32.1 
     1121.00        0.200         31.9 
     1122.00        0.267         30.9 
     1123.00        0.300         31.8 
     1124.00        0.383         36.4 
     1125.00        0.333         35.4 
     1126.00        0.200         33.7 
     1127.00        0.233         33.4 
     1128.00        0.233         33.7 
     1129.00        0.167         32.7 
     1130.00        0.233         29.5 
     1131.00        0.267         24.7 
     1132.00        0.200         23.0 
     1133.00        0.267         21.2 
     1134.00        0.200         19.5 
     1135.00        0.233         18.7 
     1136.00        3.450        177.0 
     1137.00        0.383        116.0 
     1138.00        0.233         94.5 
     1139.00        0.200         88.2 
     1140.00        0.267         76.5 
     1141.00        0.267         62.8 
     1142.00        0.267         55.6 
     1143.00        0.267         50.8 
     1144.00        0.300         46.3 
     1145.00        0.233         43.5 
     1146.00        0.267         42.9 
     1147.00        0.167         41.6 
     1148.00        0.167         40.3 
     1149.00        0.100         39.6 
     1150.00        0.167         39.6 
     1151.00        0.550         40.3 
     1152.00        0.200         37.7 
     1153.00        0.167         38.6 
     1154.00        0.233         37.8 
     1155.00        0.100         35.2 
     1156.00        0.167         33.7 
     1157.00        0.233         32.0 
     1158.00        0.300         30.4 
     1159.00        0.300         28.1 
     1160.00        0.200         26.7 
     1161.00        0.267         25.8 
