~Version Information
VERS.                      2.0: CWLS Log ASCII Standard - VERSION 2.0
WRAP.                       NO: One line per depth step
~Well Information Block
STRT.FT               987.5000: 
STOP.FT              2426.0000: 
STEP.FT                 0.5000: 
NULL.                -999.2500: 
COMP.          Evergreen Operating Corporation: COMPANY
WELL.          McCullough 34-32: WELL
FLD.           Purgatorie River: FIELD
LOC.           261' FSL & 2098' FEL--: LOCATION
PROV.                 Colorado: PROVINCE
CNTY.               Las Animas: COUNTRY
SRVC.          Patterson Wireline: SERVICE COMPANY
DATE.          Mon May 17 13:38:56 2004: LOG DATE
UWI.           05-071-07953-00: UNIQUE WELL ID
~Curve Information Block
DEPT.FT            0 000 00 00: Depth
CCL.                          : Casing Collar Locator
TT3.usec                      : CBL 3' Travel Time
AMP3.mV                       : CBL 3' Amplitude
GR.GAPI                       : Gamma Ray
~Parameter Information Block
~A  Depth       CCL         TT3         AMP3         GR     
# ...
  2059.5000      0.0000    736.3738      7.9305     51.5335
  2060.0000      0.0000    735.5248      7.9466     50.2750
  2060.5000      0.0000    734.2704      7.8463     50.3150
  2061.0000      0.0000    729.3979      7.5825     49.9813
  2061.5000      0.0000    721.8484      7.3227     48.8095
  2062.0000      0.0000    718.0382      7.1297     52.3425
  2062.5000      0.0000    713.0110      7.0263     60.8324
  2063.0000      0.0000    703.5758      7.0011     61.4978
  2063.5000      0.0000    701.0118      6.8111     54.6626
  2064.0000      0.0000    703.1596      6.5407     51.1398
  2064.5000      0.0000    703.1573      6.3169     50.5753
  2065.0000      0.0000    709.1236      6.2816     53.1562
  2065.5000      0.0000    726.4186      6.6591     58.3482
  2066.0000      0.0000    745.0541      6.9438     58.9419
  2066.5000      0.0000    743.6649      6.7517     58.3110
  2067.0000      0.0000    748.5490      6.2098     58.3351
  2067.5000      0.0000    769.4256      5.9416     54.2484
  2068.0000      0.0000    784.5911      5.8131     48.4756
  2068.5000      0.0000    795.0034      5.5436     45.8306
  2069.0000      0.0000    794.7722      5.4131     44.4610
  2069.5000      0.0000    769.2784      5.3775     45.2298
  2070.0000      0.0000    734.3757      5.6071     45.0262
  2070.5000      0.0000    726.5794      5.8496     40.7372
  2071.0000      0.0000    740.0667      5.2780     34.7932
  2071.5000      0.0000    756.0186      4.7213     29.9104
  2072.0000     -5.0000    741.8701      4.8690     26.2532
  2072.5000      0.0000    695.2959      5.0789     25.2194
  2073.0000      0.0000    658.9655      5.2905     30.1249
  2073.5000      0.0000    650.3575      6.0106     40.1892
  2074.0000      0.0000    678.1868      6.5691     52.7279
  2074.5000      0.0000    701.6000      6.4075     68.4703
  2075.0000      0.0000    710.0758      5.6594     84.1625
  2075.5000      0.0000    727.1807      4.7477     92.1872
  2076.0000      0.0000    755.6164      4.0666     86.2546
  2076.5000      0.0000    769.8446      3.6885     74.3360
  2077.0000      0.0000    768.6868      3.5966     74.8792
  2077.5000      0.0000    779.7004      3.7688     90.0791
  2078.0000      0.0000    772.3563      4.2386    108.2229
  2078.5000      0.0000    743.7624      5.0432    117.4228
  2079.0000      0.0000    697.7357      6.2025    117.3634
  2079.5000      0.0000    605.0380      7.5814    118.2536
  2080.0000      0.0000    490.4556      8.7781    116.3927
  2080.5000      0.0000    438.7603      9.1213    114.9673
  2081.0000      0.0000    523.1741      8.8248    123.1947
  2081.5000      0.0000    647.8228      8.6510    129.2468
  2082.0000      0.0000    653.7103      8.6907    130.9277
  2082.5000      0.0000    534.0831      8.7875    134.0223
  2083.0000      0.0000    403.7548      9.0445    135.3395
  2083.5000      0.0000    344.2330      9.3174    134.8373
  2084.0000      0.0000    332.5868      9.3888    132.5604
  2084.5000      0.0000    333.4659      9.1413    129.5879
  2085.0000      0.0000    358.5103      8.5265    129.4464
  2085.5000      0.0000    411.8097      8.0283    126.1241
  2086.0000      0.0000    425.8228      7.6331    115.2507
  2086.5000      0.0000    401.0403      7.1111     99.7265
  2087.0000      2.7109    417.0493      6.8472     87.6416
  2087.5000      0.0000    458.3365      6.6106     88.1500
  2088.0000      0.0000    489.1574      6.3725     98.3393
  2088.5000      0.0000    524.3362      6.6300    111.5264
  2089.0000      0.0000    506.3437      7.0813    126.4312
  2089.5000      0.0000    443.9815      7.6625    135.9655
  2090.0000      0.0000    468.5754      8.1978    133.9748
  2090.5000      0.0000    598.6362      8.2845    130.4780
  2091.0000      0.0000    666.2662      8.2830    130.4494
  2091.5000      0.0000    589.7347      8.2807    128.2170
  2092.0000      0.0000    496.4365      8.1385    126.4394
  2092.5000      0.0000    528.9948      7.8430    130.2830
  2093.0000      0.0000    630.1418      7.5213    128.2905
  2093.5000      0.0000    684.6890      7.2732    115.0651
  2094.0000      0.0000    701.3489      7.0703    102.5663
  2094.5000      0.0000    712.4144      7.0467     98.3197
  2095.0000      0.0000    714.1921      7.1780    100.7462
  2095.5000      0.0000    708.1638      7.2151    101.9426
  2096.0000      0.0000    705.3042      7.1334    101.0697
  2096.5000      0.0000    685.7731      7.2202    103.0169
  2097.0000      0.0000    615.4897      7.7394    103.1553
  2097.5000      0.0000    512.5207      8.3430    101.0546
  2098.0000      0.0000    425.8927      8.5653     99.5186
  2098.5000      0.0000    417.3024      8.1527    102.4848
  2099.0000      0.0000    506.4097      6.9692    104.6805
  2099.5000      0.0000    616.9424      5.4395    104.9835
  2100.0000      0.0000    650.4352      4.1820    106.9141
  2100.5000      0.0000    608.6760      3.3114    106.9972
  2101.0000      0.0000    594.9724      2.6686    100.4605
  2101.5000      0.0000    643.1588      2.2244     92.1286
  2102.0000      0.0000    673.8516      2.1344     87.3274
  2102.5000      0.0000    680.2344      2.3408     82.7836
  2103.0000      0.0000    689.2170      2.7476     81.1119
  2103.5000      0.0000    706.3758      3.1883     83.7145
  2104.0000      0.0000    725.3259      3.4763     86.6943
  2104.5000      0.0000    731.0173      3.7610     89.3470
  2105.0000      0.0000    694.4685      4.3245     82.1297
  2105.5000      0.0000    583.6438      5.2406     65.5447
  2106.0000      0.0000    445.2827      6.2623     56.5540
  2106.5000      0.0000    371.1461      7.0682     52.1134
  2107.0000      0.0000    356.4589      7.5002     46.5219
  2107.5000      0.0000    399.6299      7.6103     45.2682
  2108.0000      0.0000    459.7766      7.5827     45.8279
  2108.5000      0.0000    436.6575      7.7621     51.6602
  2109.0000      0.0000    378.7744      8.2182     72.0640
  2109.5000      0.0000    353.5659      8.5403     99.9516
  2110.0000      0.0000    357.6316      8.5114    122.9103
  2110.5000      0.0000    390.3677      8.3311    136.0190
  2111.0000      0.0000    436.5544      8.1821    137.9939
  2111.5000      0.0000    481.7227      8.0296    134.8484
  2112.0000      0.0000    534.1550      7.9708    127.2728
  2112.5000      0.0000    577.3767      8.0627    120.0436
  2113.0000      0.0000    614.8990      8.0701    118.5161
  2113.5000      0.0000    620.8748      8.0358    113.1303
  2114.0000      0.0000    562.8633      8.3516    104.7265
  2114.5000      0.0000    514.0933      8.9830     96.3247
  2115.0000      0.0000    507.0487      9.7075     92.8823
  2115.5000      0.0000    447.3152     10.4362     96.5421
  2116.0000      0.0000    360.5861     11.0943    100.6815
  2116.5000      0.0000    326.9425     11.5301    104.6898
  2117.0000      0.0000    323.3655     11.7659    114.4119
  2117.5000      0.0000    330.8469     11.7459    123.5943
  2118.0000      0.0000    359.8524     11.2027    125.3986
  2118.5000      0.0000    422.7466     10.2780    124.6297
  2119.0000      0.0000    494.7043      9.4706    121.3408
  2119.5000      0.0000    572.8250      9.1057    113.3624
  2120.0000      0.0000    657.1638      8.9675    105.1722
  2120.5000      0.0000    696.4763      8.8418     97.8868
  2121.0000      0.0000    698.7859      8.5484     95.4595
  2121.5000      0.0000    681.4266      8.3018     99.5503
  2122.0000      0.0000    641.9921      8.2423     97.7565
  2122.5000      0.0000    640.8442      8.0211     92.5024
  2123.0000      0.0000    684.1010      7.6796     93.9898
  2123.5000      0.0000    706.8995      7.4122     98.6170
  2124.0000      0.0000    704.0444      7.4229    100.4193
  2124.5000      0.0000    702.0252      7.5910     96.2584
  2125.0000      0.0000    712.3967      7.6366     89.7510
  2125.5000      0.0000    726.5094      7.5703     86.9484
  2126.0000      0.0000    730.7043      7.5487     86.3690
