~Version Information
 VERS.                                  2.0 : CWLS LAS VERSION
 WRAP.                                   NO : WRAPING MODE
 SWARE .                 MController 2.5.0N : SOFTWARE VERSION
~Well Information
 WELL.                          Cluck 21-25 : WELL
 COMP.    PIONEER NATURAL RESOURCES USA INC : COMPANY
 FLD.                      PURGATOIRE RIVER : FIELD
 LOC.                  NE/NW Sec 25 32S 67W : LOCATION
 DATE.                           6/5-6/2005 : DATE(S) LOGGED
 SRVC.       BLANCO GEOLOGICAL SERVICES LLC : SERVICE COMPANY
 STAT.                                   CO : STATE
 CNTY.                           LAS ANIMAS : COUNTY
 CTRY.                                  USA : COUNTRY
 API.                       05-071-08397-00 : API NUMBER
 STRT.FT                             296.00 : START DEPTH
 STOP.FT                            2730.00 : STOP DEPTH
 STEP.FT                               1.00 : DEPTH INCREMENT
 NULL.                                -9999 : NULL VALUE
~Curve information
 DEPTH.FT                                   :
 ROP.MIN/FT                                 :
 GAS.UNITS                                  :
~ASCII Log data
# ...
      1296.0         0.47         14.3 
      1297.0         0.40         14.8 
      1298.0         0.40         14.0 
      1299.0         0.43         13.5 
      1300.0         0.42         13.0 
      1301.0         0.47         14.2 
      1302.0         0.40         13.9 
      1303.0         0.40         13.8 
      1304.0         0.37         13.8 
      1305.0         0.37         14.0 
      1306.0         0.37         14.4 
      1307.0         0.43         14.2 
      1308.0         0.38         13.5 
      1309.0         0.33         14.0 
      1310.0         0.17         14.0 
      1311.0         0.33         15.0 
      1312.0         0.30         14.8 
      1313.0         0.30         13.7 
      1314.0         0.23         13.9 
      1315.0         0.23         13.7 
      1316.0         0.27         14.4 
      1317.0         0.27         14.0 
      1318.0         0.33         13.9 
      1319.0         0.13         13.8 
      1320.0         0.13         13.8 
      1321.0         6.27         39.5 
      1322.0         0.60         22.8 
      1323.0         0.32         14.9 
      1324.0         0.70         16.1 
      1325.0         0.83         15.1 
      1326.0         0.80         13.9 
      1327.0         1.12         15.9 
      1328.0         0.83         15.1 
      1329.0         0.77         16.1 
      1330.0         0.50         15.0 
      1331.0         0.37         13.8 
      1332.0         0.75         14.6 
      1333.0         0.50         15.9 
      1334.0         0.50         14.8 
      1335.0         0.43         15.1 
      1336.0         0.37         14.8 
      1337.0         0.50         15.4 
      1338.0         0.37         15.5 
      1339.0         0.38         14.8 
      1340.0         0.40         15.1 
      1341.0         0.33         15.2 
      1342.0         0.30         15.8 
      1343.0         0.33         14.9 
      1344.0         0.33         15.3 
      1345.0         0.47         16.1 
      1346.0         0.45         15.7 
      1347.0         0.27         15.9 
      1348.0         0.17         17.4 
      1349.0         0.20         19.2 
      1350.0         0.20         19.2 
      1351.0        12.63         39.5 
      1352.0         0.80         24.4 
      1353.0         0.93         19.9 
      1354.0         0.80         16.8 
      1355.0         0.37         18.0 
      1356.0         0.38         17.6 
      1357.0         0.30         17.8 
      1358.0         0.23         16.9 
      1359.0         0.43         16.2 
      1360.0         0.30         16.2 
      1361.0         0.23         16.4 
      1362.0         0.30         17.5 
      1363.0         0.33         17.4 
      1364.0         0.37         16.6 
      1365.0         0.65         17.2 
      1366.0         0.53         16.7 
      1367.0         0.70         17.1 
      1368.0         0.53         17.2 
      1369.0         0.60         17.5 
      1370.0         0.63         17.2 
      1371.0         0.68         16.4 
      1372.0         0.57         17.6 
      1373.0         0.53         16.9 
      1374.0         0.63         18.2 
      1375.0         0.57         17.4 
      1376.0         0.47         18.2 
      1377.0         0.48         17.5 
      1378.0         0.17         18.4 
      1379.0         0.37         18.6 
      1380.0         0.10         18.0 
      1381.0        10.38         45.4 
      1382.0         0.07         19.0 
      1383.0         0.17         19.0 
      1384.0         0.67         19.3 
      1385.0         0.30         19.3 
      1386.0         0.20         19.3 
      1387.0         0.23         23.6 
      1388.0         0.35         27.1 
      1389.0         0.67         23.1 
      1390.0         0.70         20.2 
      1391.0         0.57         20.0 
      1392.0         0.57         19.7 
      1393.0         0.50         19.9 
      1394.0         0.55         18.1 
      1395.0         0.60         19.0 
      1396.0         0.60         19.4 
      1397.0         0.57         19.4 
      1398.0         0.50         18.5 
      1399.0         0.30         19.2 
      1400.0         0.45         20.8 
      1401.0         0.63         19.7 
      1402.0         0.47         19.0 
      1403.0         0.70         18.2 
      1404.0         0.67         19.1 
      1405.0         0.57         18.8 
      1406.0         0.78         19.9 
      1407.0         0.50         19.9 
      1408.0         0.57         20.1 
      1409.0         0.53         19.4 
      1410.0         0.43         18.7 
      1411.0         1.92         20.5 
      1412.0         0.13         18.9 
      1413.0         0.10         18.9 
      1414.0         0.13         20.1 
      1415.0         0.47         20.0 
      1416.0         0.10         19.3 
      1417.0         0.13         20.2 
      1418.0         0.10         20.6 
      1419.0         0.47         19.4 
      1420.0         0.10         20.3 
      1421.0         0.13         19.5 
      1422.0         0.10         19.8 
      1423.0         0.13         19.8 
      1424.0         0.12         19.5 
      1425.0         0.13         19.5 
      1426.0         0.10         19.5 
      1427.0         0.13         19.1 
      1428.0         0.10         19.1 
      1429.0         0.47         20.4 
      1430.0         0.10         19.5 
      1431.0         0.13         20.0 
      1432.0         0.40         21.7 
      1433.0         0.10         19.9 
      1434.0         0.07         19.9 
      1435.0         0.10         19.9 
      1436.0         0.10         19.6 
      1437.0         0.10         19.6 
      1438.0         0.07         20.6 
      1439.0        26.50         89.5 
      1440.0         0.13         55.0 
      1441.0         0.17         53.8 
      1442.0         0.15         53.8 
      1443.0         0.40         51.7 
      1444.0         0.47         48.4 
      1445.0         0.20         46.3 
      1446.0         0.37         45.0 
      1447.0         0.80         35.6 
      1448.0         0.90         32.4 
      1449.0         0.82         23.0 
      1450.0         0.70         21.5 
      1451.0         0.50         20.5 
      1452.0         0.50         20.2 
      1453.0         0.40         21.4 
      1454.0         0.65         22.5 
      1455.0         0.40         22.0 
      1456.0         0.67         21.6 
      1457.0         0.53         21.8 
      1458.0         0.53         22.1 
      1459.0         0.37         22.1 
      1460.0         0.53         22.1 
      1461.0         0.55         22.6 
      1462.0         0.50         22.9 
      1463.0         0.43         22.6 
      1464.0         0.30         21.1 
      1465.0         0.23         22.5 
      1466.0         0.17         22.0 
      1467.0         0.30         22.7 
      1468.0         0.30         23.8 
      1469.0         0.20         24.1 
      1470.0         0.23         24.2 
      1471.0        12.87         51.0 
      1472.0         0.40         42.4 
      1473.0         0.20         38.8 
      1474.0         0.98         36.2 
      1475.0         0.77         24.9 
      1476.0         0.57         23.7 
      1477.0         0.77         23.6 
      1478.0         0.42         23.0 
      1479.0         0.43         23.6 
      1480.0         0.37         23.1 
      1481.0         0.27         22.7 
      1482.0         0.43         22.4 
      1483.0         0.40         22.2 
      1484.0         0.40         22.5 
      1485.0         0.33         21.7 
      1486.0         0.40         23.2 
      1487.0         0.42         23.3 
      1488.0         0.37         23.6 
      1489.0         0.37         24.1 
      1490.0         0.53         22.6 
      1491.0         0.33         22.3 
      1492.0         0.50         23.5 
      1493.0         1.07         23.7 
      1494.0         0.55         24.3 
      1495.0         0.47         24.5 
