~Version Information
VERS.                      2.0: CWLS Log ASCII Standard - VERSION 2.0
WRAP.                       NO: One line per depth step
~Well Information Block
STRT.FT               801.5000: 
STOP.FT              2513.0000: 
STEP.FT                 0.2500: 
NULL.                -999.2500: 
COMP.          Petrogulf Corporation: COMPANY
WELL.               YWAM 7-32V: WELL
FLD.           Purgatoire River: FIELD
LOC.           2423' FNL & 2412' FEL: LOCATION
PROV.                 Colorado: PROVINCE
CNTY.               Las Animas: COUNTRY
SRVC.                Patterson: SERVICE COMPANY
DATE.          Sun Dec 14 06:58:17 2003: LOG DATE
UWI.                          : UNIQUE WELL ID
~Curve Information Block
DEPT.FT            0 000 00 00: Depth
SP.mV                         : DIL Spontaneous Potential
RILD.Ohm-m                    : DIL Deep Resistivity
RILM.Ohm-m                    : DIL Medium Resistivity
RLL3.Ohm-m                    : DIL Shallow Resistivity
GR.GAPI                       : Gamma Ray
~Parameter Information Block
~A  Depth        SP         RILD        RILM        RLL3         GR     
# ...
  1053.5000   -651.0734     98.3413     39.6002     88.6223     67.5699
  1053.7500   -645.3274     84.3295     37.3370     90.0036     69.1542
  1054.0000   -640.0138     73.0613     35.6142     90.3638     68.8928
  1054.2500   -636.8599     64.6440     34.4473     90.0443     67.3450
  1054.5000   -636.7120     58.4411     33.6152     89.4888     64.5263
  1054.7500   -639.4473     53.7931     32.7905     88.1467     63.2135
  1055.0000   -644.9396     50.2081     31.7132     84.2354     63.3826
  1055.2500   -653.6862     47.3361     30.3219     76.0733     65.6403
  1055.5000   -666.1351     44.9008     28.7469     63.8799     73.1481
  1055.7500   -681.2044     42.6653     27.1941     50.1519     80.8325
  1056.0000   -695.7946     40.4510     25.8387     38.1660     94.7025
  1056.2500   -706.3273     38.1671     24.7818     30.0770    103.7900
  1056.5000   -711.0256     35.8172     24.0453     26.1950    114.3233
  1056.7500   -710.9097     33.4627     23.5789     25.5507    118.5409
  1057.0000   -708.6957     31.1769     23.2759     26.7842    121.4233
  1057.2500   -706.3374     29.0191     23.0060     28.6649    122.0688
  1057.5000   -703.4120     27.0328     22.6582     30.2747    122.3689
  1057.7500   -698.2737     25.2522     22.1717     31.1081    122.2397
  1058.0000   -690.4889     23.7020     21.5376     31.1042    121.2374
  1058.2500   -681.2760     22.3910     20.7830     30.4786    120.0517
  1058.5000   -671.8329     21.3041     19.9561     29.4012    118.2023
  1058.7500   -662.5145     20.4011     19.1155     27.8122    117.5081
  1059.0000   -653.7726     19.6262     18.3163     25.6009    118.1022
  1059.2500   -646.8193     18.9297     17.5963     22.9513    119.7943
  1059.5000   -643.0997     18.2894     16.9723     20.4048    123.6736
  1059.7500   -643.6460     17.7114     16.4461     18.5138    126.1915
  1060.0000   -648.7982     17.2074     16.0133     17.4784    128.2938
  1060.2500   -657.8530     16.7684     15.6669     17.1429    128.5776
  1060.5000   -668.9323     16.3627     15.3957     17.2524    128.9649
  1060.7500   -679.6574     15.9592     15.1807     17.6296    130.0371
  1061.0000   -688.2831     15.5524     14.9947     18.1523    132.4645
  1061.2500   -694.3138     15.1629     14.8077     18.6813    133.6961
  1061.5000   -698.0707     14.8160     14.5953     19.0756    134.0228
  1061.7500   -699.7543     14.5224     14.3480     19.2526    133.3303
  1062.0000   -698.9746     14.2756     14.0749     19.1995    131.1471
  1062.2500   -695.2140     14.0620     13.7986     18.9277    128.6872
  1062.5000   -688.6353     13.8754     13.5436     18.4522    123.1426
  1062.7500   -680.6736     13.7249     13.3237     17.8304    118.7832
  1063.0000   -674.3958     13.6349     13.1373     17.1873    113.9366
  1063.2500   -674.0323     13.6337     12.9744     16.6611    113.5180
  1063.5000   -682.5583     13.7388     12.8292     16.3067    117.7065
  1063.7500   -698.6823     13.9485     12.7114     16.0556    122.3081
  1064.0000   -716.8484     14.2455     12.6466     15.7832    128.5725
  1064.2500   -730.9930     14.6096     12.6701     15.4443    131.2394
  1064.5000   -738.3734     15.0326     12.8187     15.1951    133.1103
  1064.7500   -740.0176     15.5271     13.1266     15.4408    133.3843
  1065.0000   -738.3118     16.1259     13.6248     16.8135    132.3753
  1065.2500   -734.5866     16.8675     14.3396     20.0752    130.2789
  1065.5000   -728.8445     17.7689     15.2862     25.8266    124.0316
  1065.7500   -721.3536     18.7985     16.4581     33.9316    117.6781
  1066.0000   -713.9993     19.8700     17.8128     43.0225    106.1846
  1066.2500   -709.5846     20.8799     19.2655     50.8122     98.7594
  1066.5000   -709.3696     21.7712     20.7005     55.3250     90.5749
  1066.7500   -711.1478     22.5671     22.0016     56.0436     87.7532
  1067.0000   -710.0521     23.3349     23.0818     53.9617     86.9124
  1067.2500   -701.9486     24.1094     23.8880     50.7157     87.8336
  1067.5000   -686.8174     24.8335     24.3819     47.6241     90.3112
  1067.7500   -669.3081     25.3607     24.5242     45.0878     92.2896
  1068.0000   -655.7582     25.5335     24.2878     42.5331     95.3223
  1068.2500   -649.8907     25.2865     23.6910     39.0632     97.4104
  1068.5000   -650.7642     24.6784     22.8139     34.4220    101.5840
  1068.7500   -654.5818     23.8262     21.7763     29.3420    105.9353
  1069.0000   -657.9678     22.8304     20.6936     24.9346    115.3058
  1069.2500   -659.0502     21.7596     19.6453     21.8642    122.4373
  1069.5000   -656.5085     20.6750     18.6706     20.0960    131.2773
  1069.7500   -649.6926     19.6406     17.7831     19.1922    134.5706
  1070.0000   -639.9756     18.7102     16.9873     18.6858    135.8214
  1070.2500   -630.4732     17.9140     16.2892     18.2743    135.4994
  1070.5000   -623.8005     17.2601     15.6977     17.8587    135.8260
  1070.7500   -620.5638     16.7443     15.2223     17.4919    137.5478
  1071.0000   -619.9013     16.3585     14.8682     17.2764    142.5059
  1071.2500   -620.6794     16.0940     14.6346     17.2610    146.3521
  1071.5000   -621.9438     15.9392     14.5153     17.4011    149.7894
  1071.7500   -622.8069     15.8764     14.5042     17.6172    149.0032
  1072.0000   -622.6259     15.8806     14.5976     17.9068    143.3173
  1072.2500   -621.6479     15.9245     14.7927     18.3855    138.1604
  1072.5000   -621.1091     15.9863     15.0779     19.1719    131.6050
  1072.7500   -622.0170     16.0517     15.4241     20.2059    129.0139
  1073.0000   -623.7932     16.1089     15.7843     21.2157    127.6938
  1073.2500   -624.6740     16.1429     16.1065     21.9306    127.8452
  1073.5000   -623.6060     16.1358     16.3517     22.3326    128.2807
  1073.7500   -621.2971     16.0759     16.4987     22.6529    128.2544
  1074.0000   -619.2698     15.9656     16.5339     23.1024    127.8632
  1074.2500   -618.4009     15.8166     16.4401     23.6376    127.7395
  1074.5000   -618.5820     15.6364     16.2007     23.9775    128.2537
  1074.7500   -619.3568     15.4190     15.8171     23.7883    129.1340
  1075.0000   -620.5682     15.1499     15.3225     22.8582    131.0839
  1075.2500   -622.6003     14.8224     14.7754     21.2180    132.6250
  1075.5000   -626.3694     14.4476     14.2378     19.1867    135.2162
  1075.7500   -633.1292     14.0492     13.7544     17.2617    137.2287
  1076.0000   -643.7094     13.6501     13.3441     15.8713    140.4721
  1076.2500   -657.3853     13.2646     13.0016     15.1745    142.2600
  1076.5000   -671.7112     12.8995     12.7073     15.0518    143.6494
  1076.7500   -684.0493     12.5597     12.4383     15.2393    143.9671
  1077.0000   -693.1210     12.2528     12.1775     15.4769    144.8406
  1077.2500   -698.7445     11.9883     11.9177     15.5965    146.2428
  1077.5000   -700.7230     11.7751     11.6624     15.5364    149.2669
  1077.7500   -699.0223     11.6169     11.4240     15.3040    151.1725
  1078.0000   -694.9972     11.5108     11.2215     14.9291    152.8324
  1078.2500   -691.6016     11.4503     11.0752     14.4521    153.0751
  1078.5000   -691.8345     11.4297     11.0010     13.9483    152.6355
  1078.7500   -696.7415     11.4457     11.0065     13.5492    152.0623
  1079.0000   -704.6442     11.4975     11.0907     13.4176    150.9751
  1079.2500   -712.2627     11.5835     11.2454     13.6792    150.0694
  1079.5000   -716.9108     11.6989     11.4539     14.3458    148.0161
  1079.7500   -718.1112     11.8339     11.6894     15.2801    145.8566
  1080.0000   -717.5751     11.9745     11.9181     16.2435    141.4236
  1080.2500   -717.6088     12.1081     12.1127     17.0034    138.0836
  1080.5000   -719.1094     12.2319     12.2673     17.4112    133.4424
  1080.7500   -721.0338     12.3557     12.4000     17.4123    131.2376
  1081.0000   -721.6785     12.4979     12.5412     17.0562    130.6204
  1081.2500   -719.8295     12.6735     12.7166     16.5458    132.4583
