~Version Information
 VERS.                                  2.0 : CWLS LAS VERSION
 WRAP.                                   NO : WRAPING MODE
 SWARE .                 MController 2.5.0E : SOFTWARE VERSION
~Well Information
 WELL.                       Montoya 12 44v : WELL
 COMP.                       Petrogulf Corp : COMPANY
 FLD.                      Purgatorie River : FIELD
 LOC.               SE/SE Sec 12 T33S R66W  : LOCATION
 DATE.                             8/7 8/04 : DATE(S) LOGGED
 SRVC.       Blanco Geological Services LLC : SERVICE COMPANY
 STAT.                                   CO : STATE
 CNTY.                           Las Animas : COUNTY
 CTRY.                                  USA : COUNTRY
 API.                       05 071 08094 00 : API NUMBER
 STRT.FT                             804.00 : START DEPTH
 STOP.FT                            2469.00 : STOP DEPTH
 STEP.FT                               1.00 : DEPTH INCREMENT
 NULL.                                 9999 : NULL VALUE
~Curve information
 DEPTH.FT                                   :
 ROP.MIN/FT                                 :
 GAS.UNITS                                  :
~ASCII Log data
# ...
     1004.00        0.167          2.1 
     1005.00        0.167          2.2 
     1006.00        0.167          2.3 
     1007.00        0.167          1.9 
     1008.00        0.167          2.4 
     1009.00        0.167          2.2 
     1010.00        0.167          1.9 
     1011.00        0.133          1.9 
     1012.00        0.217          2.3 
     1013.00        0.167          1.4 
     1014.00        0.167          2.2 
     1015.00        0.167          1.4 
     1016.00        0.167          2.0 
     1017.00        0.167          1.6 
     1018.00        1.967          2.3 
     1019.00        0.267          2.1 
     1020.00        0.250          1.8 
     1021.00        0.200          2.4 
     1022.00        0.167          2.0 
     1023.00        0.167          2.4 
     1024.00        0.200          2.2 
     1025.00        0.200          2.2 
     1026.00        0.200          2.4 
     1027.00        0.233          2.2 
     1028.00        0.200          1.8 
     1029.00        0.167          2.0 
     1030.00        0.200          2.1 
     1031.00        0.167          2.1 
     1032.00        0.167          2.0 
     1033.00        0.233          2.0 
     1034.00        0.200          2.4 
     1035.00        0.200          1.8 
     1036.00        0.200          2.4 
     1037.00        0.150          2.0 
     1038.00        0.200          2.3 
     1039.00        0.167          2.2 
     1040.00        0.200          2.3 
     1041.00        0.167          2.2 
     1042.00        0.133          2.1 
     1043.00        0.167          2.3 
     1044.00        0.167          2.3 
     1045.00        0.300          2.3 
     1046.00        0.267          2.4 
     1047.00        0.300          2.0 
     1048.00        2.150          2.4 
     1049.00        0.133          1.3 
     1050.00        0.100          1.3 
     1051.00        0.100          2.0 
     1052.00        0.233          2.1 
     1053.00        0.233          1.9 
     1054.00        0.200          2.1 
     1055.00        0.233          2.2 
     1056.00        0.233          2.6 
     1057.00        0.233          2.2 
     1058.00        0.133          2.1 
     1059.00        0.200          2.6 
     1060.00        0.200          2.5 
     1061.00        0.217          2.2 
     1062.00        0.133          1.8 
     1063.00        0.133          1.4 
     1064.00        0.100          1.4 
     1065.00        0.100          2.3 
     1066.00        0.200          1.8 
     1067.00        0.167          2.4 
     1068.00        0.167          2.1 
     1069.00        0.167          1.5 
     1070.00        0.167          2.0 
     1071.00        0.233          2.3 
     1072.00        0.267          1.8 
     1073.00        0.167          1.6 
     1074.00        0.167          2.0 
     1075.00        0.167          1.9 
     1076.00        0.167          2.2 
     1077.00        0.167          2.2 
     1078.00        1.517          2.4 
     1079.00        0.267          2.0 
     1080.00        0.233          2.2 
     1081.00        0.167          2.1 
     1082.00        0.200          2.2 
     1083.00        0.233          1.8 
     1084.00        0.200          2.3 
     1085.00        0.233          2.3 
     1086.00        0.200          1.6 
     1087.00        0.200          1.4 
     1088.00        0.233         15.6 
     1089.00        0.200         44.1 
     1090.00        0.150         51.1 
     1091.00        0.133         50.1 
     1092.00        0.100         45.7 
     1093.00        0.133         40.5 
     1094.00        0.200         32.7 
     1095.00        0.200         21.3 
     1096.00        0.200         15.2 
     1097.00        0.167          9.0 
     1098.00        0.167          5.7 
     1099.00        0.167          3.3 
     1100.00        0.167          2.0 
     1101.00        0.167          1.3 
     1102.00        0.167          0.3 
     1103.00        0.167          0.4 
     1104.00        0.167          1.0 
     1105.00        0.167          1.6 
     1106.00        0.167          1.0 
     1107.00        0.133          1.3 
     1108.00        2.583          0.0 
     1109.00        0.200          0.1 
     1110.00        0.200          0.2 
     1111.00        0.233          0.2 
     1112.00        0.267          0.1 
     1113.00        0.300          0.3 
     1114.00        0.250          0.2 
     1115.00        0.100          0.4 
     1116.00        0.133          0.3 
     1117.00        0.167          0.3 
     1118.00        0.200          1.5 
     1119.00        0.167          1.7 
     1120.00        0.200          1.8 
     1121.00        0.167          2.0 
     1122.00        0.167          2.1 
     1123.00        0.100          1.5 
     1124.00        0.167          1.9 
     1125.00        0.233          1.3 
     1126.00        0.233          1.0 
     1127.00        0.233          0.8 
     1128.00        0.200          0.6 
     1129.00        0.200          1.3 
     1130.00        0.167          1.5 
     1131.00        0.167          1.7 
     1132.00        0.183          1.9 
     1133.00        0.167          1.5 
     1134.00        0.167          1.4 
     1135.00        0.167          1.8 
     1136.00        0.200          1.2 
     1137.00        0.167          1.3 
     1138.00        2.400          2.4 
     1139.00        0.283          2.3 
     1140.00        0.133          1.7 
     1141.00        0.100          1.4 
     1142.00        0.100          1.7 
     1143.00        0.100          2.1 
     1144.00        0.067          2.4 
     1145.00        0.100          2.3 
     1146.00        0.067          2.2 
     1147.00        0.100          2.4 
     1148.00        0.100          2.3 
     1149.00        0.167          2.4 
     1150.00        0.267          2.4 
     1151.00        0.167          2.3 
     1152.00        0.200          2.5 
     1153.00        0.167          2.5 
     1154.00        0.167          2.3 
     1155.00        0.167          2.7 
     1156.00        0.167          3.2 
     1157.00        0.200          2.5 
     1158.00        0.167          2.8 
     1159.00        0.167          2.3 
     1160.00        0.200          2.5 
     1161.00        0.250          2.6 
     1162.00        0.267          2.5 
     1163.00        0.167          2.2 
     1164.00        0.167          2.4 
     1165.00        0.167          2.4 
     1166.00        0.167          2.2 
     1167.00        0.133          1.8 
     1168.00        1.900          2.5 
     1169.00        0.350          2.6 
     1170.00        0.267          2.6 
     1171.00        0.233          2.3 
     1172.00        0.233          2.4 
     1173.00        0.233          2.7 
     1174.00        0.200          2.1 
     1175.00        0.167          2.3 
     1176.00        0.200          2.8 
     1177.00        0.233          2.8 
     1178.00        0.200          2.8 
     1179.00        0.167          2.7 
     1180.00        0.167          2.8 
     1181.00        0.067          2.3 
     1182.00        0.100          2.8 
     1183.00        0.067          2.0 
     1184.00        0.167          2.5 
     1185.00        0.167          2.8 
     1186.00        0.217          2.1 
     1187.00        0.167          2.9 
     1188.00        0.200          2.7 
     1189.00        0.167          2.9 
     1190.00        0.167          2.2 
     1191.00        0.133          2.7 
     1192.00        0.167          2.9 
     1193.00        0.167          2.7 
     1194.00        0.167          3.0 
     1195.00        0.167          2.8 
     1196.00        0.167          2.4 
     1197.00        0.200          2.7 
     1198.00        1.883          3.0 
     1199.00        0.333          2.9 
     1200.00        0.233          2.7 
     1201.00        0.200          2.5 
     1202.00        0.233          2.6 
     1203.00        0.200          2.8 
