~Version Information
VERS.                      2.0: CWLS Log ASCII Standard - VERSION 2.0
WRAP.                       NO: One line per depth step
~Well Information Block
STRT.FT               419.7500: 
STOP.FT              1170.0000: 
STEP.FT                 0.2500: 
NULL.                -999.2500: 
COMP.          Evergreen Operating Corporation: COMPANY
WELL.             Bernice 21-3: WELL
FLD.           Purgatoire River: FIELD
LOC.           201' FNL & 2575' FWL: LOCATION
PROV.                 Colorado: PROVINCE
CNTY.               Las Animas: COUNTRY
SRVC.                Patterson: SERVICE COMPANY
DATE.          Mon Jan 26 13:04:04 2004: LOG DATE
UWI.           05 071 07912   : UNIQUE WELL ID
~Curve Information Block
DEPT.FT            0 000 00 00: Depth
SN.Ohm-m                      : IEL Short Normal
SP.mV                         : IEL Spontaneous Potential
DIR.Ohm-m                     : IEL Induction Resistivity
GR.GAPI                       : Gamma Ray
~Parameter Information Block
~A  Depth        SN          SP         DIR          GR     
# ...
   453.2500   2000.0000   2000.0000      6.4999     89.6741
   453.5000   2000.0000   2000.0000      6.5105     87.9276
   453.7500   2000.0000   2000.0000      6.5259     84.7417
   454.0000   2000.0000   2000.0000      6.5413     78.3840
   454.2500   2000.0000   2000.0000      6.5507     74.5349
   454.5000   2000.0000   2000.0000      6.5495     71.3029
   454.7500   2000.0000   2000.0000      6.5373     71.0342
   455.0000   2000.0000   2000.0000      6.5183     72.4735
   455.2500   2000.0000   2000.0000      6.4979     73.9890
   455.5000   2000.0000   2000.0000      6.4804     76.5436
   455.7500   2000.0000   2000.0000      6.4672     78.4163
   456.0000   2000.0000   2000.0000      6.4579     81.5366
   456.2500   2000.0000   2000.0000      6.4513     83.7029
   456.5000   2000.0000   2000.0000      6.4454     86.5022
   456.7500   2000.0000   2000.0000      6.4384     87.6627
   457.0000   2000.0000   2000.0000      6.4283     88.0943
   457.2500   2000.0000   2000.0000      6.4152     87.8336
   457.5000   2000.0000   2000.0000      6.4010     87.6750
   457.7500   2000.0000   2000.0000      6.3897     88.1701
   458.0000   2000.0000   2000.0000      6.3843     89.6427
   458.2500   2000.0000   2000.0000      6.3860     90.4785
   458.5000   2000.0000   2000.0000      6.3933     90.1346
   458.7500   2000.0000   2000.0000      6.4038     88.3497
   459.0000   2000.0000   2000.0000      6.4159     83.7289
   459.2500   2000.0000   2000.0000      6.4287     80.2121
   459.5000   2000.0000   2000.0000      6.4417     75.7863
   459.7500   2000.0000   2000.0000      6.4537     73.7725
   460.0000   2000.0000   2000.0000      6.4628     71.8938
   460.2500   2000.0000   2000.0000      6.4670     71.0333
   460.5000   2000.0000   2000.0000      6.4655     69.7236
   460.7500   2000.0000   2000.0000      6.4595     68.5903
   461.0000   2000.0000   2000.0000      6.4510     66.4756
   461.2500   2000.0000   2000.0000      6.4426     65.0333
   461.5000   2000.0000   2000.0000      6.4367     63.3259
   461.7500   2000.0000   2000.0000      6.4358     62.5681
   462.0000   2000.0000   2000.0000      6.4412     61.7045
   462.2500   2000.0000   2000.0000      6.4529     61.1400
   462.5000   2000.0000   2000.0000      6.4686     60.4843
   462.7500   2000.0000   2000.0000      6.4849     60.4182
   463.0000   2000.0000   2000.0000      6.4986     60.8490
   463.2500   2000.0000   2000.0000      6.5078     61.1885
   463.5000   2000.0000   2000.0000      6.5123     61.5827
   463.7500   2000.0000   2000.0000      6.5128     62.1362
   464.0000   2000.0000   2000.0000      6.5104     64.4405
   464.2500   2000.0000   2000.0000      6.5067     67.3592
   464.5000   2000.0000   2000.0000      6.5043     73.5333
   464.7500   2000.0000   2000.0000      6.5073     78.0742
   465.0000   2000.0000   2000.0000      6.5193     83.9515
   465.2500   2000.0000   2000.0000      6.5412     86.8442
   465.5000   2000.0000   2000.0000      6.5692     90.1067
   465.7500   2000.0000   2000.0000      6.5945     91.8914
   466.0000   2000.0000   2000.0000      6.6071     93.5176
   466.2500   2000.0000   2000.0000      6.6013     93.2356
   466.5000   2000.0000   2000.0000      6.5785     90.2669
   466.7500   2000.0000   2000.0000      6.5466     86.9939
   467.0000   2000.0000   2000.0000      6.5151     81.5393
   467.2500   2000.0000   2000.0000      6.4910     78.5073
   467.5000   2000.0000   2000.0000      6.4770     76.5917
   467.7500   2000.0000   2000.0000      6.4717     77.7520
   468.0000   2000.0000   2000.0000      6.4709     82.8561
   468.2500   2000.0000   2000.0000      6.4700     87.5276
   468.5000   2000.0000   2000.0000      6.4657     94.5121
   468.7500   2000.0000   2000.0000      6.4572     98.3324
   469.0000   2000.0000   2000.0000      6.4463    101.9472
   469.2500   2000.0000   2000.0000      6.4365    102.7783
   469.5000   2000.0000   2000.0000      6.4314    102.1701
   469.7500   2000.0000   2000.0000      6.4326    101.1171
   470.0000   2000.0000   2000.0000      6.4390     99.2556
   470.2500   2000.0000   2000.0000      6.4473     97.8343
   470.5000   2000.0000   2000.0000      6.4532     95.0500
   470.7500   2000.0000   2000.0000      6.4538     92.5292
   471.0000   2000.0000   2000.0000      6.4492     87.7009
   471.2500   2000.0000   2000.0000      6.4420     84.0920
   471.5000   2000.0000   2000.0000      6.4355     79.0488
   471.7500   2000.0000   2000.0000      6.4322     76.4988
   472.0000   2000.0000   2000.0000      6.4316     74.5723
   472.2500   2000.0000   2000.0000      6.4300     74.7242
   472.5000   2000.0000   2000.0000      6.4209     76.8676
   472.7500   2000.0000   2000.0000      6.3964     79.1050
   473.0000   2000.0000   2000.0000      6.3522     82.7482
   473.2500   2000.0000   2000.0000      6.2917     85.0596
   473.5000   2000.0000   2000.0000      6.2283     88.2170
   473.7500   2000.0000   2000.0000      6.1810     90.0247
   474.0000   2000.0000   2000.0000      6.1656     92.0715
   474.2500   2000.0000   2000.0000      6.1855     93.0889
   474.5000   2000.0000   2000.0000      6.2292     94.8045
   474.7500   2000.0000   2000.0000      6.2751     96.4825
   475.0000   2000.0000   2000.0000      6.3031     99.7877
   475.2500   2000.0000   2000.0000      6.3042    102.0314
   475.5000   2000.0000   2000.0000      6.2844    104.2874
   475.7500   2000.0000   2000.0000      6.2625    104.6053
   476.0000   2000.0000   2000.0000      6.2656    103.6040
   476.2500   2000.0000   2000.0000      6.3235    102.6372
   476.5000   2000.0000   2000.0000      6.4583    101.7270
   476.7500   2000.0000   2000.0000      6.6674    101.5126
   477.0000   2000.0000   2000.0000      6.9064    101.2976
   477.2500   2000.0000   2000.0000      7.0897    101.1703
   477.5000   2000.0000   2000.0000      7.1316    101.5274
   477.7500   2000.0000   2000.0000      7.0108    102.3309
   478.0000   2000.0000   2000.0000      6.7892    103.8035
   478.2500   2000.0000   2000.0000      6.5626    104.3400
   478.5000   2000.0000   2000.0000      6.4091    104.0640
   478.7500   2000.0000   2000.0000      6.3825    103.5697
   479.0000   2000.0000   2000.0000      6.5400    103.6097
   479.2500   2000.0000   2000.0000      6.9796    104.6624
   479.5000   2000.0000   2000.0000      7.8688    107.5720
   479.7500   2000.0000   2000.0000      9.4341    109.6729
   480.0000   2000.0000   2000.0000     11.7401    111.5424
   480.2500   2000.0000   2000.0000     13.9010    111.4490
   480.5000   2000.0000   2000.0000     13.8911    109.8329
   480.7500   2000.0000   2000.0000     11.6791    108.7555
   481.0000   2000.0000   2000.0000      9.3965    108.8340
   481.2500   2000.0000   2000.0000      8.0627    110.4606
   481.5000   2000.0000   2000.0000      7.7044    115.0904
   481.7500   2000.0000   2000.0000      8.2442    119.3915
   482.0000   2000.0000   2000.0000      9.7371    127.5450
   482.2500   2000.0000   2000.0000     12.1263    134.2741
   482.5000   2000.0000   2000.0000     14.0491    146.7913
   482.7500   2000.0000   2000.0000     12.5356    156.8992
   483.0000   2000.0000   2000.0000      8.5868    173.9761
   483.2500   2000.0000   2000.0000      5.5267    185.3012
   483.5000   2000.0000   2000.0000      3.8686    198.9417
   483.7500   2000.0000   2000.0000      3.1073    204.5101
   484.0000   2000.0000   2000.0000      2.8996    208.0682
   484.2500   2000.0000   2000.0000      3.1315    208.5954
   484.5000   2000.0000   2000.0000      3.8683    208.3126
   484.7500   2000.0000   2000.0000      5.3877    207.4710
   485.0000   2000.0000   2000.0000      8.4141    204.5372
   485.2500   2000.0000   2000.0000     15.2871    201.0596
   485.5000   2000.0000   2000.0000     40.3277    193.2050
   485.7500   2000.0000   2000.0000 100000.0000    186.4861
   486.0000   2000.0000   2000.0000 100000.0000    175.8800
   486.2500   2000.0000   2000.0000 100000.0000    169.7014
   486.5000   2000.0000   2000.0000 100000.0000    162.7328
