~Version Information
VERS.                      2.0: CWLS Log ASCII Standard - VERSION 2.0
WRAP.                       NO: One line per depth step
~Well Information Block
STRT.FT               890.0000: 
STOP.FT              1589.0000: 
STEP.FT                 0.2500: 
NULL.                -999.2500: 
COMP.          Evergreen Operating Corporation: COMPANY
WELL.            Tomahawk 44-9: WELL
FLD.           Purgatorie River: FIELD
LOC.           434' FSL & 491' FEL: LOCATION
PROV.                 Colorado: PROVINCE
CNTY.               Las Animas: COUNTRY
SRVC.                         : SERVICE COMPANY
DATE.          Sat Sep 11 23:05:26 2004: LOG DATE
UWI.           05 071 08133 00: UNIQUE WELL ID
~Curve Information Block
DEPT.FT            0 000 00 00: Depth
LTEN.lb                       : Surface Line Tension
SN.Ohm-m                      : IEL Short Normal
SP.mV                         : IEL Spontaneous Potential
DIR.Ohm-m                     : IEL Induction Resistivity
GR.GAPI                       : Gamma Ray
~Parameter Information Block
~A  Depth       LTEN         SN          SP         DIR          GR     
# ...
  1394.0000    810.5868     12.9826    -87.1587     13.9544     88.0367
  1394.2500    813.2285     12.3299    -85.9981     13.5145     90.2613
  1394.5000    816.3868     12.0096    -84.4231     13.1104     94.2376
  1394.7500    820.0052     11.9408    -82.5027     12.7362     97.1709
  1395.0000    823.2078     12.0228    -80.3800     12.3880    101.4260
  1395.2500    824.9123     12.1723    -78.2372     12.0613    103.9530
  1395.5000    824.6543     12.3395    -76.2529     11.7519    107.2038
  1395.7500    822.4218     12.5009    -74.5672     11.4576    108.8361
  1396.0000    818.5869     12.6377    -73.2581     11.1800    109.8219
  1396.2500    814.4662     12.7176    -72.3324     10.9260    109.3757
  1396.5000    812.0506     12.6955    -71.7435     10.7103    107.9816
  1396.7500    812.4645     12.5312    -71.4077     10.5542    107.3950
  1397.0000    814.9426     12.2147    -71.2242     10.4768    107.5969
  1397.2500    817.6253     11.7805    -71.1012     10.4816    108.1957
  1397.5000    819.3068     11.3025    -70.9771     10.5495    109.2335
  1397.7500    820.2384     10.8686    -70.8333     10.6431    109.8359
  1398.0000    821.3124     10.5466    -70.6932     10.7203    110.1732
  1398.2500    822.8064     10.3578    -70.6151     10.7508    109.7605
  1398.5000    824.2003     10.2710    -70.6664     10.7255    108.3559
  1398.7500    824.9179     10.2200    -70.8899     10.6563    107.3158
  1399.0000    824.7263     10.1349    -71.2969     10.5648    106.1389
  1399.2500    823.4738      9.9707    -71.8577     10.4671    105.6465
  1399.5000    820.9929      9.7188    -72.5251     10.3627    105.1761
  1399.7500    817.5245      9.4012    -73.2553     10.2371    104.9202
  1400.0000    813.9136      9.0547    -74.0330     10.0759    104.5920
  1400.2500    811.1558      8.7168    -74.8777      9.8831    104.5792
  1400.5000    809.9340      8.4195    -75.8359      9.6860    105.2088
  1400.7500    810.6730      8.1866    -76.9606      9.5215    105.9923
  1401.0000    813.5302      8.0313    -78.2957      9.4149    107.0476
  1401.2500    817.8098      7.9538    -79.8528      9.3676    107.2273
  1401.5000    821.6743      7.9417    -81.6129      9.3638    106.3293
  1401.7500    823.0919      7.9757    -83.5170      9.3870    105.0226
  1402.0000    821.4616      8.0347    -85.4751      9.4289    102.6893
  1402.2500    818.2166      8.1006    -87.3566      9.4855    101.6124
  1402.5000    815.5565      8.1595    -88.9959      9.5468    102.0416
  1402.7500    814.5703      8.2034    -90.2083      9.5957    103.9893
  1403.0000    814.7141      8.2319    -90.8198      9.6138    108.5140
  1403.2500    814.7734      8.2531    -90.7127      9.5861    111.5146
  1403.5000    813.9185      8.2788    -89.8728      9.5048    114.2072
  1403.7500    812.1141      8.3191    -88.4108      9.3759    114.2675
  1404.0000    810.0907      8.3749    -86.5633      9.2257    112.0608
  1404.2500    808.9611      8.4352    -84.6459      9.0967    109.8287
  1404.5000    809.4913      8.4813    -82.9863      9.0308    106.8081
  1404.7500    811.5957      8.4972    -81.8488      9.0499    105.4134
  1405.0000    814.4184      8.4801    -81.3742      9.1440    104.0315
  1405.2500    816.7276      8.4452    -81.5581      9.2722    103.4125
  1405.5000    817.4575      8.4234    -82.2565      9.3805    103.1971
  1405.7500    816.2905      8.4537    -83.2372      9.4303    103.6902
  1406.0000    813.8375      8.5709    -84.2456      9.4194    104.8121
  1406.2500    811.3193      8.7896    -85.0650      9.3786    105.2057
  1406.5000    810.0413      9.0911    -85.5608      9.3503    104.9593
  1406.7500    810.7076      9.4254    -85.6983      9.3687    104.6387
  1407.0000    812.7681      9.7295    -85.5326      9.4476    104.7239
  1407.2500    814.5251      9.9547    -85.1730      9.5763    105.3757
  1407.5000    814.4059     10.0877    -84.7547      9.7224    107.4184
  1407.7500    812.4435     10.1543    -84.4127      9.8465    109.3966
  1408.0000    810.4598     10.2054    -84.2625      9.9237    112.2445
  1408.2500    810.5574     10.2901    -84.3865      9.9575    113.1624
  1408.5000    813.1990     10.4295    -84.8195      9.9746    112.5258
  1408.7500    816.7363     10.6078    -85.5290     10.0077    111.4118
  1409.0000    819.0316     10.7872    -86.4140     10.0846    110.3601
  1409.2500    819.6191     10.9385    -87.3189     10.2284    110.5119
  1409.5000    819.9156     11.0656    -88.0715     10.4645    111.6726
  1409.7500    821.1028     11.2074    -88.5359     10.8207    112.7491
  1410.0000    822.4742     11.4218    -88.6580     11.3196    114.7438
  1410.2500    822.5696     11.7683    -88.4677     11.9633    116.3168
  1410.5000    821.3842     12.3062    -88.0625     12.7181    118.3019
  1410.7500    820.4149     13.1122    -87.5501     13.5121    118.5616
  1411.0000    820.6188     14.3032    -86.9922     14.2600    116.2320
  1411.2500    821.3876     16.0429    -86.3816     14.9112    112.7323
  1411.5000    821.9407     18.5168    -85.6465     15.4816    105.0090
  1411.7500    822.9146     21.8736    -84.6950     16.0368     98.5368
  1412.0000    825.6636     26.1402    -83.4640     16.6466     87.2726
  1412.2500    829.9479     31.1358    -81.9538     17.3594     79.0910
  1412.5000    833.0930     36.4314    -80.2360     18.2070     67.0663
  1412.7500    832.1603     41.3995    -78.4218     19.2042     60.1761
  1413.0000    827.0027     45.3570    -76.6175     20.3139     52.5930
  1413.2500    820.6681     47.7424    -74.8829     21.3878     49.3075
  1413.5000    816.6841     48.2501    -73.2131     22.1547     46.1610
  1413.7500    816.3752     46.8803    -71.5504     22.3256     44.8075
  1414.0000    818.6160     43.9125    -69.8144     21.7771     43.8747
  1414.2500    821.2690     39.8297    -67.9522     20.6380     44.4538
  1414.5000    822.7488     35.2138    -65.9709     19.1901     48.3732
  1414.7500    823.0847     30.6273    -63.9595     17.7009     53.6232
  1415.0000    823.7745     26.5072    -62.0785     16.3379     65.5038
  1415.2500    826.0257     23.1028    -60.5294     15.1696     75.3435
  1415.5000    828.9980     20.4763    -59.5113     14.2008     90.6947
  1415.7500    830.3316     18.5533    -59.1795     13.4033     99.8628
  1416.0000    828.6116     17.1929    -59.6093     12.7390    110.0917
  1416.2500    824.8806     16.2433    -60.7880     12.1765    114.0844
  1416.5000    821.4678     15.5704    -62.6164     11.7011    116.3521
  1416.7500    819.6790     15.0653    -64.9308     11.3137    116.2306
  1417.0000    818.9312     14.6456    -67.5299     11.0213    115.0724
  1417.2500    817.6967     14.2555    -70.2006     10.8280    114.2442
  1417.5000    814.8796     13.8654    -72.7379     10.7316    113.5718
  1417.7500    810.6758     13.4663    -74.9650     10.7250    113.6370
  1418.0000    806.5131     13.0630    -76.7362     10.7951    114.0423
  1418.2500    803.8529     12.6738    -77.9508     10.9172    114.0030
  1418.5000    802.8849     12.3407    -78.5571     11.0535    112.9684
  1418.7500    802.8442     12.1390    -78.5537     11.1634    111.7007
  1419.0000    803.4361     12.1671    -77.9926     11.2274    109.1512
  1419.2500    805.1797     12.5110    -76.9764     11.2648    106.9458
  1419.5000    808.3828     13.1985    -75.6447     11.3263    102.6722
  1419.7500    812.4744     14.1722    -74.1599     11.4651     99.3080
  1420.0000    816.4005     15.2984    -72.6802     11.7063     94.1768
  1420.2500    819.2408     16.4106    -71.3371     12.0344     91.1239
  1420.5000    820.4498     17.3636    -70.2073     12.4017     87.5049
  1420.7500    819.9377     18.0709    -69.3050     12.7539     85.8062
  1421.0000    818.2068     18.5153    -68.5842     13.0571     84.4264
  1421.2500    816.2996     18.7338    -67.9597     13.3085     84.3835
  1421.5000    815.3454     18.7914    -67.3353     13.5290     85.6531
  1421.7500    815.9734     18.7542    -66.6300     13.7468     87.1489
