~Version Information
VERS.                      2.0: CWLS Log ASCII Standard - VERSION 2.0
WRAP.                       NO: One line per depth step
~Well Information Block
STRT.FT               483.0000: 
STOP.FT              1702.5000: 
STEP.FT                 0.2500: 
NULL.                -999.2500: 
COMP.          Pioneer Natural Resources: COMPANY
WELL.            Mad Dog 42-31: WELL
FLD.           Purgatorie River: FIELD
LOC.           2064' FNL & 479' FEL: LOCATION
PROV.                 Colorado: PROVINCE
CNTY.               Las Animas: COUNTRY
SRVC.                         : SERVICE COMPANY
DATE.          Sun Oct 10 04:26:24 2004: LOG DATE
UWI.           05 071 08195 00: UNIQUE WELL ID
~Curve Information Block
DEPT.FT            0 000 00 00: Depth
LTEN.lb                       : Surface Line Tension
SN.Ohm-m                      : IEL Short Normal
SP.mV                         : IEL Spontaneous Potential
DIR.Ohm-m                     : IEL Induction Resistivity
GR.GAPI                       : Gamma Ray
~Parameter Information Block
~A  Depth       LTEN         SN          SP         DIR          GR     
# ...
  1603.0000    841.4827     18.2009     16.4671     16.5167     96.3608
  1603.2500    840.1827     17.8497     16.1251     16.2790    101.1854
  1603.5000    841.5012     17.5143     15.7424     16.2147    107.7663
  1603.7500    845.8606     17.2292     15.3319     16.2593    110.5634
  1604.0000    851.5466     17.0386     14.9026     16.3318    111.9763
  1604.2500    855.4865     16.9758     14.4746     16.3718    111.6384
  1604.5000    855.2336     17.0415     14.0902     16.3575    110.6871
  1604.7500    850.5877     17.1980     13.8249     16.2959    110.4419
  1605.0000    843.7631     17.3825     13.7834     16.2046    111.1969
  1605.2500    837.9517     17.5329     14.0830     16.1077    112.3857
  1605.5000    835.2849     17.6138     14.8219     16.0418    114.6169
  1605.7500    835.8917     17.6307     16.0468     16.0548    116.0298
  1606.0000    838.5847     17.6302     17.7176     16.1887    117.6958
  1606.2500    841.8544     17.6821     19.7084     16.4603    118.3781
  1606.5000    844.0881     17.8506     21.8205     16.8503    118.3088
  1606.7500    843.8398     18.1682     23.8198     17.3097    117.2151
  1607.0000    841.0458     18.6247     25.4861     17.7765    113.8087
  1607.2500    837.7919     19.1774     26.6563     18.1980    110.5532
  1607.5000    836.8255     19.7756     27.2486     18.5478    104.9544
  1607.7500    838.9091     20.3862     27.2634     18.8270    101.3982
  1608.0000    842.0385     21.0028     26.7724     19.0555     97.5862
  1608.2500    843.4702     21.6334     25.8905     19.2639     96.5986
  1608.5000    842.3083     22.2770     24.7534     19.4937     97.5463
  1608.7500    840.0255     22.9097     23.4970     19.7958     99.4032
  1609.0000    838.7565     23.4939     22.2469     20.2131    103.2416
  1609.2500    839.3927     23.9999     21.1114     20.7538    106.3276
  1609.5000    841.0321     24.4224     20.1699     21.3760    111.7514
  1609.7500    841.7784     24.7777     19.4662     22.0060    115.6701
  1610.0000    840.4352     25.0923     19.0054     22.5813    121.0115
  1610.2500    838.0504     25.3904     18.7552     23.0768    123.7241
  1610.5000    837.4471     25.6867     18.6616     23.4922    126.5039
  1610.7500    840.6401     25.9803     18.6597     23.8264    127.6875
  1611.0000    846.7501     26.2524     18.6949     24.0755    128.1344
  1611.2500    852.6174     26.4737     18.7277     24.2516    127.0420
  1611.5000    855.3654     26.6204     18.7368     24.3890    123.0644
  1611.7500    854.3080     26.6891     18.7166     24.5339    119.4106
  1612.0000    850.6887     26.6999     18.6729     24.7267    114.1335
  1612.2500    846.2479     26.6849     18.6336     24.9919    111.7962
  1612.5000    842.2885     26.6700     18.6485     25.3193    111.3908
  1612.7500    839.4037     26.6609     18.7934     25.6467    113.3347
  1613.0000    837.4356     26.6452     19.1535     25.8718    118.2759
  1613.2500    836.1015     26.6120     19.7957     25.9161    121.4481
  1613.5000    836.1041     26.5738     20.7374     25.8035    123.6600
  1613.7500    839.0140     26.5741     21.9163     25.6552    123.0766
  1614.0000    845.3294     26.6650     23.1933     25.5962    120.9225
  1614.2500    852.8726     26.8701     24.3750     25.6573    120.3686
  1614.5000    857.8629     27.1593     25.2566     25.7583    122.5810
  1614.7500    858.0058     27.4599     25.6738     25.7821    125.6592
  1615.0000    854.4802     27.6970     25.5445     25.6706    130.3730
  1615.2500    850.7589     27.8323     24.8813     25.4618    132.2908
  1615.5000    849.4395     27.8768     23.7850     25.2521    132.3588
  1615.7500    850.1169     27.8727     22.4098     25.1296    130.7276
  1616.0000    850.1603     27.8647     20.9212     25.1267    126.8640
  1616.2500    847.4597     27.8779     19.4599     25.2001    124.0391
  1616.5000    842.4623     27.9100     18.1234     25.2469    120.2142
  1616.7500    837.7676     27.9363     16.9622     25.1700    118.1231
  1617.0000    836.0257     27.9206     15.9914     24.9608    115.9447
  1617.2500    838.1729     27.8309     15.2054     24.7320    115.5568
  1617.5000    843.0671     27.6566     14.5872     24.6569    117.6037
  1617.7500    848.2777     27.4229     14.1121     24.8667    120.8531
  1618.0000    851.5812     27.1942     13.7399     25.3750    126.9294
  1618.2500    852.3429     27.0562     13.4146     26.0641    130.1552
  1618.5000    851.3772     27.0837     13.0662     26.7437    131.8931
  1618.7500    849.4251     27.3115     12.6237     27.2598    130.9960
  1619.0000    846.5656     27.7299     12.0383     27.5776    127.2474
  1619.2500    843.4191     28.3008     11.2936     27.7499    123.0693
  1619.5000    841.7668     28.9762     10.4110     27.8173    113.8552
  1619.7500    843.0038     29.7004      9.4427     27.7504    106.2851
  1620.0000    846.5500     30.4019      8.4566     27.4864     95.2785
  1620.2500    850.5733     30.9924      7.5288     27.0186     89.6270
  1620.5000    853.8718     31.3816      6.7282     26.4449     84.8133
  1620.7500    856.4328     31.5036      6.1165     25.9268     83.9325
  1621.0000    858.3977     31.3371      5.7391     25.6088     85.1089
  1621.2500    859.3239     30.9112      5.6165     25.5619     86.8960
  1621.5000    858.8820     30.2936      5.7247     25.7793     90.7972
  1621.7500    857.7139     29.5701      5.9940     26.2049     94.7112
  1622.0000    856.7738     28.8246      6.3199     26.7606    103.1116
  1622.2500    855.9401     28.1275      6.5841     27.3514    109.5740
  1622.5000    854.2695     27.5347      6.7020     27.8564    117.5157
  1622.7500    851.9282     27.0918      6.6530     28.1470    120.3051
  1623.0000    850.7856     26.8371      6.4968     28.1471    120.9827
  1623.2500    852.2729     26.7948      6.3631     27.8876    120.1782
  1623.5000    855.4485     26.9638      6.4138     27.4888    118.4019
  1623.7500    858.0512     27.3089      6.7942     27.0816    116.9951
  1624.0000    858.8950     27.7630      7.5964     26.7373    114.6654
  1624.2500    858.3257     28.2397      8.8317     26.4475    113.1132
  1624.5000    856.7677     28.6529     10.4271     26.1560    110.7467
  1624.7500    853.8947     28.9356     12.2377     25.8122    109.0772
  1625.0000    849.2748     29.0540     14.0828     25.4136    107.0537
  1625.2500    843.3273     29.0101     15.7759     25.0092    106.7527
  1625.5000    837.4167     28.8344     17.1712     24.6636    108.6752
  1625.7500    833.0227     28.5705     18.1920     24.4207    111.3779
  1626.0000    830.9051     28.2596     18.8544     24.2880    116.3416
  1626.2500    831.0870     27.9301     19.2545     24.2395    119.2554
  1626.5000    833.2357     27.5977     19.5414     24.2223    121.5513
  1626.7500    836.7087     27.2703     19.8700     24.1682    121.3947
  1627.0000    840.6068     26.9551     20.3522     24.0250    119.2668
  1627.2500    844.3044     26.6603     21.0186     23.7885    117.3446
  1627.5000    847.7368     26.3972     21.8123     23.5085    115.0140
  1627.7500    850.8293     26.1801     22.6068     23.2540    114.4217
  1628.0000    852.9344     26.0266     23.2461     23.0673    115.4594
  1628.2500    853.2673     25.9550     23.5901     22.9443    117.1983
  1628.5000    851.8288     25.9797     23.5537     22.8482    119.8940
  1628.7500    849.5460     26.1077     23.1221     22.7481    120.5315
  1629.0000    847.5735     26.3314     22.3451     22.6541    118.0004
  1629.2500    846.8605     26.6224     21.3124     22.6209    113.5923
  1629.5000    848.1306     26.9286     20.1242     22.7091    103.7555
  1629.7500    851.3396     27.1852     18.8729     22.9340     96.3787
  1630.0000    854.9105     27.3364     17.6240     23.2403     86.7579
  1630.2500    856.3624     27.3539     16.4230     23.5198     82.3557
  1630.5000    854.3619     27.2380     15.3035     23.6615     79.2247
  1630.7500    850.0428     27.0037     14.2966     23.5956     79.1288
