~Version Information
VERS.                      2.0: CWLS Log ASCII Standard - VERSION 2.0
WRAP.                       NO: One line per depth step
~Well Information Block
STRT.FT               860.0000: 
STOP.FT              2733.7500: 
STEP.FT                 0.2500: 
NULL.                -999.2500: 
COMP.          Pioneer Natural Resources: COMPANY
WELL.          Beacon 11-18 Tr: WELL
FLD.           Purgatoire River: FIELD
LOC.           409' FNL & 203' FWL: LOCATION
PROV.                 Colorado: PROVINCE
CNTY.               Las Animas: COUNTRY
SRVC.                Patterson: SERVICE COMPANY
DATE.          Sun Jan 16 19:36:19 2005: LOG DATE
UWI.           05 071 08251 00: UNIQUE WELL ID
~Curve Information Block
DEPT.FT            0 000 00 00: Depth
SN.Ohm-m                      : IEL Short Normal
SP.mV                         : IEL Spontaneous Potential
DIR.Ohm-m                     : IEL Induction Resistivity
GR.GAPI                       : Gamma Ray
~Parameter Information Block
~A  Depth        SN          SP         DIR          GR     
# ...
  1597.0000   2000.0000   2000.0000     14.0921    107.7421
  1597.2500   2000.0000   2000.0000     14.1824    104.5796
  1597.5000   2000.0000   2000.0000     14.2302    100.8853
  1597.7500   2000.0000   2000.0000     14.2292     99.7779
  1598.0000   2000.0000   2000.0000     14.1803    100.1790
  1598.2500   2000.0000   2000.0000     14.0901    101.7407
  1598.5000   2000.0000   2000.0000     13.9666    105.8551
  1598.7500   2000.0000   2000.0000     13.8156    109.4716
  1599.0000   2000.0000   2000.0000     13.6392    115.3397
  1599.2500   2000.0000   2000.0000     13.4401    119.0696
  1599.5000   2000.0000   2000.0000     13.2255    123.8139
  1599.7500   2000.0000   2000.0000     13.0059    126.1210
  1600.0000   2000.0000   2000.0000     12.7894    127.7263
  1600.2500   2000.0000   2000.0000     12.5739    127.1844
  1600.5000   2000.0000   2000.0000     12.3466    123.5027
  1600.7500   2000.0000   2000.0000     12.0911    119.4069
  1601.0000   2000.0000   2000.0000     11.8016    112.9369
  1601.2500   2000.0000   2000.0000     11.4907    110.2358
  1601.5000   2000.0000   2000.0000     11.1847    110.4630
  1601.7500   2000.0000   2000.0000     10.9080    113.0083
  1602.0000   2000.0000   2000.0000     10.6696    118.0224
  1602.2500   2000.0000   2000.0000     10.4616    121.0041
  1602.5000   2000.0000   2000.0000     10.2673    124.2107
  1602.7500   2000.0000   2000.0000     10.0740    125.4482
  1603.0000   2000.0000   2000.0000      9.8805    125.7846
  1603.2500   2000.0000   2000.0000      9.6953    124.9306
  1603.5000   2000.0000   2000.0000      9.5296    122.6326
  1603.7500   2000.0000   2000.0000      9.3916    121.3414
  1604.0000   2000.0000   2000.0000      9.2847    121.5046
  1604.2500   2000.0000   2000.0000      9.2072    123.3053
  1604.5000   2000.0000   2000.0000      9.1516    127.2096
  1604.7500   2000.0000   2000.0000      9.1050    129.4236
  1605.0000   2000.0000   2000.0000      9.0495    131.1415
  1605.2500   2000.0000   2000.0000      8.9670    131.4057
  1605.5000   2000.0000   2000.0000      8.8466    131.1842
  1605.7500   2000.0000   2000.0000      8.6907    130.8714
  1606.0000   2000.0000   2000.0000      8.5162    130.4588
  1606.2500   2000.0000   2000.0000      8.3466    130.3974
  1606.5000   2000.0000   2000.0000      8.2008    130.5754
  1606.7500   2000.0000   2000.0000      8.0859    130.5989
  1607.0000   2000.0000   2000.0000      7.9991    130.1273
  1607.2500   2000.0000   2000.0000      7.9334    129.5040
  1607.5000   2000.0000   2000.0000      7.8836    128.2558
  1607.7500   2000.0000   2000.0000      7.8473    127.1492
  1608.0000   2000.0000   2000.0000      7.8243    124.8009
  1608.2500   2000.0000   2000.0000      7.8139    122.7466
  1608.5000   2000.0000   2000.0000      7.8141    119.4141
  1608.7500   2000.0000   2000.0000      7.8226    117.6220
  1609.0000   2000.0000   2000.0000      7.8376    116.6172
  1609.2500   2000.0000   2000.0000      7.8583    117.2228
  1609.5000   2000.0000   2000.0000      7.8845    119.2360
  1609.7500   2000.0000   2000.0000      7.9147    120.6236
  1610.0000   2000.0000   2000.0000      7.9457    122.1429
  1610.2500   2000.0000   2000.0000      7.9722    122.7676
  1610.5000   2000.0000   2000.0000      7.9882    123.1030
  1610.7500   2000.0000   2000.0000      7.9892    122.7757
  1611.0000   2000.0000   2000.0000      7.9737    121.4159
  1611.2500   2000.0000   2000.0000      7.9456    120.3135
  1611.5000   2000.0000   2000.0000      7.9140    119.5401
  1611.7500   2000.0000   2000.0000      7.8929    120.1080
  1612.0000   2000.0000   2000.0000      7.8979    122.3697
  1612.2500   2000.0000   2000.0000      7.9423    124.1438
  1612.5000   2000.0000   2000.0000      8.0346    125.8384
  1612.7500   2000.0000   2000.0000      8.1775    125.5772
  1613.0000   2000.0000   2000.0000      8.3697    121.8643
  1613.2500   2000.0000   2000.0000      8.6085    116.8032
  1613.5000   2000.0000   2000.0000      8.8899    106.2630
  1613.7500   2000.0000   2000.0000      9.2072     98.6393
  1614.0000   2000.0000   2000.0000      9.5475     88.6275
  1614.2500   2000.0000   2000.0000      9.8911     83.6594
  1614.5000   2000.0000   2000.0000     10.2131     79.2347
  1614.7500   2000.0000   2000.0000     10.4865     78.4431
  1615.0000   2000.0000   2000.0000     10.6853     80.6005
  1615.2500   2000.0000   2000.0000     10.7867     84.1026
  1615.5000   2000.0000   2000.0000     10.7764     91.7846
  1615.7500   2000.0000   2000.0000     10.6541     98.0824
  1616.0000   2000.0000   2000.0000     10.4369    108.4213
  1616.2500   2000.0000   2000.0000     10.1551    115.1507
  1616.5000   2000.0000   2000.0000      9.8451    123.3504
  1616.7500   2000.0000   2000.0000      9.5429    126.8108
  1617.0000   2000.0000   2000.0000      9.2800    128.8302
  1617.2500   2000.0000   2000.0000      9.0814    128.5826
  1617.5000   2000.0000   2000.0000      8.9643    126.9946
  1617.7500   2000.0000   2000.0000      8.9363    125.5647
  1618.0000   2000.0000   2000.0000      8.9950    122.9613
  1618.2500   2000.0000   2000.0000      9.1302    120.7270
  1618.5000   2000.0000   2000.0000      9.3278    116.2947
  1618.7500   2000.0000   2000.0000      9.5750    112.5678
  1619.0000   2000.0000   2000.0000      9.8628    106.0961
  1619.2500   2000.0000   2000.0000     10.1852    101.6714
  1619.5000   2000.0000   2000.0000     10.5346     96.2135
  1619.7500   2000.0000   2000.0000     10.8980     94.0624
  1620.0000   2000.0000   2000.0000     11.2554     93.1756
  1620.2500   2000.0000   2000.0000     11.5826     93.5896
  1620.5000   2000.0000   2000.0000     11.8578     94.6739
  1620.7500   2000.0000   2000.0000     12.0667     95.3755
  1621.0000   2000.0000   2000.0000     12.2059     96.1876
  1621.2500   2000.0000   2000.0000     12.2798     96.5705
  1621.5000   2000.0000   2000.0000     12.2979     97.1053
  1621.7500   2000.0000   2000.0000     12.2735     97.5367
  1622.0000   2000.0000   2000.0000     12.2221     98.2552
  1622.2500   2000.0000   2000.0000     12.1552     98.7620
  1622.5000   2000.0000   2000.0000     12.0716     99.8741
  1622.7500   2000.0000   2000.0000     11.9558    101.1679
  1623.0000   2000.0000   2000.0000     11.7885    104.2430
  1623.2500   2000.0000   2000.0000     11.5631    106.9960
  1623.5000   2000.0000   2000.0000     11.2933    111.9872
  1623.7500   2000.0000   2000.0000     11.0049    115.7237
  1624.0000   2000.0000   2000.0000     10.7223    121.0953
  1624.2500   2000.0000   2000.0000     10.4590    123.6941
  1624.5000   2000.0000   2000.0000     10.2176    125.0641
  1624.7500   2000.0000   2000.0000      9.9953    124.3349
  1625.0000   2000.0000   2000.0000      9.7884    121.7990
  1625.2500   2000.0000   2000.0000      9.5951    119.9253
  1625.5000   2000.0000   2000.0000      9.4157    118.0198
  1625.7500   2000.0000   2000.0000      9.2525    117.7923
  1626.0000   2000.0000   2000.0000      9.1080    119.0182
  1626.2500   2000.0000   2000.0000      8.9836    120.4394
  1626.5000   2000.0000   2000.0000      8.8779    122.5034
  1626.7500   2000.0000   2000.0000      8.7879    123.5139
  1627.0000   2000.0000   2000.0000      8.7124    124.4441
  1627.2500   2000.0000   2000.0000      8.6539    124.7299
  1627.5000   2000.0000   2000.0000      8.6173    124.7460
  1627.7500   2000.0000   2000.0000      8.6057    124.6185
  1628.0000   2000.0000   2000.0000      8.6186    124.3333
  1628.2500   2000.0000   2000.0000      8.6532    123.8516
  1628.5000   2000.0000   2000.0000      8.7073    122.2052
  1628.7500   2000.0000   2000.0000      8.7817    120.5978
  1629.0000   2000.0000   2000.0000      8.8793    118.2693
  1629.2500   2000.0000   2000.0000      9.0012    117.2513
  1629.5000   2000.0000   2000.0000      9.1435    116.7371
  1629.7500   2000.0000   2000.0000      9.2963    116.7794
  1630.0000   2000.0000   2000.0000      9.4454    116.6130
  1630.2500   2000.0000   2000.0000      9.5764    116.0692
