~Version Information
VERS.                      2.0: CWLS Log ASCII Standard - VERSION 2.0
WRAP.                       NO: One line per depth step
~Well Information Block
STRT.FT               750.3000: 
STOP.FT              1254.0000: 
STEP.FT                 0.1000: 
NULL.                -999.2500: 
COMP.          Petrogulf Corporation: COMPANY
WELL.           Montoya 13-41V: WELL
FLD.           Purgatorie River: FIELD
LOC.           449' FNL & 891' FEL: LOCATION
CNTY.               Las Animas: COUNTY
SRVC.                         : SERVICE COMPANY
DATE.          Tue Aug 17 15:47:43 2004: LOG DATE
UWI.           05 071 08021 00: UNIQUE WELL ID
STAT.                 Colorado: STATE
~Curve Information Block
DEPT.FT            0 000 00 00: Depth
DCAL.in                       : CDL Caliper
RHOB.g/cc                     : CDL Bulk Density
RHOC.g/cc                     : CDL Density Correction
DPOR.pu                       : CDL Density Porosity
GR.GAPI                       : Gamma Ray
NPOR.pu                       : Neutron Porosity
~Parameter Information Block
~A  Depth       DCAL        RHOB        RHOC        DPOR         GR         NPOR    
# ...
   865.5000      8.1986      2.5002      0.0386      9.0804    101.3999     21.8682
   865.6000      8.1986      2.4795      0.0223     10.3340     96.9714     21.3183
   865.7000      8.1986      2.4669     -0.0204     11.0964    102.7524     20.5342
   865.8000      8.1972      2.4676     -0.0003     11.0525    114.0504     19.8111
   865.9000      8.1972      2.4567      0.0417     11.7182    122.6513     19.4490
   866.0000      8.1974      2.4229      0.0056     13.7634    124.0359     19.4312
   866.1000      8.1974      2.3955      0.0016     15.4236    118.8829     19.4912
   866.2000      8.1974      2.3957      0.0552     15.4117    111.9339     19.4227
   866.3000      8.2004      2.4097      0.0884     14.5621    109.8411     19.3385
   866.4000      8.2004      2.4124      0.1282     14.3991    113.5192     19.5371
   866.5000      8.2093      2.3944      0.1443     15.4931    118.4064     20.1211
   866.6000      8.2093      2.3704      0.1494     16.9453    120.9890     20.7639
   866.7000      8.2093      2.3576      0.1687     17.7183    121.5866     21.2322
   866.8000      8.2303      2.3592      0.1798     17.6230    125.7257     21.6908
   866.9000      8.2303      2.3753      0.1803     16.6485    134.5224     22.1823
   867.0000      8.2359      2.3999      0.2275     15.1587    141.2901     22.5349
   867.1000      8.2359      2.4200      0.1742     13.9376    140.5261     22.9335
   867.2000      8.2359      2.4383      0.1788     12.8299    136.8431     23.6452
   867.3000      8.2411      2.4666      0.1675     11.1151    133.7811     24.4615
   867.4000      8.2411      2.5017      0.1621      8.9897    128.1596     24.9638
   867.5000      8.2423      2.5294      0.1721      7.3117    123.6318     25.0513
   867.6000      8.2423      2.5446      0.1519      6.3886    123.9517     25.0175
   867.7000      8.2423      2.5474      0.1518      6.2190    128.0792     25.0229
   867.8000      8.2454      2.5360      0.1145      6.9100    135.6832     24.8293
   867.9000      8.2454      2.5173      0.0949      8.0435    143.8797     24.3130
   868.0000      8.2735      2.5040      0.0893      8.8485    148.0105     23.7129
   868.1000      8.2735      2.5005      0.0990      9.0630    145.7214     23.2038
   868.2000      8.2735      2.4970      0.0896      9.2706    140.3428     22.7575
   868.3000      8.2421      2.4810      0.0724     10.2438    138.3378     22.4404
   868.4000      8.2421      2.4535      0.0540     11.9080    138.5120     22.4986
   868.5000      8.2397      2.4275      0.0307     13.4868    134.0290     23.0020
   868.6000      8.2397      2.4149      0.0198     14.2475    124.0933     23.6565
   868.7000      8.2397      2.4246      0.0106     13.6597    115.5070     23.9643
   868.8000      8.2442      2.4537      0.0425     11.8964    115.4151     23.8625
   868.9000      8.2442      2.4901      0.0484      9.6888    121.1997     23.9291
   869.0000      8.2493      2.5248      0.1265      7.5866    125.9554     24.4139
   869.1000      8.2493      2.5523      0.1365      5.9209    128.8339     24.8862
   869.2000      8.2493      2.5753      0.1587      4.5268    129.9898     25.0101
   869.3000      8.2810      2.5976      0.1860      3.1730    128.1300     25.0200
   869.4000      8.2810      2.6102      0.1471      2.4148    123.8057     25.1824
   869.5000      8.2349      2.6046      0.1257      2.7536    118.2668     25.4708
   869.6000      8.2349      2.5933      0.0908      3.4334    112.2994     25.6070
   869.7000      8.2349      2.5935      0.0934      3.4233    108.3994     25.4271
   869.8000      8.2240      2.5959      0.1097      3.2768    108.7960     25.1318
   869.9000      8.2240      2.5850      0.0370      3.9406    107.6441     24.9110
   870.0000      8.1999      2.5675      0.0474      4.9997     97.7065     24.7321
   870.1000      8.1999      2.5561      0.0084      5.6893     83.6646     24.4574
   870.2000      8.1999      2.5538      0.0281      5.8276     74.7110     23.9637
   870.3000      8.1938      2.5494      0.0670      6.0958     73.9903     23.3028
   870.4000      8.1938      2.5329      0.0314      7.0986     79.7336     22.7909
   870.5000      8.1943      2.5143     -0.0024      8.2250     87.8596     22.5881
   870.6000      8.1943      2.5064     -0.0075      8.7022     92.4930     22.4351
   870.7000      8.1943      2.5057      0.0193      8.7456     89.5448     22.1989
   870.8000      8.1955      2.5049     -0.0098      8.7910     85.1792     21.8024
   870.9000      8.1955      2.5041     -0.0074      8.8422     83.3240     21.0825
   871.0000      8.1952      2.4950      0.0346      9.3948     79.1022     20.3007
   871.1000      8.1952      2.4771     -0.0087     10.4813     72.3261     19.8123
   871.2000      8.1952      2.4710     -0.0180     10.8477     65.5930     19.4228
   871.3000      8.1953      2.4777      0.0124     10.4403     58.3726     18.7622
   871.4000      8.1953      2.4807     -0.0126     10.2622     52.3556     18.1095
   871.5000      8.1964      2.4841     -0.0163     10.0556     51.0125     18.1406
   871.6000      8.1964      2.4960      0.0370      9.3307     53.6705     18.8042
   871.7000      8.1964      2.5109      0.0447      8.4285     56.2511     19.2214
   871.8000      8.1965      2.5241      0.0340      7.6322     56.8242     18.9881
   871.9000      8.1965      2.5316      0.0768      7.1729     56.7516     18.5343
   872.0000      8.1949      2.5335      0.0162      7.0635     58.1025     18.2142
   872.1000      8.1949      2.5361      0.0470      6.9008     60.1150     18.0750
   872.2000      8.1949      2.5376      0.0690      6.8093     60.6639     18.0434
   872.3000      8.1854      2.5361      0.0501      6.9056     64.7274     17.8922
   872.4000      8.1854      2.5385      0.0654      6.7547     60.3308     17.3830
   872.5000      8.1792      2.5487      0.0527      6.1418     57.4201     16.7238
   872.6000      8.1792      2.5593      0.1131      5.4965     57.2304     16.1822
   872.7000      8.1792      2.5594      0.1614      5.4896     56.1250     15.8303
   872.8000      8.1563      2.5479      0.1486      6.1860     54.6768     15.7046
   872.9000      8.1563      2.5294      0.1383      7.3121     57.2043     15.7029
   873.0000      8.1544      2.5079      0.1024      8.6128     62.6508     15.8364
   873.1000      8.1544      2.4994      0.0954      9.1301     65.8512     16.1580
   873.2000      8.1544      2.5152      0.1316      8.1669     65.8889     16.4205
   873.3000      8.1575      2.5452      0.1478      6.3544     65.3695     16.4717
   873.4000      8.1575      2.5713      0.1535      4.7670     66.6723     16.3678
   873.5000      8.1991      2.5817      0.1673      4.1366     69.4862     16.1515
   873.6000      8.1991      2.5771      0.1400      4.4178     71.4361     15.8945
   873.7000      8.1991      2.5684      0.1271      4.9433     69.7807     15.7147
   873.8000      8.2329      2.5622      0.1136      5.3225     64.5987     15.8907
   873.9000      8.2329      2.5580      0.1142      5.5773     60.5676     16.4376
   874.0000      8.2357      2.5535      0.0625      5.8461     61.1275     16.7675
   874.1000      8.2357      2.5489      0.0381      6.1275     62.6732     16.6636
   874.2000      8.2357      2.5410      0.0688      6.6067     59.8164     16.5236
   874.3000      8.2325      2.5206      0.0662      7.8417     58.9959     16.5417
   874.4000      8.2325      2.4920      0.0235      9.5772     56.0754     16.7206
   874.5000      8.2314      2.4737      0.0089     10.6871     57.7830     17.0104
   874.6000      8.2314      2.4771      0.0082     10.4778     61.7110     17.2778
   874.7000      8.2314      2.4953      0.0251      9.3745     66.6183     17.4080
   874.8000      8.2375      2.5076      0.0495      8.6276     71.0448     17.3288
   874.9000      8.2375      2.5021      0.0413      8.9620     73.9384     17.2080
   875.0000      8.2379      2.4882      0.0116      9.8032     73.8977     17.2286
