~Version Information
VERS.                      2.0: CWLS Log ASCII Standard - VERSION 2.0
WRAP.                       NO: One line per depth step
~Well Information Block
STRT.FT                 0.0000: 
STOP.FT              2159.0000: 
STEP.FT                 0.2500: 
NULL.                -999.2500: 
COMP.          Petrogulf Corporation: COMPANY
WELL.               Furu 6-23R: WELL
FLD.           Purgatoire River: FIELD
LOC.           2211' FSL & 1780' FWL: LOCATION
CNTY.               Las Animas: COUNTY
SRVC.                         : SERVICE COMPANY
DATE.          Fri Jul 14 16:00:32 2006: LOG DATE
UWI.           05 071 08266 00: UNIQUE WELL ID
STAT.                       CO: STATE
~Curve Information Block
DEPT.FT            0 000 00 00: Depth
GR.GAPI                       : Gamma Ray
CCL.                          : Casing Collar Locator
TT3.usec                      : CBL 3' Travel Time
AMP3.mV                       : CBL 3' Amplitude
~Parameter Information Block
~A  Depth        GR         CCL         TT3         AMP3    
# ...
  1675.0000     83.4777      0.0000    675.2685      9.2444
  1675.2500     76.7075      0.0000    688.5004      9.0341
  1675.5000     72.9230      0.0000    697.4860      8.9623
  1675.7500     71.5012      0.0000    701.8283      9.0032
  1676.0000     71.5883      0.0000    703.3285      9.1189
  1676.2500     72.3622      0.0000    703.7755      9.2647
  1676.5000     72.9620      0.0000    704.1419      9.3978
  1676.7500     72.8165      0.0000    704.6456      9.4854
  1677.0000     72.1618      0.0000    705.0669      9.5086
  1677.2500     71.8781      0.0000    705.1227      9.4624
  1677.5000     72.8294      0.0000    704.6927      9.3529
  1677.7500     75.5357      0.0000    703.9096      9.1943
  1678.0000     80.0232      0.0000    703.1100      9.0042
  1678.2500     85.3143      0.0000    702.6586      8.7995
  1678.5000     89.1649      0.0000    702.7066      8.5912
  1678.7500     89.1982      0.0000    703.0893      8.3831
  1679.0000     84.9142      0.0000    703.4874      8.1735
  1679.2500     78.4982      0.0000    703.6877      7.9604
  1679.5000     73.4348      0.0000    703.6730      7.7456
  1679.7500     72.1662      0.0000    703.5096      7.5361
  1680.0000     74.7075      0.0000    703.2316      7.3418
  1680.2500     79.1347      0.0000    702.8623      7.1709
  1680.5000     83.3527      0.0000    702.5151      7.0264
  1680.7500     86.2992      0.0000    702.4634      6.9047
  1681.0000     87.4371      0.0000    703.1772      6.7974
  1681.2500     86.0049      0.0000    705.2643      6.6954
  1681.5000     81.7982      0.0000    709.1164      6.5940
  1681.7500     76.2295      0.0000    714.2953      6.4972
  1682.0000     71.5729      0.0000    719.3315      6.4187
  1682.2500     69.2829      0.0000    722.5471      6.3794
  1682.5000     69.3836      0.0000    723.2277      6.4006
  1682.7500     71.0039      0.0000    721.7388      6.4963
  1683.0000     73.1828      0.0000    718.6001      6.6660
  1683.2500     75.5928      0.0000    714.0598      6.8933
  1683.5000     78.8890      0.0000    708.6509      7.1495
  1683.7500     84.3709      0.0000    703.3935      7.4018
  1684.0000     93.2393      0.0000    699.1039      7.6223
  1684.2500    105.8482      0.0000    696.0225      7.7945
  1684.5000    121.0749      0.0000    694.3315      7.9140
  1684.7500    136.1851      0.0000    694.4451      7.9850
  1685.0000    147.8134      0.0000    696.3801      8.0132
  1685.2500    153.6528      0.0000    699.2191      8.0001
  1685.5000    153.5455      0.0000    701.6203      7.9401
  1685.7500    149.4086      0.0000    702.6743      7.8243
  1686.0000    144.1169      0.0000    702.0403      7.6468
  1686.2500    139.6210      0.0000    699.4975      7.4126
  1686.5000    135.4823      0.0000    694.8344      7.1405
  1686.7500    129.3457      0.0000    688.3116      6.8605
  1687.0000    119.0597      0.0000    680.8071      6.6054
  1687.2500    104.5770      0.0000    672.9002      6.4018
  1687.5000     88.1421      0.0000    663.4457      6.2629
  1687.7500     72.8352      0.0000    649.3101      6.1869
  1688.0000     60.8631      0.0000    628.2449      6.1588
  1688.2500     52.8274      0.0000    604.2476      6.1557
  1688.5000     48.1036      0.0000    589.0840      6.1534
  1688.7500     45.6823      0.0000    594.1370      6.1304
  1689.0000     44.8987      0.0000    619.3391      6.0732
  1689.2500     45.6908      0.0000    652.8557      5.9796
  1689.5000     48.2085      0.0000    682.0842      5.8622
  1689.7500     52.0563      0.0000    702.8191      5.7490
  1690.0000     56.0041      0.0000    718.6638      5.6785
  1690.2500     58.6376      0.0000    734.4584      5.6895
  1690.5000     59.2704      0.0000    750.3500      5.8075
  1690.7500     57.9762      0.0000    760.7621      6.0348
  1691.0000     55.0015      0.0000    759.2563      6.3486
  1691.2500     50.8474      0.0000    745.0836      6.7078
  1691.5000     46.8438      0.0000    725.3211      7.0654
  1691.7500     44.6885     -1.6635    711.0916      7.3823
  1692.0000     45.0517     -2.0000    710.9617      7.6376
  1692.2500     47.2196      0.0000    725.4556      7.8346
  1692.5000     50.3823      0.0000    746.6431      7.9972
  1692.7500     54.8843      0.0000    763.9920      8.1571
  1693.0000     62.1641      0.0000    771.4527      8.3349
  1693.2500     73.8630      0.0000    769.4072      8.5250
  1693.5000     90.9065      0.0000    761.7346      8.6961
  1693.7500    112.5706      0.0000    752.7020      8.8069
  1694.0000    135.8504      0.0000    745.5208      8.8266
  1694.2500    156.2425      0.0000    741.3829      8.7468
  1694.5000    170.1028      0.0000    738.9789      8.5805
  1694.7500    176.7136      0.0000    735.4328      8.3529
  1695.0000    178.0548      0.0000    728.0986      8.0934
  1695.2500    176.8622      0.0000    715.4229      7.8310
  1695.5000    175.3709      0.0000    696.1459      7.5921
  1695.7500    175.3170      0.0000    668.5925      7.3969
  1696.0000    177.4974      0.0000    632.6312      7.2554
  1696.2500    180.6883      0.0000    592.9492      7.1652
  1696.5000    182.2281      0.0000    558.6126      7.1138
  1696.7500    180.4841      0.0000    538.2272      7.0844
  1697.0000    176.1655      0.0000    535.9958      7.0618
  1697.2500    170.9323      0.0000    551.2881      7.0367
  1697.5000    165.6483      0.0000    579.1162      7.0069
  1697.7500    160.4535      0.0000    610.9084      6.9764
  1698.0000    155.7663      0.0000    637.8994      6.9518
  1698.2500    152.3454      0.0000    655.8272      6.9391
  1698.5000    150.4705      0.0000    666.2347      6.9412
  1698.7500    149.5242      0.0000    673.4618      6.9559
  1699.0000    148.6592      0.0000    681.0228      6.9762
  1699.2500    148.0535      0.0000    689.9700      6.9916
  1699.5000    149.2896      0.0000    698.9927      6.9911
  1699.7500    153.9183      0.0000    705.5685      6.9674
  1700.0000    161.4294      0.0000    708.0145      6.9201
  1700.2500    168.9342      0.0000    707.1105      6.8574
  1700.5000    173.1149      0.0000    705.3947      6.7932
  1700.7500    172.5408      0.0000    704.8911      6.7430
  1701.0000    168.5303      0.0000    706.0019      6.7175
  1701.2500    164.2060      0.0000    708.2249      6.7184
  1701.5000    162.3546      0.0000    710.9014      6.7388
  1701.7500    163.3331      0.0000    713.1406      6.7671
  1702.0000    165.1915      0.0000    713.9410      6.7934
  1702.2500    166.1928      0.0000    713.0880      6.8135
  1702.5000    166.6951      0.0000    711.7502      6.8307
  1702.7500    168.1347      0.0000    711.7989      6.8539
  1703.0000    170.9871      0.0000    714.3463      6.8939
  1703.2500    174.3689      0.0000    718.4767      6.9616
  1703.5000    177.0176      0.0000    720.8773      7.0657
  1703.7500    177.7607      0.0000    717.1027      7.2116
  1704.0000    175.2397      0.0000    704.7656      7.3989
  1704.2500    168.1617      0.0000    686.8094      7.6192
  1704.5000    156.2740      0.0000    671.2028      7.8559
  1704.7500    140.6461      0.0000    665.5900      8.0872
  1705.0000    122.9470      0.0000    671.2625      8.2918
  1705.2500    104.9865      0.0000    682.8004      8.4554
  1705.5000     88.7677      0.0000    693.4984      8.5751
  1705.7500     76.1424      0.0000    700.3581      8.6590
  1706.0000     68.2090      0.0000    704.5256      8.7208
  1706.2500     65.2510      0.0000    708.8092      8.7719
  1706.5000     67.2234      0.0000    715.2385      8.8151
  1706.7500     74.0245      0.0000    723.7015      8.8433
  1707.0000     85.2571      0.0000    732.1191      8.8430
  1707.2500     99.9130      0.0000    738.4614      8.8002
  1707.5000    116.2611      0.0000    742.9337      8.7064
  1707.7500    131.8258      0.0000    747.5209      8.5618
  1708.0000    144.0052      0.0000    753.1356      8.3764
  1708.2500    151.6250      0.0000    757.6777      8.1687
