~Version Information
VERS.                      2.0: CWLS Log ASCII Standard - VERSION 2.0
WRAP.                       NO: One line per depth step
~Well Information Block
STRT.FT               510.0000: 
STOP.FT              1848.7500: 
STEP.FT                 0.2500: 
NULL.                -999.2500: 
COMP.          Pioneer Natural Resources: COMPANY
WELL.           Stampede 42-18: WELL
FLD.           Purgatoire River: FIELD
LOC.           2479' FNL & 160' FEL--: LOCATION
CNTY.               Las Animas: COUNTY
SRVC.          Superior Well Services: SERVICE COMPANY
DATE.          Sat Jun 09 02:07:27 2007: LOG DATE
UWI.           05 071 08237 00: UNIQUE WELL ID
STAT.                 Colorado: STATE
~Curve Information Block
DEPT.FT            0 000 00 00: Depth
SN.Ohm-m                      : IEL Short Normal
SP.mV                         : IEL Spontaneous Potential
DIR.Ohm-m                     : IEL Induction Resistivity
GR.GAPI                       : Gamma Ray
~Parameter Information Block
~A  Depth        SN          SP         DIR          GR     
# ...
  1113.0000     29.3240    108.9746     23.7644    126.0661
  1113.2500     27.5002    109.1554     22.2736    128.6900
  1113.5000     25.6265    109.3810     20.8790    131.2984
  1113.7500     23.8251    109.6429     19.6225    132.5000
  1114.0000     22.2164    109.9239     18.4941    135.3159
  1114.2500     20.8431    110.2063     17.4763    138.8160
  1114.5000     19.6852    110.4716     16.5659    146.4016
  1114.7500     18.7165    110.7003     15.7730    151.8981
  1115.0000     17.9110    110.8749     15.1091    158.5123
  1115.2500     17.2461    110.9815     14.5792    161.1713
  1115.5000     16.7236    111.0076     14.1783    162.9264
  1115.7500     16.3587    110.9444     13.8910    163.1823
  1116.0000     16.1540    110.7943     13.6937    162.8123
  1116.2500     16.0935    110.5748     13.5607    162.2093
  1116.5000     16.1477    110.3104     13.4731    161.0002
  1116.7500     16.2830    110.0192     13.4237    160.0855
  1117.0000     16.4707    109.7096     13.4159    158.3417
  1117.2500     16.7019    109.3868     13.4571    156.5433
  1117.5000     16.9919    109.0608     13.5539    152.1839
  1117.7500     17.3555    108.7478     13.7131    148.2173
  1118.0000     17.7834    108.4647     13.9443    142.0639
  1118.2500     18.2500    108.2198     14.2573    138.8955
  1118.5000     18.7177    108.0055     14.6535    136.1454
  1118.7500     19.1300    107.7986     15.1176    135.0078
  1119.0000     19.4515    107.5701     15.6196    132.9338
  1119.2500     19.7164    107.2994     16.1289    131.2108
  1119.5000     19.9876    106.9846     16.6329    129.3127
  1119.7500     20.2933    106.6418     17.1438    129.2417
  1120.0000     20.6407    106.2958     17.6875    130.8835
  1120.2500     21.0400    105.9705     18.2827    132.2614
  1120.5000     21.4810    105.6842     18.9254    132.8279
  1120.7500     21.9327    105.4464     19.5881    131.5466
  1121.0000     22.3897    105.2512     20.2321    127.3008
  1121.2500     22.8837    105.0804     20.8227    123.5026
  1121.5000     23.4380    104.9150     21.3355    117.3691
  1121.7500     24.0394    104.7480     21.7579    113.3507
  1122.0000     24.6642    104.5858     22.0928    107.8086
  1122.2500     25.2974    104.4440     22.3683    104.7797
  1122.5000     25.9247    104.3399     22.6400    102.0835
  1122.7500     26.5384    104.2883     22.9788    101.8673
  1123.0000     27.1586    104.2991     23.4476    103.6716
  1123.2500     27.8173    104.3758     24.0777    105.6318
  1123.5000     28.5091    104.5141     24.8537    108.2893
  1123.7500     29.1787    104.6999     25.7147    109.3214
  1124.0000     29.7759    104.9082     26.5767    109.6214
  1124.2500     30.2975    105.1017     27.3654    109.1946
  1124.5000     30.7613    105.2267     28.0374    107.9160
  1124.7500     31.1684    105.2146     28.5781    106.6789
  1125.0000     31.5069    105.0027     28.9883    104.2211
  1125.2500     31.7845    104.5666     29.2749    102.1330
  1125.5000     32.0452    103.9393     29.4503     97.9863
  1125.7500     32.3585    103.1962     29.5298     94.3224
  1126.0000     32.7919    102.4228     29.5320     88.0152
  1126.2500     33.3621    101.6879     29.4850     84.3568
  1126.5000     33.9941    101.0275     29.4361     81.7092
  1126.7500     34.5316    100.4369     29.4499     82.2225
  1127.0000     34.8050     99.8768     29.5843     85.5532
  1127.2500     34.7256     99.2973     29.8601     88.7322
  1127.5000     34.3370     98.6678     30.2454     94.0360
  1127.7500     33.7826     97.9921     30.6664     97.5186
  1128.0000     33.2290     97.2969     31.0331    101.7951
  1128.2500     32.7992     96.6036     31.2623    103.5302
  1128.5000     32.5415     95.9102     31.2994    104.3121
  1128.7500     32.4323     95.1976     31.1394    104.1264
  1129.0000     32.4191     94.4543     30.8386    104.1116
  1129.2500     32.4776     93.6964     30.4962    104.7058
  1129.5000     32.5997     92.9646     30.2108    106.1523
  1129.7500     32.7333     92.3052     30.0419    106.9285
  1130.0000     32.8153     91.7532     30.0007    107.0239
  1130.2500     32.8710     91.3271     30.0637    106.2295
  1130.5000     32.9939     91.0367     30.1834    104.2227
  1130.7500     33.2169     90.8917     30.2769    103.0054
  1131.0000     33.4640     90.9054     30.2129    102.4884
  1131.2500     33.5893     91.0903     29.8378    103.1590
  1131.5000     33.3621     91.4511     29.0581    104.8171
  1131.7500     32.4898     91.9842     27.9124    105.5858
  1132.0000     30.8320     92.6759     26.5524    105.4855
  1132.2500     28.5918     93.4969     25.1460    104.8982
  1132.5000     26.2016     94.3993     23.7949    105.1404
  1132.7500     24.0129     95.3242     22.5239    107.4391
  1133.0000     22.1403     96.2170     21.3181    115.3526
  1133.2500     20.5621     97.0419     20.1666    123.1220
  1133.5000     19.2456     97.7882     19.0786    135.8642
  1133.7500     18.1482     98.4665     18.0728    143.3077
  1134.0000     17.1985     99.0961     17.1574    151.1620
  1134.2500     16.3446     99.6926     16.3228    154.1944
  1134.5000     15.5927    100.2648     15.5487    156.1158
  1134.7500     14.9725    100.8214     14.8176    155.8410
  1135.0000     14.4936    101.3786     14.1232    153.3297
  1135.2500     14.1484    101.9563     13.4714    150.8331
  1135.5000     13.9205    102.5621     12.8748    147.4826
  1135.7500     13.7736    103.1775     12.3468    146.1656
  1136.0000     13.6556    103.7629     11.8972    145.4045
  1136.2500     13.5287    104.2804     11.5303    145.1388
  1136.5000     13.3895    104.7127     11.2436    144.3063
  1136.7500     13.2533    105.0629     11.0254    143.3928
  1137.0000     13.1146    105.3404     10.8539    142.0117
  1137.2500     12.9452    105.5494     10.7008    141.4718
  1137.5000     12.7365    105.6916     10.5402    141.3847
  1137.7500     12.5103    105.7785     10.3577    141.6358
  1138.0000     12.2830    105.8385     10.1530    142.5225
  1138.2500     12.0566    105.9111      9.9347    143.7931
  1138.5000     11.8478    106.0314      9.7127    147.1301
  1138.7500     11.6761    106.2176      9.4952    150.1664
  1139.0000     11.5356    106.4673      9.2895    155.1211
  1139.2500     11.4148    106.7620      9.1048    157.9577
  1139.5000     11.3227    107.0765      8.9538    160.1682
  1139.7500     11.2759    107.3858      8.8499    159.9651
  1140.0000     11.2715    107.6703      8.8033    158.0221
  1140.2500     11.2907    107.9184      8.8168    156.5518
  1140.5000     11.3238    108.1257      8.8848    154.9623
  1140.7500     11.3612    108.2917      8.9947    154.1721
  1141.0000     11.3707    108.4148      9.1313    152.6967
  1141.2500     11.3033    108.4950      9.2807    151.2411
  1141.5000     11.1227    108.5416      9.4330    148.2005
  1141.7500     10.8590    108.5759      9.5839    145.6088
  1142.0000     10.6525    108.6222      9.7357    141.1423
  1142.2500     10.7178    108.6930      9.8967    138.2365
  1142.5000     11.2223    108.7845     10.0790    135.2216
  1142.7500     12.1632    108.8826     10.2951    134.7243
  1143.0000     13.3452    108.9708     10.5534    136.4119
  1143.2500     14.4908    109.0333     10.8574    138.7799
  1143.5000     15.3861    109.0552     11.2064    143.5076
  1143.7500     15.9522    109.0244     11.5959    147.2004
  1144.0000     16.2251    108.9365     12.0172    152.8635
  1144.2500     16.3020    108.8021     12.4554    155.9853
  1144.5000     16.3098    108.6473     12.8914    158.5365
  1144.7500     16.3729    108.5006     13.3058    158.7578
  1145.0000     16.5584    108.3743     13.6840    157.8262
  1145.2500     16.8645    108.2541     14.0192    156.8541
  1145.5000     17.2596    108.1068     14.3146    154.2620
  1145.7500     17.6996    107.8977     14.5833    150.6937
  1146.0000     18.1297    107.6069     14.8459    141.3405
  1146.2500     18.5369    107.2327     15.1252    133.0315
