~Version Information
VERS.                      2.0: CWLS Log ASCII Standard - VERSION 2.0
WRAP.                       NO: One line per depth step
~Well Information Block
STRT.FT               483.5000: 
STOP.FT              2348.7500: 
STEP.FT                 0.2500: 
NULL.                -999.2500: 
COMP.          Pioneer Natural Resources: COMPANY
WELL.          Hill Climb 22-2: WELL
FLD.           Purgatoire River: FIELD
LOC.           1820' FNL & 2193' FWL: LOCATION
PROV.                 Colorado: PROVINCE
CNTY.               Las Animas: COUNTRY
SRVC.                Patterson: SERVICE COMPANY
DATE.          Wed Oct 20 08:57:51 2004: LOG DATE
UWI.           05 071 08175 00: UNIQUE WELL ID
~Curve Information Block
DEPT.FT            0 000 00 00: Depth
DIR.Ohm-m                     : IEL Induction Resistivity
SN.Ohm-m                      : IEL Short Normal
SP.mV                         : IEL Spontaneous Potential
GR.GAPI                       : Gamma Ray
~Parameter Information Block
~A  Depth       DIR          SN          SP          GR     
# ...
  2326.0000     19.0986     21.3381     55.4300    185.8095
  2326.2500     19.0923     21.4174     55.0528    172.8003
  2326.5000     19.1605     21.5664     54.6018    156.6575
  2326.7500     19.2932     21.7621     54.1219    149.1619
  2327.0000     19.4791     21.9772     53.6573    141.7773
  2327.2500     19.7066     22.1851     53.2454    137.9873
  2327.5000     19.9623     22.3646     52.9129    131.3540
  2327.7500     20.2310     22.5080     52.6761    125.3405
  2328.0000     20.4971     22.6226     52.5426    114.4174
  2328.2500     20.7477     22.7218     52.5143    107.2003
  2328.5000     20.9758     22.8144     52.5887     98.4319
  2328.7500     21.1807     22.9001     52.7589     93.7538
  2329.0000     21.3615     22.9708     53.0122     85.6489
  2329.2500     21.5119     23.0139     53.3276     77.4139
  2329.5000     21.6246     23.0208     53.6762     59.2502
  2329.7500     21.7032     22.9966     54.0230     44.5876
  2330.0000     21.7670     22.9631     54.3328     23.8523
  2330.2500     21.8418     22.9490     54.5760     13.5226
  2330.5000     21.9430     22.9780     54.7340      4.5054
  2330.7500     22.0699     23.0609     54.8006      1.8192
  2331.0000     22.2145     23.1923     54.7799      0.3545
  2331.2500     22.3744     23.3505     54.6817      0.0979
  2331.5000     22.5535     23.5072     54.5173      0.0093
  2331.7500     22.7488     23.6429     54.2965      0.0000
  2332.0000     22.9342     23.7564     54.0266   -999.2500
  2332.2500     23.0593     23.8615     53.7133   -999.2500
  2332.5000     23.0718     23.9754     53.3608   -999.2500
  2332.7500     22.9535     24.1077     52.9729   -999.2500
  2333.0000     22.7419     24.2534     52.5536   -999.2500
  2333.2500     22.5169     24.3952     52.1088   -999.2500
  2333.5000     22.3605     24.5153     51.6482   -999.2500
  2333.7500     22.3216     24.6078     51.1867   -999.2500
  2334.0000     22.4039     24.6836     50.7435   -999.2500
  2334.2500     22.5750     24.7627     50.3394   -999.2500
  2334.5000     22.7828     24.8627     49.9930   -999.2500
  2334.7500     22.9743     24.9931     49.7166   -999.2500
  2335.0000     23.1122     25.1566     49.5135   -999.2500
  2335.2500     23.1892     25.3492     49.3787   -999.2500
  2335.5000     23.2319     25.5529     49.3010   -999.2500
  2335.7500     24.0177     25.7387     49.2685   -999.2500
  2336.0000     24.1526     25.8834     49.2733   -999.2500
  2336.2500     24.3965     25.9796     49.3151   -999.2500
  2336.5000     24.7494     26.0283     49.4030   -999.2500
  2336.7500     25.1788     26.0307     49.5534   -999.2500
  2337.0000     25.6405     25.9899     49.7867   -999.2500
  2337.2500     26.0995     25.9207     50.1215   -999.2500
  2337.5000     26.5233     25.8522     50.5701   -999.2500
  2337.7500     26.8755     25.8161     51.1331   -999.2500
  2338.0000     27.1556     25.8264     51.7969   -999.2500
  2338.2500     27.5069     25.8704     52.5317   -999.2500
  2338.5000     28.3406     25.9198     53.2919   -999.2500
  2338.7500     30.4765     25.9516     54.0182   -999.2500
  2339.0000     35.5638     25.9632     54.6432   -999.2500
  2339.2500     44.7153     25.9703     55.1005   -999.2500
  2339.5000     76.8980     25.9880     55.3380   -999.2500
  2339.7500    340.2822     26.0098     55.3302   -999.2500
  2340.0000 100000.0000     26.0063     55.0873   -999.2500
  2340.2500 100000.0000     25.9465     54.6541   -999.2500
  2340.5000 100000.0000     25.8229     54.0992   -999.2500
  2340.7500 100000.0000     25.6611     53.4981   -999.2500
  2341.0000 100000.0000     25.5026     52.9140   -999.2500
  2341.2500 100000.0000     25.3804     52.3892   -999.2500
  2341.5000 100000.0000     25.3089     51.9364   -999.2500
  2341.7500 100000.0000     25.2896     51.5330   -999.2500
  2342.0000 100000.0000     25.3156     51.1079   -999.2500
  2342.2500 100000.0000     25.3713     50.5191   -999.2500
  2342.5000 100000.0000     25.4360     49.5330   -999.2500
  2342.7500 100000.0000     25.4884     47.8288   -999.2500
  2343.0000 100000.0000     25.4788     45.0586   -999.2500
  2343.2500 100000.0000     25.2475     40.9693   -999.2500
  2343.5000 100000.0000     24.4045     35.5495   -999.2500
  2343.7500 100000.0000     22.3062     29.1220   -999.2500
  2344.0000 100000.0000     18.3533     22.3066   -999.2500
  2344.2500 100000.0000     12.5950     15.8452   -999.2500
  2344.5000 100000.0000      6.0732     10.3675   -999.2500
  2344.7500 100000.0000      0.3214      6.2142   -999.2500
  2345.0000 100000.0000     -3.6297      3.3972   -999.2500
  2345.2500 100000.0000     -5.7440      1.6878   -999.2500
  2345.5000 100000.0000     -6.6252      0.7599   -999.2500
  2345.7500 100000.0000     -6.9112      0.3092   -999.2500
  2346.0000 100000.0000     -6.9836      0.1133   -999.2500
  2346.2500 100000.0000     -6.9978      0.0371   -999.2500
  2346.5000   3031.9094   -999.2500      0.0106   -999.2500
  2346.7500   1431.4425   -999.2500      0.0023   -999.2500
  2347.0000   1056.0522   -999.2500   -999.2500   -999.2500
  2347.2500    918.1221   -999.2500   -999.2500   -999.2500
  2347.5000    863.1428   -999.2500   -999.2500   -999.2500
  2347.7500    842.1998   -999.2500   -999.2500   -999.2500
  2348.0000    835.0347   -999.2500   -999.2500   -999.2500
  2348.2500    832.9001   -999.2500   -999.2500   -999.2500
  2348.5000    832.3525   -999.2500   -999.2500   -999.2500
  2348.7500 100000.0000   -999.2500   -999.2500   -999.2500
