~Version Information
VERS.                      2.0: CWLS Log ASCII Standard - VERSION 2.0
WRAP.                       NO: One line per depth step
~Well Information Block
STRT.FT               258.0000: 
STOP.FT              1001.0000: 
STEP.FT                 0.2500: 
NULL.                -999.2500: 
COMP.          Pioneer Natural Resources: COMPANY
WELL.          Piggyback 33-25: WELL
FLD.           Purgatoire River: FIELD
LOC.           1600' FSL & 1800' FEL: LOCATION
PROV.                 Colorado: PROVINCE
CNTY.               Las Animas: COUNTRY
SRVC.                Patterson: SERVICE COMPANY
DATE.          Fri Apr 29 14:22:38 2005: LOG DATE
UWI.           05 071 08233 00: UNIQUE WELL ID
~Curve Information Block
DEPT.FT            0 000 00 00: Depth
SN.Ohm-m                      : IEL Short Normal
SP.mV                         : IEL Spontaneous Potential
DIR.Ohm-m                     : IEL Induction Resistivity
GR.GAPI                       : Gamma Ray
~Parameter Information Block
~A  Depth        SN          SP         DIR          GR     
# ...
   827.5000     23.9181      8.6225     22.9493     73.3038
   827.7500     22.7886      2.4234     22.3621     69.8837
   828.0000     21.8271     -3.0236     21.8886     61.7144
   828.2500     21.0153     -7.0112     21.4382     55.3809
   828.5000     20.3907     -9.1278     20.9148     46.8363
   828.7500     20.0342     -9.4401     20.2613     42.6858
   829.0000     19.9938     -8.4232     19.4798     39.2224
   829.2500     20.1977     -6.7399     18.6231     38.5188
   829.5000     20.4723     -5.0550     17.7698     38.9777
   829.7500     20.6703     -3.9356     16.9976     39.6339
   830.0000     20.7473     -3.7847     16.3664     40.1648
   830.2500     20.7077     -4.7877     15.9165     39.9761
   830.5000     20.5511     -6.8955     15.6731     39.2246
   830.7500     20.2886     -9.8356     15.6485     38.8998
   831.0000     19.9404    -13.1229     15.8376     39.4207
   831.2500     19.5150    -16.0896     16.2101     40.5577
   831.5000     19.0480    -17.9917     16.7100     43.0523
   831.7500     18.6631    -18.1863     17.2663     44.8541
   832.0000     18.5207    -16.2816     17.8127     47.2698
   832.2500     18.6507    -12.1961     18.3048     48.6183
   832.5000     18.9498     -6.1743     18.7284     50.4210
   832.7500     19.4152      1.2104     19.1004     51.5694
   833.0000     20.2485      9.1435     19.4667     53.0604
   833.2500     21.6421     16.7958     19.9010     53.6471
   833.5000     23.4878     23.5724     20.4979     53.5456
   833.7500     25.3884     29.2221     21.3570     52.8004
   834.0000     26.9917     33.7752     22.5545     50.9835
   834.2500     28.2038     37.4043     24.1081     49.6417
   834.5000     29.0969     40.3065     25.9459     48.0493
   834.7500     29.7719     42.6458     27.9031     47.4658
   835.0000     30.3148     44.5460     29.7637     47.0931
   835.2500     30.7973     46.0997     31.3375     46.7640
   835.5000     31.2766     47.3737     32.5204     45.3692
   835.7500     31.7833     48.4157     33.3037     43.6477
   836.0000     32.3102     49.2672     33.7443     40.3414
   836.2500     32.8244     49.9734     33.9284     38.2749
   836.5000     33.3213     50.5767     33.9461     36.3679
   836.7500     33.8429     51.1024     33.8760     36.0988
   837.0000     34.3992     51.5540     33.7777     36.9428
   837.2500     34.9439     51.9188     33.6902     38.0926
   837.5000     35.4500     52.1803     33.6385     40.3755
   837.7500     35.9028     52.3313     33.6412     42.0802
   838.0000     36.2341     52.3811     33.7159     44.4951
   838.2500     36.3905     52.3517     33.8766     45.8014
   838.5000     36.4290     52.2677     34.1235     47.2301
   838.7500     36.4348     52.1509     34.4278     47.9513
   839.0000     36.4206     52.0237     34.7274     48.9268
   839.2500     36.3707     51.9187     34.9454     49.5342
   839.5000     36.3164     51.8837     35.0279     50.2204
   839.7500     36.3363     51.9733     34.9714     50.3776
   840.0000     36.4918     52.2235     34.8148     49.9462
   840.2500     36.7727     52.6235     34.6070     49.1902
   840.5000     37.1090     53.1086     34.3816     47.5696
   840.7500     37.4139     53.5892     34.1557     46.4165
   841.0000     37.6078     53.9957     33.9444     45.0901
   841.2500     37.6449     54.3062     33.7707     44.7420
   841.5000     37.5318     54.5405     33.6607     45.2702
   841.7500     37.2946     54.7337     33.6297     46.2527
   842.0000     36.9412     54.9133     33.6714     48.2016
   842.2500     36.4810     55.0915     33.7567     49.4958
   842.5000     35.9490     55.2700     33.8456     51.1212
   842.7500     35.3854     55.4496     33.9022     51.9484
   843.0000     34.8282     55.6347     33.9029     52.7759
   843.2500     34.3327     55.8314     33.8369     53.0553
   843.5000     33.9518     56.0428     33.6986     53.1376
   843.7500     33.6951     56.2652     33.4881     52.9803
   844.0000     33.5312     56.4898     33.2156     52.3294
   844.2500     33.4278     56.7062     32.9074     51.6067
   844.5000     33.3795     56.9018     32.6047     50.4076
   844.7500     33.4028     57.0597     32.3549     49.8075
   845.0000     33.4941     57.1584     32.2014     49.2907
   845.2500     33.6013     57.1789     32.1742     48.9712
   845.5000     33.6586     57.1143     32.2811     48.3304
   845.7500     33.6439     56.9748     32.4975     48.0600
   846.0000     33.5848     56.7852     32.7628     48.5004
   846.2500     33.5182     56.5788     32.9911     49.3675
   846.5000     33.4494     56.3910     33.1004     50.8556
   846.7500     33.3472     56.2524     33.0446     51.5230
   847.0000     33.1750     56.1830     32.8298     51.7575
   847.2500     32.9283     56.1884     32.4965     51.5450
   847.5000     32.6339     56.2604     32.0938     51.0568
   847.7500     32.3143     56.3846     31.6583     50.7367
   848.0000     31.9823     56.5510     31.2152     50.2732
   848.2500     31.6736     56.7623     30.7961     50.0200
   848.5000     31.4365     57.0304     30.4566     50.1145
   848.7500     31.2864     57.3645     30.2734     50.8027
   849.0000     31.2050     57.7604     30.3093     52.8501
   849.2500     31.1660     58.1981     30.5623     54.5517
   849.5000     31.1390     58.6500     30.9392     56.8678
   849.7500     31.0987     59.0950     31.2881     57.9987
   850.0000     31.0553     59.5295     31.4833     58.8315
   850.2500     31.0552     59.9673     31.4911     58.6541
   850.5000     31.1391     60.4292     31.3652     57.2044
   850.7500     31.3095     60.9320     31.1891     55.6938
   851.0000     31.5239     61.4791     31.0252     53.4854
   851.2500     31.7098     62.0508     30.8883     52.6332
   851.5000     31.8149     62.6019     30.7453     53.0772
   851.7500     31.8385     63.0788     30.5281     54.7402
   852.0000     31.7917     63.4517     30.1605     58.9827
   852.2500     31.6752     63.7332     29.5966     62.4167
   852.5000     31.5122     63.9628     28.8699     67.4044
   852.7500     31.3549     64.1756     28.1145     70.2611
   853.0000     31.2416     64.3846     27.5266     73.6674
   853.2500     31.1586     64.5841     27.2680     75.2138
   853.5000     31.0453     64.7620     27.3795     75.9675
   853.7500     30.8433     64.9087     27.7546     75.3000
   854.0000     30.5556     65.0200     28.1919     73.1637
   854.2500     30.2540     65.0943     28.5026     71.7119
   854.5000     30.0117     65.1285     28.6004     70.5062
   854.7500     29.8388     65.1169     28.5070     70.4128
   855.0000     29.6923     65.0530     28.2978     70.5881
   855.2500     29.5313     64.9356     28.0540     70.4063
   855.5000     29.3413     64.7730     27.8412     69.4759
   855.7500     29.1252     64.5826     27.6982     68.6408
   856.0000     28.9042     64.3835     27.6308     67.3883
   856.2500     28.7215     64.1880     27.6168     66.5764
   856.5000     28.6159     63.9990     27.6240     65.5647
   856.7500     28.5879     63.8125     27.6269     65.3530
   857.0000     28.6102     63.6243     27.6175     66.3514
   857.2500     28.6698     63.4370     27.6077     68.0211
   857.5000     28.7794     63.2624     27.6271     71.5898
   857.7500     28.9467     63.1146     27.7124     74.0265
   858.0000     29.1583     63.0016     27.8923     76.3061
   858.2500     29.3942     62.9222     28.1727     76.3185
   858.5000     29.6393     62.8676     28.5342     74.4281
   858.7500     29.8855     62.8242     28.9432     72.9490
   859.0000     30.1406     62.7750     29.3663     72.5625
   859.2500     30.4298     62.7036     29.7784     74.1213
   859.5000     30.7765     62.6004     30.1626     78.1786
   859.7500     31.1962     62.4679     30.5086     80.6036
   860.0000     31.6989     62.3178     30.8151     81.5997
   860.2500     32.2799     62.1641     31.0936     80.0486
   860.5000     32.9065     62.0184     31.3674     75.1445
   860.7500     33.5253     61.8871     31.6597     71.1038
