~Version Information
 VERS.                                  2.0 : CWLS LAS VERSION
 WRAP.                                   NO : WRAPING MODE
 SWARE .                 MController 2.5.0E : SOFTWARE VERSION
~Well Information
 WELL.                        Triumph 13 10 : WELL
 COMP.             Evergreen Operating Corp : COMPANY
 FLD.                      Purgatorie River : FIELD
 LOC.                NW/SW Sec 10 T32S R66W : LOCATION
 DATE.                           7/22 23/04 : DATE(S) LOGGED
 SRVC.       Blanco Geological Services LLC : SERVICE COMPANY
 STAT.                                   CO : STATE
 CNTY.                           Las Animas : COUNTY
 CTRY.                                  USA : COUNTRY
 API.                       05 071 08108 00 : API NUMBER
 STRT.FT                             414.00 : START DEPTH
 STOP.FT                            2210.00 : STOP DEPTH
 STEP.FT                               1.00 : DEPTH INCREMENT
 NULL.                                 9999 : NULL VALUE
~Curve information
 DEPTH.FT                                   :
 ROP.MIN/FT                                 :
 GAS.UNITS                                  :
~ASCII Log data
# ...
     1614.00        0.200       2130.1 
     1615.00        0.200       2002.4 
     1616.00        2.517       5370.2 
     1617.00        0.500       4954.5 
     1618.00        0.367       4117.9 
     1619.00        0.333       3342.0 
     1620.00        0.300       2608.6 
     1621.00        0.283       2283.1 
     1622.00        0.233       2093.1 
     1623.00        0.233       2164.2 
     1624.00        0.267       2321.8 
     1625.00        0.233       2510.8 
     1626.00        0.233       2676.3 
     1627.00        0.200       2803.6 
     1628.00        0.267       2897.6 
     1629.00        0.267       2896.9 
     1630.00        0.233       2890.5 
     1631.00        0.467       2783.4 
     1632.00        0.233       2131.5 
     1633.00        0.233       1860.6 
     1634.00        0.250       1711.7 
     1635.00        0.267       1671.9 
     1636.00        0.200       1568.8 
     1637.00        0.233       1536.8 
     1638.00        0.233       1529.8 
     1639.00        0.233       1528.4 
     1640.00        0.200       1515.3 
     1641.00        0.200       1501.5 
     1642.00        0.200       1482.9 
     1643.00        0.233       1429.0 
     1644.00        0.267       1344.4 
     1645.00        2.717       5255.7 
     1646.00        0.567       5162.4 
     1647.00        0.467       4467.6 
     1648.00        0.333       3142.9 
     1649.00        0.317       2498.0 
     1650.00        0.267       2002.1 
     1651.00        0.267       1867.0 
     1652.00        0.233       1702.3 
     1653.00        0.300       1601.2 
     1654.00        0.300       1565.8 
     1655.00        0.300       1704.6 
     1656.00        0.300       1775.4 
     1657.00        0.333       1867.3 
     1658.00        0.367       1898.7 
     1659.00        0.300       1931.4 
     1660.00        0.350       2031.4 
     1661.00        0.333       2086.3 
     1662.00        0.333       2071.2 
     1663.00        0.333       2015.6 
     1664.00        0.300       1937.4 
     1665.00        0.367       1833.0 
     1666.00        0.300       1625.4 
     1667.00        0.300       1651.4 
     1668.00        0.300       1810.1 
     1669.00        0.367       2040.5 
     1670.00        0.583       2025.4 
     1671.00        0.633       1789.8 
     1672.00        0.367       1453.6 
     1673.00        0.300       1512.9 
     1674.00        0.333       1456.0 
     1675.00        0.167       1281.1 
     1676.00        2.250       5250.0 
     1677.00        0.633       4955.5 
     1678.00        0.467       4266.2 
     1679.00        0.300       3151.3 
     1680.00        0.533       2536.8 
     1681.00        0.367       1968.1 
     1682.00        0.383       1749.4 
     1683.00        0.400       1606.2 
     1684.00        0.400       1436.8 
     1685.00        0.433       1427.3 
     1686.00        0.433       1415.2 
     1687.00        0.400       1376.5 
     1688.00        0.433       1344.4 
     1689.00        0.433       1353.2 
     1690.00        0.450       1338.0 
     1691.00        0.433       1315.5 
     1692.00        0.400       1300.7 
     1693.00        0.367       1317.2 
     1694.00        0.400       1343.4 
     1695.00        0.400       1358.9 
     1696.00        0.367       1488.6 
     1697.00        0.400       1524.7 
     1698.00        0.450       1530.1 
     1699.00        0.400       1550.3 
     1700.00        0.433       1877.8 
     1701.00        0.300       2000.4 
     1702.00        0.333       2019.3 
     1703.00        0.200       1715.7 
     1704.00        0.133       1715.7 
     1705.00        0.133       1438.8 
     1706.00        5.833       7410.6 
     1707.00        0.267       2076.2 
     1708.00        0.267       1948.2 
     1709.00        0.233       1799.6 
     1710.00        0.267       1769.3 
     1711.00        0.233       1714.7 
     1712.00        0.267       1670.9 
     1713.00        0.267       1557.0 
     1714.00        0.483       1479.6 
     1715.00        0.200       1648.0 
     1716.00        0.400       2090.0 
     1717.00        0.200       2150.3 
     1718.00        0.433       2329.2 
     1719.00        0.200       2419.9 
     1720.00        0.500       2429.3 
     1721.00        0.200       2271.6 
     1722.00        0.367       2116.7 
     1723.00        0.367       1867.3 
     1724.00        0.200       1683.7 
     1725.00        0.483       1781.8 
     1726.00        0.200       1844.4 
     1727.00        0.400       2031.8 
     1728.00        0.467       2184.7 
     1729.00        0.400       2227.8 
     1730.00        0.200       1888.2 
     1731.00        0.400       1838.7 
     1732.00        0.433       1657.4 
     1733.00        0.200       2036.1 
     1734.00        0.267       2824.5 
     1735.00        0.183       2994.0 
     1736.00        1.233       4083.2 
     1737.00        0.400       4138.5 
     1738.00        0.433       4183.0 
     1739.00        0.233       4095.0 
     1740.00        0.233       3672.5 
     1741.00        0.233       3107.5 
     1742.00        0.250       2985.2 
     1743.00        0.267       2591.7 
     1744.00        0.233       2265.2 
     1745.00        0.200       2056.0 
     1746.00        0.233       1928.0 
     1747.00        0.267       1762.9 
     1748.00        0.300       1735.9 
     1749.00        0.300       1773.0 
     1750.00        0.300       1898.0 
     1751.00        0.300       2093.7 
     1752.00        0.267       2224.5 
     1753.00        0.200       2236.3 
     1754.00        0.200       2294.9 
     1755.00        0.250       2384.8 
     1756.00        0.233       2315.8 
     1757.00        0.233       2270.6 
     1758.00        0.200       2359.2 
     1759.00        0.167       2472.1 
     1760.00        0.167       2683.0 
     1761.00        0.167       2877.7 
     1762.00        0.167       2958.9 
     1763.00        0.233       2966.0 
     1764.00        0.200       2693.1 
     1765.00        0.200       2464.4 
     1766.00        2.650       4630.0 
     1767.00        1.067       4806.2 
     1768.00        0.833       3441.4 
     1769.00        0.450       2140.2 
     1770.00        0.433       1874.1 
     1771.00        0.433       1762.9 
     1772.00        0.333       1618.0 
     1773.00        0.367       1544.2 
     1774.00        0.300       1499.1 
     1775.00        0.400       1485.3 
     1776.00        0.300       1479.2 
     1777.00        0.333       1478.2 
     1778.00        0.383       1445.5 
     1779.00        0.267       1398.7 
     1780.00        0.233       1417.6 
     1781.00        0.267       1493.0 
     1782.00        0.267       1506.8 
     1783.00        0.267       1513.9 
     1784.00        0.300       1601.5 
     1785.00        0.300       1648.3 
     1786.00        0.300       1684.4 
     1787.00        0.167       1679.0 
     1788.00        0.200       1665.2 
     1789.00        0.167       1658.5 
     1790.00        0.200       1651.4 
     1791.00        0.217       1641.3 
     1792.00        0.200       1616.7 
     1793.00        0.200       1581.3 
     1794.00        0.200       1507.2 
     1795.00        0.233       1468.1 
     1796.00        3.850       4792.1 
     1797.00        0.467       4237.2 
     1798.00        0.433       3626.0 
     1799.00        0.367       2654.0 
     1800.00        0.333       2264.9 
     1801.00        0.283       2038.5 
     1802.00        0.233       1884.2 
     1803.00        0.267       1766.3 
     1804.00        0.267       1685.4 
     1805.00        0.300       1623.1 
     1806.00        0.300       1576.9 
     1807.00        0.267       1530.4 
     1808.00        0.267       1489.7 
     1809.00        0.300       1469.4 
     1810.00        0.267       1457.7 
     1811.00        0.233       1499.1 
     1812.00        0.233       1562.8 
     1813.00        0.267       1610.9 
