~Version Information
VERS.                      2.0: CWLS Log ASCII Standard - VERSION 2.0
WRAP.                       NO: One line per depth step
~Well Information Block
STRT.FT               -10.0000: 
STOP.FT              2184.0000: 
STEP.FT                 0.2500: 
NULL.                -999.2500: 
COMP.          Petrogulf Corporation: COMPANY
WELL.              Silva 1-43R: WELL
FLD.           Purgatorie River: FIELD
LOC.           1971' FSL & 526' FEL--: LOCATION
CNTY.               Las Animas: COUNTY
SRVC.          Patterson Wireline: SERVICE COMPANY
DATE.          Thu Jul 13 13:08:17 2006: LOG DATE
UWI.           05 072 08372 00: UNIQUE WELL ID
STAT.                       CO: STATE
~Curve Information Block
DEPT.FT            0 000 00 00: Depth
CCL.                          : Casing Collar Locator
TT3.usec                      : CBL 3' Travel Time
AMP3.mV                       : CBL 3' Amplitude
GR.GAPI                       : Gamma Ray
~Parameter Information Block
~A  Depth       CCL         TT3         AMP3         GR     
# ...
  1598.0000      0.0000    695.6581      5.3252    120.8295
  1598.2500      0.0000    685.9600      5.8409    131.5026
  1598.5000      0.0000    671.1894      6.4078    142.7150
  1598.7500      0.0000    657.5388      6.9630    154.0479
  1599.0000      0.0000    647.3284      7.4645    164.0455
  1599.2500      0.0000    638.6796      7.9114    171.4866
  1599.5000      0.0000    625.7141      8.3525    176.4566
  1599.7500      0.0000    600.6733      8.8738    180.1642
  1600.0000      0.0000    560.0482      9.5594    183.9516
  1600.2500      0.0000    509.7580     10.4513    188.3440
  1600.5000      0.0000    461.8573     11.5431    192.5562
  1600.7500      0.0000    425.0612     12.8067    194.8920
  1601.0000      0.0000    399.5742     14.2030    194.0683
  1601.2500      0.0000    380.7705     15.6582    190.2325
  1601.5000      0.0000    365.4258     17.0534    184.5948
  1601.7500      0.0000    353.4045     18.2745    178.5177
  1602.0000      0.0000    345.2367     19.3010    173.3181
  1602.2500      0.0000    340.0175     20.2471    170.5131
  1602.5000      0.0000    335.6088     21.3021    171.3571
  1602.7500      0.0000    329.9919     22.6108    175.4933
  1603.0000      0.0000    322.3930     24.2003    180.1624
  1603.2500      0.0000    313.4303     26.0235    181.5528
  1603.5000      0.0000    304.2435     28.0569    177.6886
  1603.7500      0.0000    295.5406     30.3053    170.1207
  1604.0000      0.0000    287.7453     32.6402    162.4842
  1604.2500      0.0000    281.8475     34.6246    157.1726
  1604.5000      0.0000    279.4126     35.5963    153.5150
  1604.7500      0.0000    281.4453     35.0533    149.2047
  1605.0000      0.0000    287.8719     33.0076    143.0634
  1605.2500      0.0000    298.9644     29.9511    135.9956
  1605.5000      0.0000    317.5660     26.4998    129.5666
  1605.7500      0.0000    349.1329     23.0877    124.2942
  1606.0000      0.0000    397.4977     19.9190    119.4916
  1606.2500      0.0000    458.7603     17.0738    114.4408
  1606.5000      0.0000    520.5197     14.5870    109.3298
  1606.7500      0.0000    569.6238     12.4569    105.0539
  1607.0000      0.0000    600.2414     10.6481    102.2756
  1607.2500      0.0000    613.5029      9.1211    100.5736
  1607.5000      0.0000    613.7247      7.8580     98.4879
  1607.7500      0.0000    608.9307      6.8572     94.8673
  1608.0000      0.0000    610.4781      6.1155     90.3485
  1608.2500      0.0000    625.5816      5.6141     86.9556
  1608.5000      0.0000    650.6420      5.3136     86.0735
  1608.7500      0.0000    675.0855      5.1622     87.2243
  1609.0000      0.0000    691.0159      5.1095     88.8666
  1609.2500      0.0000    697.5735      5.1149     89.8638
  1609.5000      0.0000    698.1937      5.1490     90.1067
  1609.7500      0.0000    696.6991      5.1931     90.1608
  1610.0000      0.0000    695.5588      5.2376     90.6719
  1610.2500      0.0000    695.3406      5.2771     91.9121
  1610.5000      0.0000    694.4602      5.3078     93.4427
  1610.7500      0.0000    689.6772      5.3282     94.3448
  1611.0000      0.0000    677.5605      5.3395     94.2509
  1611.2500      0.0000    656.3941      5.3467     94.0082
  1611.5000      0.0000    627.7360      5.3564     94.7189
  1611.7500      0.0000    596.6819      5.3723     96.1311
  1612.0000      0.0000    570.4479      5.3888     96.6136
  1612.2500      0.0000    555.7986      5.3908     94.9020
  1612.5000      0.0000    556.3341      5.3633     91.4436
  1612.7500      0.0000    570.4329      5.3025     87.9172
  1613.0000      0.0000    590.6523      5.2203     85.8437
  1613.2500      0.0000    606.1931      5.1384     85.7104
  1613.5000      0.0000    608.9418      5.0786     87.0461
  1613.7500      0.0000    598.8823      5.0538     88.9100
  1614.0000      0.0000    582.9567      5.0621     90.2350
  1614.2500      0.0000    568.2220      5.0893     90.1821
  1614.5000      0.0000    556.6111      5.1182     88.8037
  1614.7500      0.0000    545.6265      5.1363     87.4281
  1615.0000      0.0000    532.4303      5.1348     87.7913
  1615.2500      0.0000    516.9106      5.1074     90.4065
  1615.5000      0.0000    501.6761      5.0550     93.9018
  1615.7500      0.0000    489.7843      4.9904     96.1064
  1616.0000      0.0000    482.5590      4.9348     95.6457
  1616.2500      0.0000    479.2681      4.9079     92.5699
  1616.5000      0.0000    478.3192      4.9189     87.9320
  1616.7500      0.0000    478.5033      4.9613     83.0601
  1617.0000      0.0000    479.5286      5.0154     79.0200
  1617.2500      0.0000    481.9300      5.0584     76.3346
  1617.5000      0.0000    486.5243      5.0765     74.8978
  1617.7500      0.0000    493.5809      5.0718     74.1372
  1618.0000      0.0000    502.2414      5.0572     73.5229
  1618.2500      0.0000    510.7067      5.0448     72.9925
  1618.5000      0.0000    517.0571      5.0376     72.6647
  1618.7500      0.0000    520.2258      5.0314     72.1860
  1619.0000      0.0000    520.7658      5.0208     70.8223
  1619.2500      0.0000    520.8703      5.0034     68.3587
  1619.5000      0.0000    523.2943      4.9805     65.6409
  1619.7500      0.0000    529.9664      4.9589     64.1594
  1620.0000      0.0000    541.5981      4.9572     65.0489
  1620.2500      0.0000    558.2245      5.0012     68.2383
  1620.5000      0.0000    579.0547      5.1062     72.4874
  1620.7500      0.0000    601.0969      5.2550     76.3799
  1621.0000      0.0000    618.9211      5.4046     79.1579
  1621.2500      0.0000    627.8546      5.5365     80.4936
  1621.5000      0.0000    628.3362      5.7031     80.0891
  1621.7500      0.0000    626.4354      6.0024     78.1321
  1622.0000      0.0000    629.0585      6.4902     75.6328
  1622.2500      0.0000    637.9974      7.1282     73.5295
  1622.5000      0.0000    648.1522      7.8146     71.6886
  1622.7500      0.0000    651.6538      8.4405     69.4217
  1623.0000      0.0000    644.5483      8.9275     67.0763
  1623.2500      0.0000    629.7188      9.2406     66.5562
  1623.5000     -2.0000    613.4380      9.3722     69.7222
  1623.7500      2.0000    600.7209      9.3225     76.3206
  1624.0000      0.0000    595.1213      9.1164     83.8627
  1624.2500      0.0000    600.0696      8.8218     89.6854
  1624.5000      0.0000    616.5035      8.4957     93.0533
  1624.7500      0.0000    639.4739      8.1154     95.2696
  1625.0000      0.0000    659.1580      7.6176     97.9038
  1625.2500      0.0000    665.6953      6.9989    101.0610
  1625.5000      0.0000    654.5754      6.3332    103.3980
  1625.7500      0.0000    630.4772      5.7106    103.7386
  1626.0000      0.0000    606.3427      5.1979    102.3692
  1626.2500      0.0000    595.8163      4.8325    100.4651
  1626.5000      0.0000    604.2100      4.6146     98.6010
  1626.7500      0.0000    626.1729      4.5099     96.4146
  1627.0000      0.0000    651.0165      4.4765     93.5517
  1627.2500      0.0000    668.8488      4.4910     90.3560
  1627.5000      0.0000    672.6920      4.5515     87.7083
  1627.7500      0.0000    658.7756      4.6637     86.5836
  1628.0000      0.0000    628.5117      4.8273     87.6320
  1628.2500      0.0000    589.9048      5.0296     90.6790
  1628.5000      0.0000    553.8174      5.2469     94.4446
  1628.7500      0.0000    527.1364      5.4536     96.9609
  1629.0000      0.0000    510.1362      5.6300     96.5428
  1629.2500      0.0000    500.1180      5.7640     92.6850
  1629.5000      0.0000    495.8833      5.8486     86.4084
  1629.7500      0.0000    498.4996      5.8842     79.9014
  1630.0000      0.0000    509.3380      5.8822     75.6541
  1630.2500      0.0000    528.0539      5.8633     75.4302
  1630.5000      0.0000    551.6220      5.8500     79.2152
  1630.7500      0.0000    574.6662      5.8599     84.7200
  1631.0000      0.0000    591.1127      5.8999     88.5432
  1631.2500      0.0000    596.2639      5.9620     88.7064
