~Version Information
VERS.                      2.0: CWLS Log ASCII Standard - VERSION 2.0
WRAP.                       NO: One line per depth step
~Well Information Block
STRT.FT               350.0000: 
STOP.FT              2531.5000: 
STEP.FT                 0.1000: 
NULL.                -999.2500: 
COMP.          Pioneer Natural Resources: COMPANY
WELL.          Cock-a-doodle-doo: WELL
FLD.           Purgatoire River: FIELD
LOC.           163' FSL & 54' FEL: LOCATION
PROV.                 Colorado: PROVINCE
CNTY.               Las Animas: COUNTRY
SRVC.                Patterson: SERVICE COMPANY
DATE.          Fri Jul 01 09:34:59 2005: LOG DATE
UWI.           05 071 08429 00: UNIQUE WELL ID
~Curve Information Block
DEPT.FT            0 000 00 00: Depth
DCAL.in                       : CDL Caliper
RHOB.g/cc                     : CDL Bulk Density
RHOC.g/cc                     : CDL Density Correction
DPOR.pu                       : CDL Density Porosity
GR.GAPI                       : Gamma Ray
NPOR.pu                       : Neutron Porosity
~Parameter Information Block
~A  Depth       DCAL        RHOB        RHOC        DPOR         GR         NPOR    
# ...
  2087.6000      7.9350      2.6346      0.1339      0.9323     65.7002     15.3190
  2087.7000      7.9350      2.6514      0.1392     -0.0842     64.2821     16.1864
  2087.8000      7.9408      2.6451      0.1900      0.2961     57.7490     16.3686
  2087.9000      7.9408      2.6185      0.1109      1.9062     51.6016     15.8846
  2088.0000      7.9555      2.5929      0.0692      3.4618     52.3208     15.7575
  2088.1000      7.9555      2.5884      0.0714      3.7314     55.9522     15.7548
  2088.2000      7.9555      2.5909      0.1298      3.5828     55.6065     15.4163
  2088.3000      7.9554      2.5804      0.0488      4.2155     51.0499     15.4335
  2088.4000      7.9554      2.5757      0.0506      4.5014     45.3307     16.1226
  2088.5000      7.9400      2.5986      0.0693      3.1162     42.2902     16.6869
  2088.6000      7.9400      2.6317      0.1209      1.1071     43.5240     16.6926
  2088.7000      7.9400      2.6392      0.1491      0.6519     47.3598     16.9354
  2088.8000      7.9613      2.6161      0.1218      2.0547     50.7527     17.7890
  2088.9000      7.9613      2.5879      0.1346      3.7640     51.9148     18.1536
  2089.0000      7.9509      2.5683      0.0775      4.9536     52.1691     17.6440
  2089.1000      7.9509      2.5608      0.0513      5.4057     51.8108     17.0893
  2089.2000      7.9509      2.5697      0.0714      4.8657     49.9862     16.9078
  2089.3000      7.9103      2.5889      0.0944      3.7020     49.2182     17.1013
  2089.4000      7.9103      2.6031      0.1283      2.8418     51.9721     17.4180
  2089.5000      7.9509      2.5980      0.1117      3.1489     54.8546     17.7139
  2089.6000      7.9509      2.5707      0.0730      4.8068     53.6518     18.3945
  2089.7000      7.9509      2.5412      0.0477      6.5962     53.6087     19.8663
  2089.8000      7.9330      2.5434      0.0011      6.4603     61.6962     21.4704
  2089.9000      7.9330      2.5759      0.0860      4.4916     74.1624     22.2931
  2090.0000      7.9387      2.5972      0.1058      3.1998     84.8707     21.8463
  2090.1000      7.9387      2.5997      0.0573      3.0459     95.3672     20.5269
  2090.2000      7.9387      2.6117      0.0650      2.3183    105.3520     19.8336
  2090.3000      8.0257      2.6368      0.0938      0.7991    108.9736     20.1750
  2090.4000      8.0257      2.6574      0.0762     -0.4487    106.5913     20.3874
  2090.5000      8.0818      2.6653      0.0870     -0.9296    103.7862     19.9303
  2090.6000      8.0818      2.6638      0.0611     -0.8358    103.0525     19.5737
  2090.7000      8.0818      2.6514      0.0834     -0.0837    103.0226     19.9410
  2090.8000      8.0416      2.6177      0.0360      1.9579    104.2935     20.8194
  2090.9000      8.0416      2.5691      0.0491      4.9034    108.8111     21.5407
  2091.0000      8.0566      2.5294      0.0227      7.3114    110.7352     21.7775
  2091.1000      8.0566      2.5140      0.0240      8.2429    106.8083     22.2646
  2091.2000      8.0566      2.5201      0.0543      7.8724    104.7506     23.0549
  2091.3000      8.0356      2.5371      0.0676      6.8442    107.9078     23.4924
  2091.4000      8.0356      2.5576      0.0554      5.5976    110.9024     24.1512
  2091.5000      8.0182      2.5806      0.0904      4.2087    110.4533     24.8158
  2091.6000      8.0182      2.6056      0.0106      2.6889    108.8105     24.3500
  2091.7000      8.0182      2.6209      0.0855      1.7632    109.1871     23.4836
  2091.8000      8.0054      2.6088      0.0702      2.4952    111.2079     23.0246
  2091.9000      8.0054      2.5780      0.0860      4.3653    114.1432     22.7936
  2092.0000      7.9898      2.5564      0.0269      5.6706    118.0497     22.5701
  2092.1000      7.9898      2.5619      0.0262      5.3423    122.1299     22.2197
  2092.2000      7.9898      2.5865      0.0836      3.8479    126.2252     22.2106
  2092.3000      7.9705      2.6062      0.0905      2.6527    127.4916     22.9082
  2092.4000      7.9705      2.6044      0.1074      2.7661    123.6696     23.1158
  2092.5000      7.9763      2.5819      0.0657      4.1273    122.6165     22.1048
  2092.6000      7.9763      2.5491      0.0418      6.1141    129.2860     21.2724
  2092.7000      7.9763      2.5189      0.0466      7.9476    137.4657     20.9757
  2092.8000      7.9818      2.5082      0.0049      8.5938    139.6610     20.4403
  2092.9000      7.9818      2.5306     -0.0215      7.2344    132.5195     20.3295
  2093.0000      7.9717      2.5744      0.0448      4.5810    121.2174     21.3645
  2093.1000      7.9717      2.6070      0.0882      2.6034    113.4073     22.2615
  2093.2000      7.9717      2.6124      0.0522      2.2773    108.9110     21.9338
  2093.3000      7.9777      2.5991      0.0913      3.0820    106.6252     21.6037
  2093.4000      7.9777      2.5845      0.0397      3.9680    107.0413     22.2999
  2093.5000      7.9876      2.5902      0.0683      3.6231    106.1020     23.2767
  2093.6000      7.9876      2.6090      0.1115      2.4836    102.2115     23.4257
  2093.7000      7.9876      2.6087      0.0829      2.5052    104.9682     22.6544
  2093.8000      7.9765      2.5832      0.0582      4.0506    117.7934     21.6922
  2093.9000      7.9765      2.5557      0.0756      5.7147    127.6628     21.2640
  2094.0000      7.9776      2.5520      0.0448      5.9416    126.0646     21.4805
  2094.1000      7.9776      2.5730      0.0956      4.6646    120.5669     21.7330
  2094.2000      7.9776      2.5937      0.0625      3.4123    116.6247     21.3750
  2094.3000      7.9658      2.6019      0.0600      2.9159    113.5231     20.8255
  2094.4000      7.9658      2.6020      0.0767      2.9107    113.3220     20.7831
  2094.5000      7.9732      2.5986      0.0457      3.1164    116.6359     21.3513
  2094.6000      7.9732      2.5976      0.0099      3.1775    119.3190     22.6545
  2094.7000      7.9732      2.5961      0.0665      3.2640    117.4759     24.4977
  2094.8000      7.9804      2.5833      0.0639      4.0451    113.9766     25.9046
  2094.9000      7.9804      2.5654      0.0185      5.1254    112.9986     25.8368
  2095.0000      7.9753      2.5575      0.0479      5.6089    115.2084     24.2844
  2095.1000      7.9753      2.5592      0.0561      5.5059    119.4189     22.4173
  2095.2000      7.9753      2.5672      0.0562      5.0206    119.9333     21.4070
  2095.3000      7.9642      2.5813      0.0554      4.1647    115.1830     21.4565
  2095.4000      7.9642      2.5945      0.0499      3.3667    110.8554     21.9074
  2095.5000      7.9818      2.5938      0.0818      3.4052    110.3991     22.2729
  2095.6000      7.9818      2.5791      0.0346      4.2972    112.4849     22.2807
  2095.7000      7.9818      2.5760      0.0219      4.4851    115.0085     21.6875
  2095.8000      7.9863      2.5966      0.0599      3.2382    116.3529     20.8824
  2095.9000      7.9863      2.6131      0.0919      2.2349    117.3879     20.4439
  2096.0000      7.9896      2.5978      0.0766      3.1619    120.2891     20.4983
  2096.1000      7.9896      2.5567      0.0168      5.6525    121.4634     20.9321
  2096.2000      7.9896      2.5252     -0.0259      7.5644    117.4674     21.3889
  2096.3000      7.9890      2.5294      0.0023      7.3121    112.3036     21.7080
  2096.4000      7.9890      2.5571      0.0107      5.6288    112.2375     22.3862
  2096.5000      7.9922      2.5887      0.0271      3.7181    118.1290     23.2038
  2096.6000      7.9922      2.6129      0.0917      2.2473    123.6717     23.0264
  2096.7000      7.9922      2.6135      0.0447      2.2105    123.0272     21.7962
  2096.8000      7.9933      2.5945      0.0171      3.3616    117.8990     20.4415
  2096.9000      7.9933      2.5815      0.0469      4.1542    111.7944     19.5231
  2097.0000      7.9952      2.5763      0.0764      4.4687    106.6633     19.3119
  2097.1000      7.9952      2.5719      0.0029      4.7329    104.8802     20.0095
