~Version Information
VERS.                      2.0: CWLS Log ASCII Standard - VERSION 2.0
WRAP.                       NO: One line per depth step
~Well Information Block
STRT.FT                 0.6000: 
STOP.FT              2735.2000: 
STEP.FT                 0.1000: 
NULL.                -999.2500: 
COMP.          Pioneer Natural Resources: COMPANY
WELL.              Cluck 21-25: WELL
FLD.           Purgatoire River: FIELD
LOC.           91' FNL & 1834' FWL--: LOCATION
PROV.                 Colorado: PROVINCE
CNTY.               Las Animas: COUNTRY
SRVC.                Patterson: SERVICE COMPANY
DATE.          Mon Jun 06 19:08:34 2005: LOG DATE
UWI.           05 071 08397 00: UNIQUE WELL ID
~Curve Information Block
DEPT.FT            0 000 00 00: Depth
SN.Ohm-m                      : IEL Short Normal
SP.mV                         : IEL Spontaneous Potential
DIR.Ohm-m                     : IEL Induction Resistivity
GR.GAPI                       : Gamma Ray
~Parameter Information Block
~A  Depth        SN          SP         DIR          GR     
# ...
  1461.2000     27.1255   -166.3056     24.4538    107.8168
  1461.3000     26.8965   -166.4102     24.2942    107.4711
  1461.4000     26.8965   -166.4102     24.2942    106.7286
  1461.5000     26.5959   -167.1239     24.1652    105.6116
  1461.6000     26.5959   -167.1239     24.1652    104.1703
  1461.7000     26.5959   -167.1239     24.1652    102.4842
  1461.8000     26.2607   -168.2763     24.0343    100.6587
  1461.9000     26.2607   -168.2763     24.0343     98.8203
  1462.0000     25.9856   -169.6656     23.9143     97.1076
  1462.1000     25.9856   -169.6656     23.9143     95.6573
  1462.2000     25.9856   -169.6656     23.9143     94.5859
  1462.3000     25.8906   -171.1019     23.8554     93.9808
  1462.4000     25.8906   -171.1019     23.8554     93.8842
  1462.5000     26.0612   -172.4364     23.9153     94.2886
  1462.6000     26.0612   -172.4364     23.9153     95.1354
  1462.7000     26.0612   -172.4364     23.9153     96.3242
  1462.8000     26.4896   -173.5729     24.1221     97.7200
  1462.9000     26.4896   -173.5729     24.1221     99.1733
  1463.0000     27.0512   -174.4617     24.4475    100.5362
  1463.1000     27.0512   -174.4617     24.4475    101.6760
  1463.2000     27.0512   -174.4617     24.4475    102.4893
  1463.3000     27.5360   -175.0865     24.7977    102.9082
  1463.4000     27.5360   -175.0865     24.7977    102.9077
  1463.5000     27.7268   -175.4478     25.0296    102.5060
  1463.6000     27.7268   -175.4478     25.0296    101.7622
  1463.7000     27.7268   -175.4478     25.0296    100.7705
  1463.8000     27.4888   -175.5530     24.9968     99.6534
  1463.9000     27.4888   -175.5530     24.9968     98.5508
  1464.0000     26.8287   -175.4130     24.6110     97.6061
  1464.1000     26.8287   -175.4130     24.6110     96.9536
  1464.2000     26.8287   -175.4130     24.6110     96.7047
  1464.3000     25.8850   -175.0455     23.8815     96.9355
  1464.4000     25.8850   -175.0455     23.8815     97.6813
  1464.5000     24.8524   -174.4792     22.9045     98.9341
  1464.6000     24.8524   -174.4792     22.9045    100.6478
  1464.7000     24.8524   -174.4792     22.9045    102.7402
  1464.8000     23.8889   -173.7590     21.8118    105.1079
  1464.9000     23.8889   -173.7590     21.8118    107.6340
  1465.0000     23.0644   -172.9458     20.7186    110.2008
  1465.1000     23.0644   -172.9458     20.7186    112.6994
  1465.2000     23.0644   -172.9458     20.7186    115.0355
  1465.3000     22.3666   -172.1103     19.6984    117.1376
  1465.4000     22.3666   -172.1103     19.6984    118.9601
  1465.5000     21.7391   -171.3247     18.7837    120.4841
  1465.6000     21.7391   -171.3247     18.7837    121.7142
  1465.7000     21.7391   -171.3247     18.7837    122.6737
  1465.8000     21.1211   -170.6522     17.9800    123.4000
  1465.9000     21.1211   -170.6522     17.9800    123.9352
  1466.0000     20.4716   -170.1379     17.2817    124.3195
  1466.1000     20.4716   -170.1379     17.2817    124.5870
  1466.2000     20.4716   -170.1379     17.2817    124.7639
  1466.3000     19.7743   -169.8036     16.6837    124.8722
  1466.4000     19.7743   -169.8036     16.6837    124.9229
  1466.5000     19.0312   -169.6469     16.1866    124.9277
  1466.6000     19.0312   -169.6469     16.1866    124.8933
  1466.7000     19.0312   -169.6469     16.1866    124.8214
  1466.8000     18.2516   -169.6446     15.7937    124.7092
  1466.9000     18.2516   -169.6446     15.7937    124.5447
  1467.0000     17.4516   -169.7584     15.5055    124.3054
  1467.1000     17.4516   -169.7584     15.5055    123.9626
  1467.2000     17.4516   -169.7584     15.5055    123.4841
  1467.3000     16.6610   -169.9417     15.3154    122.8433
  1467.4000     16.6610   -169.9417     15.3154    122.0278
  1467.5000     15.9330   -170.1454     15.2108    121.0445
  1467.6000     15.9330   -170.1454     15.2108    119.9225
  1467.7000     15.9330   -170.1454     15.2108    118.7143
  1467.8000     15.3402   -170.3223     15.1779    117.4863
  1467.9000     15.3402   -170.3223     15.1779    116.3121
  1468.0000     14.9583   -170.4305     15.2046    115.2564
  1468.1000     14.9583   -170.4305     15.2046    114.3747
  1468.2000     14.9583   -170.4305     15.2046    113.7041
  1468.3000     14.8432   -170.4345     15.2801    113.2645
  1468.4000     14.8432   -170.4345     15.2801    113.0629
  1468.5000     15.0142   -170.3063     15.3910    113.0972
  1468.6000     15.0142   -170.3063     15.3910    113.3587
  1468.7000     15.0142   -170.3063     15.3910    113.8346
  1468.8000     15.4407   -170.0264     15.5171    114.5100
  1468.9000     15.4407   -170.0264     15.5171    115.3600
  1469.0000     16.0352   -169.5848     15.6306    116.3510
  1469.1000     16.0352   -169.5848     15.6306    117.4387
  1469.2000     16.0352   -169.5848     15.6306    118.5722
  1469.3000     16.6594   -168.9826     15.7012    119.6998
  1469.4000     16.6594   -168.9826     15.7012    120.7726
  1469.5000     17.1578   -168.2322     15.7042    121.7558
  1469.6000     17.1578   -168.2322     15.7042    122.6300
  1469.7000     17.1578   -168.2322     15.7042    123.3932
  1469.8000     17.4103   -167.3573     15.6270    124.0606
  1469.9000     17.4103   -167.3573     15.6270    124.6571
  1470.0000     17.3713   -166.3909     15.4707    125.2146
  1470.1000     17.3713   -166.3909     15.4707    125.7656
  1470.2000     17.3713   -166.3909     15.4707    126.3414
  1470.3000     17.0710   -165.3708     15.2485    126.9645
  1470.4000     17.0710   -165.3708     15.2485    127.6537
  1470.5000     16.5878   -164.3358     14.9831    128.4165
  1470.6000     16.5878   -164.3358     14.9831    129.2485
  1470.7000     16.5878   -164.3358     14.9831    130.1320
  1470.8000     16.0217   -163.3208     14.7042    131.0348
  1470.9000     16.0217   -163.3208     14.7042    131.9076
  1471.0000     15.4780   -162.3548     14.4424    132.6928
  1471.1000     15.4780   -162.3548     14.4424    133.3277
  1471.2000     15.4780   -162.3548     14.4424    133.7551
  1471.3000     15.0499   -161.4594     14.2226    133.9321
  1471.4000     15.0499   -161.4594     14.2226    133.8387
  1471.5000     14.7939   -160.6507     14.0591    133.4845
  1471.6000     14.7939   -160.6507     14.0591    132.9068
  1471.7000     14.7939   -160.6507     14.0591    132.1664
  1471.8000     14.7135   -159.9416     13.9581    131.3396
  1471.9000     14.7135   -159.9416     13.9581    130.5031
  1472.0000     14.7667   -159.3423     13.9227    129.7267
  1472.1000     14.7667   -159.3423     13.9227    129.0643
  1472.2000     14.7667   -159.3423     13.9227    128.5425
  1472.3000     14.8985   -158.8614     13.9572    128.1642
  1472.4000     14.8985   -158.8614     13.9572    127.9096
  1472.5000     15.0789   -158.5031     14.0655    127.7419
  1472.6000     15.0789   -158.5031     14.0655    127.6155
  1472.7000     15.0789   -158.5031     14.0655    127.4875
  1472.8000     15.3160   -158.2659     14.2464    127.3247
  1472.9000     15.3160   -158.2659     14.2464    127.1091
  1473.0000     15.6341   -158.1400     14.4909    126.8383
  1473.1000     15.6341   -158.1400     14.4909    126.5258
  1473.2000     15.6341   -158.1400     14.4909    126.1881
  1473.3000     16.0360   -158.1085     14.7835    125.8416
  1473.4000     16.0360   -158.1085     14.7835    125.4882
  1473.5000     16.4935   -158.1494     15.1065    125.1182
  1473.6000     16.4935   -158.1494     15.1065    124.7008
  1473.7000     16.4935   -158.1494     15.1065    124.2000
  1473.8000     16.9743   -158.2411     15.4435    123.5771
  1473.9000     16.9743   -158.2411     15.4435    122.8047
  1474.0000     17.4751   -158.3675     15.7823    121.8741
  1474.1000     17.4751   -158.3675     15.7823    120.7971
  1474.2000     17.4751   -158.3675     15.7823    119.6060
  1474.3000     18.0212   -158.5237     16.1163    118.3434
  1474.4000     18.0212   -158.5237     16.1163    117.0571
  1474.5000     18.6344   -158.7182     16.4470    115.7878
