~Version Information
VERS.                      2.0: CWLS Log ASCII Standard - VERSION 2.0
WRAP.                       NO: One line per depth step
~Well Information Block
STRT.FT               250.0000: 
STOP.FT              1573.7500: 
STEP.FT                 0.2500: 
NULL.                -999.2500: 
COMP.          Pioneer Natural Resources: COMPANY
WELL.          Big Cat Federal 44-1: WELL
FLD.           Purgatoire River: FIELD
LOC.           197' FSL & 973' FEL--: LOCATION
CNTY.               Las Animas: COUNTY
SRVC.                Patterson: SERVICE COMPANY
DATE.          Sun Apr 23 14:54:11 2006: LOG DATE
UWI.           05 071 08042 00: UNIQUE WELL ID
STAT.                 Colorado: STATE
~Curve Information Block
DEPT.FT            0 000 00 00: Depth
DIR.Ohm-m                     : IEL Induction Resistivity
GR.GAPI                       : Gamma Ray
~Parameter Information Block
~A  Depth       DIR          GR     
# ...
   751.7500     19.5990    106.5751
   752.0000     20.0394    110.6749
   752.2500     20.4703    113.6017
   752.5000     20.8408    117.3985
   752.7500     21.1020    119.0233
   753.0000     21.2145    119.3346
   753.2500     21.1589    118.1768
   753.5000     20.9449    115.7486
   753.7500     20.6123    114.8019
   754.0000     20.2183    115.7199
   754.2500     19.8207    118.0079
   754.5000     19.4651    123.1991
   754.7500     19.1792    127.0463
   755.0000     18.9726    131.8850
   755.2500     18.8402    133.8539
   755.5000     18.7673    134.7582
   755.7500     18.7361    134.3576
   756.0000     18.7341    132.9548
   756.2500     18.7606    131.6386
   756.5000     18.8284    128.9583
   756.7500     18.9598    126.6768
   757.0000     19.1776    123.0296
   757.2500     19.4962    120.9688
   757.5000     19.9122    118.9401
   757.7500     20.3974    118.1373
   758.0000     20.8963    117.2116
   758.2500     21.3334    116.6817
   758.5000     21.6323    116.2718
   758.7500     21.7395    116.4222
   759.0000     21.6384    117.4044
   759.2500     21.3435    118.4848
   759.5000     20.8881    120.0437
   759.7500     20.3155    120.2187
   760.0000     19.6770    117.7744
   760.2500     19.0265    114.2589
   760.5000     18.4090    107.9372
   760.7500     17.8516    104.5891
   761.0000     17.3625    102.4585
   761.2500     16.9395    102.7830
   761.5000     16.5804    104.5333
   761.7500     16.2905    105.8001
   762.0000     16.0800    106.9443
   762.2500     15.9553    106.8245
   762.5000     15.9083    105.2567
   762.7500     15.9116    103.7738
   763.0000     15.9192    102.1821
   763.2500     15.8759    102.0900
   763.5000     15.7306    103.6102
   763.7500     15.4522    105.5705
   764.0000     15.0429    109.6650
   764.2500     14.5388    113.1183
   764.5000     13.9961    119.1507
   764.7500     13.4687    123.2976
   765.0000     12.9921    128.8437
   765.2500     12.5794    131.9844
   765.5000     12.2296    136.3778
   765.7500     11.9384    139.3295
   766.0000     11.7064    143.4495
   766.2500     11.5403    145.4148
   766.5000     11.4508    146.1374
   766.7500     11.4483    144.9148
   767.0000     11.5400    141.2264
   767.2500     11.7274    138.2898
   767.5000     12.0026    134.1299
   767.7500     12.3458    131.6900
   768.0000     12.7238    128.4799
   768.2500     13.0941    126.6346
   768.5000     13.4151    124.5177
   768.7500     13.6597    123.8077
   769.0000     13.8226    124.3793
   769.2500     13.9162    126.0442
   769.5000     13.9569    130.0886
   769.7500     13.9535    133.1727
   770.0000     13.9046    137.0792
   770.2500     13.8050    138.6352
   770.5000     13.6543    139.0003
   770.7500     13.4624    138.0672
   771.0000     13.2470    135.7934
   771.2500     13.0288    134.3964
   771.5000     12.8266    133.2468
   771.7500     12.6566    133.1193
   772.0000     12.5344    133.6914
   772.2500     12.4761    134.6492
   772.5000     12.4982    136.9984
   772.7500     12.6164    138.7083
   773.0000     12.8449    139.7980
   773.2500     13.1923    138.5522
   773.5000     13.6569    133.0323
   773.7500     14.2227    127.2750
   774.0000     14.8580    117.0341
   774.2500     15.5204    110.1624
   774.5000     16.1626    101.1854
   774.7500     16.7385     96.6446
   775.0000     17.2077     92.8654
   775.2500     17.5403     92.9343
   775.5000     17.7185     97.3912
   775.7500     17.7353    102.7054
   776.0000     17.5928    111.6357
   776.2500     17.3036    116.4395
   776.5000     16.8956    120.1826
   776.7500     16.4117    120.7396
   777.0000     15.9034    121.0516
   777.2500     15.4186    122.1915
   777.5000     14.9925    125.6575
   777.7500     14.6426    128.4238
   778.0000     14.3667    131.9621
   778.2500     14.1450    133.6298
   778.5000     13.9439    135.2114
   778.7500     13.7262    135.7800
   779.0000     13.4653    136.1483
   779.2500     13.1579    136.3710
   779.5000     12.8279    137.3859
   779.7500     12.5162    138.7105
   780.0000     12.2640    141.1482
   780.2500     12.0997    142.5888
   780.5000     12.0349    144.1910
   780.7500     12.0686    144.9058
   781.0000     12.1940    144.7682
   781.2500     12.4041    143.0490
   781.5000     12.6935    137.2384
   781.7500     13.0589    131.7022
   782.0000     13.5002    122.9188
   782.2500     14.0216    117.8207
   782.5000     14.6294    111.9884
   782.7500     15.3271    109.1004
   783.0000     16.1042    105.6747
   783.2500     16.9262    103.8056
   783.5000     17.7263    101.5814
   783.7500     18.4066    100.5728
   784.0000     18.8553    100.1282
   784.2500     18.9809    100.7612
   784.5000     18.7505    103.1602
   784.7500     18.2021    105.5896
   785.0000     17.4200    110.3529
   785.2500     16.4950    114.3523
   785.5000     15.5006    121.5242
   785.7500     14.4905    126.6160
   786.0000     13.5065    133.3207
   786.2500     12.5822    136.5341
   786.5000     11.7434    139.6281
   786.7500     11.0075    141.3488
   787.0000     10.3822    144.8759
   787.2500      9.8655    147.9775
   787.5000      9.4482    152.4224
   787.7500      9.1177    154.3007
   788.0000      8.8625    154.9787
   788.2500      8.6741    154.2793
   788.5000      8.5459    151.9956
   788.7500      8.4706    149.8850
   789.0000      8.4386    146.6670
   789.2500      8.4394    145.0566
   789.5000      8.4637    143.6014
   789.7500      8.5051    142.8129
   790.0000      8.5595    141.1555
   790.2500      8.6241    139.7826
   790.5000      8.6966    137.9628
   790.7500      8.7747    137.1338
   791.0000      8.8574    136.1615
   791.2500      8.9462    135.3229
   791.5000      9.0451    133.5231
   791.7500      9.1582    132.2039
   792.0000      9.2851    130.8124
   792.2500      9.4178    130.5516
   792.5000      9.5390    130.8232
   792.7500      9.6267    130.8800
   793.0000      9.6619    130.1222
   793.2500      9.6372    129.3664
   793.5000      9.5613    129.4480
   793.7500      9.4574    131.1601
   794.0000      9.3534    136.2472
   794.2500      9.2716    140.3587
   794.5000      9.2208    145.0882
   794.7500      9.1956    145.9990
   795.0000      9.1814    143.2214
   795.2500      9.1629    139.2134
   795.5000      9.1327    132.3295
   795.7500      9.0931    128.6805
   796.0000      9.0535    126.3309
   796.2500      9.0241    127.0850
   796.5000      9.0101    131.0356
   796.7500      9.0104    134.8159
   797.0000      9.0182    140.9005
   797.2500      9.0239    144.7714
   797.5000      9.0185    150.3493
   797.7500      8.9960    154.1899
   798.0000      8.9536    159.9347
   798.2500      8.8914    162.8634
   798.5000      8.8114    163.8665
   798.7500      8.7169    161.7890
   799.0000      8.6120    155.9427
   799.2500      8.5024    151.8362
   799.5000      8.3949    147.5822
   799.7500      8.2978    146.3660
   800.0000      8.2193    146.2605
   800.2500      8.1658    146.7421
   800.5000      8.1404    147.6287
   800.7500      8.1431    148.1036
   801.0000      8.1731    148.2735
   801.2500      8.2314    147.7925
   801.5000      8.3228    145.8524
   801.7500      8.4564    143.6706
   802.0000      8.6449    139.1982
   802.2500      8.9035    135.6066
   802.5000      9.2480    129.6996
   802.7500      9.6927    125.6468
   803.0000     10.2476    119.7173
   803.2500     10.9156    115.9934
   803.5000     11.6904    110.9102
   803.7500     12.5566    107.8705
   804.0000     13.4938    103.5564
   804.2500     14.4843    100.4891
   804.5000     15.5187     94.9571
   804.7500     16.5972     90.5336
   805.0000     17.7265     83.3260
   805.2500     18.9154     78.6895
   805.5000     20.1683     72.6611
   805.7500     21.4767     69.3397
   806.0000     22.8093     65.2974
   806.2500     24.1112     63.1803
   806.5000     25.3178     60.8087
   806.7500     26.3806     59.7295
   807.0000     27.2798     58.8107
   807.2500     28.0094     58.6210
