~Version Information
VERS.                      2.0: CWLS Log ASCII Standard - VERSION 2.0
WRAP.                       NO: One line per depth step
~Well Information Block
STRT.FT                 0.6000: 
STOP.FT              2735.2000: 
STEP.FT                 0.1000: 
NULL.                -999.2500: 
COMP.          Pioneer Natural Resources: COMPANY
WELL.              Cluck 21-25: WELL
FLD.           Purgatoire River: FIELD
LOC.           91' FNL & 1834' FWL--: LOCATION
PROV.                 Colorado: PROVINCE
CNTY.               Las Animas: COUNTRY
SRVC.                Patterson: SERVICE COMPANY
DATE.          Mon Jun 06 19:08:34 2005: LOG DATE
UWI.           05 071 08397 00: UNIQUE WELL ID
~Curve Information Block
DEPT.FT            0 000 00 00: Depth
SN.Ohm-m                      : IEL Short Normal
SP.mV                         : IEL Spontaneous Potential
DIR.Ohm-m                     : IEL Induction Resistivity
GR.GAPI                       : Gamma Ray
~Parameter Information Block
~A  Depth        SN          SP         DIR          GR     
# ...
  2359.0000     11.5105     25.1091      9.3986    124.5634
  2359.1000     11.5105     25.1091      9.3986    125.2760
  2359.2000     11.5105     25.1091      9.3986    126.1941
  2359.3000     11.6972     24.6622      9.6016    127.2112
  2359.4000     11.6972     24.6622      9.6016    128.2079
  2359.5000     11.8513     24.2467      9.8416    129.0652
  2359.6000     11.8513     24.2467      9.8416    129.6813
  2359.7000     11.8513     24.2467      9.8416    129.9842
  2359.8000     11.9575     23.9142     10.1201    129.9407
  2359.9000     11.9575     23.9142     10.1201    129.5546
  2360.0000     11.9906     23.7200     10.4256    128.8668
  2360.1000     11.9906     23.7200     10.4256    127.9446
  2360.2000     11.9906     23.7200     10.4256    126.8719
  2360.3000     11.9189     23.7136     10.7324    125.7296
  2360.4000     11.9189     23.7136     10.7324    124.5921
  2360.5000     11.7159     23.9270     11.0031    123.5120
  2360.6000     11.7159     23.9270     11.0031    122.5218
  2360.7000     11.7159     23.9270     11.0031    121.6383
  2360.8000     11.3792     24.3655     11.1963    120.8672
  2360.9000     11.3792     24.3655     11.1963    120.2134
  2361.0000     10.9467     25.0027     11.2804    119.6839
  2361.1000     10.9467     25.0027     11.2804    119.2942
  2361.2000     10.9467     25.0027     11.2804    119.0639
  2361.3000     10.4953     25.7800     11.2459    119.0068
  2361.4000     10.4953     25.7800     11.2459    119.1315
  2361.5000     10.1202     26.6128     11.1087    119.4270
  2361.6000     10.1202     26.6128     11.1087    119.8646
  2361.7000     10.1202     26.6128     11.1087    120.3968
  2361.8000      9.9094     27.4000     10.9012    120.9553
  2361.9000      9.9094     27.4000     10.9012    121.4595
  2362.0000      9.9224     28.0360     10.6587    121.8273
  2362.1000      9.9224     28.0360     10.6587    121.9790
  2362.2000      9.9224     28.0360     10.6587    121.8568
  2362.3000     10.1744     28.4236     10.4089    121.4353
  2362.4000     10.1744     28.4236     10.4089    120.7298
  2362.5000     10.6268     28.4868     10.1692    119.8026
  2362.6000     10.6268     28.4868     10.1692    118.7578
  2362.7000     10.6268     28.4868     10.1692    117.7267
  2362.8000     11.1874     28.1807      9.9487    116.8483
  2362.9000     11.1874     28.1807      9.9487    116.2428
  2363.0000     11.7299     27.4997      9.7540    115.9885
  2363.1000     11.7299     27.4997      9.7540    116.1054
  2363.2000     11.7299     27.4997      9.7540    116.5477
  2363.3000     12.1314     26.4808      9.5941    117.2150
  2363.4000     12.1314     26.4808      9.5941    117.9679
  2363.5000     12.3106     25.2024      9.4824    118.6533
  2363.6000     12.3106     25.2024      9.4824    119.1358
  2363.7000     12.3106     25.2024      9.4824    119.3126
  2363.8000     12.2419     23.7767      9.4350    119.1305
  2363.9000     12.2419     23.7767      9.4350    118.5868
  2364.0000     11.9439     22.3379      9.4641    117.7202
  2364.1000     11.9439     22.3379      9.4641    116.5962
  2364.2000     11.9439     22.3379      9.4641    115.2862
  2364.3000     11.4620     21.0259      9.5725    113.8558
  2364.4000     11.4620     21.0259      9.5725    112.3499
  2364.5000     10.8615     19.9687      9.7489    110.7937
  2364.6000     10.8615     19.9687      9.7489    109.1978
  2364.7000     10.8615     19.9687      9.7489    107.5674
  2364.8000     10.2262     19.2669      9.9664    105.9204
  2364.9000     10.2262     19.2669      9.9664    104.2947
  2365.0000      9.6535     18.9808     10.1851    102.7620
  2365.1000      9.6535     18.9808     10.1851    101.4239
  2365.2000      9.6535     18.9808     10.1851    100.4041
  2365.3000      9.2364     19.1258     10.3596     99.8356
  2365.4000      9.2364     19.1258     10.3596     99.8391
  2365.5000      9.0351     19.6734     10.4487    100.5007
  2365.6000      9.0351     19.6734     10.4487    101.8578
  2365.7000      9.0351     19.6734     10.4487    103.8822
  2365.8000      9.0481     20.5599     10.4269    106.4852
  2365.9000      9.0481     20.5599     10.4269    109.5251
  2366.0000      9.2069     21.6996     10.2891    112.8210
  2366.1000      9.2069     21.6996     10.2891    116.1745
  2366.2000      9.2069     21.6996     10.2891    119.3954
  2366.3000      9.4053     23.0003     10.0492    122.3169
  2366.4000      9.4053     23.0003     10.0492    124.8114
  2366.5000      9.5447     24.3760      9.7345    126.8000
  2366.6000      9.5447     24.3760      9.7345    128.2510
  2366.7000      9.5447     24.3760      9.7345    129.1789
  2366.8000      9.5693     25.7562      9.3782    129.6382
  2366.9000      9.5693     25.7562      9.3782    129.7072
  2367.0000      9.4726     27.0887      9.0135    129.4830
  2367.1000      9.4726     27.0887      9.0135    129.0705
  2367.2000      9.4726     27.0887      9.0135    128.5717
  2367.3000      9.2830     28.3380      8.6682    128.0799
  2367.4000      9.2830     28.3380      8.6682    127.6750
  2367.5000      9.0456     29.4808      8.3630    127.4243
  2367.6000      9.0456     29.4808      8.3630    127.3805
  2367.7000      9.0456     29.4808      8.3630    127.5751
  2367.8000      8.8066     30.5013      8.1109    128.0260
  2367.9000      8.8066     30.5013      8.1109    128.7284
  2368.0000      8.6014     31.3876      7.9184    129.6562
  2368.1000      8.6014     31.3876      7.9184    130.7593
  2368.2000      8.6014     31.3876      7.9184    131.9709
  2368.3000      8.4463     32.1312      7.7866    133.2092
  2368.4000      8.4463     32.1312      7.7866    134.3896
  2368.5000      8.3392     32.7266      7.7110    135.4346
  2368.6000      8.3392     32.7266      7.7110    136.2773
  2368.7000      8.3392     32.7266      7.7110    136.8719
  2368.8000      8.2685     33.1732      7.6823    137.1910
  2368.9000      8.2685     33.1732      7.6823    137.2243
  2369.0000      8.2221     33.4757      7.6866    136.9734
  2369.1000      8.2221     33.4757      7.6866    136.4422
  2369.2000      8.2221     33.4757      7.6866    135.6403
  2369.3000      8.1907     33.6441      7.7084    134.5755
  2369.4000      8.1907     33.6441      7.7084    133.2612
  2369.5000      8.1684     33.6920      7.7329    131.7221
  2369.6000      8.1684     33.6920      7.7329    129.9962
  2369.7000      8.1684     33.6920      7.7329    128.1391
  2369.8000      8.1517     33.6350      7.7495    126.2259
  2369.9000      8.1517     33.6350      7.7495    124.3349
  2370.0000      8.1379     33.4878      7.7526    122.5510
  2370.1000      8.1379     33.4878      7.7526    120.9520
  2370.2000      8.1379     33.4878      7.7526    119.6019
  2370.3000      8.1231     33.2624      7.7406    118.5496
  2370.4000      8.1231     33.2624      7.7406    117.8265
  2370.5000      8.1025     32.9668      7.7145    117.4488
  2370.6000      8.1025     32.9668      7.7145    117.4196
  2370.7000      8.1025     32.9668      7.7145    117.7264
  2370.8000      8.0723     32.6049      7.6769    118.3386
  2370.9000      8.0723     32.6049      7.6769    119.2042
  2371.0000      8.0311     32.1777      7.6314    120.2517
  2371.1000      8.0311     32.1777      7.6314    121.3858
  2371.2000      8.0311     32.1777      7.6314    122.4947
  2371.3000      7.9800     31.6838      7.5827    123.4705
  2371.4000      7.9800     31.6838      7.5827    124.2191
  2371.5000      7.9222     31.1205      7.5358    124.6751
  2371.6000      7.9222     31.1205      7.5358    124.8184
  2371.7000      7.9222     31.1205      7.5358    124.6782
  2371.8000      7.8647     30.4835      7.4949    124.3274
  2371.9000      7.8647     30.4835      7.4949    123.8724
  2372.0000      7.8189     29.7662      7.4628    123.4360
  2372.1000      7.8189     29.7662      7.4628    123.1340
  2372.2000      7.8189     29.7662      7.4628    123.0618
  2372.3000      7.7964     28.9590      7.4412    123.2749
