~Version Information
VERS.                      2.0: CWLS Log ASCII Standard - VERSION 2.0
WRAP.                       NO: One line per depth step
~Well Information Block
STRT.FT               472.0000: 
STOP.FT              2428.5000: 
STEP.FT                 0.1000: 
NULL.                -999.2500: 
COMP.          Pioneer Natural Resources: COMPANY
WELL.          Flying Horse 12-11: WELL
FLD.           Purgatoire River: FIELD
LOC.           2428' FNL & 308' FWL: LOCATION
PROV.                 Colorado: PROVINCE
CNTY.               Las Animas: COUNTRY
SRVC.                Patterson: SERVICE COMPANY
DATE.          Mon May 30 06:06:20 2005: LOG DATE
UWI.           05 071 08378 00: UNIQUE WELL ID
~Curve Information Block
DEPT.FT            0 000 00 00: Depth
DCAL.in                       : CDL Caliper
RHOB.g/cc                     : CDL Bulk Density
RHOC.g/cc                     : CDL Density Correction
DPOR.pu                       : CDL Density Porosity
GR.GAPI                       : Gamma Ray
NPOR.pu                       : Neutron Porosity
~Parameter Information Block
~A  Depth       DCAL        RHOB        RHOC        DPOR         GR         NPOR    
# ...
  2027.2000      7.9177      2.5993      0.1287      3.0752     72.2294     21.6435
  2027.3000      7.8812      2.6078      0.1294      2.5558     65.3817     22.0380
  2027.4000      7.8812      2.6017      0.0990      2.9275     62.9931     21.9322
  2027.5000      7.9040      2.5865      0.0845      3.8488     65.1847     21.7459
  2027.6000      7.9040      2.5671      0.0631      5.0215     68.5032     22.2177
  2027.7000      7.9040      2.5443      0.0771      6.4057     67.3186     22.8928
  2027.8000      7.9106      2.5255      0.0708      7.5474     59.6237     22.5573
  2027.9000      7.9106      2.5276      0.0328      7.4153     51.8486     21.6714
  2028.0000      7.9086      2.5534      0.0847      5.8567     48.9137     21.5627
  2028.1000      7.9086      2.5817      0.0914      4.1367     48.8431     22.2796
  2028.2000      7.9086      2.6002      0.0765      3.0186     48.3703     22.9748
  2028.3000      7.9143      2.6125      0.0883      2.2700     46.6024     23.4404
  2028.4000      7.9143      2.6123      0.0962      2.2874     44.7575     24.0784
  2028.5000      7.9162      2.5892      0.0702      3.6821     43.9902     24.5455
  2028.6000      7.9162      2.5533      0.0076      5.8636     44.6047     24.2612
  2028.7000      7.9162      2.5236      0.0389      7.6577     45.1638     23.5132
  2028.8000      7.9166      2.5115      0.0263      8.3952     44.2292     23.1581
  2028.9000      7.9166      2.5151      0.0074      8.1756     44.0361     23.4017
  2029.0000      7.9164      2.5181      0.0099      7.9937     45.4331     23.7356
  2029.1000      7.9164      2.5073      0.0184      8.6484     46.4064     23.9575
  2029.2000      7.9164      2.4913      0.0128      9.6163     47.4391     24.0534
  2029.3000      7.9210      2.4854     -0.0082      9.9749     50.6802     23.9109
  2029.4000      7.9210      2.4871      0.0520      9.8746     55.9856     23.4565
  2029.5000      7.9264      2.4848      0.0659     10.0142     60.4802     22.8405
  2029.6000      7.9264      2.4808      0.0591     10.2527     62.4079     22.1182
  2029.7000      7.9264      2.4832      0.0380     10.1062     62.3127     21.6026
  2029.8000      7.9509      2.4888      0.0572      9.7678     60.2564     22.0064
  2029.9000      7.9509      2.5009      0.0476      9.0350     55.5528     22.6509
  2030.0000      7.8978      2.5324      0.0433      7.1269     50.7973     21.9665
  2030.1000      7.8978      2.5687      0.1217      4.9271     50.3985     20.6426
  2030.2000      7.8978      2.5774      0.1572      4.3979     52.9604     20.2504
  2030.3000      7.8739      2.5583      0.1201      5.5565     53.5046     20.3215
  2030.4000      7.8739      2.5381      0.1291      6.7809     51.5767     20.1844
  2030.5000      7.8636      2.5352      0.0784      6.9580     48.6087     19.9451
  2030.6000      7.8636      2.5519      0.0692      5.9448     45.0492     18.8293
  2030.7000      7.8636      2.5688      0.1331      4.9224     43.1639     16.9879
  2030.8000      7.8539      2.5656      0.0667      5.1143     43.4748     15.9673
  2030.9000      7.8539      2.5566      0.0446      5.6633     44.4377     16.3932
  2031.0000      7.8618      2.5634      0.0341      5.2500     45.8111     17.6438
  2031.1000      7.8618      2.5726      0.1297      4.6903     46.0292     18.5031
  2031.2000      7.8618      2.5637      0.0398      5.2295     43.4881     18.6589
  2031.3000      7.9447      2.5544     -0.0197      5.7931     39.0071     19.0898
  2031.4000      7.9447      2.5620      0.0597      5.3337     35.3146     20.0995
  2031.5000      7.9768      2.5773      0.0360      4.4054     35.1449     20.8595
  2031.6000      7.9768      2.5926      0.0303      3.4780     37.8693     20.9357
  2031.7000      7.9768      2.5963      0.0703      3.2546     40.1646     20.5617
  2031.8000      7.9742      2.5826      0.0299      4.0847     40.4983     19.9564
  2031.9000      7.9742      2.5745      0.0208      4.5765     40.6625     19.2773
  2032.0000      7.9741      2.5817      0.0735      4.1365     41.2299     18.6047
  2032.1000      7.9741      2.5795      0.0655      4.2745     41.7058     18.0665
  2032.2000      7.9741      2.5568      0.0691      5.6491     41.7325     17.7170
  2032.3000      7.9481      2.5392     -0.0098      6.7173     39.6249     17.6658
  2032.4000      7.9481      2.5485      0.0057      6.1528     36.0348     17.8340
  2032.5000      7.9141      2.5726      0.0728      4.6912     34.3272     17.6892
  2032.6000      7.9141      2.5839      0.1237      4.0037     35.0938     17.2867
  2032.7000      7.9141      2.5749      0.0999      4.5535     34.8950     17.5930
  2032.8000      7.8998      2.5580      0.0796      5.5751     31.9345     18.5957
  2032.9000      7.8998      2.5421      0.0564      6.5412     30.1162     19.2835
  2033.0000      7.8977      2.5316      0.0207      7.1783     33.8865     19.7462
  2033.1000      7.8977      2.5384      0.0343      6.7627     41.3149     20.3107
  2033.2000      7.8977      2.5635      0.1076      5.2416     45.9640     20.1898
  2033.3000      7.8903      2.5848      0.1586      3.9527     45.6919     18.9206
  2033.4000      7.8903      2.5962      0.0841      3.2585     43.2112     17.5609
  2033.5000      7.9003      2.6116      0.0947      2.3265     40.2639     17.1489
  2033.6000      7.9003      2.6222      0.1202      1.6852     37.4340     17.4427
  2033.7000      7.9003      2.6097      0.0960      2.4414     35.8349     17.4312
  2033.8000      7.9010      2.5828      0.0299      4.0715     34.5655     16.4799
  2033.9000      7.9010      2.5684      0.0307      4.9443     32.0365     15.4142
  2034.0000      7.9038      2.5762      0.0722      4.4710     28.8266     15.2480
  2034.1000      7.9038      2.5880      0.0713      3.7562     26.7983     15.7613
  2034.2000      7.9038      2.5843      0.0337      3.9812     26.8841     15.9975
  2034.3000      7.9123      2.5675      0.0358      4.9974     27.7880     15.7499
  2034.4000      7.9123      2.5517      0.0310      5.9556     26.9076     15.6753
  2034.5000      7.8971      2.5385      0.0736      6.7595     23.7723     16.1044
  2034.6000      7.8971      2.5217      0.0397      7.7741     21.2135     16.8888
  2034.7000      7.8971      2.5042      0.0100      8.8373     21.2474     17.7959
  2034.8000      7.9359      2.4911     -0.0022      9.6277     23.6112     18.4217
  2034.9000      7.9359      2.4807      0.0468     10.2591     27.0601     18.7334
  2035.0000      7.9584      2.4661      0.0123     11.1449     29.1788     19.4877
  2035.1000      7.9584      2.4462     -0.0180     12.3522     29.1519     20.7389
  2035.2000      7.9584      2.4319     -0.0214     13.2212     28.5777     21.5845
  2035.3000      7.9625      2.4388     -0.0159     12.8003     27.9564     21.7742
  2035.4000      7.9625      2.4635      0.0369     11.3043     27.2303     21.9809
  2035.5000      7.9878      2.4838      0.0612     10.0727     27.7706     22.3220
  2035.6000      7.9878      2.4869      0.0672      9.8867     30.7221     21.7433
  2035.7000      7.9878      2.4743      0.0493     10.6498     34.5846     20.3463
  2035.8000      7.9787      2.4577      0.0051     11.6558     37.5354     19.9997
  2035.9000      7.9787      2.4521     -0.0285     11.9940     39.6476     21.3023
  2036.0000      7.9726      2.4638      0.0208     11.2828     41.0319     22.8851
  2036.1000      7.9726      2.4856      0.0449      9.9645     40.9289     23.5911
  2036.2000      7.9726      2.4972      0.0735      9.2616     38.7408     23.4604
  2036.3000      7.9758      2.4857      0.0462      9.9564     36.1864     23.0363
  2036.4000      7.9758      2.4609      0.0606     11.4622     37.0464     22.8923
  2036.5000      7.9906      2.4396      0.0161     12.7536     40.5640     23.0072
  2036.6000      7.9906      2.4374      0.0079     12.8831     41.3534     22.7008
  2036.7000      7.9906      2.4521      0.0601     11.9933     39.8045     21.7011
