~Version Information
 VERS.                                  2.0 : CWLS LAS VERSION
 WRAP.                                   NO : WRAPING MODE
 SWARE .                 MController 2.5.0J : SOFTWARE VERSION
~Well Information
 WELL.                         State 16-41R : WELL
 COMP.                Petrogulf Corporation : COMPANY
 FLD.                      Purgatoire River : FIELD
 LOC.               NE/NE Sec 16 T33S R67W  : LOCATION
 DATE.                          10/17-18/05 : DATE(S) LOGGED
 SRVC.       BLANCO Geological Services LLC : SERVICE COMPANY
 STAT.                                   CO : STATE
 CNTY.                           Las Animas : COUNTY
 CTRY.                                  USA : COUNTRY
 API.                       05-071-08410-00 : API NUMBER
 STRT.FT                              11.00 : START DEPTH
 STOP.FT                            1635.00 : STOP DEPTH
 STEP.FT                               1.00 : DEPTH INCREMENT
 NULL.                                -9999 : NULL VALUE
~Curve information
 DEPTH.FT                                   :
 ROP.MIN/FT                                 :
 GAS.UNITS                                  :
~ASCII Log data
# ...
       411.0         0.23          5.2 
       412.0         0.20          5.2 
       413.0         0.20          4.8 
       414.0         0.10          4.6 
       415.0         0.10          4.8 
       416.0         1.32         12.1 
       417.0         0.10         11.3 
       418.0         0.17         11.8 
       419.0         0.20         11.3 
       420.0         0.23         10.8 
       421.0         0.17          9.8 
       422.0         0.20          9.2 
       423.0         0.17          8.2 
       424.0         0.17          7.9 
       425.0         0.17          7.5 
       426.0         0.17          7.3 
       427.0         0.17          7.3 
       428.0         0.17          7.7 
       429.0         0.13          7.2 
       430.0         0.17          7.5 
       431.0         0.18          7.1 
       432.0         0.27          6.9 
       433.0         0.27          7.1 
       434.0         0.23          7.1 
       435.0         0.27          7.3 
       436.0         0.23          7.3 
       437.0         0.30          7.2 
       438.0         0.27          7.5 
       439.0         0.23          7.1 
       440.0         0.30          7.1 
       441.0         0.30          7.4 
       442.0         0.27          6.5 
       443.0         0.28          6.5 
       444.0         0.30          5.9 
       445.0         0.23          5.8 
       446.0         2.40         13.3 
       447.0         0.22         12.6 
       448.0         0.33         12.6 
       449.0         0.37          6.0 
       450.0         0.30         10.4 
       451.0         0.33          9.8 
       452.0         0.40         27.3 
       453.0         0.20         27.6 
       454.0         0.17         27.2 
       455.0         0.13         27.1 
       456.0         0.13         27.4 
       457.0         0.10         27.3 
       458.0         0.13         28.0 
       459.0         0.13         27.6 
       460.0         0.13         27.7 
       461.0         0.17         26.9 
       462.0         0.20         26.9 
       463.0         0.25         26.6 
       464.0         0.27         26.6 
       465.0         0.23         26.6 
       466.0         0.23         25.2 
       467.0         0.23         23.3 
       468.0         0.27         22.0 
       469.0         0.27         33.3 
       470.0         0.20         39.7 
       471.0         0.23         45.4 
       472.0         0.20         48.4 
       473.0         0.20        116.0 
       474.0         0.17        179.8 
       475.0         0.20        178.0 
       476.0         1.48        131.3 
       477.0         0.20         27.4 
       478.0         0.37         26.8 
       479.0         0.23         24.2 
       480.0         0.17         23.3 
       481.0         0.13         23.5 
       482.0         0.13         22.5 
       483.0         0.13         22.5 
       484.0         0.17         22.4 
       485.0         0.13         24.4 
       486.0         0.13         31.4 
       487.0         0.20         41.4 
       488.0         0.18         44.9 
       489.0         0.13         45.0 
       490.0         0.13         45.0 
       491.0         0.13         44.9 
       492.0         0.17         45.4 
       493.0         0.13         43.9 
       494.0         0.13         43.0 
       495.0         0.13         37.6 
       496.0         0.13         34.2 
       497.0         0.13         38.3 
       498.0         0.10         44.0 
       499.0         0.13         52.3 
       500.0         0.10         58.1 
       501.0         0.17         65.4 
       502.0         0.13         70.0 
       503.0         0.10         72.4 
       504.0         0.23        168.8 
       505.0         0.20        270.9 
       506.0         1.88        265.6 
       507.0         0.20         43.1 
       508.0         0.13         42.6 
       509.0         0.13         43.0 
       510.0         0.13         43.3 
       511.0         0.17         43.0 
       512.0         0.20         43.0 
       513.0         0.17         42.6 
       514.0         0.17         42.2 
       515.0         0.18         41.9 
       516.0         0.20         41.6 
       517.0         0.17         41.1 
       518.0         0.27         40.3 
       519.0         0.40         39.9 
       520.0         0.23         40.3 
       521.0         0.17         40.2 
       522.0         0.20         40.4 
       523.0         0.23         39.9 
       524.0         0.17         39.2 
       525.0         0.20         37.6 
       526.0         0.13         32.5 
       527.0         0.13         30.1 
       528.0         0.17         30.3 
       529.0         0.17         35.1 
       530.0         0.17         41.6 
       531.0         0.17         47.9 
       532.0         0.15         54.6 
       533.0         0.17         60.6 
       534.0         0.17        100.9 
       535.0         0.10        142.2 
       536.0         1.67        179.1 
       537.0         0.27         46.3 
       538.0         0.23         41.4 
       539.0         0.30         38.2 
       540.0         0.18         35.8 
       541.0         0.20         34.1 
       542.0         0.17         32.8 
       543.0         0.17         31.9 
       544.0         0.20         31.0 
       545.0         0.20         30.2 
       546.0         0.20         29.2 
       547.0         0.20         28.6 
       548.0         0.20         29.3 
       549.0         0.17         30.3 
       550.0         0.23         31.2 
       551.0         0.20         31.6 
       552.0         0.20         31.6 
       553.0         0.20         31.0 
       554.0         0.23         30.6 
       555.0         0.33         30.0 
       556.0         0.32         29.1 
       557.0         0.33         28.0 
       558.0         0.23         27.2 
       559.0         0.23         26.7 
       560.0         0.20         26.1 
       561.0         0.23         25.4 
       562.0         0.20         25.0 
       563.0         0.23         24.8 
       564.0         0.27         24.4 
       565.0         0.33         23.2 
       566.0         1.95         55.9 
       567.0         0.33         53.0 
       568.0         0.27         49.6 
       569.0         0.23         46.9 
       570.0         0.27         44.2 
       571.0         0.23         41.7 
       572.0         0.27         39.6 
       573.0         0.23         37.8 
       574.0         0.25         36.0 
       575.0         0.27         34.1 
       576.0         0.20         32.6 
       577.0         0.30         32.3 
       578.0         0.23         31.6 
       579.0         0.23         30.4 
       580.0         0.17         30.2 
       581.0         0.10         30.0 
       582.0         0.13         29.9 
       583.0         0.10         30.2 
       584.0         0.13         30.1 
       585.0         0.17         30.3 
       586.0         0.20         30.2 
       587.0         0.13         30.4 
       588.0         0.13         30.5 
       589.0         0.33         30.5 
       590.0         0.40         30.5 
       591.0         0.35         30.3 
       592.0         0.13         30.1 
       593.0         0.13         29.0 
       594.0         0.23         28.8 
       595.0         0.30         28.8 
       596.0         1.97         68.5 
       597.0         0.28         66.4 
       598.0         0.27         62.7 
       599.0         0.23         59.5 
       600.0         0.27         56.4 
       601.0         0.23         53.4 
       602.0         0.27         50.4 
       603.0         0.17         47.8 
       604.0         0.20         46.8 
       605.0         0.23         45.3 
       606.0         0.20         43.0 
       607.0         0.20         41.8 
       608.0         0.23         41.0 
       609.0         0.23         39.5 
       610.0         0.20         38.4 
