~Version Information
VERS.                      2.0: CWLS Log ASCII Standard - VERSION 2.0
WRAP.                       NO: One line per depth step
~Well Information Block
STRT.FT               480.0000: 
STOP.FT              1625.5000: 
STEP.FT                 0.1000: 
NULL.                -999.2500: 
COMP.          Pioneer Natural Resources: COMPANY
WELL.          Dude Canyon 22-32 Tr: WELL
FLD.           Purgatoire River: FIELD
LOC.           1741' FNL & 2331' FWL: LOCATION
PROV.                 Colorado: PROVINCE
CNTY.               Las Animas: COUNTRY
SRVC.                Patterson: SERVICE COMPANY
DATE.          Mon Jul 11 10:33:06 2005: LOG DATE
UWI.           05 071 08421 00: UNIQUE WELL ID
~Curve Information Block
DEPT.FT            0 000 00 00: Depth
DCAL.in                       : CDL Caliper
RHOB.g/cc                     : CDL Bulk Density
RHOC.g/cc                     : CDL Density Correction
DPOR.pu                       : CDL Density Porosity
GR.GAPI                       : Gamma Ray
NPOR.pu                       : Neutron Porosity
~Parameter Information Block
~A  Depth       DCAL        RHOB        RHOC        DPOR         GR         NPOR    
# ...
   556.8000      7.9517      2.6659      0.1338     -0.9612     67.0773     21.4501
   556.9000      7.9517      2.6306      0.0938      1.1774     67.9404     20.6999
   557.0000      7.9608      2.5901      0.0723      3.6273     70.3618     20.5868
   557.1000      7.9608      2.5672     -0.0414      5.0209     71.2604     21.0101
   557.2000      7.9608      2.5679      0.0668      4.9780     70.6767     21.5480
   557.3000      7.9948      2.5731      0.0157      4.6595     73.6094     22.1899
   557.4000      7.9948      2.5711      0.0309      4.7791     81.5809     23.0734
   557.5000      8.0322      2.5639      0.0064      5.2166     89.8861     23.9258
   557.6000      8.0322      2.5649      0.0342      5.1575     96.6268     24.3670
   557.7000      8.0322      2.5817      0.0785      4.1422    105.6858     24.3571
   557.8000      8.1061      2.5907      0.1625      3.5922    117.1799     24.2535
   557.9000      8.1061      2.5764      0.0511      4.4594    125.7982     24.5086
   558.0000      8.1504      2.5689      0.0278      4.9129    132.3172     25.2210
   558.1000      8.1504      2.5917      0.0608      3.5331    140.6583     25.9833
   558.2000      8.1504      2.6209      0.1495      1.7609    145.7556     26.4980
   558.3000      8.1464      2.6278      0.1300      1.3463    141.4918     27.0463
   558.4000      8.1464      2.6209      0.1071      1.7610    131.2570     27.8016
   558.5000      8.1581      2.6171      0.0903      1.9952    123.6033     28.3568
   558.6000      8.1581      2.6106      0.1208      2.3909    122.5901     28.2859
   558.7000      8.1581      2.5967      0.0703      3.2300    126.6373     27.9071
   558.8000      8.2161      2.5778      0.0802      4.3749    132.5950     27.7036
   558.9000      8.2161      2.5503      0.0338      6.0402    137.3385     27.2960
   559.0000      8.1174      2.5253     -0.0215      7.5605    140.4164     26.5627
   559.1000      8.1174      2.5270      0.0192      7.4557    143.2789     26.3139
   559.2000      8.1174      2.5596      0.0999      5.4812    145.2595     26.5715
   559.3000      8.0796      2.6032      0.0966      2.8363    147.1592     26.5273
   559.4000      8.0796      2.6306      0.1256      1.1743    151.9996     25.8373
   559.5000      8.0599      2.6255      0.1324      1.4862    152.2547     24.6706
   559.6000      8.0599      2.6062      0.0110      2.6547    140.4024     23.1647
   559.7000      8.0599      2.5996      0.0684      3.0545    125.5764     21.5074
   559.8000      8.0619      2.6037      0.0664      2.8081    121.4595     20.1144
   559.9000      8.0619      2.6076      0.0738      2.5683    129.3762     19.8140
   560.0000      8.0595      2.6012      0.1086      2.9562    140.3281     21.4726
   560.1000      8.0595      2.5777      0.0543      4.3846    149.2767     25.1775
   560.2000      8.0595      2.5451      0.0327      6.3570    153.0697     30.4169
   560.3000      8.0376      2.5148      0.0721      8.1965    149.2429     -3.0267
   560.4000      8.0376      2.4897      0.0464      9.7125    143.5828      2.2150
   560.5000      8.0616      2.4701      0.0392     10.9022    140.2289      6.1376
   560.6000      8.0616      2.4523      0.0651     11.9828    136.3899     10.8166
   560.7000      8.0616      2.4342      0.0200     13.0794    134.1872     15.8029
   560.8000      8.0836      2.4170      0.0553     14.1198    134.9212     19.9068
   560.9000      8.0836      2.3924      0.0488     15.6107    132.9871     22.4689
   561.0000      8.0881      2.3560      0.0561     17.8187    129.5941     24.0396
   561.1000      8.0881      2.3243      0.0542     19.7414    131.5184     25.5164
   561.2000      8.0881      2.3245      0.0768     19.7280    136.2640     27.1899
   561.3000      8.1066      2.3712      0.1518     16.8995    139.7623     28.6585
   561.4000      8.1066      2.4452      0.2493     12.4151    140.2569     29.2396
   561.5000      8.1127      2.5066      0.3181      8.6903    136.3498     28.9479
   561.6000      8.1127      2.5368      0.3107      6.8634    134.1714     28.7298
   561.7000      8.1127      2.5433      0.3095      6.4666    138.5858     28.9854
   561.8000      8.0704      2.5352      0.3078      6.9564    146.5717     29.5252
   561.9000      8.0704      2.5202      0.2517      7.8651    154.9942     30.5541
   562.0000      8.0211      2.5027      0.2315      8.9287    163.9147     31.7724
   562.1000      8.0211      2.4803      0.2299     10.2877    170.8375     31.9861
   562.2000      8.0211      2.4561      0.1874     11.7504    171.8534     31.2344
   562.3000      8.0262      2.4362      0.1418     12.9578    167.1190     30.6469
   562.4000      8.0262      2.4253      0.0627     13.6195    161.0455     30.8273
   562.5000      8.0912      2.4274      0.1147     13.4884    157.3364     31.3921
   562.6000      8.0912      2.4350      0.1122     13.0273    154.4949     31.5655
   562.7000      8.0912      2.4341      0.1538     13.0853    152.3729     31.2352
   562.8000      8.0904      2.4226      0.1002     13.7824    155.2830     30.7423
   562.9000      8.0904      2.4135      0.0566     14.3348    160.7145     30.6343
   563.0000      8.0810      2.4085      0.1124     14.6386    162.7456     31.0035
   563.1000      8.0810      2.3971      0.1007     15.3276    163.5334     31.2290
   563.2000      8.0810      2.3891      0.0469     15.8091    165.4819     31.3181
   563.3000      8.1092      2.4016      0.0485     15.0559    167.7187     31.4251
   563.4000      8.1092      2.4330      0.0441     13.1527    170.5988     30.9205
   563.5000      8.1258      2.4747      0.1337     10.6237    170.9578     29.9195
   563.6000      8.1258      2.5168      0.1207      8.0719    167.8181     29.0259
   563.7000      8.1258      2.5437      0.1500      6.4454    165.5829     28.4444
   563.8000      8.1469      2.5414      0.1550      6.5821    165.7656     28.5701
   563.9000      8.1469      2.5173      0.1026      8.0397    170.1217     29.1771
   564.0000      8.0920      2.4887      0.1065      9.7761    177.8929     29.7554
   564.1000      8.0920      2.4627      0.0784     11.3495    186.3988     30.0860
   564.2000      8.0920      2.4454      0.0388     12.3987    193.8163     29.7865
   564.3000      8.0929      2.4505      0.0145     12.0895    193.2064     29.0019
   564.4000      8.0929      2.4840      0.0813     10.0631    185.7729     28.3533
   564.5000      8.0470      2.5260      0.1324      7.5173    183.3594     28.1651
   564.6000      8.0470      2.5578      0.1471      5.5856    189.6259     28.2822
   564.7000      8.0470      2.5825      0.2013      4.0885    199.2174     28.1968
   564.8000      8.1042      2.6024      0.2411      2.8846    205.3330     27.5842
   564.9000      8.1042      2.6068      0.2357      2.6170    202.8842     26.9920
   565.0000      8.0970      2.5913      0.1664      3.5576    195.1884     27.3040
   565.1000      8.0970      2.5752      0.0803      4.5317    189.1354     28.1668
   565.2000      8.0970      2.5703      0.1289      4.8292    184.8323     28.7492
   565.3000      8.0656      2.5592      0.0750      5.5000    181.3124     28.8307
   565.4000      8.0656      2.5365      0.0276      6.8811    180.1519     27.9166
   565.5000      8.0891      2.5162      0.0275      8.1070    179.5320     26.3676
   565.6000      8.0891      2.5125      0.0496      8.3343    177.7183     25.4986
   565.7000      8.0891      2.5321      0.0383      7.1481    175.9436     25.6106
   565.8000      8.1080      2.5659      0.0396      5.0980    171.9974     26.0795
   565.9000      8.1080      2.5911      0.1035      3.5687    163.7991     26.4790
   566.0000      8.0786      2.5909      0.0854      3.5823    155.7543     26.4438
   566.1000      8.0786      2.5795      0.0228      4.2741    151.7291     26.1254
   566.2000      8.0786      2.5836      0.0367      4.0230    147.6551     26.5130
   566.3000      8.0949      2.5999      0.0971      3.0356    140.9165     27.4383
