~Version Information
 VERS.                                  2.0 : CWLS LAS VERSION
 WRAP.                                   NO : WRAPING MODE
 SWARE .                 MController 2.5.0J : SOFTWARE VERSION
~Well Information
 WELL.                         Schedler9-23R: WELL
 COMP.                             Petrogulf: COMPANY
 FLD.                      Purgatoire River : FIELD
 LOC.                 NE/SW Sec.9 T33s R67w : LOCATION
 DATE.                              10/31/04: DATE(S) LOGGED
 SRVC.                    Blanco Geological : SERVICE COMPANY
 STAT.                                   CO : STATE
 CNTY.                           Las Animas : COUNTY
 CTRY.                                  USA: COUNTRY
 API.                           05-071-08040: API NUMBER
 STRT.FT                             713.00 : START DEPTH
 STOP.FT                            2080.00 : STOP DEPTH
 STEP.FT                               1.00 : DEPTH INCREMENT
 NULL.                                -9999 : NULL VALUE
~Curve information
 DEPTH.FT                                   :
 ROP.MIN/FT                                 :
 GAS.UNITS                                  :
~ASCII Log data
# ...
      1713.0         0.33         24.0 
      1714.0         0.40         21.5 
      1715.0         0.45         19.7 
      1716.0         0.57         19.9 
      1717.0         0.47         20.1 
      1718.0         0.33         21.3 
      1719.0         0.30         20.4 
      1720.0         0.33         19.9 
      1721.0         0.30         18.8 
      1722.0         0.30         18.5 
      1723.0         0.30         19.3 
      1724.0         0.32         19.4 
      1725.0         0.37         18.6 
      1726.0         0.33         17.7 
      1727.0         0.27         18.0 
      1728.0         0.27         17.2 
      1729.0         0.27         18.4 
      1730.0         0.37         20.5 
      1731.0         0.30         18.3 
      1732.0         0.37         24.8 
      1733.0         0.33         30.1 
      1734.0         0.37         31.1 
      1735.0         0.42         30.9 
      1736.0         0.30         31.2 
      1737.0         0.27         32.2 
      1738.0         0.43         32.5 
      1739.0         0.43         28.5 
      1740.0         0.50         24.7 
      1741.0         0.40         22.2 
      1742.0         0.43         19.3 
      1743.0         0.47         19.6 
      1744.0         0.45         20.3 
      1745.0         0.33         20.1 
      1746.0         0.33         19.6 
      1747.0         0.37         19.9 
      1748.0         0.37         18.8 
      1749.0         0.40         18.8 
      1750.0         0.37         22.5 
      1751.0         0.37         25.2 
      1752.0         0.72         25.2 
      1753.0         0.40         21.9 
      1754.0         0.40         19.4 
      1755.0         0.30         18.4 
      1756.0         0.33         18.2 
      1757.0         0.33         18.3 
      1758.0         0.33         17.2 
      1759.0         0.33         31.7 
      1760.0         0.33         29.7 
      1761.0         0.35         28.1 
      1762.0         0.33         25.6 
      1763.0         0.33         21.3 
      1764.0         0.33         20.4 
      1765.0         0.33         18.9 
      1766.0         0.27         19.0 
      1767.0         0.50         19.0 
      1768.0         0.40         20.0 
      1769.0         0.37         17.8 
      1770.0         0.40         18.5 
      1771.0         0.27         18.2 
      1772.0         0.23         18.4 
      1773.0         0.27         19.1 
      1774.0         0.42         18.5 
      1775.0         0.33         18.3 
      1776.0         0.27         16.9 
      1777.0         0.27         16.5 
      1778.0         0.43         17.3 
      1779.0         0.47         17.9 
      1780.0         0.40         18.1 
      1781.0         0.23         18.0 
      1782.0         0.23         17.7 
      1783.0         0.27         18.1 
      1784.0         0.23         17.6 
      1785.0         0.28         18.8 
      1786.0         0.27         20.8 
      1787.0         0.20         13.9 
      1788.0         0.23         16.4 
      1789.0         0.23         22.3 
      1790.0         0.20         29.1 
      1791.0         0.23         30.6 
      1792.0         0.23         33.6 
      1793.0         0.23         35.8 
      1794.0         0.27         36.2 
      1795.0         0.27         37.4 
      1796.0         0.20         39.3 
      1797.0         0.30         38.6 
      1798.0         0.27         38.0 
      1799.0         0.30         36.1 
      1800.0         0.37         33.6 
      1801.0         0.32         31.3 
      1802.0         0.23         26.6 
      1803.0         0.33         25.8 
      1804.0         0.40         22.8 
      1805.0         0.27         21.0 
      1806.0         0.23         20.6 
      1807.0         0.27         20.4 
      1808.0         0.17         20.0 
      1809.0         0.30         19.0 
      1810.0         0.27         18.9 
      1811.0         0.30         19.8 
      1812.0         0.30         18.7 
      1813.0         0.28         19.3 
      1814.0         0.30         18.0 
      1815.0         0.37         20.8 
      1816.0         0.27         13.4 
      1817.0         0.23         15.7 
      1818.0         0.20         19.0 
      1819.0         0.20         24.3 
      1820.0         0.20         23.8 
      1821.0         0.20         26.8 
      1822.0         0.20         30.0 
      1823.0         0.17         32.4 
      1824.0         0.20         34.2 
      1825.0         0.20         34.6 
      1826.0         0.10         35.2 
      1827.0         0.23         36.3 
      1828.0         0.27         35.5 
      1829.0         0.30         33.7 
      1830.0         0.30         27.3 
      1831.0         0.27         27.1 
      1832.0         0.28         23.7 
      1833.0         0.20         22.6 
      1834.0         0.20         21.9 
      1835.0         0.20         20.8 
      1836.0         0.23         19.6 
      1837.0         0.27         19.4 
      1838.0         0.27         19.8 
      1839.0         0.17         19.7 
      1840.0         0.23         20.1 
      1841.0         0.30         20.2 
      1842.0         0.30         19.2 
      1843.0         0.20         19.7 
      1844.0         0.27         19.8 
      1845.0         0.20         19.8 
      1846.0         0.22         19.4 
      1847.0         0.27         30.3 
      1848.0         0.20         30.3 
      1849.0         0.27         36.1 
      1850.0         0.27         37.4 
      1851.0         0.20         37.4 
      1852.0         0.20         37.9 
      1853.0         0.20         33.9 
      1854.0         0.27         33.1 
      1855.0         0.30         28.9 
      1856.0         0.33         25.4 
      1857.0         0.27         23.8 
      1858.0         0.27         24.6 
      1859.0         0.32         21.0 
      1860.0         0.33         19.9 
      1861.0         0.33         17.6 
      1862.0         0.30         17.4 
      1863.0         0.30         17.9 
      1864.0         0.30         17.0 
      1865.0         0.30         16.5 
      1866.0         0.27         18.3 
      1867.0         0.23         18.7 
      1868.0         0.27         19.0 
      1869.0         0.27         54.4 
      1870.0         0.20         19.3 
      1871.0         0.25         20.1 
      1872.0         0.23         20.1 
      1873.0         0.23         20.0 
      1874.0         0.23         17.8 
      1875.0         0.23         16.9 
      1876.0         0.23         17.1 
      1877.0         0.23         23.8 
      1878.0         0.20         16.6 
      1879.0         0.23         16.6 
      1880.0         0.23         23.0 
      1881.0         0.30         31.6 
      1882.0         0.27         43.1 
      1883.0         0.23         53.6 
      1884.0         0.20         65.0 
      1885.0         0.22         62.7 
      1886.0         0.37         75.1 
      1887.0         0.30         66.4 
      1888.0         0.35         60.6 
      1889.0         0.33         59.8 
      1890.0         0.33         32.6 
      1891.0         0.33         26.2 
      1892.0         0.40         22.1 
      1893.0         0.47         17.6 
      1894.0         0.70         17.2 
      1895.0         0.50         18.6 
      1896.0         0.48         17.3 
      1897.0         0.53         19.1 
      1898.0         0.40         18.8 
      1899.0         0.53         18.0 
      1900.0         0.40         15.7 
      1901.0         0.80         17.6 
      1902.0         0.48         18.1 
      1903.0         0.43         18.6 
      1904.0         0.37         17.9 
      1905.0         0.40         17.9 
      1906.0         0.40         16.6 
      1907.0         0.47         17.3 
      1908.0         0.47         17.8 
      1909.0         0.50         17.7 
      1910.0         0.58         41.9 
      1911.0         0.53         43.4 
      1912.0         0.33         41.7 
