~Version Information
VERS.                      2.0: CWLS Log ASCII Standard - VERSION 2.0
WRAP.                       NO: One line per depth step
~Well Information Block
STRT.FT                17.7500: 
STOP.FT              1139.0000: 
STEP.FT                 0.2500: 
NULL.                -999.2500: 
COMP.          El Paso E&P Company L.P.: COMPANY
WELL.              VPR "ST" 38: WELL
FLD.           Purgatorie River: FIELD
LOC.           687' FNL & 2121' FEL: LOCATION
CNTY.               Las Animas: COUNTY
SRVC.          Superior Well Services: SERVICE COMPANY
DATE.          Sat Oct 13 22-40-21 2007: LOG DATE
UWI.           05-071-08357-00: UNIQUE WELL ID
STAT.                       CO: STATE
~Curve Information Block
DEPT.FT            0 000 00 00: Depth
CCL.                          : Casing Collar Locator
TT3.usec                      : CBL 3' Travel Time
AMP3.mV                       : CBL 3' Amplitude
GR.GAPI                       : Gamma Ray
~Parameter Information Block
~A  Depth       CCL         TT3         AMP3         GR     
# ...
   587.2500      0.0000    698.9545      3.7155    124.3717
   587.5000      0.0000    671.3765      3.6803    122.0111
   587.7500      0.0000    641.0030      3.6704    119.9333
   588.0000      0.0000    619.0625      3.6909    119.5067
   588.2500      0.0000    612.6595      3.7409    119.2963
   588.5000      0.0000    620.9342      3.8124    118.7732
   588.7500      0.0000    638.0477      3.8914    116.7905
   589.0000      0.0000    657.5527      3.9612    114.8478
   589.2500      0.0000    674.8652      4.0094    112.2397
   589.5000      0.0000    689.0889      4.0333    111.6127
   589.7500      0.0000    702.9607      4.0378    113.1053
   590.0000      0.0000    718.4683      4.0261    115.2752
   590.2500      0.0000    731.6967      3.9955    118.3801
   590.5000      0.0000    733.4611      3.9449    119.4316
   590.7500      0.0000    716.6887      3.8822    119.6420
   591.0000      0.0000    683.8352      3.8233    119.8120
   591.2500      0.0000    646.0948      3.7824    121.3724
   591.5000      0.0000    614.4086      3.7655    122.9663
   591.7500      0.0000    592.5989      3.7695    124.0228
   592.0000      0.0000    580.6003      3.7848    122.5584
   592.2500      0.0000    581.2068      3.7986    116.7896
   592.5000      0.0000    599.0711      3.8009    111.7817
   592.7500      0.0000    632.7693      3.7905    105.7465
   593.0000      0.0000    670.7335      3.7748    104.0412
   593.2500      0.0000    696.7281      3.7626    105.0300
   593.5000      0.0000    699.5945      3.7552    107.1576
   593.7500      0.0000    678.8748      3.7456    111.1824
   594.0000      0.0000    643.3091      3.7265    114.3987
   594.2500      0.0000    604.7616      3.6967    120.8607
   594.5000      0.0000    572.0781      3.6617    126.2553
   594.7500      0.0000    548.5400      3.6286    134.1482
   595.0000      0.0000    533.1802      3.6014    138.0119
   595.2500      0.0000    523.5493      3.5786    141.4637
   595.5000      0.0000    517.8813      3.5554    143.1228
   595.7500      0.0000    515.8218      3.5299    146.0300
   596.0000      0.0000    517.5054      3.5063    148.2065
   596.2500      0.0000    522.0260      3.4895    150.4435
   596.5000      0.0000    527.4406      3.4795    150.1994
   596.7500      0.0000    532.5751      3.4736    146.2802
   597.0000      0.0000    538.4884      3.4735    141.7266
   597.2500      0.0000    547.4894      3.4849    134.2636
   597.5000      0.0000    559.7853      3.5099    130.6043
   597.7500      0.0000    570.7167      3.5406    129.3419
   598.0000      0.0000    572.9810      3.5634    131.3697
   598.2500      0.0000    563.6502      3.5696    136.5221
   598.5000      0.0000    548.3524      3.5623    139.8605
   598.7500      0.0000    536.7853      3.5513    143.9575
   599.0000      0.0000    534.5310      3.5439    146.6144
   599.2500      0.0000    539.8380      3.5426    151.3378
   599.5000      0.0000    546.7020      3.5474    154.8084
   599.7500      0.0000    549.6578      3.5597    159.0409
   600.0000      0.0000    546.6823      3.5840    159.9343
   600.2500      0.0000    539.3192      3.6236    156.5449
   600.5000      0.0000    530.7132      3.6748    151.0879
   600.7500      0.0000    523.3064      3.7250    140.0229
   601.0000      0.0000    517.9742      3.7604    132.2065
   601.2500      0.0000    514.7479      3.7743    121.6990
   601.5000      0.0000    514.0996      3.7637    116.1149
   601.7500      0.0000    518.0452      3.7231    109.8020
   602.0000      0.0000    530.4567      3.6452    106.0444
   602.2500      0.0000    555.4046      3.5297     98.9638
   602.5000      0.0000    593.3911      3.3889     93.0431
   602.7500      0.0000    638.5934      3.2438     84.8987
   603.0000      0.0000    681.0948      3.1155     82.3022
   603.2500      0.0000    713.0593      3.0179     85.1859
   603.5000      0.0000    733.0062      2.9559     91.4378
   603.7500      0.0000    744.6125      2.9248    104.8321
   604.0000      0.0000    752.4871      2.9141    114.5103
   604.2500      0.0000    759.2182      2.9139    127.2795
   604.5000      0.0000    765.0307      2.9174    133.8431
   604.7500      0.0000    768.7136      2.9239    141.1910
   605.0000      0.0000    768.7086      2.9398    144.8942
   605.2500      0.0000    764.0727      2.9756    148.0259
   605.5000      0.0000    754.7843      3.0389    147.2820
   605.7500      0.0000    740.5831      3.1306    140.2661
   606.0000      0.0000    719.1609      3.2442    132.0718
   606.2500      0.0000    686.8987      3.3683    118.1653
   606.5000      0.0000    643.3619      3.4894    110.6810
   606.7500      0.0000    594.9520      3.5942    104.9698
   607.0000      0.0000    552.4142      3.6706    104.1170
   607.2500      0.0000    524.0954      3.7097    103.4278
   607.5000      0.0000    511.9409      3.7091    101.7322
   607.7500      0.0000    513.2554      3.6763     97.9649
   608.0000      0.0000    525.0355      3.6279     96.0765
   608.2500      0.0000    546.4849      3.5848     94.9602
   608.5000      0.0000    577.8823      3.5666     94.2317
   608.7500      0.0000    617.0697      3.5827     90.7092
   609.0000      0.0000    657.6224      3.6258     86.3816
   609.2500      0.0000    691.8903      3.6733     78.5517
   609.5000      0.0000    715.9105      3.7015     74.1019
   609.7500      0.0000    730.1082      3.7042     71.2488
   610.0000      0.0000    735.6679      3.6973     72.4976
   610.2500      0.0000    732.2844      3.7061     77.3730
   610.5000      0.0000    720.4376      3.7465     80.5283
   610.7500      0.0000    705.0798      3.8154     82.7025
   611.0000      0.0000    695.1206      3.8960     82.9589
   611.2500      0.0000    697.2717      3.9685     84.2189
   611.5000      0.0000    710.4146      4.0186     86.1305
   611.7500      0.0000    727.2162      4.0418     88.2585
   612.0000      0.0000    740.7685      4.0451     87.5967
   612.2500      0.0000    748.5862      4.0426     83.8320
   612.5000      0.0000    751.4744      4.0478     81.2316
   612.7500      0.0000    750.9297      4.0685     79.3270
   613.0000      0.0000    748.1306      4.1009     78.9562
   613.2500      0.0000    744.1287      4.1275     77.9850
   613.5000      0.0000    739.6361      4.1238     77.1950
   613.7500      0.0000    734.3018      4.0751     78.3201
   614.0000      0.0000    726.7325      3.9874     81.9397
   614.2500      0.0000    715.7959      3.8809     91.8232
   614.5000      0.0000    702.1441      3.7775    100.6098
   614.7500      0.0000    688.9997      3.6931    115.5583
   615.0000      0.0000    681.5446      3.6365    125.7642
   615.2500      0.0000    684.2719      3.6098    139.5096
   615.5000      0.0000    697.5741      3.6076    146.6061
   615.7500      0.0000    717.4005      3.6203    153.5847
   616.0000      0.0000    738.8893      3.6399    156.3959
   616.2500      0.0000    759.3071      3.6618    159.7911
   616.5000      0.0000    776.6434      3.6803    162.3436
   616.7500      0.0000    787.6285      3.6843    166.1529
   617.0000      0.0000    789.8770      3.6649    167.3570
   617.2500      0.0000    784.6160      3.6251    165.1843
   617.5000      0.0000    774.4876      3.5794    161.4174
   617.7500      0.0000    759.8669      3.5434    155.4367
   618.0000      0.0000    739.8381      3.5281    153.2431
   618.2500      0.0000    715.5556      3.5413    154.3209
   618.5000      0.0000    690.2216      3.5893    157.6927
   618.7500      0.0000    666.6010      3.6728    164.3087
   619.0000      0.0000    646.5851      3.7817    167.5017
   619.2500      0.0000    632.5602      3.8970    167.4008
   619.5000      0.0000    626.7964      3.9993    164.2341
   619.7500      0.0000    628.8552      4.0782    158.3074
   620.0000      0.0000    635.2012      4.1364    155.8486
   620.2500      0.0000    642.7097      4.1852    156.2958
   620.5000      0.0000    651.8386      4.2326    159.2129
