~Version Information
VERS.                      2.0: CWLS Log ASCII Standard - VERSION 2.0
WRAP.                       NO: One line per depth step
~Well Information Block
STRT.FT                -7.2500: 
STOP.FT              2610.0000: 
STEP.FT                 0.2500: 
NULL.                -999.2500: 
COMP.          Pioneer Natural Resources: COMPANY
WELL.              Wagner 13-9: WELL
FLD.           Purgatorie River: FIELD
LOC.           1819' FSL & 1111' FWL--: LOCATION
PROV.                       CO: PROVINCE
CNTY.               Las Animas: COUNTRY
SRVC.          Patterson Wireline: SERVICE COMPANY
DATE.          Wed May 18 09:08:26 2005: LOG DATE
UWI.           05 071 08302 00: UNIQUE WELL ID
~Curve Information Block
DEPT.FT            0 000 00 00: Depth
CCL.                          : Casing Collar Locator
TT3.usec                      : CBL 3' Travel Time
AMP3.mV                       : CBL 3' Amplitude
GR.GAPI                       : Gamma Ray
~Parameter Information Block
~A  Depth       CCL         TT3         AMP3         GR     
# ...
  1198.7500      0.0000    318.7520     13.3916    112.8525
  1199.0000      0.0000    323.4843     13.3552    110.3907
  1199.2500      0.0000    327.6009     13.3309    109.0196
  1199.5000      0.0000    330.1098     13.2872    108.7369
  1199.7500      0.0000    331.7653     13.1770    109.7951
  1200.0000      0.0000    334.3753     12.9638    111.7540
  1200.2500      0.0000    338.9622     12.6470    113.6342
  1200.5000      0.0000    345.5894     12.2699    115.2386
  1200.7500      0.0000    355.6090     11.8972    117.5362
  1201.0000      0.0000    374.1521     11.5751    121.3339
  1201.2500      0.0000    409.8373     11.3110    126.0887
  1201.5000      0.0000    469.7943     11.0939    130.1796
  1201.7500      0.0000    551.6354     10.9206    131.6757
  1202.0000      0.0000    639.6953     10.7850    128.9772
  1202.2500      0.0000    712.2135     10.6545    121.9101
  1202.5000      0.0000    754.6710     10.4841    112.6113
  1202.7500      0.0000    767.0285     10.2546    104.6353
  1203.0000      0.0000    760.3959      9.9768    100.8027
  1203.2500      0.0000    749.0612      9.6764    101.7526
  1203.5000      0.0000    743.8456      9.3993    105.9788
  1203.7500      0.0000    748.9758      9.2095    110.9900
  1204.0000      0.0000    762.8098      9.1416    114.8640
  1204.2500      0.0000    780.6520      9.1572    117.1964
  1204.5000      0.0000    797.4180      9.1707    118.7119
  1204.7500      0.0000    809.6192      9.1189    119.9903
  1205.0000      0.0000    816.4627      8.9986    120.8201
  1205.2500      0.0000    819.2983      8.8422    120.8367
  1205.5000      0.0000    820.0952      8.6769    120.2638
  1205.7500      0.0000    820.3901      8.5137    119.5984
  1206.0000      0.0000    821.1317      8.3632    118.7812
  1206.2500      0.0000    822.8222      8.2352    116.9311
  1206.5000      0.0000    825.4824      8.1148    112.7890
  1206.7500      0.0000    828.6164      7.9638    105.4727
  1207.0000      0.0000    831.5285      7.7608     95.2448
  1207.2500      0.0000    833.8326      7.5433     83.8053
  1207.5000      0.0000    835.3582      7.4106     73.6230
  1207.7500      0.0000    835.5897      7.4712     66.6820
  1208.0000      0.0000    833.8506      7.7601     63.7329
  1208.2500      0.0000    830.2766      8.2019     64.6362
  1208.5000      0.0000    826.0682      8.6707     69.1281
  1208.7500      0.0000    822.5416      9.0904     76.8889
  1209.0000      0.0000    820.2639      9.4729     86.9480
  1209.2500      0.0000    819.1388      9.8597     97.4694
  1209.5000      0.0000    818.8791     10.2512    106.4313
  1209.7500      0.0000    819.1698     10.6047    112.6303
  1210.0000      0.0000    819.6201     10.8847    116.1752
  1210.2500      0.0000    819.5818     11.0964    118.3178
  1210.5000      0.0000    817.7953     11.2651    120.8828
  1210.7500      0.0000    811.9781     11.3870    125.2806
  1211.0000      0.0000    799.6210     11.4100    131.3564
  1211.2500      0.0000    781.0979     11.2811    137.2062
  1211.5000      0.0000    762.6720     11.0060    140.5648
  1211.7500      0.0000    753.7761     10.6492    140.4865
  1212.0000      0.0000    758.6772     10.2845    137.6762
  1212.2500      0.0000    772.2961      9.9621    133.4494
  1212.5000      0.0000    786.1790      9.7032    128.6026
  1212.7500      0.0000    796.4324      9.4983    123.3020
  1213.0000      0.0000    804.0440      9.3145    117.9210
  1213.2500      0.0000    810.2808      9.1293    113.4376
  1213.5000      0.0000    814.3237      8.9549    110.5908
  1213.7500      0.0000    813.6168      8.8209    109.1957
  1214.0000      0.0000    803.4947      8.7447    108.9384
  1214.2500      0.0000    776.8511      8.7279    110.3876
  1214.5000      0.0000    728.3973      8.7575    114.3224
  1214.7500      0.0000    663.9921      8.7949    120.0352
  1215.0000      0.0000    605.7924      8.7779    124.9876
  1215.2500      0.0000    582.0010      8.6595    126.6204
  1215.5000      0.0000    605.8038      8.4416    124.4273
  1215.7500      0.0000    664.2385      8.1707    120.1511
  1216.0000      0.0000    729.4462      7.9120    116.2475
  1216.2500      0.0000    779.8337      7.7244    114.1937
  1216.5000      0.0000    810.2295      7.6339    113.6682
  1216.7500      0.0000    826.4880      7.6206    112.9230
  1217.0000      0.0000    835.8831      7.6368    110.3011
  1217.2500      0.0000    842.5559      7.6384    105.9413
  1217.5000      0.0000    847.6865      7.6062    102.1855
  1217.7500      0.0000    850.7999      7.5492    101.9514
  1218.0000      0.0000    850.7163      7.4877    106.1915
  1218.2500      0.0000    846.4370      7.4295    112.9180
  1218.5000      0.0000    837.9513      7.3695    118.9098
  1218.7500      0.0000    826.5266      7.3073    122.3456
  1219.0000      0.0000    813.7482      7.2506    123.9208
  1219.2500      0.0000    799.7407      7.1997    125.9592
  1219.5000      0.0000    782.7306      7.1419    130.5653
  1219.7500      0.0000    761.4578      7.0684    138.0219
  1220.0000      0.0000    738.2281      6.9873    146.3663
  1220.2500      0.0000    718.6688      6.9156    152.5334
  1220.5000      0.0000    708.4177      6.8551    154.3183
  1220.7500      0.0000    710.5959      6.7813    151.7859
  1221.0000      0.0000    725.2715      6.6611    147.2534
  1221.2500      0.0000    749.0297      6.4778    143.7645
  1221.5000      0.0000    774.9583      6.2350    142.9707
  1221.7500      0.0000    795.2753      5.9488    144.1351
  1222.0000      0.0000    805.1537      5.6513    145.1389
  1222.2500      0.0000    804.0385      5.3982    144.3192
  1222.5000      0.0000    794.4008      5.2524    141.3719
  1222.7500      0.0000    780.7216      5.2454    136.9443
  1223.0000      0.0000    768.8969      5.3412    131.8113
  1223.2500      0.0000    764.2692      5.4399    126.5090
  1223.5000      0.0000    768.6677      5.4454    121.4838
  1223.7500      0.0000    778.8057      5.3490    117.2538
  1224.0000      0.0000    787.7441      5.2217    114.2751
  1224.2500      0.0000    789.3425      5.1191    112.7911
  1224.5000      0.0000    782.9839      5.0244    112.9194
  1224.7500      2.0000    773.7202      4.8836    114.7239
  1225.0000      2.0000    766.1462      4.6578    117.9166
  1225.2500      0.0000    758.2173      4.3441    121.5432
  1225.5000      0.0000    743.5436      3.9869    124.4991
  1225.7500      0.0000    720.6539      3.6775    126.5675
  1226.0000      0.0000    697.8888      3.5106    128.5338
  1226.2500      0.0000    687.5115      3.5091    130.9243
  1226.5000      0.0000    695.3310      3.5944    132.9633
  1226.7500      0.0000    716.9165      3.6432    133.3102
  1227.0000      0.0000    743.3984      3.5892    131.7520
  1227.2500      0.0000    769.0355      3.4881    129.7780
  1227.5000      0.0000    792.5332      3.4801    129.4909
  1227.7500      0.0000    813.5167      3.6790    132.1355
  1228.0000      0.0000    830.5342      4.1062    137.3371
  1228.2500      0.0000    842.3215      4.7380    143.3580
  1228.5000      0.0000    849.3914      5.5722    148.2355
  1228.7500      0.0000    853.9528      6.6006    151.0584
  1229.0000      0.0000    858.3926      7.7312    152.4132
  1229.2500      0.0000    863.5297      8.7814    153.7159
  1229.5000      0.0000    868.1453      9.5702    155.8771
  1229.7500      0.0000    870.2938     10.0184    158.3302
  1230.0000      0.0000    869.2007     10.1678    159.5887
  1230.2500      0.0000    865.9153     10.1064    158.9697
  1230.5000      0.0000    862.2834      9.8757    157.4313
  1230.7500      0.0000    859.5730      9.4531    156.4167
  1231.0000      0.0000    858.0469      8.8303    156.1242
  1231.2500      0.0000    857.3027      8.0939    155.1248
  1231.5000      0.0000    856.6529      7.4033    151.6412
  1231.7500      0.0000    855.2974      6.8855    145.2787
  1232.0000      0.0000    852.5187      6.5618    137.6939
