~Version Information
VERS.                      2.0: CWLS Log ASCII Standard - VERSION 2.0
WRAP.                       NO: One line per depth step
~Well Information Block
STRT.FT               425.0000: 
STOP.FT              2461.0000: 
STEP.FT                 0.2500: 
NULL.                -999.2500: 
COMP.          Evergreen Operating Corporation: COMPANY
WELL.              Nomad 32-10: WELL
FLD.           Purgatorie River: FIELD
LOC.           2281' FNL & 1585' FEL: LOCATION
PROV.                 Colorado: PROVINCE
CNTY.               Las Animas: COUNTRY
SRVC.                Patterson: SERVICE COMPANY
DATE.          Thu Aug 12 02:01:07 2004: LOG DATE
UWI.           05 071 08127 00: UNIQUE WELL ID
~Curve Information Block
DEPT.FT            0 000 00 00: Depth
SN.Ohm-m                      : IEL Short Normal
SP.mV                         : IEL Spontaneous Potential
DIR.Ohm-m                     : IEL Induction Resistivity
GR.GAPI                       : Gamma Ray
~Parameter Information Block
~A  Depth        SN          SP         DIR          GR     
# ...
  2301.0000     17.6544    121.2886     13.5370    123.1923
  2301.2500     17.0836    114.5970     13.2538    115.8142
  2301.5000     16.5841    111.5110     13.1109    106.2370
  2301.7500     16.3010    112.8221     13.1121    101.8698
  2302.0000     16.3861    117.8461     13.2470     98.8709
  2302.2500     16.8365    124.8839     13.4946     98.9235
  2302.5000     17.5282    132.1338     13.8261    100.7501
  2302.7500     18.3342    138.3833     14.2043    102.1627
  2303.0000     19.1608    143.1788     14.5858    103.2588
  2303.2500     19.9212    146.6066     14.9265    103.0226
  2303.5000     20.5446    148.9783     15.1937    101.5607
  2303.7500     21.0301    150.6169     15.3767    100.3111
  2304.0000     21.4510    151.7754     15.4901     98.8275
  2304.2500     21.8581    152.6300     15.5663     98.4453
  2304.5000     22.2092    153.2933     15.6443     99.0552
  2304.7500     22.4291    153.8306     15.7587    100.0946
  2305.0000     22.5086    154.2743     15.9344    101.5896
  2305.2500     22.5160    154.6351     16.1831    101.8354
  2305.5000     22.4919    154.9111     16.5051    100.8548
  2305.7500     22.3990    155.0990     16.8941     99.9489
  2306.0000     22.2320    155.2084     17.3414     99.5615
  2306.2500     22.0841    155.2681     17.8392    100.2613
  2306.5000     22.0673    155.3182     18.3801    102.3922
  2306.7500     22.2325    155.3924     18.9560    104.0198
  2307.0000     22.5617    155.5035     19.5600    105.5791
  2307.2500     23.0212    155.6384     20.1873    105.3417
  2307.5000     23.6335    155.7627     20.8366    102.4310
  2307.7500     24.4656    155.8344     21.5091     98.8455
  2308.0000     25.5314    155.8264     22.2075     91.5204
  2308.2500     26.7474    155.7435     22.9371     85.7255
  2308.5000     27.9835    155.6177     23.7094     76.6565
  2308.7500     29.1188    155.4844     24.5449     71.2562
  2309.0000     30.0804    155.3637     25.4660     65.7661
  2309.2500     30.8377    155.2606     26.4780     64.3131
  2309.5000     31.3670    155.1756     27.5460     64.7961
  2309.7500     31.6676    155.1088     28.5848     65.9089
  2310.0000     31.7913    155.0535     29.4756     67.2220
  2310.2500     31.8203    154.9929     30.1106     67.5050
  2310.5000     31.8034    154.9139     30.4416     67.2522
  2310.7500     31.7244    154.8256     30.4908     66.8574
  2311.0000     31.5572    154.7618     30.3139     66.0359
  2311.2500     31.3259    154.7636     29.9563     65.2828
  2311.5000     31.0902    154.8617     29.4497     64.0069
  2311.7500     30.9028    155.0639     28.8463     63.4920
  2312.0000     30.7827    155.3357     28.2387     64.2085
  2312.2500     30.6949    155.5824     27.7336     65.8834
  2312.5000     30.5518    155.6678     27.4017     69.2982
  2312.7500     30.2642    155.4726     27.2478     71.1966
  2313.0000     29.8189    154.9532     27.2171     72.2937
  2313.2500     29.2986    154.1578     27.2280     71.9070
  2313.5000     28.8083    153.1975     27.2075     70.5117
  2313.7500     28.3937    152.1988     27.1150     69.4296
  2314.0000     28.0474    151.2691     26.9466     67.8504
  2314.2500     27.7932    150.4829     26.7260     67.0800
  2314.5000     27.7099    149.8823     26.4929     67.1161
  2314.7500     27.8242    149.4803     26.2917     68.2170
  2315.0000     28.0430    149.2594     26.1626     70.9643
  2315.2500     28.2631    149.1672     26.1294     72.6768
  2315.5000     28.4897    149.1133     26.1891     73.6642
  2315.7500     28.7829    148.9837     26.3126     73.0794
  2316.0000     29.1393    148.6801     26.4592     71.2235
  2316.2500     29.5033    148.1648     26.5977     70.0002
  2316.5000     29.8358    147.4781     26.7187     68.6061
  2316.7500     30.0903    146.7155     26.8322     67.8634
  2317.0000     30.2241    145.9842     26.9528     66.9681
  2317.2500     30.2654    145.3673     27.0829     66.6448
  2317.5000     30.2743    144.9087     27.2057     66.5760
  2317.7500     30.2843    144.6185     27.2963     66.5382
  2318.0000     30.3241    144.4907     27.3455     65.9156
  2318.2500     30.4266    144.5169     27.3755     65.0364
  2318.5000     30.5919    144.6794     27.4283     63.5655
  2318.7500     30.7848    144.9288     27.5354     62.9930
  2319.0000     30.9904    145.1753     27.6956     63.0352
  2319.2500     31.2413    145.3171     27.8750     63.2655
  2319.5000     31.5653    145.2880     28.0217     63.0167
  2319.7500     31.9390    145.0846     28.0887     62.3695
  2320.0000     32.3240    144.7543     28.0608     61.1694
  2320.2500     32.7164    144.3609     27.9791     60.4138
  2320.5000     33.1381    143.9551     27.9376     59.3658
  2320.7500     33.6036    143.5673     28.0405     58.9117
  2321.0000     34.1166    143.2215     28.3430     59.3591
  2321.2500     34.6866    142.9483     28.8183     60.6202
  2321.5000     35.3409    142.7822     29.3758     63.2544
  2321.7500     36.1128    142.7430     29.9226     64.8273
  2322.0000     37.0124    142.8192     30.4209     66.3569
  2322.2500     38.0358    142.9675     30.8918     66.9209
  2322.5000     39.1931    143.1301     31.3703     67.3005
  2322.7500     40.4583    143.2557     31.8573     67.1632
  2323.0000     41.7092    143.3125     32.3104     66.0653
  2323.2500     42.7872    143.2918     32.6755     64.6798
  2323.5000     43.6018    143.2052     32.9283     62.0182
  2323.7500     44.1321    143.0783     33.0850     60.2901
  2324.0000     44.3716    142.9433     33.1691     58.3231
  2324.2500     44.3100    142.8298     33.1699     57.4669
  2324.5000     43.9328    142.7564     33.0434     56.8402
  2324.7500     43.2436    142.7243     32.7621     57.0746
  2325.0000     42.3019    142.7201     32.3578     58.9840
  2325.2500     41.2210    142.7274     31.9066     61.3726
  2325.5000     40.1357    142.7375     31.4779     66.0411
  2325.7500     39.1640    142.7503     31.1047     69.3427
  2326.0000     38.3786    142.7673     30.7966     73.8166
  2326.2500     37.7870    142.7873     30.5621     76.1420
  2326.5000     37.3427    142.8031     30.4115     78.0383
  2326.7500     37.0005    142.7983     30.3452     77.9065
  2327.0000     36.7632    142.7513     30.3405     75.5613
  2327.2500     36.6573    142.6521     30.3473     73.0566
  2327.5000     36.6682    142.5220     30.2866     69.2462
  2327.7500     36.7429    142.4092     30.0565     67.2552
  2328.0000     36.8414    142.3607     29.5548     65.2237
  2328.2500     36.9179    142.3944     28.7222     64.2407
  2328.5000     36.8848    142.4973     27.5824     62.8684
  2328.7500     36.6381    142.6470     26.2416     62.0126
  2329.0000     36.0504    142.8354     24.8415     61.3629
  2329.2500     34.9513    143.0740     23.5016     61.7181
  2329.5000     33.2313    143.3794     22.2899     63.3515
  2329.7500     30.9975    143.7550     21.2259     64.7476
  2330.0000     28.5613    144.1852     20.2957     67.1193
  2330.2500     26.2528    144.6415     19.4675     69.4900
  2330.5000     24.2699    145.0890     18.7052     75.4395
  2330.7500     22.6425    145.4910     17.9833     80.8926
  2331.0000     21.2964    145.8211     17.2923     89.5356
  2331.2500     20.1587    146.0782     16.6327     94.4800
  2331.5000     19.2073    146.2865     16.0019     99.9664
  2331.7500     18.4487    146.4746     15.3912    102.5842
  2332.0000     17.8989    146.6554     14.7949    105.5775
  2332.2500     17.5699    146.8237     14.2239    107.1713
  2332.5000     17.4231    146.9690     13.7072    109.1920
  2332.7500     17.3711    147.0908     13.2807    110.4090
  2333.0000     17.3390    147.2065     12.9719    112.3892
  2333.2500     17.2984    147.3440     12.7909    114.2143
  2333.5000     17.2706    147.5237     12.7300    118.3380
  2333.7500     17.3075    147.7435     12.7690    121.8887
  2334.0000     17.4427    147.9772     12.8801    127.3964
  2334.2500     17.6779    148.1912     13.0324    130.7003
