~Version Information
 VERS.                      2.0: CWLS Log ASCII Standard - VERSION 2.0
 WRAP.                       NO: One line per depth step
 ~Well Information Block
 STRT.FT               462.4000: 
 STOP.FT              2260.5000: 
 STEP.FT                 0.1000: 
 NULL.                -999.2500: 
 COMP.          Petrogulf Corporation: COMPANY
 WELL.             McLeod 9-42V: WELL
 FLD.           Purgatorie River: FIELD
 LOC.           1658' FNL & 415' FEL: LOCATION
 CNTY.               Las Animas: COUNTY
 SRVC.                         : SERVICE COMPANY
 DATE.          Fri Nov 12 10:12:24 2004: LOG DATE
 UWI.           05 071 08071 00: UNIQUE WELL ID
 STAT.                 Colorado: STATE
 PROV.                         :Province
 ~Curve Information Block
 DEPT.FT            0 000 00 00: Depth
 DCAL.in                       : CDL Caliper
 RHOB.g/cc                     : CDL Bulk Density
 RHOC.g/cc                     : CDL Density Correction
 DPOR.pu                       : CDL Density Porosity
 GR.GAPI                       : Gamma Ray
 NPOR.pu                       : Neutron Porosity
 ~Parameter Information Block
 ~A  Depth       DCAL        RHOB        RHOC        DPOR         GR         NPOR    
# ...
   942.4000      8.2145      2.5541      0.0913      5.8126    134.5454     29.3743
   942.5000      8.2374      2.5755      0.0766      4.5132    133.2655     29.2742
   942.6000      8.2374      2.6004      0.1614      3.0077    134.3058     29.1252
   942.7000      8.2374      2.6094      0.1417      2.4618    138.4807     29.0998
   942.8000      8.1802      2.6044      0.0376      2.7622    143.6795     29.2058
   942.9000      8.1802      2.6068      0.0870      2.6188    147.4283     29.2873
   943.0000      8.1244      2.6264      0.0635      1.4307    148.7074     29.1712
   943.1000      8.1244      2.6576      0.1063     -0.4619    148.1754     28.8330
   943.2000      8.1244      2.6802      0.1167     -1.8311    147.4274     28.6484
   943.3000      8.1098      2.6776      0.1341     -1.6711    147.9635     29.0836
   943.4000      8.1098      2.6639      0.0131     -0.8398    147.5844     29.8836
   943.5000      8.1508      2.6647      0.0628     -0.8898    144.1505     30.4177
   943.6000      8.1508      2.6745      0.1164     -1.4867    140.6966     30.6021
   943.7000      8.1508      2.6854      0.0630     -2.1469    140.8092     30.7201
   943.8000      8.1630      2.7038      0.1936     -3.2596    141.9069     31.0297
   943.9000      8.1630      2.7155      0.1354     -3.9725    138.4997     31.5433
   944.0000      8.1300      2.7057      0.0743     -3.3733    130.9668     31.9407
   944.1000      8.1300      2.6796      0.1039     -1.7956    124.3411     32.0751
   944.2000      8.1300      2.6532      0.0346     -0.1943    121.9395     32.2050
   944.3000      8.1024      2.6411      0.0728      0.5392    122.7249     32.4737
   944.4000      8.1024      2.6350      0.0810      0.9081    123.9419     32.6883
   944.5000      8.1750      2.6201      0.0492      1.8132    124.4261     32.5258
   944.6000      8.1750      2.5999      0.0104      3.0387    123.0274     32.0263
   944.7000      8.1750      2.5878      0.0043      3.7713    119.6854     31.5997
   944.8000      8.1309      2.5924     -0.0216      3.4899    116.7446     31.4837
   944.9000      8.1309      2.6075      0.0313      2.5747    116.5107     31.7123
   945.0000      8.1286      2.6233      0.0400      1.6192    117.8937     31.9773
   945.1000      8.1286      2.6492      0.0374      0.0457    118.9872     31.7192
   945.2000      8.1286      2.6878      0.1313     -2.2918    120.2289     31.0054
   945.3000      8.1302      2.7046      0.1847     -3.3089    121.4684     30.6781
   945.4000      8.1302      2.6766      0.0922     -1.6118    122.7904     31.1693
   945.5000      8.1361      2.6335      0.0525      0.9974    125.5480     31.7600
   945.6000      8.1361      2.6179      0.0304      1.9433    130.7013     31.6388
   945.7000      8.1361      2.6366      0.0459      0.8094    136.6964     30.7809
   945.8000      8.1350      2.6688      0.0118     -1.1392    139.4780     29.7633
   945.9000      8.1350      2.7057      0.0003     -3.3786    138.3728     29.2965
   946.0000      8.1475      2.7420      0.1039     -5.5735    136.2590     29.4721
   946.1000      8.1475      2.7395      0.2103     -5.4248    136.6559     29.9883
   946.2000      8.1475      2.6741      0.1787     -1.4585    139.0181     30.7375
   946.3000      8.1751      2.5829      0.1440      4.0670    139.6251     31.1168
   946.4000      8.1751      2.5105      0.1626      8.4548    138.8065     30.5742
   946.5000      8.1320      2.4629     -0.0045     11.3382    138.2414     29.5602
   946.6000      8.1320      2.4372     -0.0977     12.8963    137.3472     28.6433
   946.7000      8.1320      2.4320     -0.0576     13.2130    137.2021     27.9997
   946.8000      8.1290      2.4423     -0.0232     12.5868    139.1469     27.5499
   946.9000      8.1290      2.4690      0.1230     10.9709    141.3688     27.1307
   947.0000      8.1571      2.5171      0.2138      8.0543    142.4995     26.8580
   947.1000      8.1571      2.5739      0.3476      4.6113    144.7584     26.8809
   947.2000      8.1571      2.5924      0.3971      3.4880    147.8276     27.0069
   947.3000      8.2744      2.5558      0.1336      5.7106    147.7798     27.1303
   947.4000      8.2744      2.5245      0.0817      7.6031    145.4421     27.1562
   947.5000      8.1541      2.5492      0.1375      6.1108    142.7530     26.9200
   947.6000      8.1541      2.6095      0.2140      2.4527    140.6866     26.6212
   947.7000      8.1541      2.6614      0.2811     -0.6890    141.6176     26.6843
   947.8000      8.1465      2.6765      0.3292     -1.6037    144.3528     27.2364
   947.9000      8.1465      2.6443      0.2542      0.3426    145.1268     27.7734
   948.0000      8.1371      2.5782      0.1900      4.3539    143.2928     27.6873
   948.1000      8.1371      2.5153      0.0750      8.1651    142.2481     27.2933
   948.2000      8.1371      2.4919      0.0430      9.5813    144.2108     27.2680
   948.3000      8.1342      2.5089      0.1095      8.5530    145.8179     27.7124
   948.4000      8.1342      2.5406      0.0733      6.6308    144.8231     28.2524
   948.5000      8.1469      2.5697      0.0692      4.8661    143.5513     28.5507
   948.6000      8.1469      2.5887      0.1464      3.7128    144.7622     28.4882
   948.7000      8.1469      2.6024      0.1405      2.8874    148.3782     28.1152
   948.8000      8.1491      2.6218      0.2439      1.7083    151.7360     27.5577
   948.9000      8.1491      2.6425      0.3327      0.4538    152.8562     26.8456
   949.0000      8.1351      2.6562      0.2559     -0.3756    152.2579     26.2418
   949.1000      8.1351      2.6660      0.2123     -0.9723    153.0042     26.1597
   949.2000      8.1351      2.6863      0.1267     -2.1970    156.9737     26.3956
   949.3000      8.2072      2.7241      0.1711     -4.4906    160.8611     26.6786
   949.4000      8.2072      2.7602      0.2022     -6.6808    160.1242     27.1967
   949.5000      8.4265      2.7722      0.1893     -7.4063    154.6183     27.8541
   949.6000      8.4265      2.7597      0.1078     -6.6459    147.7638     28.2821
   949.7000      8.4265      2.7348      0.1147     -5.1419    143.7540     28.4273
   949.8000      8.2050      2.7045      0.0857     -3.3021    142.9386     28.7194
   949.9000      8.2050      2.6773      0.0335     -1.6540    143.9134     29.5257
   950.0000      8.1383      2.6599     -0.0167     -0.5994    146.3236     30.5796
   950.1000      8.1383      2.6478     -0.0961      0.1346    147.5981     31.1568
   950.2000      8.1383      2.6343     -0.0658      0.9522    144.7519     30.8192
   950.3000      8.1198      2.6189     -0.0369      1.8856    141.1708     29.9609
   950.4000      8.1198      2.6051     -0.0254      2.7232    142.5093     29.2240
   950.5000      8.1191      2.5840      0.0441      4.0022    145.6156     28.8568
   950.6000      8.1191      2.5467     -0.0063      6.2631    144.8226     28.6979
   950.7000      8.1191      2.5072      0.0004      8.6554    141.9881     28.5528
   950.8000      8.1125      2.4830     -0.0447     10.1220    140.6995     28.3050
   950.9000      8.1125      2.4750     -0.0775     10.6062    141.4337     27.7660
   951.0000      8.2144      2.4723     -0.1112     10.7715    141.5762     27.1247
   951.1000      8.2144      2.4693     -0.0487     10.9538    139.5912     26.7795
   951.2000      8.2144      2.4726     -0.0878     10.7504    138.0980     26.5637
   951.3000      8.2347      2.4791      0.0608     10.3565    138.5524     26.0829
   951.4000      8.2347      2.4764      0.0881     10.5224    140.7677     25.5966
   951.5000      8.2482      2.4806      0.0826     10.2668    143.2444     25.3947
   951.6000      8.2482      2.5036      0.1823      8.8757    142.1984     25.0107
   951.7000      8.2482      2.5112      0.2160      8.4134    137.1001     24.1140
   951.8000      8.2308      2.4755      0.1391     10.5734    132.7994     23.1647
   951.9000      8.2308      2.4202      0.0835     13.9283    133.7702     22.5918
