~Version Information
VERS.                      2.0: CWLS Log ASCII Standard - VERSION 2.0
WRAP.                       NO: One line per depth step
~Well Information Block
STRT.FT                -3.2500: 
STOP.FT              1637.5000: 
STEP.FT                 0.2500: 
NULL.                -999.2500: 
COMP.          Pioneer Natural Resources: COMPANY
WELL.            Mad Dog 42-31: WELL
FLD.           Purgatorie River: FIELD
LOC.           2064' FNL & 479' FEL--: LOCATION
PROV.                       CO: PROVINCE
CNTY.               Las Animas: COUNTRY
SRVC.                         : SERVICE COMPANY
DATE.          Fri Oct 15 16:13:39 2004: LOG DATE
UWI.          005 071 08195   : UNIQUE WELL ID
~Curve Information Block
DEPT.FT            0 000 00 00: Depth
HVOLTA.V                      : Head Voltage Apparent
GR.GAPI                       : Gamma Ray
CCL.                          : Casing Collar Locator
TT3.usec                      : CBL 3' Travel Time
AMP3.mV                       : CBL 3' Amplitude
~Parameter Information Block
~A  Depth      HVOLTA        GR         CCL         TT3         AMP3    
# ...
  1088.7500     97.1779     63.9927      0.0000    684.3745      6.9952
  1089.0000     97.2090     64.6967      0.0000    679.7773      6.9867
  1089.2500     97.2125     67.0994      0.0000    677.6386      6.9834
  1089.5000     97.2603     70.0644      0.0000    677.7338      6.9838
  1089.7500     97.3045     73.0671      0.0000    679.8402      6.9858
  1090.0000     97.2054     76.8336      0.0000    683.5043      6.9937
  1090.2500     97.2985     82.7504      0.0000    686.9191      7.0170
  1090.5000     97.4658     91.3526      0.0000    686.2857      7.0572
  1090.7500     97.1337    101.1691      0.0000    677.3951      7.1071
  1091.0000     97.1647    109.3588      0.0000    659.1390      7.1644
  1091.2500     97.2664    113.9294      0.0000    635.5712      7.2322
  1091.5000     97.2090    115.1873      0.0000    613.6223      7.3011
  1091.7500     97.3941    114.7908      0.0000    597.6293      7.3409
  1092.0000     97.3188    113.9025      0.0000    585.2371      7.3218
  1092.2500     97.2532    112.9223      0.0000    569.0464      7.2450
  1092.5000     97.3177    112.5026      0.0000    545.1037      7.1480
  1092.7500     97.2186    113.6467      0.0000    521.5001      7.0713
  1093.0000     97.3010    116.4571      0.0000    515.4536      7.0172
  1093.2500     97.1362    119.4206      0.0000    538.1290      6.9539
  1093.5000     97.1612    120.5137      0.0000    583.2809      6.8632
  1093.7500     97.4204    119.0572      0.0000    632.6566      6.7658
  1094.0000     97.1672    116.3294      0.0000    670.6630      6.6901
  1094.2500     97.4240    114.3322      0.0000    692.4790      6.6351
  1094.5000     97.1540    113.9926      0.0000    701.6478      6.5777
  1094.7500     97.2603    114.5621      0.0000    704.3249      6.5053
  1095.0000     97.3345    114.6127      0.0000    705.7576      6.4266
  1095.2500     97.1875    113.1877      0.0000    709.0015      6.3573
  1095.5000     97.3010    109.9586      0.0000    714.6245      6.3037
  1095.7500     97.2628    105.0035      0.0000    721.0629      6.2563
  1096.0000     97.3045     98.9102      0.0000    725.8719      6.1940
  1096.2500     97.2079     92.7394      0.0000    727.6327      6.1022
  1096.5000     97.1708     87.5180      0.0000    727.2969      5.9976
  1096.7500     97.4550     83.7412      0.0000    727.2926      5.9302
  1097.0000     97.1301     81.2964      0.0000    728.9510      5.9481
  1097.2500     97.0991     79.9083      0.0000    731.2319      6.0538
  1097.5000     97.3356     79.7085      0.0000    732.3056      6.1958
  1097.7500     97.3010     81.1731      0.0000    731.8036      6.2992
  1098.0000     97.1408     84.4007      0.0000    730.7958      6.3095
  1098.2500     97.1922     88.7011      0.0000    729.9612      6.2250
  1098.5000     97.2532     92.9736      0.0000    728.6915      6.0979
  1098.7500     97.2699     96.3296      0.0000    726.0912      5.9974
  1099.0000     97.2974     98.5341      0.0000    722.3256      5.9551
  1099.2500     97.2293    100.3196      0.0000    718.7821      5.9429
  1099.5000     97.2328    103.3618      0.0000    717.0076      5.9085
  1099.7500     97.4133    109.3357      0.0000    717.4412      5.8280
  1100.0000     97.1636    118.4335      0.0000    719.0120      5.7200
  1100.2500     97.2592    128.8465      0.0000    720.0221      5.6126
  1100.5000     97.0716    137.9838      0.0000    719.6266      5.5096
  1100.7500     97.3452    144.3599      0.0000    718.3577      5.3928
  1101.0000     97.1505    148.3282      0.0000    716.9269      5.2522
  1101.2500     97.3141    150.9586      0.0000    714.8610      5.1049
  1101.5000     97.3141    152.5685      0.0000    711.1088      4.9846
  1101.7500     97.2018    152.9177      0.0000    706.1288      4.9165
  1102.0000     97.3655    152.4915      0.0000    702.3605      4.9088
  1102.2500     97.2079    152.5656      0.0000    701.8958      4.9574
  1102.5000     97.2186    153.7630      0.0000    704.3160      5.0466
  1102.7500     97.2079    155.3114      0.0000    707.4593      5.1431
  1103.0000     97.3488    156.0063      0.0000    709.6964      5.2051
  1103.2500     97.3309    155.5309      0.0000    710.9484      5.2113
  1103.5000     97.1469    154.8437      0.0000    712.1421      5.1821
  1103.7500     97.2974    155.3907      0.0000    714.3488      5.1670
  1104.0000     97.1362    157.5823      0.0000    718.1019      5.2072
  1104.2500     97.3320    159.7509      0.0000    722.8608      5.3059
  1104.5000     97.3213    158.8877      0.0000    727.3204      5.4290
  1104.7500     97.1911    152.8969      0.0000    731.0784      5.5326
  1105.0000     97.1911    142.5072      0.0000    736.2517      5.5923
  1105.2500     97.0370    131.0453      0.0000    746.6755      5.6146
  1105.5000     97.2592    122.2265      0.0000    764.6054      5.6244
  1105.7500     97.3106    117.9475      0.0000    787.7946      5.6386
  1106.0000     97.2938    117.6983      0.0000    809.8253      5.6548
  1106.2500     97.1123    119.3850      0.0000    823.9531      5.6627
  1106.5000     97.1326    120.7139      0.0000    827.4547      5.6624
  1106.7500     97.2460    120.5194      0.0000    822.4807      5.6690
  1107.0000     97.0477    119.0635      0.0000    812.9645      5.7003
  1107.2500     97.3320    117.0624      0.0000    801.6117      5.7662
  1107.5000     97.3727    114.8474      0.0000    789.9029      5.8650
  1107.7500     97.2018    112.7632      0.0000    779.1729      5.9832
  1108.0000     97.2018    111.7881      0.0000    770.3389      6.0943
  1108.2500     97.0716    112.9478      0.0000    763.3079      6.1626
  1108.5000     97.4169    116.0271      0.0000    757.3469      6.1615
  1108.7500     97.2735    119.4310      0.0000    751.5423      6.0970
  1109.0000     97.3584    121.8362      0.0000    744.9234      6.0060
  1109.2500     97.1672    123.7322      0.0000    736.9922      5.9238
  1109.5000     97.3320    126.8331      0.0000    728.4370      5.8518
  1109.7500     97.2186    132.2079      0.0000    720.8311      5.7615
  1110.0000     97.4718    139.3740      0.0000    715.3836      5.6306
  1110.2500     97.2090    146.8622      0.0000    712.1713      5.4724
  1110.5000     97.2806    153.2503      0.0000    710.5187      5.3300
  1110.7500     97.3523    157.9371      0.0000    709.8137      5.2423
  1111.0000     97.1636    161.2154      0.0000    709.9329      5.2216
  1111.2500     97.4611    163.3819      0.0000    711.1942      5.2547
  1111.5000     97.3523    163.8217      0.0000    714.0875      5.3158
  1111.7500     97.3523    161.5088      0.0000    718.7668      5.3769
  1112.0000     97.0955    156.3608      0.0000    724.4288      5.4207
  1112.2500     97.3177    149.4840      0.0000    729.2978      5.4500
  1112.5000     97.1840    142.1948      0.0000    731.6377      5.4761
  1112.7500     97.2460    135.5278      0.0000    730.9898      5.4935
  1113.0000     97.3894    130.4205      0.0000    728.4299      5.4795
  1113.2500     97.2556    127.3328      0.0000    726.0455      5.4242
  1113.5000     97.2771    125.5723      0.0000    726.4777      5.3504
  1113.7500     97.1875    123.6369      0.0000    732.3770      5.2912
  1114.0000     97.2318    120.4475      0.0000    744.8421      5.2570
  1114.2500     97.3320    116.1868      0.0000    761.3476      5.2385
  1114.5000     97.3894    112.1438      0.0000    775.9053      5.2309
  1114.7500     97.2186    109.7826      0.0000    783.0990      5.2291
  1115.0000     97.1505    109.5836      0.0000    782.4770      5.2125
  1115.2500     97.1708    110.7558      0.0000    778.2211      5.1719
  1115.5000     97.3284    112.3243      0.0000    774.6174      5.1394
  1115.7500     97.2221    114.1291      0.0000    772.6878      5.1544
  1116.0000     97.4789    116.4624      0.0000    770.5506      5.2094
  1116.2500     97.1708    119.3010      0.0000    765.8538      5.2628
  1116.5000     97.3141    122.1922      0.0000    758.4041      5.2955
