~Version Information
 VERS.                                  2.0 : CWLS LAS VERSION
 WRAP.                                   NO : WRAPING MODE
 SWARE .                 MController 2.5.0J : SOFTWARE VERSION
~Well Information
 WELL.                        HARRIER 44-33 : WELL
 COMP.    PIONEER NATURAL RESOURCES USA INC : COMPANY
 FLD.                      PURGATOIRE RIVER : FIELD
 LOC.                SE/SE SEC 33 T32S R66W : LOCATION
 DATE.                          06/19-20/05 : DATE(S) LOGGED
 SRVC.       BLANCO GEOLOGICAL SERVICES LLC : SERVICE COMPANY
 STAT.                             COLORADO : STATE
 CNTY.                           LAS ANIMAS : COUNTY
 CTRY.                                  USA : COUNTRY
 API.                       05-071-08398-00 : API NUMBER
 STRT.FT                             665.00 : START DEPTH
 STOP.FT                            2381.00 : STOP DEPTH
 STEP.FT                               1.00 : DEPTH INCREMENT
 NULL.                                -9999 : NULL VALUE
~Curve information
 DEPTH.FT                                   :
 ROP.MIN/FT                                 :
 GAS.UNITS                                  :
~ASCII Log data
# ...
      1065.0         0.20         27.7 
      1066.0         0.20         27.8 
      1067.0         0.17         28.2 
      1068.0         0.17         28.3 
      1069.0         0.13         28.6 
      1070.0         0.17         29.2 
      1071.0         0.13         29.2 
      1072.0         0.17         29.4 
      1073.0         0.13         29.2 
      1074.0         0.17         29.2 
      1075.0         0.17         29.1 
      1076.0         1.88         40.9 
      1077.0         0.37         66.8 
      1078.0         0.27         72.4 
      1079.0         0.27         70.6 
      1080.0         0.27         58.1 
      1081.0         0.23         46.8 
      1082.0         0.20         38.9 
      1083.0         0.23         35.2 
      1084.0         0.20         32.1 
      1085.0         0.20         29.4 
      1086.0         0.20         27.9 
      1087.0         0.20         27.6 
      1088.0         0.18         26.6 
      1089.0         0.17         26.9 
      1090.0         0.17         26.3 
      1091.0         0.17         25.9 
      1092.0         0.17         25.6 
      1093.0         0.17         25.5 
      1094.0         0.20         25.1 
      1095.0         0.17         24.8 
      1096.0         0.13         25.3 
      1097.0         0.13         25.4 
      1098.0         0.17         24.8 
      1099.0         0.13         25.4 
      1100.0         0.17         25.5 
      1101.0         0.17         25.1 
      1102.0         0.13         24.8 
      1103.0         0.13         24.4 
      1104.0         0.17         23.7 
      1105.0         0.23         24.3 
      1106.0         2.92        105.2 
      1107.0         0.27        128.2 
      1108.0         0.30        123.7 
      1109.0         0.30         86.0 
      1110.0         0.28         58.1 
      1111.0         0.30         43.2 
      1112.0         0.30         34.1 
      1113.0         0.20         29.0 
      1114.0         0.17         27.1 
      1115.0         0.20         26.4 
      1116.0         0.20         26.3 
      1117.0         0.20         25.9 
      1118.0         0.20         25.5 
      1119.0         0.20         25.0 
      1120.0         0.17         24.0 
      1121.0         0.20         24.2 
      1122.0         0.17         24.0 
      1123.0         0.17         24.0 
      1124.0         0.20         23.9 
      1125.0         0.17         23.7 
      1126.0         0.13         23.4 
      1127.0         0.15         23.3 
      1128.0         0.17         23.2 
      1129.0         0.17         22.7 
      1130.0         0.17         23.9 
      1131.0         0.20         24.8 
      1132.0         0.10         24.1 
      1133.0         0.10         23.7 
      1134.0         0.17         23.5 
      1135.0         0.13         22.9 
      1136.0         1.67         45.7 
      1137.0         0.30         57.2 
      1138.0         0.18         73.8 
      1139.0         0.13         86.1 
      1140.0         0.33         88.1 
      1141.0         0.27         81.1 
      1142.0         0.33         66.3 
      1143.0         0.27         46.5 
      1144.0         0.23         38.3 
      1145.0         0.37         33.8 
      1146.0         0.23         29.3 
      1147.0         0.20         28.3 
      1148.0         0.20         26.8 
      1149.0         0.20         26.4 
      1150.0         0.17         25.6 
      1151.0         0.13         25.0 
      1152.0         0.13         25.0 
      1153.0         0.25         27.2 
      1154.0         0.20         32.7 
      1155.0         0.20         36.0 
      1156.0         0.20         36.8 
      1157.0         0.10         35.8 
      1158.0         0.17         34.9 
      1159.0         0.20         33.5 
      1160.0         0.20         33.0 
      1161.0         0.20         32.3 
      1162.0         0.20         31.9 
      1163.0         0.20         31.5 
      1164.0         0.20         31.5 
      1165.0         0.23         30.9 
      1166.0         0.98         30.0 
      1167.0         0.27         31.6 
      1168.0         0.20         39.7 
      1169.0         0.40         69.5 
      1170.0         0.37         82.2 
      1171.0         0.27         80.5 
      1172.0         0.23         66.5 
      1173.0         0.17         54.6 
      1174.0         0.27         48.6 
      1175.0         0.20         42.1 
      1176.0         0.17         39.4 
      1177.0         0.17         37.2 
      1178.0         0.20         35.3 
      1179.0         0.22         33.6 
      1180.0         0.20         31.7 
      1181.0         0.13         30.9 
      1182.0         0.23         30.4 
      1183.0         0.30         29.3 
      1184.0         0.17         28.6 
      1185.0         0.40         28.5 
      1186.0         0.23         28.4 
      1187.0         0.17         27.9 
      1188.0         0.13         28.5 
      1189.0         0.17         28.4 
      1190.0         0.17         28.6 
      1191.0         0.13         28.5 
      1192.0         0.23         29.0 
      1193.0         0.47         28.9 
      1194.0         0.42         29.6 
      1195.0         0.43         29.5 
      1196.0         3.22        134.7 
      1197.0         0.23        114.3 
      1198.0         0.23         91.4 
      1199.0         0.23         72.4 
      1200.0         0.17         57.9 
      1201.0         0.23         49.6 
      1202.0         0.20         41.6 
      1203.0         0.17         37.6 
      1204.0         0.20         35.2 
      1205.0         0.20         33.2 
      1206.0         0.20         32.1 
      1207.0         0.17         30.8 
      1208.0         0.20         30.4 
      1209.0         0.17         29.5 
      1210.0         0.22         29.7 
      1211.0         0.13         29.2 
      1212.0         0.17         28.6 
      1213.0         0.17         28.5 
      1214.0         0.20         28.6 
      1215.0         0.13         28.2 
      1216.0         0.20         28.3 
      1217.0         0.13         28.2 
      1218.0         0.17         27.5 
      1219.0         0.27         27.6 
      1220.0         0.47         27.1 
      1221.0         0.37         26.4 
      1222.0         0.20         27.0 
      1223.0         0.13         27.1 
      1224.0         0.17         27.3 
      1225.0         0.20         26.5 
      1226.0         2.12         65.8 
      1227.0         0.07         68.4 
      1228.0         0.23         93.1 
      1229.0         0.57        120.4 
      1230.0         0.30         97.9 
      1231.0         0.32         70.4 
      1232.0         0.30         53.1 
      1233.0         0.23         43.5 
      1234.0         0.20         37.7 
      1235.0         0.20         34.4 
      1236.0         0.23         33.0 
      1237.0         0.20         30.8 
      1238.0         0.20         29.8 
      1239.0         0.20         28.2 
      1240.0         0.17         28.2 
      1241.0         0.30         28.1 
      1242.0         0.13         27.7 
      1243.0         0.17         27.5 
      1244.0         0.17         26.9 
      1245.0         0.37         26.4 
      1246.0         0.17         27.9 
      1247.0         0.22         29.1 
      1248.0         0.20         28.8 
      1249.0         0.20         28.8 
      1250.0         0.17         28.0 
      1251.0         0.17         27.4 
      1252.0         0.20         26.7 
      1253.0         0.30         26.7 
      1254.0         0.20         26.2 
      1255.0         0.13         24.4 
      1256.0         2.12         63.6 
      1257.0         0.10         66.8 
      1258.0         0.43        116.5 
      1259.0         0.33        124.8 
      1260.0         0.30        109.0 
      1261.0         0.30         78.0 
      1262.0         0.27         58.8 
      1263.0         0.23         46.6 
      1264.0         0.20         39.8 
