~Version Information
VERS.                      2.0: CWLS Log ASCII Standard - VERSION 2.0
WRAP.                       NO: One line per depth step
~Well Information Block
STRT.FT               250.0000: 
STOP.FT               894.7000: 
STEP.FT                 0.1000: 
NULL.                -999.2500: 
COMP.          Pioneer Natural Resources: COMPANY
WELL.          Santisteven 13-22: WELL
FLD.           Purgatoire River: FIELD
LOC.           1861' FSL & 992' FWL----: LOCATION
PROV.                 Colorado: PROVINCE
CNTY.               Las Animas: COUNTRY
SRVC.                Patterson: SERVICE COMPANY
DATE.          Mon Apr 04 11:05:36 2005: LOG DATE
UWI.           05 071 08337 00: UNIQUE WELL ID
~Curve Information Block
DEPT.FT            0 000 00 00: Depth
DCAL.in                       : CDL Caliper
RHOB.g/cc                     : CDL Bulk Density
RHOC.g/cc                     : CDL Density Correction
DPOR.pu                       : CDL Density Porosity
NPOR.pu                       : Neutron Porosity
GR.GAPI                       : Gamma Ray
~Parameter Information Block
~A  Depth       DCAL        RHOB        RHOC        DPOR        NPOR         GR     
# ...
   336.4000      8.2133      2.4756     -0.0052     10.5703     28.6615    151.3285
   336.5000      8.2125      2.4952     -0.0065      9.3827     28.8470    157.5463
   336.6000      8.2125      2.5410      0.1003      6.6068     28.9594    160.6413
   336.7000      8.2125      2.5900      0.1022      3.6366     29.0675    155.9232
   336.8000      8.2115      2.6175      0.1745      1.9687     29.2481    147.3766
   336.9000      8.2115      2.6108      0.1750      2.3752     29.3660    144.1873
   337.0000      8.2078      2.5806      0.1233      4.2085     29.4259    147.4168
   337.1000      8.2078      2.5568      0.0852      5.6456     29.3687    150.4525
   337.2000      8.2078      2.5537      0.1186      5.8354     29.1622    150.4103
   337.3000      8.2038      2.5520      0.1513      5.9376     29.1746    149.3417
   337.4000      8.2038      2.5332      0.0971      7.0809     29.5717    149.1798
   337.5000      8.2045      2.5082      0.0354      8.5925     29.9189    150.6886
   337.6000      8.2045      2.4965      0.0247      9.3048     29.8924    152.4676
   337.7000      8.2045      2.4934      0.0523      9.4924     29.3611    151.6671
   337.8000      8.2077      2.4802      0.0205     10.2928     28.1778    150.4627
   337.9000      8.2077      2.4559     -0.0148     11.7640     26.6017    150.0957
   338.0000      8.2104      2.4296     -0.0026     13.3588     25.0775    146.4483
   338.1000      8.2104      2.3926      0.0341     15.5975     23.9415    142.1874
   338.2000      8.2104      2.3255      0.0424     19.6691     23.3062    142.3026
   338.3000      8.2114      2.2286     -0.0184     25.5377     22.7345    144.9625
   338.4000      8.2114      2.1431     -0.1039     30.7217     21.6971    147.0316
   338.5000      8.2103      2.1180     -0.0748     32.2394     20.0841    146.4727
   338.6000      8.2103      2.1521     -0.0124     30.1782     18.3579    143.1588
   338.7000      8.2103      2.1997      0.0577     27.2880     16.9923    139.0505
   338.8000      8.2090      2.2352      0.0449     25.1372     15.8336    132.6571
   338.9000      8.2090      2.2721      0.0906     22.9031     14.8297    122.0835
   339.0000      8.2101      2.3283      0.1570     19.4962     14.1389    112.2090
   339.1000      8.2101      2.4045      0.2328     14.8808     13.6579    108.5368
   339.2000      8.2101      2.4893      0.2784      9.7398     13.5547    109.8542
   339.3000      8.2103      2.5693      0.2761      4.8882     14.3320    108.8808
   339.4000      8.2103      2.6281      0.2362      1.3266     15.9141    102.0548
   339.5000      8.2073      2.6514      0.1937     -0.0836     17.7776     94.4594
   339.6000      8.2073      2.6508      0.0429     -0.0511     19.7565     89.1787
   339.7000      8.2073      2.6538      0.0477     -0.2329     21.8383     84.5793
   339.8000      8.2020      2.6599      0.0732     -0.5982     23.9711     80.5383
   339.9000      8.2020      2.6576      0.0309     -0.4592     26.1356     80.9054
   340.0000      8.1986      2.6480      0.0365      0.1240     28.0932     87.0164
   340.1000      8.1986      2.6309      0.0273      1.1549     29.5320     94.7113
   340.2000      8.1986      2.6090      0.0051      2.4845     30.2141    101.1412
   340.3000      8.1988      2.5892      0.0146      3.6870     30.1421    107.5859
   340.4000      8.1988      2.5765     -0.0083      4.4571     29.7100    117.4973
   340.5000      8.2024      2.5692      0.0164      4.8950     29.3186    129.3126
   340.6000      8.2024      2.5500      0.0327      6.0587     29.1717    139.0574
   340.7000      8.2024      2.5138     -0.0113      8.2536     29.2267    148.1759
   340.8000      8.2074      2.4913     -0.0174      9.6177     29.2214    154.8719
   340.9000      8.2074      2.5065      0.0165      8.6976     29.0646    154.3668
   341.0000      8.2104      2.5423      0.1107      6.5243     28.8481    149.2099
   341.1000      8.2104      2.5644      0.1575      5.1875     28.7089    143.5283
   341.2000      8.2104      2.5576      0.1162      5.6005     28.4866    141.1066
   341.3000      8.2121      2.5378      0.0470      6.7973     27.9275    146.3130
   341.4000      8.2121      2.5302      0.0654      7.2631     27.6687    153.6293
   341.5000      8.2130      2.5412      0.0571      6.5963     28.0637    155.1734
   341.6000      8.2130      2.5568      0.1236      5.6456     28.4482    154.0546
   341.7000      8.2130      2.5583      0.0592      5.5594     28.5746    157.9807
   341.8000      8.2138      2.5499      0.0334      6.0677     28.5557    167.4506
   341.9000      8.2138      2.5482      0.0230      6.1686     28.1905    174.4098
   342.0000      8.2139      2.5527      0.0445      5.8995     27.6689    172.3401
   342.1000      8.2139      2.5541      0.0418      5.8096     27.4775    163.2572
   342.2000      8.2139      2.5528      0.0176      5.8897     27.5822    156.3535
   342.3000      8.2124      2.5570      0.0311      5.6345     27.6524    155.7567
   342.4000      8.2124      2.5649      0.0519      5.1569     27.6266    155.5239
   342.5000      8.2109      2.5605      0.0578      5.4218     27.4698    152.1040
   342.6000      8.2109      2.5419      0.0082      6.5510     27.2617    149.2829
   342.7000      8.2109      2.5280      0.0131      7.3951     27.2850    149.4843
   342.8000      8.2113      2.5299      0.0405      7.2763     27.5310    151.1567
   342.9000      8.2113      2.5467      0.0024      6.2585     27.8563    154.1409
   343.0000      8.2136      2.5711      0.0713      4.7819     28.0246    157.2864
   343.1000      8.2136      2.5875      0.0459      3.7851     27.8776    156.2739
   343.2000      8.2136      2.5849      0.0810      3.9449     27.8348    151.2122
   343.3000      8.2161      2.5625      0.0347      5.3050     28.2548    146.3089
   343.4000      8.2161      2.5344      0.0247      7.0079     28.7649    143.9899
   343.5000      8.2175      2.5233     -0.0095      7.6804     28.9134    145.2595
   343.6000      8.2175      2.5357      0.0329      6.9272     28.7447    148.1310
   343.7000      8.2175      2.5476      0.0349      6.2045     28.4916    149.5491
   343.8000      8.2178      2.5299      0.0589      7.2807     28.3018    152.0907
   343.9000      8.2178      2.4860     -0.0210      9.9413     28.3153    157.0551
   344.0000      8.2170      2.4460     -0.0017     12.3625     28.3198    162.8961
   344.1000      8.2170      2.4302     -0.0304     13.3199     27.9345    169.8310
   344.2000      8.2170      2.4358      0.0134     12.9847     27.3599    175.3498
   344.3000      8.2155      2.4461      0.0385     12.3605     27.0775    173.5153
   344.4000      8.2155      2.4542      0.0263     11.8657     27.0777    167.9084
   344.5000      8.2142      2.4699      0.0587     10.9168     26.9394    167.9671
   344.6000      8.2142      2.4902      0.1361      9.6846     26.3823    172.8046
   344.7000      8.2142      2.4948      0.1153      9.4054     25.8166    176.8371
   344.8000      8.2133      2.4846      0.0601     10.0257     25.7727    177.2531
   344.9000      8.2133      2.4815      0.0920     10.2142     26.1714    171.7340
   345.0000      8.2125      2.4974      0.0866      9.2510     26.6685    161.4978
   345.1000      8.2125      2.5205      0.1175      7.8469     26.7483    152.7878
   345.2000      8.2125      2.5224      0.1289      7.7348     26.2587    151.6644
   345.3000      8.2132      2.4987      0.0707      9.1680     25.8378    157.5874
   345.4000      8.2132      2.4794      0.0490     10.3383     25.7546    162.0632
   345.5000      8.2125      2.4812      0.0579     10.2312     25.6642    159.3622
   345.6000      8.2125      2.4919      0.0767      9.5813     25.3061    153.6629
   345.7000      8.2125      2.5016      0.0467      8.9928     24.6685    151.8694
   345.8000      8.2097      2.5136      0.0580      8.2642     24.1604    153.6655
   345.9000      8.2097      2.5251      0.0728      7.5677     24.2345    151.2672
