~Version Information
 VERS.                                  2.0 : CWLS LAS VERSION
 WRAP.                                   NO : WRAPING MODE
 SWARE .                 MController 2.5.0N : SOFTWARE VERSION
~Well Information
 WELL.                          Cluck 21-25 : WELL
 COMP.    PIONEER NATURAL RESOURCES USA INC : COMPANY
 FLD.                      PURGATOIRE RIVER : FIELD
 LOC.                  NE/NW Sec 25 32S 67W : LOCATION
 DATE.                           6/5-6/2005 : DATE(S) LOGGED
 SRVC.       BLANCO GEOLOGICAL SERVICES LLC : SERVICE COMPANY
 STAT.                                   CO : STATE
 CNTY.                           LAS ANIMAS : COUNTY
 CTRY.                                  USA : COUNTRY
 API.                       05-071-08397-00 : API NUMBER
 STRT.FT                             296.00 : START DEPTH
 STOP.FT                            2730.00 : STOP DEPTH
 STEP.FT                               1.00 : DEPTH INCREMENT
 NULL.                                -9999 : NULL VALUE
~Curve information
 DEPTH.FT                                   :
 ROP.MIN/FT                                 :
 GAS.UNITS                                  :
~ASCII Log data
# ...
       496.0         0.73          1.8 
       497.0         0.52          2.0 
       498.0         0.43          2.9 
       499.0         0.50          2.3 
       500.0         0.50          2.0 
       501.0         0.47          2.2 
       502.0         0.50          1.9 
       503.0         0.52          2.1 
       504.0         0.47          2.1 
       505.0         0.43          1.9 
       506.0         0.47          2.3 
       507.0         0.47          2.0 
       508.0         0.47          2.6 
       509.0         0.50          2.9 
       510.0         1.08          3.1 
       511.0         0.53          1.5 
       512.0         0.10          1.4 
       513.0         0.13          1.4 
       514.0         0.20          2.4 
       515.0         0.13          1.9 
       516.0         0.10          1.9 
       517.0         0.13          2.0 
       518.0         0.23          1.9 
       519.0         0.10          1.7 
       520.0         0.13          1.1 
       521.0         0.10          1.4 
       522.0         0.13          1.8 
       523.0         0.10          2.0 
       524.0         0.10          1.9 
       525.0         0.13          2.3 
       526.0         0.33          1.4 
       527.0         0.12          1.4 
       528.0         0.13          1.4 
       529.0         0.10          1.4 
       530.0         0.33          2.5 
       531.0         0.13          2.3 
       532.0         0.10          2.3 
       533.0         0.13          1.9 
       534.0         0.33          2.5 
       535.0         0.10          1.8 
       536.0         0.13          2.4 
       537.0         0.20          2.4 
       538.0         0.13          2.4 
       539.0         0.13          1.8 
       540.0        16.07          3.4 
       541.0         0.82          2.5 
       542.0         0.57          1.8 
       543.0         0.50          2.1 
       544.0         0.57          2.3 
       545.0         0.50          0.7 
       546.0         0.48          1.5 
       547.0         0.50          2.1 
       548.0         0.43          1.7 
       549.0         0.33          1.6 
       550.0         0.37          1.9 
       551.0         0.38          1.9 
       552.0         0.33          0.9 
       553.0         0.37          0.8 
       554.0         0.37          1.8 
       555.0         0.37          1.8 
       556.0         0.30          1.8 
       557.0         0.37          1.0 
       558.0         0.43          2.5 
       559.0         0.43          1.9 
       560.0         0.52          1.0 
       561.0         0.53          1.9 
       562.0         0.53          2.1 
       563.0         0.47          1.6 
       564.0         0.50          1.8 
       565.0         0.50          2.0 
       566.0         0.48          1.5 
       567.0         0.57          1.9 
       568.0         0.47          1.4 
       569.0         0.43          1.5 
       570.0         6.53          2.3 
       571.0         0.73          1.3 
       572.0         0.67          1.2 
       573.0         0.57          1.7 
       574.0         0.48          1.7 
       575.0         0.43          1.2 
       576.0         0.47          2.2 
       577.0         0.50          1.2 
       578.0         0.47          1.6 
       579.0         0.47          0.7 
       580.0         0.43          1.3 
       581.0         0.45          0.6 
       582.0         0.43          0.9 
       583.0         0.40          1.4 
       584.0         0.37          0.7 
       585.0         0.40          1.1 
       586.0         0.43          0.5 
       587.0         0.43          0.1 
       588.0         0.50          0.3 
       589.0         0.45          0.5 
       590.0         0.43          1.2 
       591.0         0.40          0.3 
       592.0         0.37          0.8 
       593.0         0.43          0.6 
       594.0         0.47          0.0 
       595.0         0.50        112.0 
       596.0         0.55         69.1 
       597.0         0.57         11.7 
       598.0         0.57          2.6 
       599.0         0.63         -0.3 
       600.0         0.70         -0.7 
       601.0         7.38          1.7 
       602.0         0.73          0.5 
       603.0         0.60          1.1 
       604.0         0.50          1.3 
       605.0         0.53          1.5 
       606.0         0.47          0.1 
       607.0         0.47          0.6 
       608.0         0.48          0.8 
       609.0         0.47          0.5 
       610.0         0.53          1.5 
       611.0         0.43          1.2 
       612.0         0.40          1.3 
       613.0         0.43          0.7 
       614.0         0.43          0.9 
       615.0         0.48          0.7 
       616.0         0.43          0.8 
       617.0         0.47          1.3 
       618.0         0.43          2.0 
       619.0         0.43          1.0 
       620.0         0.43          0.9 
       621.0         0.47          1.5 
       622.0         0.48          0.8 
       623.0         0.43          1.5 
       624.0         0.47          1.6 
       625.0         0.50          2.1 
       626.0         0.47          1.6 
       627.0         0.53          1.4 
       628.0         0.50          1.4 
       629.0        14.28          2.6 
       630.0         6.70          3.2 
       631.0         0.27          1.3 
       632.0         0.30          1.7 
       633.0         0.47          2.1 
       634.0         0.43          2.0 
       635.0         0.47          1.5 
       636.0         0.53          1.6 
       637.0         0.55          1.7 
       638.0         0.47          1.9 
       639.0         0.47          2.9 
       640.0         0.47          1.7 
       641.0         0.60          1.8 
       642.0         0.40          2.1 
       643.0         0.43          2.5 
       644.0         0.42          1.4 
       645.0         0.40          2.0 
       646.0         0.43          1.8 
       647.0         0.43          1.5 
       648.0         0.40          1.7 
       649.0         0.40          2.2 
       650.0         0.37          1.1 
       651.0         0.40          1.5 
       652.0         0.40          1.4 
       653.0         0.42          1.8 
       654.0         0.33          1.7 
       655.0         0.43          2.5 
       656.0         0.50          2.7 
       657.0         0.43          1.9 
       658.0         0.40          1.5 
       659.0         0.40          2.3 
       660.0         0.37          2.4 
       661.0         0.42          2.3 
       662.0         8.07          3.6 
       663.0         0.63          2.3 
       664.0         0.57          2.5 
       665.0         0.52          2.1 
       666.0         0.47          2.7 
       667.0         0.53          2.5 
       668.0         0.47          2.7 
       669.0         0.67          2.3 
       670.0         0.63          2.0 
       671.0         0.55          2.2 
       672.0         0.67          2.9 
       673.0         0.50          1.5 
       674.0         0.47          2.1 
       675.0         0.57          3.2 
       676.0         0.53          2.3 
       677.0         0.62          2.5 
       678.0         0.47          2.5 
       679.0         0.47          2.7 
       680.0         0.50          1.8 
       681.0         0.53          2.5 
       682.0         0.60          2.7 
       683.0         0.70          2.5 
       684.0         0.55          3.0 
       685.0         0.47          2.6 
       686.0         0.43          2.6 
       687.0         0.47          2.3 
       688.0         0.47          2.1 
       689.0         0.40          2.7 
       690.0         0.62          2.9 
       691.0         5.85          4.1 
       692.0         0.43          2.9 
       693.0         0.42          3.1 
       694.0         0.47          3.0 
       695.0         0.53          3.0 
