~Version Information
VERS.                      2.0: CWLS Log ASCII Standard - VERSION 2.0
WRAP.                       NO: One line per depth step
~Well Information Block
STRT.FT               430.0000: 
STOP.FT              2826.2500: 
STEP.FT                 0.2500: 
NULL.                -999.2500: 
COMP.          Pioneer Natural Resources: COMPANY
WELL.           Ei-ei-oh 31-24: WELL
FLD.           Purgatoire River: FIELD
LOC.           235' FNL & 2001' FEL--: LOCATION
PROV.                 Colorado: PROVINCE
CNTY.               Las Animas: COUNTRY
SRVC.                Patterson: SERVICE COMPANY
DATE.          Thu Jun 16 06:46:37 2005: LOG DATE
UWI.           05 071 08403 00: UNIQUE WELL ID
~Curve Information Block
DEPT.FT            0 000 00 00: Depth
DIR.Ohm-m                     : IEL Induction Resistivity
SN.Ohm-m                      : IEL Short Normal
SP.mV                         : IEL Spontaneous Potential
GR.GAPI                       : Gamma Ray
~Parameter Information Block
~A  Depth       DIR          SN          SP          GR     
# ...
  1334.5000     16.9745     18.1455   -100.6697    135.0059
  1334.7500     16.2733     16.1842    -99.7931    134.2191
  1335.0000     15.5916     14.3860    -98.9335    132.4765
  1335.2500     14.9719     12.9565    -98.1170    131.5491
  1335.5000     14.4365     12.0645    -97.3544    131.4619
  1335.7500     13.9887     11.7978    -96.6433    132.6285
  1336.0000     13.6205     12.1134    -95.9734    135.8575
  1336.2500     13.3215     12.8259    -95.3340    138.2129
  1336.5000     13.0821     13.6699    -94.7205    140.7645
  1336.7500     12.8929     14.4085    -94.1371    141.6971
  1337.0000     12.7439     14.9187    -93.5980    142.6633
  1337.2500     12.6260     15.2024    -93.1236    143.2171
  1337.5000     12.5357     15.3333    -92.7365    142.9877
  1337.7500     12.4788     15.3951    -92.4567    141.3112
  1338.0000     12.4714     15.4518    -92.2988    136.2854
  1338.2500     12.5364     15.5473    -92.2725    132.2797
  1338.5000     12.6990     15.7133    -92.3854    128.1316
  1338.7500     12.9823     15.9724    -92.6480    127.7176
  1339.0000     13.4047     16.3355    -93.0767    129.7710
  1339.2500     13.9793     16.7982    -93.6937    131.0294
  1339.5000     14.7128     17.3491    -94.5222    129.3737
  1339.7500     15.6060     17.9975    -95.5789    124.9237
  1340.0000     16.6566     18.8149    -96.8649    113.7037
  1340.2500     17.8666     19.9622    -98.3598    104.4040
  1340.5000     19.2528     21.6621   -100.0194     90.1785
  1340.7500     20.8512     24.1068   -101.7795     81.4905
  1341.0000     22.7083     27.3398   -103.5636     70.3521
  1341.2500     24.8575     31.1905   -105.2936     64.4228
  1341.5000     27.2912     35.3218   -106.9006     58.1684
  1341.7500     29.9441     39.3565   -108.3339     55.7080
  1342.0000     32.6952     42.9836   -109.5653     53.9043
  1342.2500     35.3869     45.9910   -110.5892     53.5415
  1342.5000     37.8431     48.2576   -111.4182     53.8173
  1342.7500     39.8919     49.7496   -112.0755     54.2474
  1343.0000     41.4080     50.5197   -112.5876     54.5799
  1343.2500     42.3642     50.6872   -112.9784     54.3754
  1343.5000     42.8409     50.3972   -113.2666     53.5719
  1343.7500     42.9764     49.7748   -113.4669     52.8355
  1344.0000     42.8966     48.8961   -113.5922     51.4857
  1344.2500     42.6745     47.7853   -113.6563     50.5829
  1344.5000     42.3327     46.4344   -113.6740     50.0050
  1344.7500     41.8668     44.8302   -113.6593     50.6443
  1345.0000     41.2671     42.9803   -113.6218     53.3731
  1345.2500     40.5276     40.9272   -113.5645     56.0594
  1345.5000     39.6481     38.7478   -113.4823     60.6397
  1345.7500     38.6407     36.5454   -113.3648     63.8360
  1346.0000     37.5348     34.4337   -113.1999     68.8813
  1346.2500     36.3681     32.5101   -112.9792     72.4337
  1346.5000     35.1653     30.8324   -112.7001     77.7197
  1346.7500     33.9220     29.4182   -112.3674     80.8700
  1347.0000     32.6138     28.2584   -111.9907     84.4286
  1347.2500     31.2284     27.3282   -111.5800     85.7166
  1347.5000     29.7960     26.5895   -111.1417     85.8177
  1347.7500     28.3923     25.9935   -110.6758     84.9751
  1348.0000     27.1085     25.4878   -110.1772     83.6122
  1348.2500     26.0134     25.0271   -109.6385     83.4478
  1348.5000     25.1320     24.5819   -109.0561     85.1004
  1348.7500     24.4487     24.1408   -108.4354     87.3600
  1349.0000     23.9261     23.7090   -107.7931     91.2963
  1349.2500     23.5236     23.2997   -107.1551     93.2521
  1349.5000     23.2092     22.9276   -106.5507     93.7682
  1349.7500     22.9628     22.6063   -106.0039     92.3276
  1350.0000     22.7779     22.3529   -105.5261     88.3673
  1350.2500     22.6610     22.1889   -105.1141     85.3682
  1350.5000     22.6255     22.1346   -104.7532     81.6202
  1350.7500     22.6822     22.1992   -104.4252     80.1621
  1351.0000     22.8314     22.3735   -104.1181     80.1374
  1351.2500     23.0628     22.6271   -103.8330     81.5752
  1351.5000     23.3609     22.9140   -103.5849     84.9133
  1351.7500     23.7101     23.1861   -103.3991     86.8727
  1352.0000     24.0938     23.4087   -103.3030     88.0176
  1352.2500     24.4911     23.5688   -103.3192     87.6079
  1352.5000     24.8772     23.6789   -103.4607     86.4860
  1352.7500     25.2308     23.7781   -103.7303     86.0837
  1353.0000     25.5443     23.9262   -104.1217     85.9122
  1353.2500     25.8283     24.1835   -104.6219     85.4235
  1353.5000     26.1059     24.5831   -105.2133     83.4107
  1353.7500     26.3995     25.1127   -105.8747     81.5969
  1354.0000     26.7182     25.7215   -106.5824     79.3413
  1354.2500     27.0553     26.3442   -107.3124     78.2082
  1354.5000     27.3974     26.9249   -108.0417     75.9755
  1354.7500     27.7336     27.4224   -108.7509     73.7456
  1355.0000     28.0578     27.8048   -109.4245     70.1510
  1355.2500     28.3640     28.0495   -110.0504     68.4199
  1355.5000     28.6425     28.1521   -110.6189     67.2676
  1355.7500     28.8799     28.1323   -111.1218     67.0676
  1356.0000     29.0603     28.0306   -111.5506     66.7265
  1356.2500     29.1655     27.8962   -111.8974     66.1692
  1356.5000     29.1776     27.7755   -112.1572     64.8259
  1356.7500     29.0826     27.7011   -112.3301     63.9090
  1357.0000     28.8713     27.6863   -112.4249     63.2755
  1357.2500     28.5399     27.7249   -112.4609     63.5179
  1357.5000     28.0945     27.8024   -112.4688     64.3122
  1357.7500     27.5636     27.9107   -112.4886     64.6006
  1358.0000     27.0044     28.0538   -112.5647     64.2359
  1358.2500     26.4941     28.2428   -112.7387     63.5907
  1358.5000     26.1085     28.4930   -113.0417     62.5645
  1358.7500     25.9008     28.8236   -113.4867     62.1819
  1359.0000     25.8916     29.2448   -114.0622     62.5084
  1359.2500     26.0681     29.7294   -114.7295     63.3642
  1359.5000     26.3876     30.1956   -115.4224     65.0414
  1359.7500     26.7855     30.5332   -116.0521     65.8630
  1360.0000     27.1865     30.6731   -116.5156     65.9875
  1360.2500     27.5107     30.6439   -116.7088     65.3448
  1360.5000     27.6674     30.5517   -116.5417     63.9036
  1360.7500     27.5484     30.4761   -115.9534     63.1697
  1361.0000     27.0442     30.3676   -114.9233     63.4287
  1361.2500     26.0936     30.0457   -113.4762     64.9578
  1361.5000     24.7310     29.3053   -111.6784     69.5360
  1361.7500     23.0851     28.0476   -109.6266     74.0743
  1362.0000     21.3259     26.3344   -107.4326     83.2392
  1362.2500     19.6030     24.3421   -105.2070     91.0914
  1362.5000     18.0125     22.2679   -103.0457    105.1588
  1362.7500     16.5980     20.2593   -101.0214    115.2253
  1363.0000     15.3674     18.3955    -99.1812    129.3922
  1363.2500     14.3119     16.7048    -97.5477    137.2689
  1363.5000     13.4189     15.1892    -96.1244    145.7203
  1363.7500     12.6759     13.8450    -94.9006    148.8190
  1364.0000     12.0700     12.6744    -93.8567    149.8738
  1364.2500     11.5871     11.6886    -92.9680    148.8088
  1364.5000     11.2104     10.9043    -92.2078    146.0302
  1364.7500     10.9196     10.3347    -91.5493    144.0260
  1365.0000     10.6908      9.9811    -90.9673    141.0011
  1365.2500     10.4990      9.8317    -90.4402    138.6583
  1365.5000     10.3231      9.8639    -89.9508    133.9342
  1365.7500     10.1504     10.0394    -89.4880    129.8037
  1366.0000      9.9779     10.2984    -89.0463    122.5886
  1366.2500      9.8094     10.5674    -88.6260    117.6914
  1366.5000      9.6528     10.7830    -88.2315    111.4148
  1366.7500      9.5186     10.9167    -87.8706    108.6313
  1367.0000      9.4196     10.9785    -87.5530    107.5280
  1367.2500      9.3688     11.0008    -87.2893    109.1110
  1367.5000      9.3773     11.0180    -87.0911    114.7160
  1367.7500      9.4528     11.0573    -86.9694    120.1436
