~Version Information
VERS.                      2.0: CWLS Log ASCII Standard - VERSION 2.0
WRAP.                       NO: One line per depth step
~Well Information Block
STRT.FT                 3.5000: 
STOP.FT              1971.5000: 
STEP.FT                 0.2500: 
NULL.                -999.2500: 
COMP.          Evergreen Operating Corporation: COMPANY
WELL.          McCullough 34-32 Tr: WELL
FLD.           Purgatorie River: FIELD
LOC.           394' FSL & 2077' FEL: LOCATION
PROV.                 Colorado: PROVINCE
CNTY.               Las Animas: COUNTRY
SRVC.                         : SERVICE COMPANY
DATE.          Fri Sep 24 11:00:22 2004: LOG DATE
UWI.           05 071 08157 00: UNIQUE WELL ID
~Curve Information Block
DEPT.FT            0 000 00 00: Depth
GR.GAPI                       : Gamma Ray
CCL.                          : Casing Collar Locator
TT3.usec                      : CBL 3' Travel Time
AMP3.mV                       : CBL 3' Amplitude
~Parameter Information Block
~A  Depth        GR         CCL         TT3         AMP3    
# ...
   908.0000    110.6572      0.0000    763.4833      9.2880
   908.2500    112.5373      0.0000    757.0481      8.5638
   908.5000    114.0590      0.0000    745.4899      7.9014
   908.7500    114.5981      0.0000    728.6263      7.3684
   909.0000    113.4957      0.0000    709.2966      6.9389
   909.2500    110.8530      0.0000    692.9736      6.5271
   909.5000    107.5004      0.0000    684.4236      6.0706
   909.7500    104.4799      0.0000    684.2476      5.5768
   910.0000    102.7861      0.0000    689.1389      5.0845
   910.2500    103.2390      0.0000    695.3792      4.6187
   910.5000    105.9173      0.0000    701.4424      4.1972
   910.7500    109.6243      0.0000    707.3497      3.8489
   911.0000    112.3673      0.0000    712.6396      3.6055
   911.2500    112.6271      0.0000    716.0471      3.4864
   911.5000    110.1855      0.0000    716.9656      3.4910
   911.7500    105.9245      0.0000    716.0707      3.5919
   912.0000    101.2889      0.0000    714.3534      3.7472
   912.2500     98.0846      0.0000    712.4655      3.9427
   912.5000     98.1901      0.0000    710.9871      4.2204
   912.7500    102.5585      0.0000    710.1346      4.6609
   913.0000    110.0770      0.0000    709.0263      5.3424
   913.2500    117.5994      0.0000    706.3821      6.2945
   913.5000    121.6082      0.0000    702.5995      7.4447
   913.7500    120.4784      0.0000    700.6055      8.6085
   914.0000    115.5129      0.0000    703.8751      9.5821
   914.2500    109.6563      0.0000    713.3541     10.2706
   914.5000    104.9835      0.0000    726.1066     10.7039
   914.7500    101.4557      0.0000    736.9237     10.9389
   915.0000     97.9245      0.0000    741.8172     10.9958
   915.2500     93.7821      0.0000    740.4086     10.8846
   915.5000     89.4343      0.0000    734.8405     10.6411
   915.7500     85.6668      0.0000    726.8340     10.3168
   916.0000     83.0459      0.0000    717.3105      9.9561
   916.2500     81.7805      0.0000    708.9046      9.5930
   916.5000     81.6634      0.0000    706.1294      9.2621
   916.7500     81.9627      0.0000    710.8638      8.9977
   917.0000     81.6851      0.0000    718.5480      8.8098
   917.2500     80.4261      0.0000    720.7495      8.6646
   917.5000     79.0240      0.0000    712.0925      8.5047
   917.7500     78.9305      0.0000    694.5300      8.2954
   918.0000     80.6109      0.0000    675.1834      8.0516
   918.2500     82.7376      0.0000    660.6740      7.8255
   918.5000     83.3241      0.0000    653.3771      7.6789
   918.7500     81.6937      0.0000    651.7142      7.6627
   919.0000     79.1229      0.0000    652.2266      7.7962
   919.2500     77.4949      0.0000    651.1205      8.0488
   919.5000     77.5713      0.0000    645.7741      8.3527
   919.7500     78.6174      0.0000    636.4596      8.6530
   920.0000     79.3787      0.0000    626.2905      8.9417
   920.2500     79.2933      0.0000    618.8488      9.2379
   920.5000     78.9904      0.0000    616.3035      9.5466
   920.7500     79.6727      0.0000    619.8795      9.8336
   921.0000     81.8392      0.0000    630.8916     10.0174
   921.2500     84.6379      0.0000    649.7973      9.9930
   921.5000     86.6198      0.0000    673.6949      9.7058
   921.7500     87.1119      0.0000    695.5443      9.2206
   922.0000     86.8112      0.0000    707.6268      8.6988
   922.2500     87.0414      0.0000    706.9926      8.2911
   922.5000     88.5096      0.0000    697.1440      8.0476
   922.7500     90.7459      0.0000    683.8665      7.9129
   923.0000     92.6619      0.0000    670.4260      7.7891
   923.2500     93.6355      0.0000    657.2883      7.6094
   923.5000     94.1648      0.0000    644.1979      7.3730
   923.7500     95.4424      0.0000    630.9041      7.1268
   924.0000     98.1863      0.0000    617.6520      6.9208
   924.2500    101.7798      0.0000    606.2513      6.7802
   924.5000    104.5984      0.0000    599.4064      6.7094
   924.7500    105.3846      0.0000    598.8036      6.7146
   925.0000    104.3972      0.0000    604.7454      6.8107
   925.2500    103.1622      0.0000    615.9915      6.9980
   925.5000    103.2522      0.0000    628.1562      7.2366
   925.7500    105.4583      0.0000    634.4162      7.4594
   926.0000    109.7596      0.0000    630.4900      7.6131
   926.2500    115.3744      0.0000    618.1624      7.6827
   926.5000    120.6908      0.0000    602.8044      7.6799
   926.7500    123.8189      0.0000    588.7842      7.6225
   927.0000    123.8969      0.0000    578.3167      7.5187
   927.2500    121.7660      0.0000    573.2040      7.3648
   927.5000    118.9688      0.0000    575.7263      7.1695
   927.7500    116.1417      0.0000    587.2722      6.9819
   928.0000    112.8304      0.0000    605.9974      6.8656
   928.2500    108.8619      0.0000    626.3216      6.8319
   928.5000    105.3428      0.0000    642.4777      6.8256
   928.7500    104.0534      0.0000    653.6194      6.7902
   929.0000    106.1434      0.0000    664.2240      6.7262
   929.2500    111.3881      0.0000    678.0970      6.6822
   929.5000    118.2208      0.0000    692.9767      6.7080
   929.7500    124.4525      0.0000    702.7089      6.8212
   930.0000    128.5813      0.0000    704.0546      6.9981
   930.2500    130.7290      0.0000    699.4918      7.1809
   930.5000    132.0598      0.0000    693.7542      7.3053
   930.7500    133.3762      0.0000    689.4940      7.3475
   931.0000    134.7800      0.0000    686.1238      7.3516
   931.2500    136.5870      0.0000    680.8340      7.3906
   931.5000    139.6256      0.0000    670.0911      7.4882
   931.7500    144.1389      0.0000    652.2197      7.5960
   932.0000    148.8568      0.0000    630.7958      7.6510
   932.2500    151.5728      0.0000    614.5716      7.6388
   932.5000    150.7736      0.0000    610.8611      7.5935
   932.7500    146.9950      0.0000    618.0583      7.5546
   933.0000    142.6363      0.0000    626.9872      7.5338
   933.2500    140.0510      0.0000    630.6268      7.5270
   933.5000    139.7240      0.0000    630.7558      7.5494
   933.7500    140.5217      0.0000    634.2339      7.6363
   934.0000    141.3718      0.0000    644.4146      7.8003
   934.2500    142.1202      0.0000    658.0715      8.0006
   934.5000    142.9189      0.0000    670.3459      8.1670
   934.7500    143.3660      0.0000    680.4318      8.2401
   935.0000    142.4943      0.0000    691.1252      8.1901
   935.2500    139.5831      0.0000    704.0222      8.0307
   935.5000    135.0361      0.0000    716.9070      7.8235
   935.7500    130.4661      0.0000    725.6700      7.6338
   936.0000    127.7895      0.0000    727.4431      7.4595
   936.2500    127.9626      0.0000    722.0399      7.2175
   936.5000    130.3188      0.0000    711.8558      6.8162
   936.7500    132.9742      0.0000    700.7136      6.2403
   937.0000    133.9757      0.0000    692.0176      5.5643
   937.2500    132.3768      0.0000    687.4319      4.8971
   937.5000    128.4305      0.0000    686.9567      4.3269
   937.7500    122.8151      0.0000    689.7455      3.9050
   938.0000    115.9255      0.0000    694.8507      3.6479
   938.2500    108.2115      0.0000    701.7737      3.5411
   938.5000    100.9227      0.0000    710.3255      3.5497
   938.7500     95.7651      0.0000    719.4716      3.6328
   939.0000     93.6082      0.0000    726.6254      3.7495
   939.2500     93.8691      0.0000    729.0251      3.8620
   939.5000     95.1938      0.0000    725.7519      3.9503
   939.7500     96.4166      0.0000    717.8264      4.0302
   940.0000     97.0688      0.0000    707.2632      4.1533
   940.2500     97.4556      0.0000    697.1422      4.3838
   940.5000     98.3002      0.0000    691.1610      4.7622
   940.7500    100.0109      0.0000    691.0505      5.2677
   941.0000    102.2478      0.0000    695.1771      5.8185
   941.2500    104.3945      0.0000    701.0898      6.3282
