~Version Information
VERS.                      2.0: CWLS Log ASCII Standard - VERSION 2.0
WRAP.                       NO: One line per depth step
~Well Information Block
STRT.FT              1684.7500: 
STOP.FT              2367.7500: 
STEP.FT                 0.2500: 
NULL.                -999.2500: 
COMP.          Petrogulf Corporation: COMPANY
WELL.             Norton 9-14V: WELL
FLD.           Purgatorie River: FIELD
LOC.           250' FSL & 225' FWL--: LOCATION
CNTY.               Las Animas: COUNTY
SRVC.                         : SERVICE COMPANY
DATE.          Mon Jan 10 10:00:10 2005: LOG DATE
UWI.                          : UNIQUE WELL ID
STAT.                       CO: STATE
~Curve Information Block
DEPT.FT            0 000 00 00: Depth
CCL.                          : Casing Collar Locator
TT3.usec                      : CBL 3' Travel Time
AMP3.mV                       : CBL 3' Amplitude
GR.GAPI                       : Gamma Ray
~Parameter Information Block
~A  Depth       CCL         TT3         AMP3         GR     
# ...
  2220.7500      0.0000    750.5609      2.2882     85.4189
  2221.0000      0.0000    755.5214      2.1898     90.5639
  2221.2500      0.0000    756.3464      2.1169     92.4514
  2221.5000      0.0000    752.6880      2.1787     91.5199
  2221.7500      0.0000    744.5543      2.4301     89.0201
  2222.0000      0.0000    733.1476      2.8151     86.4658
  2222.2500      0.0000    720.5009      3.1915     84.9293
  2222.5000      0.0000    708.1571      3.4353     84.6949
  2222.7500      0.0000    696.7263      3.5335     85.4261
  2223.0000      0.0000    686.7375      3.5648     86.5572
  2223.2500      0.0000    679.2496      3.5905     87.5703
  2223.5000      0.0000    675.3773      3.5824     88.1070
  2223.7500      0.0000    675.5949      3.4679     88.0008
  2224.0000      0.0000    679.4108      3.2264     87.1938
  2224.2500      0.0000    685.3127      2.9128     85.5780
  2224.5000      0.0000    691.1965      2.5892     83.0529
  2224.7500      0.0000    695.5367      2.2742     79.8257
  2225.0000      0.0000    698.2470      1.9809     76.4589
  2225.2500      0.0000    700.1581      1.7630     73.5154
  2225.5000      0.0000    702.0302      1.6743     71.3669
  2225.7500      0.0000    704.4767      1.7035     70.3391
  2226.0000      0.0000    708.3445      1.7968     70.4670
  2226.2500      0.0000    714.2631      1.9268     70.9758
  2226.5000      0.0000    721.4127      2.1015     70.6591
  2226.7500      0.0000    726.9150      2.3309     68.9973
  2227.0000      0.0000    727.2658      2.6208     66.3150
  2227.2500      0.0000    721.4720      2.9712     62.8979
  2227.5000      0.0000    713.0196      3.3439     58.8858
  2227.7500      0.0000    707.9642      3.6635     55.1390
  2228.0000      0.0000    710.2744      3.8832     53.0586
  2228.2500      0.0000    718.7511      4.0277     53.0153
  2228.5000      0.0000    728.3450      4.1450     53.9027
  2228.7500      0.0000    734.1738      4.2413     54.9566
  2229.0000      0.0000    734.3930      4.2789     57.1790
  2229.2500      0.0000    730.1937      4.2207     62.0914
  2229.5000      0.0000    723.8953      4.0714     69.6079
  2229.7500      0.0000    716.8134      3.8940     77.8117
  2230.0000      0.0000    708.6594      3.7721     84.4350
  2230.2500      0.0000    699.1938      3.7284     88.1924
  2230.5000      0.0000    690.1246      3.6921     89.1986
  2230.7500      0.0000    684.5398      3.5693     88.6985
  2231.0000      0.0000    684.4133      3.3476     88.3428
  2231.2500      0.0000    689.0551      3.1119     89.2530
  2231.5000      0.0000    695.6859      2.9501     91.4176
  2231.7500      0.0000    701.1778      2.8641     93.8659
  2232.0000      0.0000    703.7014      2.7940     95.4530
  2232.2500      0.0000    703.2642      2.7077     95.6084
  2232.5000      0.0000    700.7073      2.6217     94.6656
  2232.7500      0.0000    696.3115      2.5447     93.7089
  2233.0000      0.0000    689.7241      2.4555     93.9469
  2233.2500      0.0000    680.9170      2.3500     95.9185
  2233.5000      0.0000    670.5325      2.2626     99.2437
  2233.7500      0.0000    659.6481      2.2248    103.1260
  2234.0000      0.0000    650.2825      2.2388    106.9405
  2234.2500      0.0000    645.9342      2.3043    110.0975
  2234.5000      0.0000    649.8337      2.4265    111.4312
  2234.7500      0.0000    661.7011      2.5876    109.4510
  2235.0000      0.0000    677.0450      2.7473    103.9424
  2235.2500      0.0000    690.2394      2.8831     97.1011
  2235.5000      0.0000    697.9069      2.9940     92.1242
  2235.7500      0.0000    699.5988      3.0688     90.4181
  2236.0000      0.0000    696.4758      3.0952     90.8116
  2236.2500      0.0000    690.3226      3.1083     91.4736
  2236.5000      0.0000    683.5953      3.1919     91.6955
  2236.7500      0.0000    679.2720      3.4269     91.6442
  2237.0000      0.0000    679.6667      3.8580     91.4914
  2237.2500      0.0000    685.0389      4.4887     91.5522
  2237.5000      0.0000    693.5030      5.2593     92.8557
  2237.7500      0.0000    702.3799      6.0368     96.7821
  2238.0000      0.0000    709.3518      6.6705    103.7107
  2238.2500      0.0000    712.5146      7.0704    111.9736
  2238.5000      0.0000    710.7729      7.2277    118.5437
  2238.7500      0.0000    705.4327      7.1814    121.0984
  2239.0000      0.0000    700.5892      6.9864    119.3272
  2239.2500      0.0000    700.2477      6.6934    114.2624
  2239.5000      0.0000    704.8022      6.3326    106.8931
  2239.7500      0.0000    710.9824      5.9136     97.7398
  2240.0000      0.0000    714.8740      5.4451     87.4512
  2240.2500      0.0000    714.3519      4.9629     77.4117
  2240.5000      0.0000    709.5356      4.5373     69.4340
  2240.7500      0.0000    702.5186      4.2340     64.5799
  2241.0000      0.0000    696.3959      4.0647     62.4625
  2241.2500      0.0000    693.0067      3.9861     61.9721
  2241.5000      0.0000    691.3502      3.9445     62.3919
  2241.7500      0.0000    688.9501      3.9107     63.5557
  2242.0000      0.0000    684.7641      3.8981     65.4477
  2242.2500      0.0000    680.3083      3.9800     68.1449
  2242.5000      0.0000    678.2197      4.2668     71.9334
  2242.7500      0.0000    680.4059      4.8223     77.1035
  2243.0000      0.0000    687.2668      5.5928     83.5639
  2243.2500      0.0000    697.3949      6.4187     90.5944
  2243.5000      0.0000    707.2880      7.1196     96.7851
  2243.7500      0.0000    712.3910      7.5848    100.3352
  2244.0000      0.0000    710.1284      7.8070    100.1031
  2244.2500      0.0000    702.3875      7.8487     96.7091
  2244.5000      0.0000    694.4362      7.7813     92.1711
  2244.7500      0.0000    691.0608      7.6487     88.1737
  2245.0000      0.0000    693.5215      7.4852     85.0816
  2245.2500      0.0000    699.4868      7.3608     82.6206
  2245.5000      0.0000    705.1459      7.3802     80.6766
  2245.7500      0.0000    707.3391      7.6124     79.0732
  2246.0000      0.0000    704.4523      8.0216     77.2780
  2246.2500      0.0000    696.4313      8.4754     74.9159
  2246.5000      0.0000    684.6443      8.8263     72.3830
  2246.7500      0.0000    671.6166      9.0061     70.6188
  2247.0000      0.0000    659.9998      9.0693     70.3258
  2247.2500      0.0000    650.6139      9.1537     71.4126
  2247.5000      0.0000    641.2065      9.3804     73.0117
  2247.7500      0.0000    627.2816      9.7864     74.0432
  2248.0000      0.0000    603.9681     10.3484     74.0640
  2248.2500      0.0000    568.2781     11.0311     73.6643
  2248.5000      0.0000    523.7126     11.7678     73.8262
  2248.7500      0.0000    484.6602     12.4021     74.7887
  2249.0000      0.0000    471.3335     12.7046     75.8317
  2249.2500      0.0000    494.2471     12.4931     76.1858
  2249.5000      0.0000    543.8197     11.7591     75.6099
  2249.7500      0.0000    597.8350     10.7002     73.8969
  2250.0000      0.0000    638.2164      9.6353     70.4224
  2250.2500      0.0000    659.1902      8.8428     64.6963
  2250.5000      0.0000    662.7194      8.4243     57.2723
  2250.7500      0.0000    651.6497      8.3155     49.8724
  2251.0000      0.0000    628.3523      8.4263     44.4807
  2251.2500      0.0000    596.4409      8.7171     42.0955
  2251.5000      0.0000    561.4022      9.1169     42.1636
  2251.7500      0.0000    529.8251      9.4502     43.2144
  2252.0000      2.0000    507.7650      9.5193     44.1315
  2252.2500      0.0000    498.1517      9.2400     44.6584
  2252.5000      0.0000    499.9821      8.6865     44.6987
  2252.7500      0.0000    510.1561      8.0602     43.7659
  2253.0000      0.0000    523.9097      7.6486     41.7532
  2253.2500      0.0000    532.7021      7.7413     39.8634
  2253.5000      0.0000    524.9374      8.4725     39.9125
  2253.7500      0.0000    493.7542      9.6923     42.6392
  2254.0000      0.0000    446.2803     11.0057     47.1602
