~Version Information
VERS.                      2.0: CWLS Log ASCII Standard - VERSION 2.0
WRAP.                       NO: One line per depth step
~Well Information Block
STRT.FT                -2.0000: 
STOP.FT              1016.0000: 
STEP.FT                 0.2500: 
NULL.                -999.2500: 
COMP.          Evergreen Operating Corp.: COMPANY
WELL.              Sunset 24-3: WELL
FLD.           Purgatorie River: FIELD
LOC.           467' FSL & 2262' FWL--: LOCATION
PROV.                       CO: PROVINCE
CNTY.               Las Animas: COUNTRY
SRVC.                         : SERVICE COMPANY
DATE.          Mon Sep 27 13:40:22 2004: LOG DATE
UWI.           005 071 08158  : UNIQUE WELL ID
~Curve Information Block
DEPT.FT            0 000 00 00: Depth
GR.GAPI                       : Gamma Ray
CCL.                          : Casing Collar Locator
TT3.usec                      : CBL 3' Travel Time
AMP3.mV                       : CBL 3' Amplitude
~Parameter Information Block
~A  Depth        GR         CCL         TT3         AMP3    
# ...
   199.0000     87.2856      0.0000    770.3570      6.8899
   199.2500     84.7232      0.0000    771.2266      6.8760
   199.5000     83.1661      0.0000    772.8417      6.8834
   199.7500     83.3117      0.0000    775.0728      6.9101
   200.0000     84.9672      0.0000    777.1484      6.9387
   200.2500     87.0069      0.0000    777.9271      6.9401
   200.5000     87.9647      0.0000    776.8778      6.8977
   200.7500     86.8418      0.0000    774.6456      6.8270
   201.0000     83.8009      0.0000    772.4300      6.7597
   201.2500     80.3393      0.0000    770.9677      6.7088
   201.5000     78.4631      0.0000    770.2428      6.6581
   201.7500     79.0960      0.0000    769.8926      6.5864
   202.0000     81.1415      0.0000    769.6268      6.4956
   202.2500     82.5103      0.0000    769.3538      6.4111
   202.5000     82.3682      0.0000    769.1149      6.3582
   202.7500     82.2436      0.0000    768.9755      6.3407
   203.0000     84.6842      0.0000    768.9512      6.3407
   203.2500     90.6601      0.0000    769.0049      6.3388
   203.5000     98.2146      0.0000    769.0731      6.3362
   203.7500    103.6713      0.0000    769.1315      6.3509
   204.0000    104.3632      0.0000    769.3370      6.3895
   204.2500    100.4832      0.0000    770.1805      6.4291
   204.5000     94.5615      0.0000    772.4141      6.4358
   204.7500     89.4029      0.0000    776.5297      6.3989
   205.0000     86.5507      0.0000    782.1014      6.3446
   205.2500     86.2413      0.0000    787.8439      6.3226
   205.5000     87.9894      0.0000    792.6416      6.3788
   205.7500     90.9229      0.0000    796.3887      6.5293
   206.0000     94.1120      0.0000    799.5597      6.7494
   206.2500     97.0202      0.0000    802.2672      6.9889
   206.5000     99.3527      0.0000    804.1679      7.2079
   206.7500    100.4230      0.0000    805.0598      7.3969
   207.0000     99.3577      0.0000    805.1541      7.5612
   207.2500     96.2113      0.0000    804.7020      7.6958
   207.5000     92.2963      0.0000    803.4525      7.7843
   207.7500     89.0027      0.0000    800.2563      7.8194
   208.0000     86.4764      0.0000    793.1749      7.8081
   208.2500     83.6521      0.0000    780.4383      7.7557
   208.5000     79.5924      0.0000    761.7083      7.6586
   208.7500     74.6583      0.0000    738.3528      7.5168
   209.0000     70.1697      0.0000    712.8046      7.3449
   209.2500     67.2280      0.0000    688.3663      7.1693
   209.5000     66.1864      0.0000    668.9557      7.0201
   209.7500     66.6229      0.0000    657.3359      6.9232
   210.0000     67.2679      0.0000    653.4938      6.8910
   210.2500     66.7544      0.0000    655.8409      6.9136
   210.5000     65.2032      0.0000    663.8134      6.9631
   210.7500     64.3407      0.0000    678.2071      7.0076
   211.0000     65.4016      0.0000    698.7286      7.0261
   211.2500     67.6618      0.0000    722.1554      7.0180
   211.5000     69.5493      0.0000    744.0118      7.0006
   211.7500     70.4539      0.0000    762.1232      6.9894
   212.0000     70.9230      0.0000    777.5901      6.9822
   212.2500     71.6556      0.0000    791.6578      6.9671
   212.5000     72.7797      0.0000    802.3900      6.9431
   212.7500     73.9450      0.0000    805.8206      6.9245
   213.0000     74.8593      0.0000    800.6574      6.9306
   213.2500     75.7720      0.0000    790.5845      6.9719
   213.5000     77.4563      0.0000    781.3312      7.0409
   213.7500     80.6105      0.0000    776.5440      7.1119
   214.0000     85.0290      0.0000    776.8665      7.1587
   214.2500     89.0857      0.0000    781.7487      7.1779
   214.5000     90.3030      0.0000    791.0812      7.1926
   214.7500     87.1309      0.0000    804.6534      7.2325
   215.0000     80.5241      0.0000    819.6328      7.3077
   215.2500     73.4991      0.0000    829.5539      7.3975
   215.5000     68.9936      0.0000    828.3161      7.4612
   215.7500     68.0583      0.0000    815.9085      7.4656
   216.0000     69.4128      0.0000    798.4321      7.4072
   216.2500     70.3475      0.0000    782.0704      7.3085
   216.5000     68.7246      0.0000    768.9374      7.1875
   216.7500     64.6630      0.0000    759.7117      7.0255
   217.0000     60.1142      0.0000    758.4812      6.7657
   217.2500     57.1062      0.0000    771.8828      6.3619
   217.5000     56.7662      0.0000    801.8614      5.8475
   217.7500     59.2485      0.0000    840.9006      5.3439
   218.0000     63.5277      0.0000    876.6788      4.9799
   218.2500     67.5101      0.0000    901.0380      4.7998
   218.5000     69.3210      0.0000    913.4327      4.7530
   218.7500     68.7396      2.0000    917.2889      4.7505
   219.0000     67.1144      0.0000    915.0177      4.7133
   219.2500     66.0249      0.0000    906.0950      4.5970
   219.5000     66.2449      0.0000    888.6774      4.4246
   219.7500     67.5103      0.0000    863.0226      4.3106
   220.0000     68.7727      0.0000    833.5838      4.4045
   220.2500     68.9821      0.0000    807.1539      4.7636
   220.5000     68.0377      0.0000    788.5837      5.2827
   220.7500     66.8517      0.0000    778.4102      5.7730
   221.0000     66.3932      0.0000    774.1039      6.1102
   221.2500     66.9147      0.0000    772.6774      6.3025
   221.5000     68.0291      0.0000    772.2097      6.4399
   221.7500     69.0628      0.0000    771.9520      6.6014
   222.0000     69.2284      0.0000    771.8097      6.8044
   222.2500     67.8857      0.0000    771.8434      7.0168
   222.5000     64.9856      0.0000    772.0298      7.1969
   222.7500     61.3516      0.0000    772.2680      7.3248
   223.0000     58.4590      0.0000    772.4609      7.4071
   223.2500     57.7363      0.0000    772.5882      7.4600
   223.5000     59.6362      0.0000    772.7277      7.4945
   223.7500     63.0867      0.0000    772.9915      7.5172
   224.0000     66.0076      0.0000    773.3963      7.5364
   224.2500     66.7066      0.0000    773.7835      7.5638
   224.5000     64.9710      0.0000    773.8993      7.6069
   224.7500     62.0019      0.0000    773.5845      7.6620
   225.0000     59.4207      0.0000    772.8982      7.7129
   225.2500     58.1651      0.0000    772.0611      7.7366
   225.5000     58.0594      0.0000    771.2927      7.7150
   225.7500     58.3307      0.0000    770.6959      7.6436
   226.0000     58.4365      0.0000    770.2537      7.5335
   226.2500     58.3386      0.0000    769.8892      7.4064
   226.5000     58.1765      0.0000    769.5225      7.2853
   226.7500     58.0234      0.0000    769.1096      7.1855
   227.0000     58.0385      0.0000    768.6567      7.1099
   227.2500     58.7033      0.0000    768.2048      7.0501
   227.5000     60.5887      0.0000    767.7930      6.9936
   227.7500     63.5952      0.0000    767.4283      6.9310
   228.0000     66.5349      0.0000    767.0847      6.8573
   228.2500     67.9369      0.0000    766.7350      6.7734
   228.5000     67.3808      0.0000    766.3912      6.6890
   228.7500     65.7466      0.0000    766.1142      6.6211
   229.0000     64.2164      0.0000    765.9835      6.5836
   229.2500     63.3209      0.0000    766.0504      6.5825
   229.5000     62.7589      0.0000    766.3160      6.6224
   229.7500     61.7439      0.0000    766.7342      6.7086
   230.0000     59.6565      0.0000    767.2227      6.8359
   230.2500     56.6617      0.0000    767.6788      6.9779
   230.5000     53.6381      0.0000    768.0125      7.0936
   230.7500     51.5288      0.0000    768.1785      7.1519
   231.0000     50.9065      0.0000    768.1741      7.1517
   231.2500     51.9754      0.0000    768.0239      7.1165
   231.5000     54.4856      0.0000    767.7787      7.0697
   231.7500     57.5229      0.0000    767.5052      7.0208
   232.0000     59.7702      0.0000    767.2446      6.9699
   232.2500     60.4376      0.0000    766.9884      6.9144
