~Version Information
VERS.                      2.0: CWLS Log ASCII Standard - VERSION 2.0
WRAP.                       NO: One line per depth step
~Well Information Block
STRT.FT                -7.5000: 
STOP.FT              1545.0000: 
STEP.FT                 0.2500: 
NULL.                -999.2500: 
COMP.          Pioneer Natural Resources: COMPANY
WELL.          Kristin 22-23 Tr: WELL
FLD.           Purgatorie River: FIELD
LOC.           2273' FNL & 2029' FWL--: LOCATION
PROV.                       CO: PROVINCE
CNTY.               Las Animas: COUNTRY
SRVC.                         : SERVICE COMPANY
DATE.          Tue Jan 25 11:16:36 2005: LOG DATE
UWI.           071-08259      : UNIQUE WELL ID
~Curve Information Block
DEPT.FT            0 000 00 00: Depth
CCL.                          : Casing Collar Locator
TT3.usec                      : CBL 3' Travel Time
AMP3.mV                       : CBL 3' Amplitude
GR.GAPI                       : Gamma Ray
~Parameter Information Block
~A  Depth       CCL         TT3         AMP3         GR     
# ...
   495.0000      0.0000    738.9271      5.2710     74.7190
   495.2500      0.0000    739.3993      5.2825     75.1258
   495.5000      0.0000    739.8465      5.2908     74.3688
   495.7500      0.0000    740.2596      5.2910     73.0682
   496.0000      0.0000    740.5175      5.2876     71.5258
   496.2500      0.0000    740.3472      5.2871     69.4743
   496.5000      0.0000    739.4549      5.2878     66.7229
   496.7500      0.0000    737.9356      5.2812     63.7856
   497.0000      0.0000    736.6514      5.2649     61.6941
   497.2500      0.0000    736.8451      5.2496     61.2152
   497.5000      0.0000    738.9651      5.2490     62.1845
   497.7500      0.0000    741.9999      5.2648     63.6450
   498.0000      0.0000    744.2017      5.2881     64.8547
   498.2500      0.0000    744.3772      5.3155     66.1020
   498.5000      0.0000    742.6141      5.3518     68.2729
   498.7500      0.0000    740.2517      5.3973     71.7235
   499.0000      0.0000    739.1660      5.4410     75.9626
   499.2500      0.0000    740.6146      5.4727     80.4335
   499.5000      0.0000    744.4918      5.4919     85.2527
   499.7500      0.0000    749.5565      5.5022     90.9871
   500.0000      0.0000    754.1768      5.5101     97.7237
   500.2500      0.0000    757.1803      5.5254    104.4624
   500.5000      0.0000    758.6198      5.5506    109.6836
   500.7500      0.0000    759.6603      5.5717    112.6810
   501.0000      0.0000    761.2474      5.5722    114.0842
   501.2500      0.0000    762.9454      5.5567    114.9824
   501.5000      0.0000    763.3373      5.5528    115.7556
   501.7500      0.0000    761.4291      5.5844    115.7985
   502.0000      0.0000    757.5376      5.6465    114.1655
   502.2500      0.0000    752.9967      5.7048    110.4080
   502.5000      0.0000    749.1351      5.7200    104.9727
   502.7500      0.0000    746.4991      5.6770     98.9526
   503.0000      0.0000    744.8666      5.5951     93.4557
   503.2500      0.0000    743.7548      5.5136     89.1042
   503.5000      0.0000    742.8214      5.4624     86.1519
   503.7500      0.0000    741.9658      5.4442     84.9092
   504.0000      0.0000    741.2410      5.4414     85.7067
   504.2500      0.0000    740.7403      5.4382     88.2384
   504.5000      0.0000    740.5021      5.4345     91.1321
   504.7500      0.0000    740.4743      5.4401     92.6367
   505.0000      0.0000    740.5476      5.4605     92.0046
   505.2500      0.0000    740.6505      5.4885     90.0543
   505.5000      0.0000    740.8195      5.5109     88.2331
   505.7500      0.0000    741.1644      5.5228     87.4073
   506.0000      0.0000    741.7535      5.5331     87.6516
   506.2500      0.0000    742.5234      5.5556     88.6725
   506.5000      0.0000    743.2917      5.5957     89.9951
   506.7500      0.0000    743.8715      5.6440     91.0540
   507.0000      0.0000    744.1902      5.6844     91.5624
   507.2500      0.0000    744.3000      5.7078     91.6668
   507.5000      0.0000    744.3293      5.7181     91.6513
   507.7500      0.0000    744.5070      5.7257     91.7701
   508.0000      0.0000    745.2512      5.7407     92.3755
   508.2500      0.0000    746.9942      5.7672     93.6269
   508.5000      0.0000    749.5972      5.7993     94.6970
   508.7500      0.0000    751.9285      5.8208     93.6201
   509.0000      0.0000    752.6591      5.8206     88.5261
   509.2500      0.0000    752.0610      5.8067     79.3771
   509.5000      0.0000    752.5578      5.7983     68.5382
   509.7500      0.0000    756.3713      5.8046     59.5014
   510.0000      0.0000    762.4271      5.8181     54.7446
   510.2500      0.0000    766.4756      5.8285     54.5555
   510.5000      0.0000    764.8314      5.8349     57.6504
   510.7500      0.0000    757.7479      5.8404     62.5044
   511.0000      0.0000    749.0726      5.8414     67.9668
   511.2500      0.0000    742.9666      5.8284     73.0242
   511.5000      0.0000    740.9720      5.7987     76.6427
   511.7500      0.0000    741.7531      5.7586     78.1968
   512.0000      0.0000    743.0602      5.7093     78.0550
   512.2500      0.0000    743.5950      5.6409     77.5298
   512.5000      0.0000    743.3235      5.5468     78.1050
   512.7500      0.0000    742.7422      5.4384     80.6514
   513.0000      0.0000    742.2442      5.3366     85.1490
   513.2500      0.0000    741.9657      5.2562     90.7799
   513.5000      0.0000    741.8890      5.2004     96.2757
   513.7500      0.0000    741.9426      5.1628    100.6679
   514.0000      0.0000    742.0481      5.1288    103.9854
   514.2500      0.0000    742.1397      5.0847    106.9363
   514.5000      0.0000    742.1938      5.0300    109.6954
   514.7500      0.0000    742.2493      4.9794    111.3896
   515.0000      0.0000    742.3778      4.9511    111.1057
   515.2500      0.0000    742.6101      4.9528    109.1202
   515.5000      0.0000    742.8970      4.9748    106.7794
   515.7500      0.0000    743.1655      4.9956    105.0497
   516.0000      0.0000    743.4333      4.9915    103.4109
   516.2500      0.0000    743.9141      4.9484    100.5011
   516.5000      0.0000    745.1215      4.8672     95.6464
   516.7500      0.0000    747.8287      4.7617     89.3360
   517.0000      0.0000    752.5748      4.6511     82.6635
   517.2500      0.0000    758.7147      4.5532     77.0669
   517.5000      0.0000    764.1059      4.4860     74.2588
   517.7500      0.0000    766.5974      4.4673     75.4145
   518.0000      0.0000    766.2688      4.4979     80.1301
   518.2500      0.0000    765.5632      4.5492     86.4231
   518.5000      0.0000    766.5676      4.5857     91.8114
   518.7500      0.0000    768.6284      4.6021     94.6354
   519.0000      0.0000    769.2208      4.6252     94.8529
   519.2500      0.0000    766.8510      4.6820     93.6981
   519.5000     -2.0000    762.5622      4.7780     92.3199
   519.7500      2.0000    758.8132      4.9024     90.8870
   520.0000      0.0000    757.5325      5.0507     89.3086
   520.2500      0.0000    759.0507      5.2340     88.3093
   520.5000      0.0000    761.8803      5.4532     89.0591
   520.7500      0.0000    763.3710      5.6556     91.9353
   521.0000      0.0000    761.5862      5.7523     96.0033
   521.2500      0.0000    756.9482      5.7110     99.4099
   521.5000      0.0000    751.6965      5.6062    100.3006
   521.7500      0.0000    747.8029      5.5437     98.0159
   522.0000      0.0000    745.7689      5.5571     93.6387
   522.2500      0.0000    745.0622      5.6041     89.0791
   522.5000      0.0000    744.9929      5.6327     85.6475
   522.7500      0.0000    745.1595      5.6193     83.5845
   523.0000      0.0000    745.5084      5.5626     82.5087
   523.2500      0.0000    746.3036      5.4736     81.9449
   523.5000      0.0000    747.9608      5.3793     81.5923
   523.7500      0.0000    750.5679      5.3188     81.3909
   524.0000      0.0000    753.3408      5.3220     81.4971
   524.2500      0.0000    754.8137      5.3888     82.1942
   524.5000      0.0000    753.9951      5.4883     83.6565
   524.7500      0.0000    751.3246      5.5790     85.6886
   525.0000      0.0000    748.2701      5.6308     87.8383
   525.2500      0.0000    746.0634      5.6330     89.7683
   525.5000      0.0000    744.9404      5.5873     91.3129
   525.7500      0.0000    744.3821      5.5017     92.1896
   526.0000      0.0000    743.7993      5.3913     91.8270
   526.2500      0.0000    743.0323      5.2763     89.5726
   526.5000      0.0000    742.4203      5.1704     85.2277
   526.7500      0.0000    742.5929      5.0773     79.4630
   527.0000      0.0000    744.1330      5.0017     73.6866
   527.2500      0.0000    747.2264      4.9553     69.3579
   527.5000      0.0000    751.4938      4.9432     67.1190
   527.7500      0.0000    756.1405      4.9526     66.3572
   528.0000      0.0000    760.1016      4.9633     65.7509
   528.2500      0.0000    762.0591      4.9655     64.5693
