~Version Information
 VERS.                                  2.0 : CWLS LAS VERSION
 WRAP.                                   NO : WRAPING MODE
 SWARE .                 MController 2.5.0J : SOFTWARE VERSION
~Well Information
 WELL.                  Great Plains 22-21V : WELL
 COMP.                Petrogulf Corporation : COMPANY
 FLD.                      Purgatoire River : FIELD
 LOC.                NE/NW Sec 22 T33S R67W : LOCATION
 DATE.                          08/29-30/05 : DATE(S) LOGGED
 SRVC.       Blanco Geological Services LLC : SERVICE COMPANY
 STAT.                                   CO : STATE
 CNTY.                           Las Animas : COUNTY
 CTRY.                                  USA : COUNTRY
 API.                       05-071-08346-00 : API NUMBER
 STRT.FT                              -2.00 : START DEPTH
 STOP.FT                            2090.00 : STOP DEPTH
 STEP.FT                               1.00 : DEPTH INCREMENT
 NULL.                                -9999 : NULL VALUE
~Curve information
 DEPTH.FT                                   :
 ROP.MIN/FT                                 :
 GAS.UNITS                                  :
~ASCII Log data
# ...
      1798.0         0.60         82.1 
      1799.0         0.68         66.2 
      1800.0         0.77         64.4 
      1801.0         1.00         63.2 
      1802.0         0.63         49.6 
      1803.0         0.67         47.0 
      1804.0         0.72         53.5 
      1805.0         0.80         59.6 
      1806.0         1.00         59.6 
      1807.0         1.22         54.4 
      1808.0         1.43         52.7 
      1809.0         0.47         51.4 
      1810.0         0.65         57.3 
      1811.0         0.43         61.5 
      1812.0         0.30         67.6 
      1813.0         0.17         71.4 
      1814.0         0.27         72.5 
      1815.0         0.43         71.4 
      1816.0         0.37         68.8 
      1817.0         0.32         73.7 
      1818.0         0.53         76.2 
      1819.0         0.53         71.9 
      1820.0         3.85        301.3 
      1821.0         0.80        106.2 
      1822.0         0.72        121.5 
      1823.0         0.40        134.6 
      1824.0         0.43        134.5 
      1825.0         0.47        117.7 
      1826.0         0.43         89.8 
      1827.0         0.50         68.7 
      1828.0         0.55         59.2 
      1829.0         0.50         64.7 
      1830.0         0.40         67.4 
      1831.0         0.40         70.0 
      1832.0         0.33         72.5 
      1833.0         0.23         72.5 
      1834.0         0.33         71.2 
      1835.0         0.37         64.7 
      1836.0         0.33         58.4 
      1837.0         0.38         55.4 
      1838.0         0.47         55.2 
      1839.0         0.63         61.0 
      1840.0         0.57         76.2 
      1841.0         0.70         78.3 
      1842.0         0.72         73.5 
      1843.0         0.63         73.8 
      1844.0         0.47         79.5 
      1845.0         0.40         80.0 
      1846.0         0.27         79.7 
      1847.0         0.37         78.4 
      1848.0         0.37         80.1 
      1849.0         0.30         79.7 
      1850.0         0.17         76.1 
      1851.0         5.30       2203.7 
      1852.0         0.60       2073.9 
      1853.0         0.85        913.6 
      1854.0         0.77        543.8 
      1855.0         0.33        535.6 
      1856.0         0.33        529.9 
      1857.0         0.40        522.9 
      1858.0         0.33        523.8 
      1859.0         0.40        515.9 
      1860.0         0.30        497.5 
      1861.0         0.27        487.3 
      1862.0         0.35        491.1 
      1863.0         0.33        493.7 
      1864.0         0.37        495.6 
      1865.0         0.43        498.8 
      1866.0         0.40        499.1 
      1867.0         0.43        496.9 
      1868.0         0.37        498.8 
      1869.0         0.33        501.9 
      1870.0         0.33        503.5 
      1871.0         0.35        507.0 
      1872.0         0.40        508.3 
      1873.0         0.30        506.1 
      1874.0         0.20        513.0 
      1875.0         0.20        526.4 
      1876.0         0.13        534.6 
      1877.0         0.37        543.8 
      1878.0         0.50        541.6 
      1879.0         0.43        533.0 
      1880.0         0.62        521.3 
      1881.0         4.12        889.5 
      1882.0         0.80        859.6 
      1883.0         0.87        542.9 
      1884.0         0.82        551.4 
      1885.0         0.67        554.9 
      1886.0         0.63        533.7 
      1887.0         0.60        517.2 
      1888.0         0.33        509.6 
      1889.0         0.47        508.6 
      1890.0         0.37        514.0 
      1891.0         0.42        522.9 
      1892.0         0.33        524.5 
      1893.0         0.43        537.8 
      1894.0         0.40        556.5 
      1895.0         0.57        557.5 
      1896.0         0.53        541.0 
      1897.0         0.40        528.0 
      1898.0         0.45        531.5 
      1899.0         0.50        530.5 
      1900.0         0.97        541.6 
      1901.0         1.27        540.7 
      1902.0         0.92        530.8 
      1903.0         0.23        538.1 
      1904.0         0.30        557.2 
      1905.0         1.33        564.1 
      1906.0         1.95        591.1 
      1907.0         4.08        583.2 
      1908.0         2.48        569.9 
      1909.0         3.58        595.2 
      1910.0         1.52        558.1 
      1911.0         3.32        868.2 
      1912.0         0.60        925.6 
      1913.0         0.40       1000.9 
      1914.0         0.63       1046.9 
      1915.0         0.90        826.6 
      1916.0         1.28        584.1 
      1917.0         1.37        606.7 
      1918.0         0.60        608.3 
      1919.0         0.52        605.4 
      1920.0         0.53        577.5 
      1921.0         0.50        594.0 
      1922.0         0.70        635.9 
      1923.0         0.43        649.8 
      1924.0         0.50        650.5 
      1925.0         0.55        627.6 
      1926.0         0.40        597.1 
      1927.0         0.40        582.2 
      1928.0         0.30        562.2 
      1929.0         0.30        555.9 
      1930.0         0.30        540.7 
      1931.0         0.23        535.3 
      1932.0         0.23        545.4 
      1933.0         0.40        559.7 
      1934.0         0.50        564.8 
      1935.0         0.52        567.3 
      1936.0         0.57        563.8 
      1937.0         0.50        561.0 
      1938.0         0.50        563.5 
      1939.0         0.47        565.4 
      1940.0         0.43        557.2 
      1941.0         4.17        927.9 
      1942.0         0.50       1012.0 
      1943.0         0.67        909.5 
      1944.0         0.70        595.6 
      1945.0         0.70        614.3 
      1946.0         0.92        643.5 
      1947.0         0.87        625.4 
      1948.0         0.93        568.0 
      1949.0         0.48        557.5 
      1950.0         0.50        588.6 
      1951.0         0.47        590.8 
      1952.0         0.43        585.4 
      1953.0         0.47        567.0 
      1954.0         0.47        568.3 
      1955.0         0.40        568.6 
      1956.0         0.25        567.3 
      1957.0         0.23        575.2 
      1958.0         0.33        587.9 
      1959.0         0.23        594.3 
      1960.0         0.23        606.0 
      1961.0         0.50        620.0 
      1962.0         0.30        618.1 
      1963.0         0.37        619.7 
      1964.0         0.33        619.0 
      1965.0         0.65        630.5 
      1966.0         0.27        640.3 
      1967.0         0.30        651.7 
      1968.0         0.30        665.1 
      1969.0         0.30        673.3 
      1970.0         0.40        678.7 
      1971.0         4.63        802.5 
      1972.0         0.50        826.6 
      1973.0         0.73        958.0 
      1974.0         0.80        956.1 
      1975.0         0.68        633.6 
      1976.0         0.60        543.2 
      1977.0         0.90        570.8 
      1978.0         0.73        592.7 
      1979.0         0.27        598.1 
      1980.0         0.27        603.8 
      1981.0         0.27        611.1 
      1982.0         0.45        651.7 
      1983.0         0.47        688.9 
      1984.0         0.43        713.6 
      1985.0         0.40        727.6 
      1986.0         0.57        735.8 
      1987.0         0.70        741.2 
      1988.0         0.62        773.3 
      1989.0         0.57        844.4 
      1990.0         0.30        908.8 
      1991.0         0.23        961.5 
      1992.0         0.27       1021.8 
      1993.0         0.37       1133.2 
      1994.0         0.37       1275.4 
      1995.0         0.40       1426.2 
      1996.0         0.43       1597.2 
      1997.0         0.38       1772.1 
