~Version Information
VERS.                      2.0: CWLS Log ASCII Standard - VERSION 2.0
WRAP.                       NO: One line per depth step
~Well Information Block
STRT.FT               250.0000: 
STOP.FT              1573.7000: 
STEP.FT                 0.1000: 
NULL.                -999.2500: 
COMP.          Pioneer Natural Resources: COMPANY
WELL.          Big Cat Federal 44-1: WELL
FLD.           Purgatoire River: FIELD
LOC.           197' FSL & 973' FEL--: LOCATION
CNTY.               Las Animas: COUNTY
SRVC.                Patterson: SERVICE COMPANY
DATE.          Mon Apr 24 08:33:37 2006: LOG DATE
UWI.           05 071 08042 00: UNIQUE WELL ID
STAT.                 Colorado: STATE
~Curve Information Block
DEPT.FT            0 000 00 00: Depth
DCAL.in                       : CDL Caliper
RHOB.g/cc                     : CDL Bulk Density
RHOC.g/cc                     : CDL Density Correction
DPOR.pu                       : CDL Density Porosity
NPOR.pu                       : Neutron Porosity
GR.GAPI                       : Gamma Ray
~Parameter Information Block
~A  Depth       DCAL        RHOB        RHOC        DPOR        NPOR         GR     
   250.0000      8.1872      2.3150     -0.1710     20.3030     44.3015     85.1790
   250.1000      8.1872      2.3251     -0.1951     19.6881     45.0539     86.9724
   250.2000      8.1872      2.3293     -0.1488     19.4357     45.5408     86.1465
   250.3000      8.1888      2.3231     -0.1708     19.8106     45.4682     85.7942
   250.4000      8.1888      2.3179     -0.1564     20.1281     45.1675     85.9837
   250.5000      8.1916      2.3166     -0.1764     20.2083     44.7754     87.9099
   250.6000      8.1916      2.3072     -0.1725     20.7766     44.4571     91.6010
   250.7000      8.1916      2.2855     -0.1944     22.0883     44.3756     92.6561
   250.8000      8.1908      2.2626     -0.1988     23.4777     44.4246     91.9139
   250.9000      8.1908      2.2417     -0.1879     24.7483     44.4390     94.0307
   251.0000      8.1905      2.2185     -0.1916     26.1507     44.2311     95.9046
   251.1000      8.1905      2.2050     -0.2503     26.9714     43.9645     92.2946
   251.2000      8.1905      2.2175     -0.2510     26.2115     43.9539     86.3709
   251.3000      8.1928      2.2503     -0.1953     24.2270     44.1560     81.9563
   251.4000      8.1928      2.2784     -0.1559     22.5224     44.3384     77.2342
   251.5000      8.1939      2.2839     -0.1431     22.1856     44.3921     73.9462
   251.6000      8.1939      2.2773     -0.1972     22.5861     44.2534     78.4131
   251.7000      8.1939      2.2771     -0.1648     22.6021     43.9676     87.5729
   251.8000      8.1939      2.2759     -0.1665     22.6704     43.8340     92.3296
   251.9000      8.1939      2.2642     -0.2190     23.3794     44.0334     92.6818
   252.0000      8.1945      2.2499     -0.1717     24.2466     44.3274     94.3522
   252.1000      8.1945      2.2407     -0.2295     24.8045     44.3493     96.3008
   252.2000      8.1945      2.2401     -0.2301     24.8447     44.0671     94.8731
   252.3000      8.1956      2.2510     -0.2410     24.1821     43.9664     92.3249
   252.4000      8.1956      2.2748     -0.2238     22.7424     44.2184     91.8637
   252.5000      8.1955      2.3004     -0.1769     21.1854     44.4557     93.3681
   252.6000      8.1955      2.3099     -0.1613     20.6136     44.5848     92.1705
   252.7000      8.1955      2.2995     -0.1530     21.2417     44.8204     84.7902
   252.8000      8.1945      2.2768     -0.1984     22.6187     45.2231     76.2255
   252.9000      8.1945      2.2467     -0.2147     24.4419     45.5960     72.1135
   253.0000      8.1952      2.2161     -0.2648     26.2995     45.5810     73.0359
   253.1000      8.1952      2.1947     -0.2338     27.5940     45.1040     77.1916
   253.2000      8.1952      2.1929     -0.3129     27.7059     44.7188     81.2269
   253.3000      8.1955      2.2192     -0.2146     26.1063     44.7178     83.1149
   253.4000      8.1955      2.2680     -0.2050     23.1512     44.7735     84.6192
   253.5000      8.1934      2.3169     -0.1598     20.1872     44.8099     87.4566
   253.6000      8.1934      2.3374     -0.1091     18.9470     44.9631     91.3919
   253.7000      8.1934      2.3187     -0.1650     20.0796     45.1074     95.4753
   253.8000      8.1905      2.2853     -0.2096     22.1017     45.3099     97.2378
   253.9000      8.1905      2.2711     -0.2453     22.9648     45.6205     95.0956
   254.0000      8.1898      2.2914     -0.2447     21.7330     45.6356     91.5030
   254.1000      8.1898      2.3339     -0.1803     19.1606     45.2507     87.6735
   254.2000      8.1898      2.3625     -0.1182     17.4267     44.8829     81.9854
   254.3000      8.1908      2.3592     -0.1900     17.6213     44.9484     78.5809
   254.4000      8.1908      2.3517     -0.2158     18.0808     45.3702     80.3111
   254.5000      8.1929      2.3600     -0.1888     17.5752     45.5282     81.7318
   254.6000      8.1929      2.3705     -0.1721     16.9423     45.2298     79.4176
   254.7000      8.1929      2.3797     -0.2356     16.3841     45.0790     76.0460
   254.8000      8.1955      2.3945     -0.1999     15.4874     45.3421     74.4743
   254.9000      8.1955      2.4053     -0.1897     14.8309     45.6952     74.5996
   255.0000      8.1970      2.4048     -0.1797     14.8611     45.8313     76.2694
   255.1000      8.1970      2.4048     -0.1660     14.8594     45.6446     80.9118
   255.2000      8.1970      2.4192     -0.1893     13.9893     45.2157     87.3079
   255.3000      8.1966      2.4345     -0.1468     13.0602     44.5800     89.9008
   255.4000      8.1966      2.4351     -0.2077     13.0243     43.9853     86.1488
   255.5000      8.1953      2.4386     -0.2454     12.8148     43.8271     80.6672
   255.6000      8.1953      2.4523     -0.1837     11.9827     43.8847     80.2027
   255.7000      8.1953      2.4526     -0.1796     11.9663     43.7734     85.6408
   255.8000      8.1937      2.4359     -0.2243     12.9775     43.5872     90.7131
   255.9000      8.1937      2.4266     -0.2255     13.5411     43.4068     91.8413
   256.0000      8.1914      2.4317     -0.1932     13.2295     43.2911     91.3243
   256.1000      8.1914      2.4409     -0.2138     12.6755     43.3779     90.6946
   256.2000      8.1914      2.4548     -0.2033     11.8295     43.6401     89.0570
   256.3000      8.1909      2.4825     -0.1630     10.1496     43.9717     85.8921
   256.4000      8.1909      2.5299     -0.1453      7.2765     43.9344     83.3132
   256.5000      8.1928      2.5956     -0.1298      3.2961     43.2110     85.2845
   256.6000      8.1928      2.6701     -0.1199     -1.2166     42.3835     89.5974
   256.7000      8.1928      2.7401     -0.0982     -5.4633     42.1498     87.0323
   256.8000      8.1953      2.7921     -0.0467     -8.6128     42.5822     77.4902
   256.9000      8.1953      2.8189     -0.0755    -10.2391     43.1789     73.5089
   257.0000      8.1970      2.8174     -0.0815    -10.1460     43.5834     80.1577
   257.1000      8.1970      2.7777     -0.1183     -7.7414     43.8015     89.0487
   257.2000      8.1970      2.7047     -0.2098     -3.3165     43.6053     94.3080
   257.3000      8.1974      2.6206     -0.2915      1.7814     42.9430     98.8010
   257.4000      8.1974      2.5275     -0.2470      7.4215     42.2336    102.9321
   257.5000      8.1957      2.4204     -0.3129     13.9136     41.3634    104.2898
   257.6000      8.1957      2.3259     -0.4096     19.6410     39.6209    104.8631
   257.7000      8.1957      2.2713     -0.3427     22.9528     37.1590    107.9050
   257.8000      8.1928      2.2484     -0.3241     24.3378     34.4881    115.1417
   257.9000      8.1928      2.2331     -0.2497     25.2663     31.4355    125.4676
   258.0000      8.1920      2.2009     -0.1553     27.2160     27.9893    133.9989
   258.1000      8.1920      2.1476     -0.1891     30.4465     24.5964    138.4135
   258.2000      8.1920      2.1043     -0.1494     33.0754     21.7081    140.2300
   258.3000      8.2037      2.1086     -0.0824     32.8110     19.5512    142.4085
   258.4000      8.2037      2.1739      0.0429     28.8552     18.1043    144.6777
   258.5000      8.2596      2.2721      0.2397     22.9020     17.1131    144.7341
   258.6000      8.2596      2.3481      0.3115     18.2988     16.3931    146.0671
   258.7000      8.2596      2.3814      0.2732     16.2798     15.9955    152.4068
   258.8000      8.3789      2.3956      0.3151     15.4206     15.7932    160.8068
   258.9000      8.3789      2.4023      0.3317     15.0092     15.3943    167.9842
   259.0000      8.5140      2.3981      0.2937     15.2668     14.8453    173.1087
   259.1000      8.5140      2.3880      0.2645     15.8760     14.4491    171.6632
   259.2000      8.5140      2.3808      0.2409     16.3145     14.1355    160.2734
   259.3000      8.6264      2.3806      0.1990     16.3282     13.7647    143.5400
   259.4000      8.6264      2.3864      0.2072     15.9788     13.4688    130.0251
   259.5000      8.7514      2.3923      0.2206     15.6204     13.2845    125.4781
