~Version Information
VERS.                      2.0: CWLS Log ASCII Standard - VERSION 2.0
WRAP.                       NO: One line per depth step
~Well Information Block
STRT.FT               460.0000: 
STOP.FT               961.2000: 
STEP.FT                 0.1000: 
NULL.                -999.2500: 
COMP.          Pioneer Natural Resources: COMPANY
WELL.                Pug 33-19: WELL
FLD.           Purgatoire River: FIELD
LOC.           1381' FSL & 2140' FEL: LOCATION
PROV.                 Colorado: PROVINCE
CNTY.               Las Animas: COUNTRY
SRVC.                Patterson: SERVICE COMPANY
DATE.          Wed Dec 15 07:19:20 2004: LOG DATE
UWI.           05 071 08193 00: UNIQUE WELL ID
~Curve Information Block
DEPT.FT            0 000 00 00: Depth
DCAL.in                       : CDL Caliper
RHOB.g/cc                     : CDL Bulk Density
RHOC.g/cc                     : CDL Density Correction
DPOR.pu                       : CDL Density Porosity
NPOR.pu                       : Neutron Porosity
GR.GAPI                       : Gamma Ray
~Parameter Information Block
~A  Depth       DCAL        RHOB        RHOC        DPOR        NPOR         GR     
# ...
   901.6000      7.8989      2.5068      0.0239      8.6763     23.2009    150.4761
   901.7000      7.8989      2.5176      0.0670      8.0223     23.5547    155.1441
   901.8000      7.8989      2.5380      0.0612      6.7877     23.9930    156.5667
   901.9000      7.8989      2.5588      0.0881      5.5301     24.0782    155.9451
   902.0000      7.9002      2.5719      0.0756      4.7335     23.6112    150.1517
   902.1000      7.9002      2.5673      0.1104      5.0127     22.7861    142.4981
   902.2000      7.9002      2.5402      0.0546      6.6523     21.9979    142.1542
   902.3000      7.9007      2.5096      0.0239      8.5119     21.3890    144.6036
   902.4000      7.9007      2.4953      0.0507      9.3771     20.8721    137.4827
   902.5000      7.9005      2.4943      0.0632      9.4338     20.4903    121.1309
   902.6000      7.9005      2.4930      0.0780      9.5159     20.0139    107.2355
   902.7000      7.9005      2.4780      0.0656     10.4241     19.0538    100.8564
   902.8000      7.9004      2.4470      0.0389     12.3015     17.7392     96.6768
   902.9000      7.9004      2.4162      0.0063     14.1673     16.5645     95.4699
   903.0000      7.9005      2.4046     -0.0037     14.8751     16.1488    102.1656
   903.1000      7.9005      2.4079      0.0243     14.6724     16.5101    109.9820
   903.2000      7.9005      2.4039      0.0315     14.9137     16.9333    106.1710
   903.3000      7.9013      2.3885     -0.0049     15.8495     16.9615     91.6183
   903.4000      7.9013      2.3790     -0.0154     16.4248     16.7614     80.7265
   903.5000      7.9019      2.3830      0.0094     16.1804     16.7286     82.0907
   903.6000      7.9019      2.3938      0.0376     15.5274     17.0256     89.0848
   903.7000      7.9019      2.4038      0.0508     14.9190     17.4279     93.7323
   903.8000      7.9020      2.4068      0.0837     14.7414     17.6641     95.4547
   903.9000      7.9020      2.4026      0.0261     14.9952     17.8906     95.9039
   904.0000      7.9018      2.3960      0.0824     15.3964     18.4965     97.1637
   904.1000      7.9018      2.3838      0.0802     16.1355     19.1057     98.2810
   904.2000      7.9018      2.3718      0.0058     16.8592     18.9297     97.4261
   904.3000      7.9018      2.3799      0.0490     16.3709     18.1950     95.5831
   904.4000      7.9018      2.4081      0.0606     14.6585     17.5443     93.2253
   904.5000      7.9019      2.4314      0.1055     13.2494     17.0134     91.5878
   904.6000      7.9019      2.4301      0.0863     13.3300     16.6558     91.9662
   904.7000      7.9019      2.4167      0.0169     14.1407     16.7289     94.1770
   904.8000      7.9008      2.4182      0.0613     14.0463     17.5139     99.2715
   904.9000      7.9008      2.4363      0.0448     12.9513     18.8184    106.4922
   905.0000      7.8998      2.4536      0.0785     11.9041     19.7553    112.7021
   905.1000      7.8998      2.4649      0.0789     11.2206     20.2066    115.5371
   905.2000      7.8998      2.4795      0.0288     10.3304     20.5451    115.5901
   905.3000      7.8996      2.4961      0.0757      9.3275     20.5484    116.9887
   905.4000      7.8996      2.5027      0.0371      8.9263     20.3575    121.0093
   905.5000      7.8987      2.5003      0.0368      9.0700     20.5502    125.1056
   905.6000      7.8987      2.4995      0.0182      9.1242     21.0395    130.9355
   905.7000      7.8987      2.5114      0.0159      8.3980     21.1767    139.3671
   905.8000      7.8977      2.5396      0.0506      6.6904     20.5276    145.8564
   905.9000      7.8977      2.5708      0.0922      4.8000     19.3945    149.3544
   906.0000      7.8984      2.5782      0.1350      4.3511     18.5011    153.7238
   906.1000      7.8984      2.5492      0.0874      6.1121     18.1762    159.3756
   906.2000      7.8984      2.5167     -0.0136      8.0783     18.0298    161.7399
   906.3000      7.8991      2.5195      0.0425      7.9077     17.5470    156.1085
   906.4000      7.8991      2.5450      0.0715      6.3609     16.7092    143.2675
   906.5000      7.9001      2.5596      0.0982      5.4767     15.9816    133.5514
   906.6000      7.9001      2.5546      0.0850      5.7840     16.0364    130.9911
   906.7000      7.9001      2.5371      0.0776      6.8411     16.8607    127.5149
   906.8000      7.9012      2.5139      0.0271      8.2497     17.2800    122.1592
   906.9000      7.9012      2.4946      0.0133      9.4198     16.5913    118.9045
   907.0000      7.9016      2.4832      0.0174     10.1066     15.5817    113.2899
   907.1000      7.9016      2.4716     -0.0008     10.8122     15.2332    104.1361
   907.2000      7.9016      2.4574     -0.0034     11.6740     15.7050     98.8988
   907.3000      7.9003      2.4527     -0.0287     11.9576     16.6260    101.5821
   907.4000      7.9003      2.4648     -0.0054     11.2224     17.3496    110.3187
   907.5000      7.8984      2.4813      0.0173     10.2228     17.1147    119.4871
   907.6000      7.8984      2.4920      0.0380      9.5772     16.1567    120.1562
   907.7000      7.8984      2.5045      0.0198      8.8190     15.6791    111.8712
   907.8000      7.8982      2.5235      0.0549      7.6677     16.0343    103.8440
   907.9000      7.8982      2.5400      0.0775      6.6694     16.5953    101.6957
   908.0000      7.8995      2.5453      0.0740      6.3442     16.6397    105.5379
   908.1000      7.8995      2.5369      0.0962      6.8548     16.0806    110.7897
   908.2000      7.8995      2.5217      0.0163      7.7735     15.7717    110.8848
   908.3000      7.9016      2.5117      0.0526      8.3822     16.2623    107.1693
   908.4000      7.9016      2.5038      0.0535      8.8615     17.1790    109.0724
   908.5000      7.9030      2.4970      0.0004      9.2723     17.8027    117.7187
   908.6000      7.9030      2.5015      0.0405      8.9981     17.8995    123.9454
   908.7000      7.9030      2.5114      0.0842      8.3983     17.8684    127.2345
   908.8000      7.9024      2.5157      0.0467      8.1368     17.7738    132.1008
   908.9000      7.9024      2.5232      0.0204      7.6863     17.4804    135.8326
   909.0000      7.9012      2.5376      0.0597      6.8098     17.3891    135.8471
   909.1000      7.9012      2.5445      0.0757      6.3917     17.7321    134.2257
   909.2000      7.9012      2.5382      0.0457      6.7754     18.2125    133.4209
   909.3000      7.9009      2.5241      0.0716      7.6286     18.5515    138.7047
   909.4000      7.9009      2.5096      0.0142      8.5120     18.7661    150.0016
   909.5000      7.9011      2.5068      0.0343      8.6815     19.0129    155.8196
   909.6000      7.9011      2.5135      0.0572      8.2723     19.2491    150.1598
   909.7000      7.9011      2.5161      0.0558      8.1140     19.4422    142.3086
   909.8000      7.9003      2.5135      0.0078      8.2737     19.6912    137.0331
   909.9000      7.9003      2.5100      0.0314      8.4851     19.8111    127.3125
   910.0000      7.8998      2.5084      0.0404      8.5823     19.6065    115.2915
   910.1000      7.8998      2.5188      0.0526      7.9536     19.3443    111.6034
   910.2000      7.8998      2.5442      0.0892      6.4138     19.0746    114.0995
   910.3000      7.8994      2.5685      0.0899      4.9413     18.4519    115.7839
   910.4000      7.8994      2.5781      0.1011      4.3555     17.5627    118.2903
   910.5000      7.8995      2.5763      0.0662      4.4651     17.1936    122.5558
   910.6000      7.8995      2.5768      0.0513      4.4380     17.7753    124.5941
   910.7000      7.8995      2.5868      0.0764      3.8296     18.7861    126.4676
   910.8000      7.9008      2.5989      0.0847      3.0963     19.7635    135.6810
   910.9000      7.9008      2.6049      0.0847      2.7350     20.4437    147.7779
   911.0000      7.9027      2.6006      0.1231      2.9944     20.3895    149.0768
   911.1000      7.9027      2.5872      0.0867      3.8040     20.1128    139.6488
