~Version Information
VERS.                      2.0: CWLS Log ASCII Standard - VERSION 2.0
WRAP.                       NO: One line per depth step
~Well Information Block
STRT.FT               492.8000: 
STOP.FT              1992.0000: 
STEP.FT                 0.1000: 
NULL.                -999.2500: 
COMP.          Petrogulf Corporation: COMPANY
WELL.               Furu 6-23R: WELL
FLD.           Purgatoire River: FIELD
LOC.           2211' FSL & 1780' FWL--: LOCATION
CNTY.               Las Animas: COUNTY
SRVC.                Patterson: SERVICE COMPANY
DATE.          Thu Jun 22 14:21:35 2006: LOG DATE
UWI.           05 071 08266 00: UNIQUE WELL ID
STAT.                 Colorado: STATE
~Curve Information Block
DEPT.FT            0 000 00 00: Depth
DCAL.in                       : CDL Caliper
RHOB.g/cc                     : CDL Bulk Density
RHOC.g/cc                     : CDL Density Correction
DPOR.pu                       : CDL Density Porosity
NPOR.pu                       : Neutron Porosity
GR.GAPI                       : Gamma Ray
~Parameter Information Block
~A  Depth       DCAL        RHOB        RHOC        DPOR        NPOR         GR     
# ...
  1078.4000      8.1760      2.5832      0.0835      4.0493     26.1410    119.1717
  1078.5000      8.1772      2.5778      0.0661      4.3777     25.9343    122.1384
  1078.6000      8.1772      2.5744      0.0537      4.5815     26.3860    122.8382
  1078.7000      8.1772      2.5677      0.0550      4.9857     27.2012    124.3721
  1078.8000      8.1779      2.5497      0.0536      6.0800     27.6781    128.3905
  1078.9000      8.1779      2.5182      0.0491      7.9849     27.9527    131.6789
  1079.0000      8.1779      2.4780      0.0135     10.4231     28.3478    131.4424
  1079.1000      8.1779      2.4357      0.0263     12.9850     28.5771    130.7020
  1079.2000      8.1779      2.3952      0.0011     15.4401     28.7576    131.2790
  1079.3000      8.1777      2.3579      0.0332     17.7049     29.6383    130.7331
  1079.4000      8.1777      2.3329     -0.0237     19.2170     31.0211    131.1795
  1079.5000      8.1773      2.3316      0.0296     19.2940     32.1533    134.4559
  1079.6000      8.1773      2.3421      0.0416     18.6590     32.8280    135.2698
  1079.7000      8.1773      2.3504      0.0326     18.1576     33.0350    130.0994
  1079.8000      8.1768      2.3570      0.1088     17.7562     32.8292    123.6563
  1079.9000      8.1768      2.3628      0.1019     17.4035     32.2496    121.1395
  1080.0000      8.1762      2.3783      0.1084     16.4666     31.4582    124.2526
  1080.1000      8.1762      2.4170      0.0968     14.1214     30.8607    128.8259
  1080.2000      8.1762      2.4711      0.1428     10.8424     30.5741    129.7143
  1080.3000      8.1756      2.5164      0.1075      8.0963     30.2166    131.0762
  1080.4000      8.1756      2.5398      0.0898      6.6807     29.6823    134.6360
  1080.5000      8.1733      2.5467      0.0753      6.2602     29.2218    134.1744
  1080.6000      8.1733      2.5522      0.0626      5.9266     28.9475    132.9685
  1080.7000      8.1733      2.5676      0.0817      4.9931     28.9328    140.0577
  1080.8000      8.1714      2.5934      0.0835      3.4311     28.8550    151.1625
  1080.9000      8.1714      2.6224      0.0837      1.6742     28.3417    156.2912
  1081.0000      8.1725      2.6463      0.1182      0.2269     27.4369    155.3646
  1081.1000      8.1725      2.6644      0.0605     -0.8749     26.5711    149.9479
  1081.2000      8.1725      2.6773      0.1098     -1.6548     26.1558    138.7268
  1081.3000      8.1734      2.6778      0.1044     -1.6860     26.0750    125.2251
  1081.4000      8.1734      2.6696      0.0606     -1.1865     26.1799    116.2530
  1081.5000      8.1734      2.6610      0.0667     -0.6658     26.3185    112.9339
  1081.6000      8.1734      2.6457      0.1018      0.2577     26.2111    110.5259
  1081.7000      8.1734      2.6238      0.0146      1.5888     26.1029    108.5161
  1081.8000      8.1733      2.6178      0.0232      1.9528     26.5561    110.9304
  1081.9000      8.1733      2.6377      0.0589      0.7442     27.3498    118.9850
  1082.0000      8.1736      2.6659      0.0594     -0.9632     27.6779    126.2314
  1082.1000      8.1736      2.6839      0.0561     -2.0559     27.6209    128.1598
  1082.2000      8.1736      2.6929      0.0759     -2.5990     27.8441    128.4849
  1082.3000      8.1749      2.6993      0.0932     -2.9864     28.4499    130.1833
  1082.4000      8.1749      2.6912      0.1221     -2.4968     29.0047    130.9162
  1082.5000      8.1750      2.6646      0.0405     -0.8842     29.3706    129.5560
  1082.6000      8.1750      2.6416      0.0341      0.5100     29.8404    128.4955
  1082.7000      8.1750      2.6288      0.0224      1.2825     30.4127    127.5059
  1082.8000      8.1735      2.6147     -0.0189      2.1394     30.4569    124.3485
  1082.9000      8.1735      2.6023      0.0102      2.8933     29.6783    121.4121
  1083.0000      8.1717      2.5984      0.0129      3.1280     28.8740    121.5764
  1083.1000      8.1717      2.5975      0.0189      3.1801     28.8180    122.8311
  1083.2000      8.1717      2.5969      0.0473      3.2165     29.2988    123.5704
  1083.3000      8.1712      2.6036      0.0612      2.8133     29.5831    125.0401
  1083.4000      8.1712      2.6124      0.1224      2.2807     29.4008    126.0705
  1083.5000      8.1723      2.6079      0.0696      2.5529     29.1201    125.3619
  1083.6000      8.1723      2.5992      0.0147      3.0799     28.9384    124.9466
  1083.7000      8.1723      2.6029      0.0718      2.8539     28.8213    126.5049
  1083.8000      8.1747      2.6104      0.0780      2.4023     28.6391    128.6893
  1083.9000      8.1747      2.6128      0.0503      2.2564     28.2425    129.1380
  1084.0000      8.1779      2.6177      0.0531      1.9561     27.8476    127.7286
  1084.1000      8.1779      2.6313      0.0350      1.1353     27.6563    128.8199
  1084.2000      8.1779      2.6532      0.0481     -0.1945     27.5442    133.4625
  1084.3000      8.1785      2.6800      0.0691     -1.8182     27.0208    136.5188
  1084.4000      8.1785      2.7056      0.0786     -3.3721     25.6163    132.6927
  1084.5000      8.1760      2.7267      0.1000     -4.6481     23.8324    122.2459
  1084.6000      8.1760      2.7412      0.1185     -5.5256     22.6673    113.1572
  1084.7000      8.1760      2.7402      0.1178     -5.4662     22.5655    109.1392
  1084.8000      8.1726      2.7129      0.0740     -3.8138     23.1215    108.3814
  1084.9000      8.1726      2.6691      0.0100     -1.1598     23.4171    108.8689
  1085.0000      8.1714      2.6415     -0.0443      0.5124     23.1202    106.1920
  1085.1000      8.1714      2.6436      0.0505      0.3865     22.8901    101.5131
  1085.2000      8.1714      2.6527     -0.0363     -0.1653     23.4256    100.9942
  1085.3000      8.1730      2.6536      0.0160     -0.2153     24.4518    103.1217
  1085.4000      8.1730      2.6465      0.0035      0.2142     25.1228    103.4283
  1085.5000      8.1734      2.6362     -0.0074      0.8355     25.1755    104.0059
  1085.6000      8.1734      2.6287      0.0120      1.2927     25.1529    107.5871
  1085.7000      8.1734      2.6210      0.0112      1.7579     25.6343    114.3577
  1085.8000      8.1723      2.6086      0.0080      2.5075     26.4123    122.4502
  1085.9000      8.1723      2.5947      0.0352      3.3498     26.8014    127.9921
  1086.0000      8.1736      2.5846      0.0472      3.9609     26.8005    128.9486
  1086.1000      8.1736      2.5876     -0.0110      3.7788     26.9946    127.5081
  1086.2000      8.1736      2.6098      0.0626      2.4383     27.5319    126.0899
  1086.3000      8.1770      2.6447      0.0014      0.3197     28.0505    126.5895
  1086.4000      8.1770      2.6809      0.0662     -1.8708     28.2360    130.5188
  1086.5000      8.1781      2.7129      0.0376     -3.8106     28.0534    136.2876
  1086.6000      8.1781      2.7511      0.0638     -6.1245     27.6868    142.2260
  1086.7000      8.1781      2.7953      0.1027     -8.8031     27.4141    144.4539
  1086.8000      8.1770      2.8222      0.1299    -10.4370     27.2719    138.8180
  1086.9000      8.1770      2.8243      0.0860    -10.5658     27.1603    129.9041
  1087.0000      8.1763      2.8186      0.0762    -10.2190     27.1420    122.9296
  1087.1000      8.1763      2.8127      0.0314     -9.8636     27.2172    117.6495
  1087.2000      8.1763      2.8040     -0.0041     -9.3307     27.3672    116.6119
  1087.3000      8.1779      2.7962     -0.0617     -8.8626     27.6115    121.5428
  1087.4000      8.1779      2.7893      0.0253     -8.4396     28.0605    125.4765
  1087.5000      8.1811      2.7636      0.0067     -6.8834     28.7731    122.9280
  1087.6000      8.1811      2.7080      0.0131     -3.5178     29.5640    118.9391
  1087.7000      8.1811      2.6461     -0.0600      0.2353     30.2323    119.9444
  1087.8000      8.1850      2.6103     -0.0373      2.4043     30.8313    126.7165
  1087.9000      8.1850      2.5932     -0.0154      3.4412     31.6655    137.4463
