~Version Information
VERS.                      2.0: CWLS Log ASCII Standard - VERSION 2.0
WRAP.                       NO: One line per depth step
~Well Information Block
STRT.FT               -10.0000: 
STOP.FT              2184.0000: 
STEP.FT                 0.2500: 
NULL.                -999.2500: 
COMP.          Petrogulf Corporation: COMPANY
WELL.              Silva 1-43R: WELL
FLD.           Purgatorie River: FIELD
LOC.           1971' FSL & 526' FEL--: LOCATION
CNTY.               Las Animas: COUNTY
SRVC.          Patterson Wireline: SERVICE COMPANY
DATE.          Thu Jul 13 13:08:17 2006: LOG DATE
UWI.           05 072 08372 00: UNIQUE WELL ID
STAT.                       CO: STATE
~Curve Information Block
DEPT.FT            0 000 00 00: Depth
CCL.                          : Casing Collar Locator
TT3.usec                      : CBL 3' Travel Time
AMP3.mV                       : CBL 3' Amplitude
GR.GAPI                       : Gamma Ray
~Parameter Information Block
~A  Depth       CCL         TT3         AMP3         GR     
# ...
  1732.0000      0.0000    576.5068      5.4185    156.2362
  1732.2500      0.0000    586.4800      5.4198    158.9841
  1732.5000      0.0000    599.5201      5.3955    161.8625
  1732.7500      0.0000    613.4557      5.3629    163.9200
  1733.0000      0.0000    624.3477      5.3400    164.6292
  1733.2500      0.0000    630.0197      5.3358    164.1516
  1733.5000      0.0000    630.0637      5.3468    163.1190
  1733.7500      0.0000    624.7501      5.3595    161.9252
  1734.0000      0.0000    616.5430      5.3623    160.2938
  1734.2500      0.0000    611.4739      5.3555    157.7396
  1734.5000      0.0000    615.6772      5.3497    154.3999
  1734.7500      0.0000    628.9828      5.3585    151.1382
  1735.0000      0.0000    642.8552      5.3951    148.8462
  1735.2500      0.0000    646.4868      5.4655    147.9446
  1735.5000      0.0000    635.9808      5.5546    148.2367
  1735.7500      0.0000    617.5711      5.6264    148.6433
  1736.0000      0.0000    601.8278      5.6522    147.5451
  1736.2500      0.0000    594.9491      5.6359    144.2379
  1736.5000      0.0000    595.4872      5.6035    139.7391
  1736.7500      0.0000    598.3204      5.5773    135.5287
  1737.0000      2.0000    601.1727      5.5670    131.8910
  1737.2500     -2.0000    607.4547      5.5711    128.0399
  1737.5000      0.0000    622.0930      5.5790    123.2920
  1737.7500      0.0000    644.4543      5.5715    117.2867
  1738.0000      0.0000    667.2996      5.5192    109.4929
  1738.2500      0.0000    683.0355      5.3812     99.7627
  1738.5000      0.0000    689.2068      5.1239     89.5873
  1738.7500      0.0000    688.4333      4.7606     81.8781
  1739.0000      0.0000    685.2834      4.3628     78.9157
  1739.2500      0.0000    683.2073      4.0166     80.8550
  1739.5000      0.0000    683.0404      3.7753     86.3925
  1739.7500      0.0000    683.7898      3.6502     94.3401
  1740.0000      0.0000    684.4776      3.6228    104.1501
  1740.2500      0.0000    685.0033      3.6583    115.3220
  1740.5000      0.0000    685.8167      3.7211    126.9765
  1740.7500      0.0000    687.4279      3.7919    138.1466
  1741.0000      0.0000    690.1199      3.8807    148.1943
  1741.2500      0.0000    693.4769      4.0234    156.7607
  1741.5000      0.0000    696.1879      4.2591    163.3048
  1741.7500      0.0000    697.0175      4.6014    166.9129
  1742.0000      0.0000    696.1815      5.0305    166.8061
  1742.2500      0.0000    695.2267      5.5103    163.0533
  1742.5000      0.0000    695.3303      6.0092    156.8518
  1742.7500      0.0000    695.8974      6.5117    150.4114
  1743.0000      0.0000    693.8254      7.0274    146.2988
  1743.2500      0.0000    682.9943      7.5885    145.8614
  1743.5000      0.0000    656.1516      8.2244    147.9355
  1743.7500      0.0000    611.0981      8.9276    149.6305
  1744.0000      0.0000    556.3754      9.6411    148.6111
  1744.2500      0.0000    508.9564     10.2815    144.4991
  1744.5000      0.0000    484.1057     10.7881    138.4634
  1744.7500      0.0000    486.0297     11.1626    132.0293
  1745.0000      0.0000    506.5346     11.4642    126.2378
  1745.2500      0.0000    531.2206     11.7610    121.3187
  1745.5000      0.0000    547.0900     12.0865    117.0347
  1745.7500      0.0000    546.2356     12.4328    113.5025
  1746.0000      0.0000    526.3919     12.7578    111.2975
  1746.2500      0.0000    491.9738     12.9847    110.4150
  1746.5000      0.0000    454.4738     13.0146    109.6367
  1746.7500      0.0000    428.7002     12.7721    107.5039
  1747.0000      0.0000    425.3362     12.2534    103.6918
  1747.2500      0.0000    444.5905     11.5348     99.0962
  1747.5000      0.0000    475.4022     10.7391     94.8863
  1747.7500      0.0000    501.6754      9.9820     91.8644
  1748.0000      0.0000    512.0319      9.3294     90.4891
  1748.2500      0.0000    506.8307      8.7829     90.9559
  1748.5000      0.0000    497.8452      8.2985     93.2688
  1748.7500      0.0000    500.2906      7.8307     97.4913
  1749.0000      0.0000    522.1177      7.3786    103.8316
  1749.2500      0.0000    559.5555      6.9985    112.2664
  1749.5000      0.0000    602.6075      6.7748    122.1530
  1749.7500      0.0000    642.9479      6.7710    132.4982
  1750.0000      0.0000    675.8459      6.9969    142.7837
  1750.2500      0.0000    697.3202      7.4094    153.2241
  1750.5000      0.0000    702.4049      7.9432    163.8250
  1750.7500      0.0000    686.8274      8.5408    173.3681
  1751.0000      0.0000    650.9910      9.1568    179.9149
  1751.2500      0.0000    603.4859      9.7415    182.5949
  1751.5000      0.0000    558.9982     10.2372    182.6163
  1751.7500      0.0000    529.4567     10.6011    182.2172
  1752.0000      0.0000    516.3123     10.8268    182.7776
  1752.2500      0.0000    511.9798     10.9379    184.1414
  1752.5000      0.0000    507.1643     10.9615    185.3014
  1752.7500      0.0000    496.6643     10.9180    185.2318
  1753.0000      0.0000    481.6398     10.8268    183.3754
  1753.2500      0.0000    468.1849     10.7020    179.7879
  1753.5000      0.0000    462.4004     10.5399    174.8923
  1753.7500      0.0000    466.9305     10.3253    169.4263
  1754.0000      0.0000    482.4344     10.0442    164.6665
  1754.2500      0.0000    509.5965      9.6838    161.9823
  1754.5000      0.0000    547.0754      9.2301    161.8508
  1754.7500      0.0000    589.0046      8.6877    163.7050
  1755.0000      0.0000    627.5365      8.1036    166.5790
  1755.2500      0.0000    658.1393      7.5602    169.4617
  1755.5000      0.0000    681.3810      7.1373    171.3141
  1755.7500      0.0000    700.0142      6.8762    171.3249
  1756.0000      0.0000    715.2687      6.7755    169.3057
  1756.2500      0.0000    725.9159      6.8081    165.7323
  1756.5000      0.0000    729.8461      6.9307    161.2694
  1756.7500      0.0000    725.8087      7.0829    156.2182
  1757.0000      0.0000    713.7133      7.1989    150.4722
  1757.2500      0.0000    693.9799      7.2437    144.0339
  1757.5000      0.0000    667.3495      7.2387    137.5923
  1757.7500      0.0000    636.1042      7.2411    132.6686
  1758.0000      0.0000    605.5291      7.2885    131.0020
  1758.2500      0.0000    582.5292      7.3644    133.3757
  1758.5000      0.0000    570.6921      7.4292    138.8800
  1758.7500      0.0000    566.7939      7.4893    145.3323
  1759.0000      0.0000    563.0299      7.6190    150.2294
  1759.2500      0.0000    551.9620      7.8933    151.5873
  1759.5000      0.0000    530.0921      8.2996    148.7991
  1759.7500      0.0000    500.5942      8.7247    143.1967
  1760.0000      0.0000    474.1137      9.0238    137.1958
  1760.2500      0.0000    463.7128      9.0945    132.3573
  1760.5000      0.0000    475.8738      8.9007    128.5793
  1760.7500      0.0000    505.7750      8.4566    125.2850
  1761.0000      0.0000    541.6434      7.8063    122.6307
  1761.2500      0.0000    574.4130      7.0092    121.2697
  1761.5000      0.0000    603.4622      6.1345    121.5022
  1761.7500      0.0000    633.2169      5.2654    122.8621
  1762.0000      0.0000    666.0479      4.4884    124.2814
  1762.2500      0.0000    699.4673      3.8605    124.7859
  1762.5000      0.0000    728.0104      3.3887    124.2041
  1762.7500      0.0000    745.9737      3.0481    122.9797
  1763.0000      0.0000    750.1447      2.8161    121.3963
  1763.2500      0.0000    742.5188      2.6897    119.5883
  1763.5000      0.0000    730.1143      2.6854    118.2237
  1763.7500      0.0000    719.7662      2.8371    118.3845
  1764.0000      0.0000    712.0565      3.2002    120.6698
  1764.2500      0.0000    700.6458      3.8651    125.0355
  1764.5000      0.0000    677.8846      4.9674    131.2690
  1764.7500      0.0000    641.1143      6.6554    138.8828
  1765.0000      0.0000    593.6404      9.0104    146.6315
  1765.2500      0.0000    540.2315     11.9911    152.7332
