~Version Information
VERS.                      2.0: CWLS Log ASCII Standard - VERSION 2.0
WRAP.                       NO: One line per depth step
~Well Information Block
STRT.FT               906.0000: 
STOP.FT              1960.5000: 
STEP.FT                 0.2500: 
NULL.                -999.2500: 
COMP.          Petrogulf Corporation: COMPANY
WELL.            Torcom 17-33R: WELL
FLD.           Purgatorie River: FIELD
LOC.           1483' FSL & 1804' FEL: LOCATION
PROV.                 Colorado: PROVINCE
CNTY.               Las Animas: COUNTRY
SRVC.                Patterson: SERVICE COMPANY
DATE.          Thu Aug 18 08:33:01 2005: LOG DATE
UWI.                071 08069 : UNIQUE WELL ID
~Curve Information Block
DEPT.FT            0 000 00 00: Depth
SP.mV                         : DIL Spontaneous Potential
RILD.Ohm-m                    : DIL Deep Resistivity
RILM.Ohm-m                    : DIL Medium Resistivity
RLL3.Ohm-m                    : DIL Shallow Resistivity
GR.GAPI                       : Gamma Ray
~Parameter Information Block
~A  Depth        SP         RILD        RILM        RLL3         GR     
# ...
  1466.0000     64.6026     33.7522     63.6204     68.9328    109.0262
  1466.2500     64.8439     32.4448     62.7711     75.5476    111.9098
  1466.5000     65.1002     28.7509     58.4707     79.3689    107.6924
  1466.7500     66.2912     26.5214     51.9674     74.8589    113.1248
  1467.0000     67.4292     24.3045     43.5641     60.1555    120.7987
  1467.2500     68.9063     22.6175     36.3249     43.1301    138.5004
  1467.5000     71.0637     20.9329     29.7662     30.5594    155.6003
  1467.7500     71.5048     19.5282     24.4737     23.0217    160.7603
  1468.0000     71.0218     17.8636     20.7802     18.7207    161.6114
  1468.2500     70.2166     16.8837     18.5173     16.8997    155.9611
  1468.5000     69.5918     15.7561     16.9281     16.5173    146.6525
  1468.7500     69.2802     14.7698     15.8339     16.4737    156.4065
  1469.0000     69.8708     13.8999     14.8465     16.9551    152.3412
  1469.2500     70.8499     12.8484     14.0711     16.5192    145.1408
  1469.5000     71.9353     11.8064     13.4278     16.3881    137.3620
  1469.7500     72.3328     11.1035     12.7891     16.7417    141.9547
  1470.0000     73.2052     10.4884     12.1585     17.9351    145.3635
  1470.2500     72.9669      9.9731     11.4130     18.5791    151.9161
  1470.5000     73.7288      9.7343     10.6662     18.1645    170.3637
  1470.7500     75.7482      9.5691     10.0689     16.1212    175.7451
  1471.0000     77.8547      9.4099      9.5597     13.8061    170.3337
  1471.2500     81.1915      9.4733      9.2481     12.4196    162.7127
  1471.5000     83.9006      9.5265      9.1638     11.8919    171.1425
  1471.7500     84.3998      9.8398      9.2306     12.5285    164.1985
  1472.0000     84.5291     10.0657      9.4271     13.2466    158.6287
  1472.2500     84.0166     10.3140      9.7825     13.9637    150.0443
  1472.5000     83.7780     10.4249     10.3691     15.0970    126.6106
  1472.7500     85.2164     10.6052     10.9134     17.3863    122.9756
  1473.0000     87.0639     10.9622     11.5912     20.2547    119.4322
  1473.2500     88.0990     11.4899     12.2965     21.5238    114.2905
  1473.5000     86.5437     12.0345     13.2043     21.9489    116.6801
  1473.7500     84.5767     12.4706     14.1531     23.0545    113.4040
  1474.0000     82.8557     13.2363     15.2499     25.2719    113.3652
  1474.2500     80.8718     13.9232     16.7252     28.5270    109.1238
  1474.5000     79.5549     14.9460     18.2204     31.8790    118.8521
  1474.7500     78.3683     16.0464     19.9268     32.7245    119.9556
  1475.0000     77.3455     16.8766     21.1486     32.9069    121.1197
  1475.2500     76.2185     17.8182     22.3198     34.7614    120.1701
  1475.5000     74.6676     18.6279     23.1127     33.5484    123.0097
  1475.7500     72.6999     19.2760     23.9848     30.3837    119.3386
  1476.0000     70.1146     20.0578     24.4911     27.4855    125.9737
  1476.2500     67.4997     21.0136     25.7913     26.7066    126.2495
  1476.5000     65.4109     21.4918     26.4864     28.9884    128.2442
  1476.7500     63.5370     21.9951     27.1578     30.3204    133.3392
  1477.0000     61.3301     22.5183     27.4383     28.7398    119.3458
  1477.2500     60.3242     22.4543     28.7701     28.0101    114.4962
  1477.5000     58.8007     22.6266     29.7326     34.3355    106.1497
  1477.7500     56.9815     22.5983     29.8173     47.2121    104.2578
  1478.0000     56.2135     22.6159     29.9845     52.3396    126.2879
  1478.2500     55.1801     22.8472     28.7700     38.6214    139.7732
  1478.5000     54.3612     22.4222     29.3496     29.3736    131.2671
  1478.7500     54.1310     21.9855     29.4155     27.0739    120.6156
  1479.0000     54.6841     21.5409     29.8028     31.4848    112.9975
  1479.2500     55.7302     20.4001     30.2732     39.2426    111.6646
  1479.5000     56.7093     20.4814     30.3936     47.8603    117.5632
  1479.7500     57.9094     20.0678     29.0446     54.7844    113.9978
  1480.0000     59.8998     19.5684     26.6232     52.5093    126.4393
  1480.2500     62.1362     19.3525     24.2190     38.4335    141.5600
  1480.5000     62.1936     19.2684     21.9869     26.7934    157.7980
  1480.7500     61.9883     19.1738     20.4752     21.6071    164.1122
  1481.0000     63.0589     18.8400     19.9592     18.1807    159.7043
  1481.2500     66.1841     18.9934     19.7193     16.6491    153.3013
  1481.5000     67.2426     18.7454     20.2140     17.4879    148.7297
  1481.7500     67.3327     18.5192     21.3540     20.4016    137.4852
  1482.0000     68.0091     17.4989     22.2430     24.8477    122.6308
  1482.2500     68.6096     16.3972     23.2537     32.1296    122.5222
  1482.5000     69.0180     15.5582     22.9768     38.8941    126.1744
  1482.7500     69.3925     14.9859     21.7042     39.0258    119.6465
  1483.0000     71.8160     14.1387     20.2350     35.5849    137.5459
  1483.2500     75.7058     13.7321     18.3386     29.5022    144.0914
  1483.5000     80.3584     13.2066     16.9728     23.5262    151.7093
  1483.7500     82.9904     12.8309     15.4873     19.5169    163.8020
  1484.0000     84.1197     12.3955     14.5496     17.3571    156.4647
  1484.2500     84.8321     12.0961     13.6155     16.7071    161.9754
  1484.5000     85.6515     11.8686     12.8010     16.3040    159.7958
  1484.7500     87.2570     11.5710     12.2504     16.1442    158.8938
  1485.0000     89.0348     11.1992     11.7809     15.7230    179.0468
  1485.2500     90.4851     10.9810     11.3377     15.3068    177.2096
  1485.5000     90.8208     10.9071     10.9935     14.5600    170.6483
  1485.7500     90.5160     10.8887     10.6751     13.8429    173.2010
  1486.0000     89.6899     11.0106     10.6450     13.6789    165.9668
  1486.2500     88.7042     10.8186     10.9274     13.5421    159.5926
  1486.5000     88.0856     10.5666     11.4938     13.8640    141.9303
  1486.7500     88.1260     10.3908     12.4028     17.6251    119.7223
  1487.0000     89.6709     10.2004     13.2369     28.6663    105.8553
  1487.2500     92.6276      9.8903     13.7791     53.8336     94.2030
  1487.5000     95.8130      9.6639     13.6459     70.6159    114.4288
  1487.7500     99.2730      9.4955     13.0148     49.2836    128.2788
  1488.0000    101.3802      9.4697     11.9774     26.2442    144.4652
  1488.2500    102.3878      9.5649     11.0871     17.2278    154.9800
  1488.5000    102.3518      9.6122     10.5216     14.3330    153.9516
  1488.7500    102.1452      9.7587     10.2806     13.5842    155.8526
  1489.0000    101.8999     10.0821     10.1541     13.4873    160.6057
  1489.2500    102.2432     10.2379     10.0537     13.6802    163.9259
  1489.5000    102.6926     10.2982     10.0691     13.5596    167.9997
  1489.7500    102.8151     10.3448     10.0932     13.3766    168.5772
  1490.0000    102.5158     10.5271     10.1791     13.4609    153.8890
  1490.2500    100.9344     10.4686     10.3743     13.1897    153.7309
  1490.5000     99.1617     10.4351     10.7383     13.6582    155.4503
  1490.7500     97.6649     10.4668     11.4195     15.1625    148.1236
  1491.0000     97.4258     10.6503     12.4163     19.0745    134.9090
  1491.2500     97.5203     10.7099     13.6315     24.9718    134.0595
  1491.5000     98.0068     10.7689     14.6559     31.2092    123.3298
  1491.7500     97.4461     10.9386     15.2809     37.0934    125.8071
  1492.0000     96.5760     11.2283     15.5843     39.9095    128.5792
  1492.2500     95.2541     11.5532     15.7484     34.5063    140.0301
  1492.5000     93.6461     11.8586     15.7292     25.9463    146.7147
  1492.7500     92.1023     12.1031     15.4948     21.3538    142.5116
  1493.0000     90.3283     12.5399     15.6238     19.2589    152.8126
  1493.2500     88.5857     12.7031     15.5430     18.4552    150.0718
  1493.5000     86.1817     12.5388     15.3037     18.1011    161.9336
  1493.7500     83.2341     12.4473     15.4294     17.6386    167.9076
