~Version Information
VERS.                      2.0: CWLS Log ASCII Standard - VERSION 2.0
WRAP.                       NO: One line per depth step
~Well Information Block
STRT.FT               698.9000: 
STOP.FT              2460.4000: 
STEP.FT                 0.1000: 
NULL.                -999.2500: 
COMP.          Petrogulf Corporation: COMPANY
WELL.             State 16-23V: WELL
FLD.           Purgatorie River: FIELD
LOC.           2414' FSL & 2215' FWL: LOCATION
PROV.                 Colorado: PROVINCE
CNTY.               Las Animas: COUNTRY
SRVC.                         : SERVICE COMPANY
DATE.          Mon Jun 09 14:24:56 2003: LOG DATE
UWI.           05 071 07865 00: UNIQUE WELL ID
~Curve Information Block
DEPT.FT            0 000 00 00: Depth
DCAL.in                       : CDL Caliper
RHOB.g/cc                     : CDL Bulk Density
RHOC.g/cc                     : CDL Density Correction
DPOR.pu                       : CDL Density Porosity
GR.GAPI                       : Gamma Ray
NPOR.pu                       : Neutron Porosity
~Parameter Information Block
~A  Depth       DCAL        RHOB        RHOC        DPOR         GR         NPOR    
# ...
  2110.1000      8.0253      2.5634      0.0642      5.2502     35.5516     15.8290
  2110.2000      8.0253      2.5634      0.0638      5.2500     34.9744     15.7907
  2110.3000      8.0286      2.5632      0.0632      5.2624     34.3143     15.7617
  2110.4000      8.0286      2.5628      0.0626      5.2857     33.6109     15.7401
  2110.5000      8.0235      2.5623      0.0619      5.3176     32.9103     15.7236
  2110.6000      8.0235      2.5616      0.0612      5.3554     32.2601     15.7100
  2110.7000      8.0235      2.5610      0.0605      5.3963     31.7022     15.6977
  2110.8000      8.0153      2.5603      0.0600      5.4374     31.2692     15.6862
  2110.9000      8.0153      2.5596      0.0598      5.4763     30.9797     15.6759
  2111.0000      8.0186      2.5591      0.0598      5.5111     30.8380     15.6683
  2111.1000      8.0186      2.5586      0.0601      5.5409     30.8357     15.6655
  2111.2000      8.0186      2.5582      0.0608      5.5659     30.9533     15.6697
  2111.3000      8.0346      2.5578      0.0616      5.5871     31.1634     15.6824
  2111.4000      8.0346      2.5575      0.0625      5.6064     31.4363     15.7042
  2111.5000      8.0449      2.5572      0.0633      5.6264     31.7473     15.7338
  2111.6000      8.0449      2.5568      0.0640      5.6497     32.0790     15.7684
  2111.7000      8.0449      2.5563      0.0643      5.6789     32.4252     15.8040
  2111.8000      8.0380      2.5557      0.0642      5.7160     32.7916     15.8360
  2111.9000      8.0380      2.5549      0.0636      5.7620     33.1933     15.8598
  2112.0000      8.0296      2.5540      0.0625      5.8170     33.6496     15.8725
  2112.1000      8.0296      2.5530      0.0610      5.8796     34.1782     15.8727
  2112.2000      8.0296      2.5519      0.0591      5.9477     34.7880     15.8614
  2112.3000      8.0267      2.5507      0.0569      6.0177     35.4760     15.8417
  2112.4000      8.0267      2.5496      0.0547      6.0858     36.2237     15.8175
  2112.5000      8.0273      2.5486      0.0525      6.1474     36.9997     15.7934
  2112.6000      8.0273      2.5477      0.0503      6.1980     37.7631     15.7734
  2112.7000      8.0273      2.5471      0.0484      6.2335     38.4677     15.7600
  2112.8000      8.0294      2.5469      0.0468      6.2503     39.0705     15.7541
  2112.9000      8.0294      2.5469      0.0454      6.2456     39.5330     15.7550
  2113.0000      8.0314      2.5474      0.0444      6.2176     39.8252     15.7605
  2113.1000      8.0314      2.5483      0.0437      6.1654     39.9289     15.7679
  2113.2000      8.0314      2.5495      0.0434      6.0891     39.8345     15.7745
  2113.3000      8.0308      2.5512      0.0435      5.9896     39.5420     15.7782
  2113.4000      8.0308      2.5532      0.0439      5.8684     39.0614     15.7780
  2113.5000      8.0303      2.5555      0.0447      5.7278     38.4088     15.7741
  2113.6000      8.0303      2.5581      0.0459      5.5702     37.6102     15.7680
  2113.7000      8.0303      2.5609      0.0477      5.3985     36.7000     15.7620
  2113.8000      8.0381      2.5639      0.0500      5.2159     35.7206     15.7585
  2113.9000      8.0381      2.5671      0.0529      5.0259     34.7206     15.7600
  2114.0000      8.0471      2.5703      0.0565      4.8320     33.7516     15.7679
  2114.1000      8.0471      2.5735      0.0605      4.6382     32.8646     15.7824
  2114.2000      8.0471      2.5766      0.0650      4.4485     32.1033     15.8022
  2114.3000      8.0466      2.5796      0.0696      4.2670     31.5024     15.8244
  2114.4000      8.0466      2.5824      0.0741      4.0975     31.0816     15.8453
  2114.5000      8.0318      2.5849      0.0783      3.9437     30.8441     15.8609
  2114.6000      8.0318      2.5872      0.0818      3.8087     30.7792     15.8671
  2114.7000      8.0318      2.5890      0.0845      3.6948     30.8652     15.8612
  2114.8000      8.0141      2.5905      0.0864      3.6037     31.0740     15.8417
  2114.9000      8.0141      2.5917      0.0873      3.5357     31.3757     15.8088
  2115.0000      8.0039      2.5924      0.0874      3.4907     31.7434     15.7642
  2115.1000      8.0039      2.5928      0.0867      3.4674     32.1517     15.7103
  2115.2000      8.0039      2.5928      0.0854      3.4643     32.5793     15.6507
  2115.3000      8.0001      2.5926      0.0836      3.4792     33.0056     15.5890
  2115.4000      8.0001      2.5921      0.0815      3.5098     33.4082     15.5287
  2115.5000      8.0022      2.5914      0.0792      3.5539     33.7647     15.4729
  2115.6000      8.0022      2.5904      0.0768      3.6094     34.0502     15.4243
  2115.7000      8.0022      2.5894      0.0744      3.6746     34.2460     15.3849
  2115.8000      8.0071      2.5882      0.0720      3.7477     34.3415     15.3554
  2115.9000      8.0071      2.5868      0.0698      3.8274     34.3387     15.3352
  2116.0000      8.0104      2.5855      0.0677      3.9120     34.2533     15.3226
  2116.1000      8.0104      2.5840      0.0658      4.0002     34.1119     15.3145
  2116.2000      8.0104      2.5825      0.0640      4.0900     33.9468     15.3070
  2116.3000      8.0127      2.5810      0.0624      4.1794     33.7883     15.2962
  2116.4000      8.0127      2.5796      0.0609      4.2661     33.6581     15.2789
  2116.5000      8.0157      2.5783      0.0596      4.3477     33.5644     15.2536
  2116.6000      8.0157      2.5770      0.0585      4.4218     33.5010     15.2201
  2116.7000      8.0157      2.5760      0.0577      4.4864     33.4500     15.1804
  2116.8000      8.0191      2.5751      0.0573      4.5399     33.3888     15.1379
  2116.9000      8.0191      2.5744      0.0572      4.5820     33.2929     15.0968
  2117.0000      8.0188      2.5739      0.0576      4.6131     33.1458     15.0616
  2117.1000      8.0188      2.5735      0.0583      4.6351     32.9400     15.0362
  2117.2000      8.0188      2.5733      0.0593      4.6510     32.6780     15.0242
  2117.3000      8.0215      2.5730      0.0605      4.6649     32.3735     15.0279
  2117.4000      8.0215      2.5727      0.0616      4.6819     32.0468     15.0492
  2117.5000      8.0304      2.5723      0.0625      4.7072     31.7215     15.0889
  2117.6000      8.0304      2.5717      0.0631      4.7461     31.4243     15.1472
  2117.7000      8.0304      2.5707      0.0631      4.8034     31.1798     15.2232
  2117.8000      8.0382      2.5694      0.0625      4.8827     31.0106     15.3157
  2117.9000      8.0382      2.5677      0.0611      4.9861     30.9354     15.4226
  2118.0000      8.0428      2.5656      0.0589      5.1140     30.9700     15.5409
  2118.1000      8.0428      2.5631      0.0561      5.2650     31.1269     15.6677
  2118.2000      8.0428      2.5603      0.0528      5.4359     31.4122     15.7994
  2118.3000      8.0484      2.5572      0.0492      5.6219     31.8293     15.9324
  2118.4000      8.0484      2.5540      0.0456      5.8176     32.3730     16.0629
  2118.5000      8.0499      2.5507      0.0425      6.0166     33.0316     16.1873
  2118.6000      8.0499      2.5475      0.0400      6.2129     33.7852     16.3015
  2118.7000      8.0499      2.5444      0.0383      6.4010     34.6058     16.4020
  2118.8000      8.0447      2.5415      0.0375      6.5763     35.4596     16.4853
  2118.9000      8.0447      2.5389      0.0375      6.7353     36.3090     16.5488
  2119.0000      8.0374      2.5365      0.0382      6.8761     37.1155     16.5910
  2119.1000      8.0374      2.5345      0.0394      6.9977     37.8449     16.6119
  2119.2000      8.0374      2.5328      0.0408      7.1002     38.4686     16.6135
  2119.3000      8.0249      2.5315      0.0423      7.1841     38.9638     16.5992
  2119.4000      8.0249      2.5304      0.0438      7.2504     39.3162     16.5739
  2119.5000      8.0175      2.5296      0.0452      7.3000     39.5183     16.5433
  2119.6000      8.0175      2.5290      0.0466      7.3334     39.5671     16.5129
