~Version Information
 VERS.                                  2.0 : CWLS LAS VERSION
 WRAP.                                   NO : WRAPING MODE
 SWARE .                 MController 2.5.0N : SOFTWARE VERSION
~Well Information
 WELL.                                  N/A : WELL
 COMP.                                  N/A : COMPANY
 FLD.                                   N/A : FIELD
 LOC.                                   N/A : LOCATION
 DATE.                                  N/A : DATE(S) LOGGED
 SRVC.                                  N/A : SERVICE COMPANY
 STAT.                                  N/A : STATE
 CNTY.                                  N/A : COUNTY
 CTRY.                                  N/A : COUNTRY
 API.                                   N/A : API NUMBER
 STRT.FT                             445.00 : START DEPTH
 STOP.FT                            1905.00 : STOP DEPTH
 STEP.FT                               1.00 : DEPTH INCREMENT
 NULL.                                -9999 : NULL VALUE
~Curve information
 DEPTH.FT                                   :
 ROP.MIN/FT                                 :
 GAS.UNITS                                  :
~ASCII Log data
# ...
      1445.0         0.20         21.7 
      1446.0         0.27         20.9 
      1447.0         0.23         20.0 
      1448.0         0.23         20.0 
      1449.0         0.20         20.0 
      1450.0         0.20         20.0 
      1451.0         0.18         21.1 
      1452.0         0.20         21.1 
      1453.0         0.17         21.2 
      1454.0         0.27         20.7 
      1455.0         0.17         19.7 
      1456.0         0.20         19.7 
      1457.0         0.23         21.5 
      1458.0         0.20         21.3 
      1459.0         0.20         21.3 
      1460.0         0.20         22.0 
      1461.0         0.17         22.0 
      1462.0         0.17         21.2 
      1463.0         0.17         22.3 
      1464.0         0.27         20.2 
      1465.0         0.13         20.2 
      1466.0         4.73         27.5 
      1467.0         0.13         22.8 
      1468.0         0.63         26.2 
      1469.0         0.37         26.8 
      1470.0         0.33         27.9 
      1471.0         0.23         29.0 
      1472.0         0.27         29.8 
      1473.0         0.23         30.6 
      1474.0         0.20         31.0 
      1475.0         0.22         31.6 
      1476.0         0.30         32.1 
      1477.0         0.30         32.0 
      1478.0         0.27         31.8 
      1479.0         0.27         31.9 
      1480.0         0.20         32.1 
      1481.0         0.13         30.1 
      1482.0         0.27         30.4 
      1483.0         0.17         31.7 
      1484.0         0.17         31.0 
      1485.0         0.17         31.0 
      1486.0         0.13         31.8 
      1487.0         0.20         30.9 
      1488.0         0.27         30.4 
      1489.0         0.23         30.5 
      1490.0         0.28         31.5 
      1491.0         0.27         30.6 
      1492.0         0.23         31.7 
      1493.0         0.20         31.4 
      1494.0         0.23         31.4 
      1495.0         0.23         31.5 
      1496.0         2.55         31.2 
      1497.0         0.40         19.2 
      1498.0         0.37         22.5 
      1499.0         0.27         23.6 
      1500.0         0.27         25.3 
      1501.0         0.27         26.2 
      1502.0         0.33         27.9 
      1503.0         0.37         29.7 
      1504.0         0.37         30.7 
      1505.0         0.28         29.6 
      1506.0         0.23         24.9 
      1507.0         0.20          4.9 
      1508.0         0.23          3.4 
      1509.0         0.27          1.8 
      1510.0         0.20          0.4 
      1511.0         0.20         11.4 
      1512.0         0.17         27.8 
      1513.0         0.23         32.8 
      1514.0         0.17         33.7 
      1515.0         0.17         35.0 
      1516.0         0.17         33.8 
      1517.0         0.20         34.1 
      1518.0         0.20         35.5 
      1519.0         0.17         35.5 
      1520.0         0.13         31.1 
      1521.0         0.22         37.2 
      1522.0         0.13         37.6 
      1523.0         0.23         38.0 
      1524.0         0.23         38.3 
      1525.0         0.23         38.0 
      1526.0         1.50         39.3 
      1527.0         0.27         37.1 
      1528.0         0.33         36.7 
      1529.0         0.30         36.3 
      1530.0         0.28         35.8 
      1531.0         0.23         32.7 
      1532.0         0.23         32.4 
      1533.0         0.23         33.2 
      1534.0         0.23         32.3 
      1535.0         0.23         32.7 
      1536.0         0.30         31.6 
      1537.0         0.27         31.9 
      1538.0         0.27         30.9 
      1539.0         0.33         31.2 
      1540.0         0.27         31.2 
      1541.0         0.23         30.1 
      1542.0         0.23         31.0 
      1543.0         0.15         30.4 
      1544.0         0.23         31.1 
      1545.0         0.17         31.2 
      1546.0         0.17         29.6 
      1547.0         0.10         29.6 
      1548.0         0.20         29.3 
      1549.0         0.23         28.4 
      1550.0         0.13         29.1 
      1551.0         0.10         29.1 
      1552.0         0.13         30.5 
      1553.0         0.13         30.1 
      1554.0         0.13         30.1 
      1555.0         0.27         30.0 
      1556.0         1.48         30.1 
      1557.0         0.17         28.5 
      1558.0         0.33         27.3 
      1559.0         0.27         27.9 
      1560.0         0.30         27.9 
      1561.0         0.27         28.2 
      1562.0         0.20         27.6 
      1563.0         0.20         27.1 
      1564.0         0.23         27.4 
      1565.0         0.20         27.1 
      1566.0         0.23         28.0 
      1567.0         0.23         29.0 
      1568.0         0.23         29.3 
      1569.0         0.17         28.2 
      1570.0         0.22         28.2 
      1571.0         0.23         28.6 
      1572.0         0.23         28.7 
      1573.0         0.23         28.9 
      1574.0         0.23         28.2 
      1575.0         0.20         27.5 
      1576.0         0.17         29.0 
      1577.0         0.23         29.8 
      1578.0         0.17         28.6 
      1579.0         0.20         29.4 
      1580.0         0.20         30.5 
      1581.0         0.23         30.4 
      1582.0         0.23         30.5 
      1583.0         0.23         30.2 
      1584.0         0.23         30.2 
      1585.0         0.25         30.2 
      1586.0         2.13         34.6 
      1587.0         0.60         36.4 
      1588.0         0.33         35.5 
      1589.0         0.32         37.2 
      1590.0         0.30         40.2 
      1591.0         0.27         40.3 
      1592.0         0.30         39.7 
      1593.0         0.33         39.3 
      1594.0         0.33         39.8 
      1595.0         0.30         39.7 
      1596.0         0.30         40.1 
      1597.0         0.30         38.5 
      1598.0         0.33         39.6 
      1599.0         0.30         40.2 
      1600.0         0.35         40.8 
      1601.0         0.37         39.7 
      1602.0         0.37         39.7 
      1603.0         0.37         38.8 
      1604.0         0.37         38.7 
      1605.0         0.37         40.1 
      1606.0         0.37         39.9 
      1607.0         0.37         38.2 
      1608.0         0.37         38.4 
      1609.0         0.35         37.4 
      1610.0         0.33         38.5 
      1611.0         0.37         37.7 
      1612.0         0.27         37.4 
      1613.0         0.23         36.8 
      1614.0         0.27         36.6 
      1615.0         0.30         35.9 
      1616.0         2.28         38.0 
      1617.0         0.17         36.9 
      1618.0         0.63         37.0 
      1619.0         0.37         36.1 
      1620.0         0.40         38.0 
      1621.0         0.23         38.1 
      1622.0         0.27         36.6 
      1623.0         0.30         38.6 
      1624.0         0.28         38.2 
      1625.0         0.27         38.2 
      1626.0         0.27         37.3 
      1627.0         0.27         39.0 
      1628.0         0.30         39.3 
      1629.0         0.30         39.7 
      1630.0         0.20         38.2 
      1631.0         0.20         39.0 
      1632.0         0.23         39.4 
      1633.0         0.13         39.3 
      1634.0         0.17         37.7 
      1635.0         0.23         39.2 
      1636.0         0.30         38.2 
      1637.0         0.23         36.4 
      1638.0         0.28         35.7 
      1639.0         0.20         37.1 
      1640.0         0.23         37.2 
      1641.0         0.27         37.6 
      1642.0         0.27         38.3 
      1643.0         0.27         36.6 
      1644.0         0.27         38.3 
