~Version Information
VERS.                      2.0: CWLS Log ASCII Standard - VERSION 2.0
WRAP.                       NO: One line per depth step
~Well Information Block
STRT.FT               702.7000: 
STOP.FT              2529.2000: 
STEP.FT                 0.1000: 
NULL.                -999.2500: 
COMP.          Pioneer Natural Resources: COMPANY
WELL.          Aztec Federal 41-15: WELL
FLD.           Purgatorie River: FIELD
LOC.           706' FNL & 1253' FEL: LOCATION
CNTY.               Las Animas: COUNTY
SRVC.          Superior Well Services: SERVICE COMPANY
DATE.          Tue Mar 18 09-36-47 2008: LOG DATE
UWI.           05-071-08342-00: UNIQUE WELL ID
STAT.                       CO: STATE
~Curve Information Block
DEPT.FT            0 000 00 00: Depth
DCAL.in                       : CDL Caliper
DPOR.pu                       : CDL Density Porosity
GR.GAPI                       : Gamma Ray
RHOB.g/cc                     : CDL Bulk Density
RHOC.g/cc                     : CDL Density Correction
~Parameter Information Block
~A  Depth       DCAL        DPOR         GR         RHOB        RHOC    
# ...
  2517.1000      7.5115      2.2394   -999.2500      2.6130      0.1007
  2517.2000      7.5152      3.2317   -999.2500      2.5967      0.0997
  2517.3000      7.5205      4.5833   -999.2500      2.5744      0.0219
  2517.4000      7.5274      4.3785   -999.2500      2.5778      0.0538
  2517.5000      7.5356      3.2012   -999.2500      2.5972      0.1116
  2517.6000      7.5440      3.1897   -999.2500      2.5974      0.0567
  2517.7000      7.5515      4.6521   -999.2500      2.5732      0.0366
  2517.8000      7.5569      5.9042   -999.2500      2.5526     -0.0245
  2517.9000      7.5592      5.8833   -999.2500      2.5529      0.0523
  2518.0000      7.5581      5.3824   -999.2500      2.5612      0.0432
  2518.1000      7.5541      5.5343   -999.2500      2.5587      0.0445
  2518.2000      7.5484      6.3076   -999.2500      2.5459     -0.0011
  2518.3000      7.5421      6.8993   -999.2500      2.5362      0.0482
  2518.4000      7.5365      7.0619   -999.2500      2.5335      0.0448
  2518.5000      7.5321      6.8946   -999.2500      2.5362      0.0285
  2518.6000      7.5290      6.0493   -999.2500      2.5502      0.0167
  2518.7000      7.5267      4.7107   -999.2500      2.5723      0.0514
  2518.8000      7.5249      4.3816   -999.2500      2.5777      0.1078
  2518.9000      7.5230      5.5881   -999.2500      2.5578      0.0232
  2519.0000      7.5207      6.6978   -999.2500      2.5395      0.0073
  2519.1000      7.5179      6.7203   -999.2500      2.5391      0.0357
  2519.2000      7.5147      6.1698   -999.2500      2.5482      0.0118
  2519.3000      7.5114      5.2109   -999.2500      2.5640      0.0555
  2519.4000      7.5088      3.7223   -999.2500      2.5886      0.0826
  2519.5000      7.5075      2.2310   -999.2500      2.6132      0.0948
  2519.6000      7.5082      1.4767   -999.2500      2.6256      0.1039
  2519.7000      7.5109      1.8826   -999.2500      2.6189      0.0884
  2519.8000      7.5150      2.9397   -999.2500      2.6015      0.0447
  2519.9000      7.5193      3.5891   -999.2500      2.5908      0.0335
  2520.0000      7.5225      3.8988   -999.2500      2.5857      0.1010
  2520.1000      7.5242      4.5036   -999.2500      2.5757      0.0304
  2520.2000      7.5243      4.9738   -999.2500      2.5679     -0.0100
  2520.3000      7.5234      5.1766   -999.2500      2.5646      0.0842
  2520.4000      7.5222      5.6997   -999.2500      2.5560      0.0565
  2520.5000      7.5206      6.0269   -999.2500      2.5506      0.0132
  2520.6000      7.5185      5.2652   -999.2500      2.5631      0.0345
  2520.7000      7.5152      3.9662   -999.2500      2.5846      0.0790
  2520.8000      7.5102      3.3418   -999.2500      2.5949      0.0817
  2520.9000      7.5035      3.4162   -999.2500      2.5936      0.0581
  2521.0000      7.4957      3.4505   -999.2500      2.5931      0.0396
  2521.1000      7.4874      3.5230   -999.2500      2.5919      0.0589
  2521.2000      7.4793      4.2368   -999.2500      2.5801      0.0823
  2521.3000      7.4718      5.5646   -999.2500      2.5582      0.0621
  2521.4000      7.4657      6.7220   -999.2500      2.5391      0.0275
  2521.5000      7.4613      7.2471   -999.2500      2.5304      0.0500
  2521.6000      7.4591      7.7298   -999.2500      2.5225      0.0153
  2521.7000      7.4589      8.6164   -999.2500      2.5078      0.0357
  2521.8000      7.4603      9.3495   -999.2500      2.4957     -0.0155
  2521.9000      7.4622      9.0725   -999.2500      2.5003      0.0158
  2522.0000      7.4638      7.5122   -999.2500      2.5260      0.0132
  2522.1000      7.4646      4.9782   -999.2500      2.5679      0.0603
  2522.2000      7.4645      2.4634   -999.2500      2.6094      0.0781
  2522.3000      7.4639      1.3066   -999.2500      2.6284      0.0836
  2522.4000      7.4633      2.0611   -999.2500      2.6160      0.0863
  2522.5000      7.4630      3.8218   -999.2500      2.5869      0.0275
  2522.6000      7.4631      5.1143   -999.2500      2.5656      0.0531
  2522.7000      7.4635      4.9470   -999.2500      2.5684      0.0174
  2522.8000      7.4641      3.5492   -999.2500      2.5914      0.0932
  2522.9000      7.4647      2.5697   -999.2500      2.6076      0.0549
  2523.0000      7.4652      2.6477   -999.2500      2.6063      0.0304
  2523.1000      7.4654      2.9346   -999.2500      2.6016      0.0519
  2523.2000      7.4651      2.7624   -999.2500      2.6044      0.0299
  2523.3000      7.4637      2.3721   -999.2500      2.6109      0.1094
  2523.4000      7.4610      2.6467   -999.2500      2.6063      0.0654
  2523.5000      7.4565      3.7502   -999.2500      2.5881      0.0461
  2523.6000      7.4501      5.1134   -999.2500      2.5656      0.0360
  2523.7000      7.4413      6.3359   -999.2500      2.5455      0.0125
  2523.8000      7.4289      7.5731   -999.2500      2.5250      0.0207
  2523.9000      7.4104      8.8026   -999.2500      2.5048     -0.0024
  2524.0000      7.3805      9.1775   -999.2500      2.4986     -0.0238
  2524.1000      7.3285      7.7301   -999.2500      2.5225      0.0100
  2524.2000      7.2333      3.2372   -999.2500      2.5966     -0.0065
  2524.3000      7.0581      2.3664   -999.2500      2.6110      0.0221
  2524.4000      6.7507     28.7736   -999.2500      2.1752      0.5681
  2524.5000      6.2589     85.9021   -999.2500      1.2326      0.1000
  2524.6000      5.5626    135.2986   -999.2500      0.4176      0.1000
  2524.7000      4.7051    155.8026   -999.2500      0.0793   -999.2500
  2524.8000      3.7950    160.1111   -999.2500      0.0082   -999.2500
  2524.9000      2.9665    160.5792   -999.2500      0.0004   -999.2500
  2525.0000      2.3214    160.6061   -999.2500      0.0000   -999.2500
  2525.1000      1.8924    160.6061   -999.2500      0.0000   -999.2500
  2525.2000      1.6489   -999.2500   -999.2500   -999.2500   -999.2500
  2525.3000      1.5309   -999.2500   -999.2500   -999.2500   -999.2500
  2525.4000      1.4822   -999.2500   -999.2500   -999.2500   -999.2500
  2525.5000      1.4651   -999.2500   -999.2500   -999.2500   -999.2500
  2525.6000      1.4599   -999.2500   -999.2500   -999.2500   -999.2500
  2525.7000      1.4586   -999.2500   -999.2500   -999.2500   -999.2500
  2525.8000   -999.2500   -999.2500   -999.2500   -999.2500   -999.2500
  2525.9000   -999.2500   -999.2500   -999.2500   -999.2500   -999.2500
  2526.0000   -999.2500   -999.2500   -999.2500   -999.2500   -999.2500
  2526.1000   -999.2500   -999.2500   -999.2500   -999.2500   -999.2500
  2526.2000   -999.2500   -999.2500   -999.2500   -999.2500   -999.2500
  2526.3000   -999.2500   -999.2500   -999.2500   -999.2500   -999.2500
  2526.4000   -999.2500   -999.2500   -999.2500   -999.2500   -999.2500
  2526.5000   -999.2500   -999.2500   -999.2500   -999.2500   -999.2500
  2526.6000   -999.2500   -999.2500   -999.2500   -999.2500   -999.2500
  2526.7000   -999.2500   -999.2500   -999.2500   -999.2500   -999.2500
  2526.8000   -999.2500   -999.2500   -999.2500   -999.2500   -999.2500
  2526.9000   -999.2500   -999.2500   -999.2500   -999.2500   -999.2500
  2527.0000   -999.2500   -999.2500   -999.2500   -999.2500   -999.2500
  2527.1000   -999.2500   -999.2500   -999.2500   -999.2500   -999.2500
  2527.2000   -999.2500   -999.2500   -999.2500   -999.2500   -999.2500
  2527.3000   -999.2500   -999.2500   -999.2500   -999.2500   -999.2500
  2527.4000   -999.2500   -999.2500   -999.2500   -999.2500   -999.2500
  2527.5000   -999.2500   -999.2500   -999.2500   -999.2500   -999.2500
  2527.6000   -999.2500   -999.2500   -999.2500   -999.2500   -999.2500
  2527.7000   -999.2500   -999.2500   -999.2500   -999.2500   -999.2500
  2527.8000   -999.2500   -999.2500   -999.2500   -999.2500   -999.2500
  2527.9000   -999.2500   -999.2500   -999.2500   -999.2500   -999.2500
  2528.0000   -999.2500   -999.2500   -999.2500   -999.2500   -999.2500
  2528.1000   -999.2500   -999.2500   -999.2500   -999.2500   -999.2500
  2528.2000   -999.2500   -999.2500   -999.2500   -999.2500   -999.2500
