~Version Information
 VERS.                                  2.0 : CWLS LAS VERSION
 WRAP.                                   NO : WRAPING MODE
 SWARE .                 MController 2.5.0J : SOFTWARE VERSION
~Well Information
 WELL.                         Sliva 01-43V : WELL
 COMP.                Petrogulf Corporation : COMPANY
 FLD.                      Purgatoire River : FIELD
 LOC.                 NE/SE Sec 1 T33S R68W : LOCATION
 DATE.                          08/26-27/05 : DATE(S) LOGGED
 SRVC.       BLANCO Geological Services LLC : SERVICE COMPANY
 STAT.                                   CO : STATE
 CNTY.                           Las Animas : COUNTY
 CTRY.                                  USA : COUNTRY
 API.                       05-071-08371-00 : API NUMBER
 STRT.FT                             503.00 : START DEPTH
 STOP.FT                            2764.00 : STOP DEPTH
 STEP.FT                               1.00 : DEPTH INCREMENT
 NULL.                                -9999 : NULL VALUE
~Curve information
 DEPTH.FT                                   :
 ROP.MIN/FT                                 :
 GAS.UNITS                                  :
~ASCII Log data
# ...
      1303.0         0.20          7.1 
      1304.0         0.20          6.9 
      1305.0         0.22          6.8 
      1306.0         0.23          6.1 
      1307.0         0.20          6.2 
      1308.0         0.20          6.3 
      1309.0         0.17          6.7 
      1310.0         0.20          6.6 
      1311.0         0.17          6.3 
      1312.0         0.13          6.9 
      1313.0         0.17          6.7 
      1314.0         0.17          6.8 
      1315.0         0.17          7.1 
      1316.0         0.13          6.6 
      1317.0         0.17          6.9 
      1318.0         0.17          6.9 
      1319.0         0.23          6.8 
      1320.0         4.20         77.9 
      1321.0         0.33         17.5 
      1322.0         0.23         12.7 
      1323.0         0.27          9.6 
      1324.0         0.27          8.7 
      1325.0         0.23          7.8 
      1326.0         0.23          7.5 
      1327.0         0.20          8.0 
      1328.0         0.23          7.7 
      1329.0         0.23          7.7 
      1330.0         0.23          8.8 
      1331.0         0.23          9.8 
      1332.0         0.23         10.0 
      1333.0         0.25          9.4 
      1334.0         0.23          7.9 
      1335.0         0.23          7.3 
      1336.0         0.27          8.3 
      1337.0         0.33          9.3 
      1338.0         0.33          8.8 
      1339.0         0.30          7.3 
      1340.0         0.43          7.1 
      1341.0         0.33          7.0 
      1342.0         0.27          7.7 
      1343.0         0.20          8.3 
      1344.0         0.18         10.1 
      1345.0         0.20         13.5 
      1346.0         0.23         23.8 
      1347.0         0.20         50.2 
      1348.0         0.17         69.1 
      1349.0         0.17         74.4 
      1350.0         2.03         74.4 
      1351.0         0.38         17.2 
      1352.0         0.23         14.1 
      1353.0         0.27         13.2 
      1354.0         0.30         11.9 
      1355.0         0.23         11.3 
      1356.0         0.20         10.7 
      1357.0         0.23         10.7 
      1358.0         0.20         11.2 
      1359.0         0.23          9.9 
      1360.0         0.20          8.8 
      1361.0         0.20          9.7 
      1362.0         0.23         10.4 
      1363.0         0.27         11.0 
      1364.0         0.23         11.1 
      1365.0         0.35         10.6 
      1366.0         0.23         10.5 
      1367.0         0.20         10.0 
      1368.0         0.20          9.2 
      1369.0         0.37          9.2 
      1370.0         0.33          8.9 
      1371.0         0.37          8.2 
      1372.0         0.27          7.8 
      1373.0         0.27          7.4 
      1374.0         0.23          6.9 
      1375.0         0.25          6.6 
      1376.0         0.23          7.0 
      1377.0         0.23          8.6 
      1378.0         0.23         14.6 
      1379.0         0.23         25.5 
      1380.0         2.18         49.0 
      1381.0         0.27         25.5 
      1382.0         0.23         21.3 
      1383.0         0.23         18.0 
      1384.0         0.50         15.4 
      1385.0         0.23         12.2 
      1386.0         0.20         10.7 
      1387.0         0.17          9.8 
      1388.0         0.23          9.8 
      1389.0         0.23          9.3 
      1390.0         0.20          9.2 
      1391.0         0.23          8.9 
      1392.0         0.28          8.6 
      1393.0         0.20          8.8 
      1394.0         0.20          9.5 
      1395.0         0.27         10.4 
      1396.0         0.20         11.0 
      1397.0         0.23         10.9 
      1398.0         0.20         10.6 
      1399.0         0.20         10.6 
      1400.0         0.23         11.5 
      1401.0         0.23         10.3 
      1402.0         0.20          8.6 
      1403.0         0.17          7.6 
      1404.0         0.17          7.7 
      1405.0         0.22          7.7 
      1406.0         0.20          8.8 
      1407.0         0.20         13.3 
      1408.0         0.20         22.3 
      1409.0         0.27         34.3 
      1410.0         1.77         45.7 
      1411.0         0.33         21.0 
      1412.0         0.42         13.6 
      1413.0         0.40          8.2 
      1414.0         0.30          7.0 
      1415.0         0.30          6.5 
      1416.0         0.33          6.8 
      1417.0         0.27          6.7 
      1418.0         0.33          6.8 
      1419.0         0.40          6.7 
      1420.0         0.42          6.5 
      1421.0         6.63         15.7 
      1422.0         0.30          8.5 
      1423.0         0.30          6.9 
      1424.0         0.37          6.7 
      1425.0         0.30          6.8 
      1426.0         0.33          6.7 
      1427.0         0.30          6.6 
      1428.0         0.23          6.7 
      1429.0         0.37          6.7 
      1430.0         0.32          6.7 
      1431.0         0.30          7.1 
      1432.0         0.37          7.3 
      1433.0         0.33          7.1 
      1434.0         0.30          6.8 
      1435.0         0.20          6.7 
      1436.0         0.23          6.6 
      1437.0         0.23          6.6 
      1438.0         0.30          6.9 
      1439.0         0.27          7.3 
      1440.0         3.58         30.1 
      1441.0         0.35          7.2 
      1442.0         0.47          7.3 
      1443.0         0.47          7.3 
      1444.0         0.33          7.2 
      1445.0         0.30          7.3 
      1446.0         0.30          7.2 
      1447.0         0.27          7.1 
      1448.0         0.27          7.2 
      1449.0         0.27          7.4 
      1450.0         0.27          7.4 
      1451.0         0.28          6.9 
      1452.0         0.27          7.3 
      1453.0         0.27          7.1 
      1454.0         0.27          6.8 
      1455.0         0.27          7.0 
      1456.0         0.23          7.0 
      1457.0         0.30          7.1 
      1458.0         0.27          7.2 
      1459.0         0.37          7.1 
      1460.0         0.30          7.4 
      1461.0         0.23          7.2 
      1462.0         0.23          7.2 
      1463.0         0.38          7.1 
      1464.0         0.30          7.1 
      1465.0         0.30          6.9 
      1466.0         0.37          7.3 
      1467.0         0.27          7.5 
      1468.0         0.33          8.8 
      1469.0         0.30         14.9 
      1470.0         3.05         31.6 
      1471.0         0.33          7.1 
      1472.0         0.43          7.0 
      1473.0         0.47          7.1 
      1474.0         0.42          7.1 
      1475.0         0.47          7.1 
      1476.0         0.37          7.8 
      1477.0         0.33          9.6 
      1478.0         0.23         12.0 
      1479.0         0.30         14.6 
      1480.0         0.27         18.6 
      1481.0         0.23         21.0 
      1482.0         0.23         22.0 
      1483.0         0.17         23.7 
      1484.0         0.10         24.9 
      1485.0         0.13         26.1 
      1486.0         0.13         26.5 
      1487.0         0.12         26.4 
      1488.0         0.13         25.5 
      1489.0         0.13         24.0 
      1490.0         0.13         22.2 
      1491.0         0.10         19.6 
      1492.0         0.13         19.0 
      1493.0         0.10         16.7 
      1494.0         0.13         15.4 
      1495.0         0.10         14.1 
      1496.0         0.17         13.4 
      1497.0         0.13         11.6 
      1498.0         0.13         11.1 
      1499.0         0.13         10.5 
      1500.0         4.42         42.6 
      1501.0         0.13         10.0 
      1502.0         0.20          9.9 
