~Version Information
VERS.                      2.0: CWLS Log ASCII Standard - VERSION 2.0
WRAP.                       NO: One line per depth step
~Well Information Block
STRT.FT                -7.7500: 
STOP.FT              2394.2500: 
STEP.FT                 0.2500: 
NULL.                -999.2500: 
COMP.      PIONEER NATURAL RESOURCES  : COMPANY
WELL.         NOMAD 32-10  : WELL
FLD.                          : FIELD
LOC.      SWNE 10 32S 66W 6PM : LOCATION
PROV.                         : PROVINCE
CNTY.                         : COUNTRY
SRVC.                         : SERVICE COMPANY
DATE.          Thu Aug 26 13:45:47 2004: LOG DATE
UWI.      005 071 08127  : UNIQUE WELL ID
~Curve Information Block
DEPT.FT            0 000 00 00: Depth
CCL.                          : Casing Collar Locator
TT3.usec                      : CBL 3' Travel Time
AMP3.mV                       : CBL 3' Amplitude
GR.GAPI                       : Gamma Ray
~Parameter Information Block
~A  Depth       CCL         TT3         AMP3         GR     
# ...
  1097.7500      0.0000    308.6874     23.6112    131.4935
  1098.0000      0.0000    308.6406     23.4562    129.2478
  1098.2500      0.0000    308.5918     23.3891    125.8266
  1098.5000      0.0000    308.5654     23.4479    123.9193
  1098.7500      0.0000    308.5731     23.5917    123.9827
  1099.0000      0.0000    308.6016     23.7590    124.5951
  1099.2500      0.0000    308.6212     23.9167    124.2803
  1099.5000      0.0000    308.6088     24.0714    122.6422
  1099.7500      0.0000    308.5691     24.2426    119.9777
  1100.0000      0.0000    308.5331     24.4111    116.6622
  1100.2500      0.0000    308.5309     24.4996    113.1754
  1100.5000      0.0000    308.5646     24.4317    110.0038
  1100.7500      0.0000    308.6108     24.2139    107.3017
  1101.0000      0.0000    308.6451     23.9342    105.3501
  1101.2500      0.0000    308.6582     23.6794    105.4146
  1101.5000      0.0000    308.6530     23.4678    109.0935
  1101.7500      0.0000    308.6336     23.2532    116.3057
  1102.0000      0.0000    308.6022     22.9795    124.6322
  1102.2500      0.0000    308.5635     22.6345    131.1873
  1102.5000      0.0000    308.5286     22.2612    134.7309
  1102.7500      0.0000    308.5093     21.9237    135.6510
  1103.0000      0.0000    308.5098     21.6736    134.7622
  1103.2500      0.0000    308.5247     21.5478    132.9139
  1103.5000      0.0000    308.5438     21.5799    131.3660
  1103.7500      0.0000    308.5575     21.7907    131.8346
  1104.0000      0.0000    308.5624     22.1641    135.7665
  1104.2500      0.0000    308.5631     22.6241    143.0686
  1104.5000      0.0000    308.5666     23.0461    151.3900
  1104.7500      0.0000    308.5714     23.3182    157.2108
  1105.0000      0.0000    308.5665     23.4213    158.0238
  1105.2500      0.0000    308.5440     23.4497    153.5041
  1105.5000      0.0000    308.5129     23.5374    145.0243
  1105.7500      0.0000    308.4915     23.7480    134.7213
  1106.0000      0.0000    308.4837     24.0254    124.9018
  1106.2500      0.0000    308.4693     24.2428    117.6021
  1106.5000      0.0000    308.4279     24.2991    114.1347
  1106.7500      0.0000    308.3690     24.1769    114.6934
  1107.0000      0.0000    308.3301     23.9282    118.1616
  1107.2500      0.0000    308.3477     23.6113    122.4680
  1107.5000      0.0000    308.4304     23.2428    125.7503
  1107.7500      0.0000    308.5576     22.8073    127.5061
  1108.0000      0.0000    308.6987     22.3121    128.4668
  1108.2500      0.0000    308.8322     21.8190    129.4439
  1108.5000      0.0000    308.9507     21.4189    130.3521
  1108.7500      0.0000    309.0540     21.1629    130.1252
  1109.0000      0.0000    309.1478     21.0084    127.5435
  1109.2500      0.0000    309.2475     20.8488    122.1981
  1109.5000      0.0000    309.3759     20.6101    114.7570
  1109.7500      0.0000    309.5471     20.3056    106.8227
  1110.0000      0.0000    309.7475     19.9810    100.6187
  1110.2500      0.0000    309.9335     19.6346     98.0369
  1110.5000      0.0000    310.0512     19.2210     99.3531
  1110.7500      0.0000    310.0685     18.7278    102.9968
  1111.0000      0.0000    309.9963     18.2218    106.7999
  1111.2500      0.0000    309.8821     17.8022    109.4776
  1111.5000      0.0000    309.7803     17.5054    111.0759
  1111.7500      0.0000    309.7198     17.2791    112.3350
  1112.0000      0.0000    309.6949     17.0648    113.7611
  1112.2500      0.0000    309.6907     16.8838    115.2146
  1112.5000      0.0000    309.7188     16.8049    116.1292
  1112.7500      0.0000    309.8132     16.8388    115.9848
  1113.0000      0.0000    309.9821     16.9079    114.7185
  1113.2500      0.0000    310.1715     16.9244    112.9217
  1113.5000      0.0000    310.2896     16.8624    111.8424
  1113.7500      0.0000    310.3011     16.7469    113.1394
  1114.0000      0.0000    310.3179     16.6046    117.9930
  1114.2500      0.0000    310.9235     16.4357    125.7399
  1114.5000      0.0000    313.7931     16.2155    133.5367
  1114.7500      0.0000    322.6100     15.9080    138.0700
  1115.0000      0.0000    342.9618     15.4875    137.7168
  1115.2500      0.0000    379.4261     14.9640    132.9044
  1115.5000      0.0000    431.0636     14.3902    125.1775
  1115.7500      0.0000    489.8122     13.8190    116.7005
  1116.0000      0.0000    544.3268     13.2610    109.8223
  1116.2500      0.0000    586.5708     12.7220    105.8078
  1116.5000      0.0000    616.8218     12.2572    104.2574
  1116.7500      0.0000    642.6572     11.9173    104.6132
  1117.0000      0.0000    670.7211     11.6547    107.8016
  1117.2500      0.0000    699.8792     11.3386    115.3665
  1117.5000      2.0000    724.3955     10.8518    126.8125
  1117.7500      0.0000    741.2928     10.1637    138.4095
  1118.0000      0.0000    751.6915      9.3472    145.1644
  1118.2500      0.0000    757.2950      8.5345    144.0411
  1118.5000      0.0000    758.5833      7.8235    135.3147
  1118.7500      0.0000    755.9728      7.2261    121.4615
  1119.0000      0.0000    750.9055      6.7347    105.5342
  1119.2500      0.0000    745.5219      6.4040     90.4213
  1119.5000      0.0000    741.5505      6.3040     78.7396
  1119.7500      0.0000    739.4823      6.4173     72.6580
  1120.0000      0.0000    738.7132      6.6379     73.4496
  1120.2500      0.0000    737.9039      6.8751     80.8345
  1120.5000      0.0000    734.5336      7.1372     92.4123
  1120.7500      0.0000    723.4184      7.5304    104.1578
  1121.0000      0.0000    696.1179      8.1820    112.5009
  1121.2500      0.0000    644.6327      9.1336    116.5331
  1121.5000      0.0000    569.3553     10.2814    118.1062
  1121.7500      0.0000    483.7434     11.4360    119.7625
  1122.0000      0.0000    407.8668     12.4655    122.7116
  1122.2500      0.0000    355.3466     13.3836    126.5916
  1122.5000      0.0000    326.8374     14.2940    130.4922
  1122.7500      0.0000    314.5880     15.2687    133.8714
  1123.0000      0.0000    310.3318     16.2888    136.9594
  1123.2500      0.0000    309.0755     17.2696    140.7190
  1123.5000      0.0000    308.7161     18.1057    146.0309
  1123.7500      0.0000    308.5747     18.7099    152.3891
  1124.0000      0.0000    308.4848     19.0460    157.6876
  1124.2500      0.0000    308.4259     19.1326    159.7119
  1124.5000      0.0000    308.4173     19.0096    157.6270
  1124.7500      0.0000    308.4566     18.7209    151.9875
  1125.0000      0.0000    308.5183     18.3404    143.8562
  1125.2500      0.0000    308.5767     17.9879    134.4149
  1125.5000      0.0000    308.6296     17.7706    125.3471
  1125.7500      0.0000    308.6980     17.7020    118.8890
  1126.0000      0.0000    308.7927     17.7112    116.4410
  1126.2500      0.0000    308.8868     17.7445    116.8505
  1126.5000      0.0000    308.9366     17.8239    117.0898
  1126.7500      0.0000    308.9295     17.9828    115.2237
  1127.0000      0.0000    308.8970     18.1784    111.9386
  1127.2500      0.0000    308.8703     18.3164    108.8661
  1127.5000      0.0000    308.8445     18.3480    106.5718
  1127.7500      0.0000    308.8000     18.3018    104.7306
  1128.0000      0.0000    308.7455     18.2192    103.2836
  1128.2500      0.0000    308.7209     18.0932    102.6844
  1128.5000      0.0000    308.7546     17.8922    103.2633
  1128.7500      0.0000    308.8317     17.6317    104.7103
  1129.0000      0.0000    308.9106     17.3947    106.3149
  1129.2500      0.0000    308.9673     17.2634    107.7371
  1129.5000      0.0000    309.0132     17.2381    109.2040
  1129.7500      0.0000    309.0713     17.2421    110.7715
  1130.0000      0.0000    309.1468     17.2028    111.7621
  1130.2500      0.0000    309.2335     17.1068    111.2513
  1130.5000      0.0000    309.3350     16.9681    109.1438
  1130.7500      0.0000    309.4604     16.7821    106.6039
  1131.0000      0.0000    309.5988     16.5439    105.2930
