~Version Information
VERS.                      2.0: CWLS Log ASCII Standard - VERSION 2.0
WRAP.                       NO: One line per depth step
~Well Information Block
STRT.FT               -11.0000: 
STOP.FT              2634.5000: 
STEP.FT                 0.2500: 
NULL.                -999.2500: 
COMP.          Evergreen Operating Corporation: COMPANY
WELL.          Sand PebbleS 13-33: WELL
FLD.           Purgatorie River: FIELD
LOC.           1883' FSL & 63' FWL--: LOCATION
PROV.                 Colorado: PROVINCE
CNTY.               Las Animas: COUNTRY
SRVC.          Patterson Wireline: SERVICE COMPANY
DATE.          Fri Mar 18 09:37:20 2005: LOG DATE
UWI.          005 071 08224 : UNIQUE WELL ID
~Curve Information Block
DEPT.FT            0 000 00 00: Depth
CCL.                          : Casing Collar Locator
TT3.usec                      : CBL 3' Travel Time
AMP3.mV                       : CBL 3' Amplitude
GR.GAPI                       : Gamma Ray
~Parameter Information Block
~A  Depth       CCL         TT3         AMP3         GR     
# ...
  1898.5000      0.0000    680.6336      6.2538    149.6290
  1898.7500      0.0000    681.0326      6.1554    156.0630
  1899.0000      0.0000    681.5688      6.0328    159.7230
  1899.2500      0.0000    682.0916      5.8506    159.5886
  1899.5000      0.0000    682.3561      5.6181    155.6985
  1899.7500      0.0000    682.2258      5.4152    149.9076
  1900.0000      0.0000    681.7797      5.3393    145.2132
  1900.2500      0.0000    681.2103      5.4210    143.5713
  1900.5000      0.0000    680.6620      5.5919    144.4723
  1900.7500      0.0000    680.2262      5.7351    145.8814
  1901.0000      0.0000    680.0644      5.7716    146.3531
  1901.2500      0.0000    680.4728      5.7048    145.9681
  1901.5000      0.0000    681.7249      5.5972    145.5054
  1901.7500      0.0000    683.6924      5.5165    145.4023
  1902.0000      0.0000    685.5643      5.4972    145.6034
  1902.2500      0.0000    686.2479      5.5361    145.8064
  1902.5000      0.0000    685.4365      5.6073    145.4405
  1902.7500      0.0000    684.2833      5.6783    143.6018
  1903.0000      0.0000    684.8020      5.7244    139.6365
  1903.2500      0.0000    688.4650      5.7456    134.3404
  1903.5000      0.0000    695.0924      5.7627    130.4562
  1903.7500      0.0000    702.7482      5.7811    131.4251
  1904.0000      0.0000    708.7300      5.7687    139.3078
  1904.2500      0.0000    711.0568      5.6880    153.5587
  1904.5000      0.0000    709.5239      5.5456    171.0923
  1904.7500      0.0000    705.9728      5.3988    187.3422
  1905.0000      0.0000    703.5604      5.3166    198.0244
  1905.2500      0.0000    704.7313      5.3348    200.9134
  1905.5000      0.0000    709.1586      5.4354    196.4828
  1905.7500      0.0000    714.2627      5.5633    187.0520
  1906.0000      0.0000    718.1251      5.6699    175.3114
  1906.2500      0.0000    720.8860      5.7441    163.4269
  1906.5000      0.0000    723.0267      5.7910    153.0988
  1906.7500      0.0000    723.8740      5.7867    146.0791
  1907.0000      0.0000    722.4858      5.6815    144.1788
  1907.2500      0.0000    718.8583      5.4557    148.2914
  1907.5000      0.0000    713.8295      5.1517    157.3837
  1907.7500      0.0000    708.6301      4.8398    168.7327
  1908.0000      0.0000    704.5506      4.5720    179.1394
  1908.2500      0.0000    702.0999      4.3810    186.1676
  1908.5000      0.0000    700.2723      4.2967    188.8218
  1908.7500      0.0000    697.4204      4.3404    187.2698
  1909.0000      0.0000    693.0581      4.5008    182.0273
  1909.2500      0.0000    688.3130      4.7304    173.8883
  1909.5000      0.0000    684.6532      4.9684    164.6766
  1909.7500      0.0000    682.7645      5.1706    157.3655
  1910.0000      0.0000    682.7380      5.3169    154.7872
  1910.2500      0.0000    684.7269      5.3883    157.9490
  1910.5000      0.0000    688.9175      5.3613    165.2058
  1910.7500      0.0000    694.7627      5.2537    172.8414
  1911.0000      0.0000    700.5153      5.1610    177.0325
  1911.2500      0.0000    703.9922      5.1977    176.1330
  1911.5000      0.0000    704.0310      5.3879    171.4224
  1911.7500      0.0000    701.1207      5.6337    165.7399
  1912.0000      0.0000    696.7848      5.7986    161.3990
  1912.2500      0.0000    692.8083      5.8099    159.0519
  1912.5000      0.0000    690.9096      5.6859    158.0172
  1912.7500      0.0000    692.2922      5.4910    157.6408
  1913.0000      0.0000    696.8967      5.2872    158.4915
  1913.2500      0.0000    703.2002      5.1168    162.1048
  1913.5000      0.0000    709.1201      4.9992    169.2795
  1913.7500      0.0000    713.2972      4.9353    178.8221
  1914.0000      0.0000    715.6013      4.9232    188.2498
  1914.2500      0.0000    716.6462      4.9719    195.5915
  1914.5000      0.0000    717.0883      5.0829    200.4157
  1914.7500      0.0000    717.3051      5.2212    203.4908
  1915.0000      0.0000    717.4401      5.3311    205.6176
  1915.2500      0.0000    717.5380      5.3860    206.5299
  1915.5000      0.0000    717.6376      5.4036    205.0626
  1915.7500      0.0000    717.7778      5.4081    200.7783
  1916.0000      0.0000    717.9261      5.3944    195.0137
  1916.2500      0.0000    717.8734      5.3447    189.6637
  1916.5000      0.0000    717.1069      5.2678    185.2492
  1916.7500      0.0000    714.6065      5.2088    180.6371
  1917.0000      0.0000    708.8373      5.2114    174.3820
  1917.2500      0.0000    698.6193      5.2825    166.1245
  1917.5000      0.0000    684.8870      5.4013    157.0772
  1917.7500      0.0000    671.5170      5.5492    149.6474
  1918.0000      0.0000    663.2726      5.7080    146.4780
  1918.2500      0.0000    662.0594      5.8421    149.2619
  1918.5000      0.0000    665.3740      5.9186    157.6359
  1918.7500      0.0000    668.6489      5.9438    168.6230
  1919.0000      0.0000    668.8445      5.9580    177.2366
  1919.2500      0.0000    665.8579      5.9950    178.6820
  1919.5000      0.0000    661.5191      6.0652    171.5466
  1919.7500      0.0000    658.2046      6.1678    159.5525
  1920.0000      0.0000    657.9801      6.2843    149.4610
  1920.2500      0.0000    661.7664      6.3644    146.2424
  1920.5000      0.0000    668.8546      6.3539    149.5921
  1920.7500      0.0000    677.5879      6.2500    154.7050
  1921.0000      0.0000    686.4586      6.1046    156.3980
  1921.2500      0.0000    694.1041      5.9557    152.9794
  1921.5000      0.0000    698.7162      5.7818    147.0006
  1921.7500      0.0000    698.6454      5.5446    142.9024
  1922.0000      0.0000    694.2364      5.2554    143.7631
  1922.2500      0.0000    688.9242      4.9676    149.3764
  1922.5000      0.0000    687.9581      4.7193    156.5319
  1922.7500      0.0000    694.7233      4.5169    161.0716
  1923.0000      0.0000    707.2746      4.3670    160.4327
  1923.2500      0.0000    719.3607      4.2926    155.2941
  1923.5000      0.0000    726.1473      4.3186    149.4105
  1923.7500      0.0000    728.1763      4.4598    147.3242
  1924.0000      2.0000    728.8214      4.7151    151.0186
  1924.2500      2.0000    729.2541      5.0526    158.1332
  1924.5000      0.0000    727.3892      5.4124    163.9431
  1924.7500      0.0000    720.9113      5.7395    165.8625
  1925.0000      0.0000    709.7872      6.0106    165.6583
  1925.2500      0.0000    696.1083      6.2259    166.7661
  1925.5000      0.0000    682.9854      6.4012    170.3273
  1925.7500      0.0000    673.6760      6.5781    174.6975
  1926.0000      0.0000    670.2037      6.8012    177.9132
  1926.2500      0.0000    671.9315      7.0480    179.3638
  1926.5000      0.0000    675.9973      7.2059    179.2568
  1926.7500      0.0000    679.5227      7.1547    177.6305
  1927.0000      0.0000    681.2762      6.8759    174.5529
  1927.2500      0.0000    681.5330      6.4753    170.8055
  1927.5000      0.0000    681.0688      6.1042    167.6990
  1927.7500      0.0000    680.5154      5.8597    166.2088
  1928.0000      0.0000    680.3298      5.7450    166.4789
  1928.2500      0.0000    681.0356      5.6956    167.7430
  1928.5000      0.0000    683.3347      5.6407    168.4693
  1928.7500      0.0000    687.8145      5.5617    167.1481
  1929.0000      0.0000    694.3171      5.5100    163.6009
  1929.2500      0.0000    701.5767      5.5555    159.3622
  1929.5000      0.0000    707.7091      5.7070    156.5998
  1929.7500      0.0000    711.2003      5.8883    156.9682
  1930.0000      0.0000    711.5862      5.9938    161.1108
  1930.2500      0.0000    709.6871      5.9621    168.0761
  1930.5000      0.0000    707.7722      5.8092    174.8730
  1930.7500      0.0000    708.9625      5.6082    177.6372
  1931.0000      0.0000    714.9991      5.4351    174.1461
  1931.2500      0.0000    723.9244      5.3245    165.3580
  1931.5000      0.0000    730.8909      5.2749    154.6789
  1931.7500      0.0000    731.9438      5.2839    146.0400
