~Version Information
VERS.                      2.0: CWLS Log ASCII Standard - VERSION 2.0
WRAP.                       NO: One line per depth step
~Well Information Block
STRT.FT               -19.2500: 
STOP.FT              2421.5000: 
STEP.FT                 0.2500: 
NULL.                -999.2500: 
COMP.          Petrogulf Corporation: COMPANY
WELL.           Montoya 13-41V: WELL
FLD.           Purgatorie River: FIELD
LOC.           449' FNL & 891' FEL: LOCATION
CNTY.               Las Animas: COUNTY
SRVC.                         : SERVICE COMPANY
DATE.          Mon Sep 13 13:48:36 2004: LOG DATE
UWI.                       N/A: UNIQUE WELL ID
STAT.                 Colorado: STATE
~Curve Information Block
DEPT.FT            0 000 00 00: Depth
TT3.usec                      : CBL 3' Travel Time
AMP3.mV                       : CBL 3' Amplitude
GR.GAPI                       : Gamma Ray
CCL.                          : Casing Collar Locator
~Parameter Information Block
~A  Depth       TT3         AMP3         GR         CCL     
# ...
   952.2500    314.0369     26.2024    146.6769      0.0000
   952.5000    314.1170     26.1323    153.2637      0.0000
   952.7500    314.2500     25.9480    155.0500      0.0000
   953.0000    314.3829     25.6792    152.6916      0.0000
   953.2500    314.4620     25.3890    148.5847      0.0000
   953.5000    314.4857     25.1040    145.3339      0.0000
   953.7500    314.4696     24.8327    143.7613      0.0000
   954.0000    314.4199     24.5964    142.7135      0.0000
   954.2500    314.3670     24.4174    141.2615      0.0000
   954.5000    314.3672     24.3188    140.2975      0.0000
   954.7500    314.4221     24.2958    141.0113      0.0000
   955.0000    314.4860     24.2877    142.4662      0.0000
   955.2500    314.5674     24.2375    142.0303      0.0000
   955.5000    314.7330     24.1225    138.2576      0.0000
   955.7500    314.9988     23.9069    132.5781      0.0000
   956.0000    315.2573     23.5839    128.0442      0.0000
   956.2500    315.3813     23.2404    126.7360      0.0000
   956.5000    315.3316     22.9659    128.2139      0.0000
   956.7500    315.1386     22.7994    130.0505      0.0000
   957.0000    314.9039     22.7870    129.8092      0.0000
   957.2500    314.7711     22.9225    126.6918      0.0000
   957.5000    314.7957     23.0699    121.5000      0.0000
   957.7500    314.8993     23.1017    115.4552      0.0000
   958.0000    315.0002     23.0441    109.4022      0.0000
   958.2500    315.1028     22.9853    103.9595      0.0000
   958.5000    315.2195     22.9279     99.7249      0.0000
   958.7500    315.3018     22.8489     96.8730      0.0000
   959.0000    315.3212     22.8201     94.9026      0.0000
   959.2500    315.3136     22.9145     93.3074      0.0000
   959.5000    315.2573     23.1134     92.3675      0.0000
   959.7500    315.0677     23.3877     92.9822      0.0000
   960.0000    314.7532     23.7040     95.8972      0.0000
   960.2500    314.4565     23.9739    101.2931      0.0000
   960.5000    314.3603     24.0937    108.6996      0.0000
   960.7500    314.5657     23.9763    116.7731      0.0000
   961.0000    315.0002     23.5993    123.3967      0.0000
   961.2500    315.4363     23.1016    126.8037      0.0000
   961.5000    315.6538     22.7327    127.1169      0.0000
   961.7500    315.6079     22.6666    126.6337      0.0000
   962.0000    315.4305     22.8894    128.1789      0.0000
   962.2500    315.2566     23.2419    132.9743      0.0000
   962.5000    315.0987     23.5511    139.9894      0.0000
   962.7500    314.9644     23.6985    146.9781      0.0000
   963.0000    314.9422     23.6365    151.8222      0.0000
   963.2500    315.0808     23.4197    153.3272      0.0000
   963.5000    315.3386     23.1155    151.6174      0.0000
   963.7500    315.6264     22.7081    148.0839      0.0000
   964.0000    315.8451     22.2260    144.5290      0.0000
   964.2500    315.9562     21.8158    141.9727      0.0000
   964.5000    315.9990     21.5869    140.2249      0.0000
   964.7500    316.0360     21.5249    138.4717      0.0000
   965.0000    316.1180     21.5670    135.9836      0.0000
   965.2500    316.2578     21.6538    132.5722      0.0000
   965.5000    316.4210     21.7050    129.1425      0.0000
   965.7500    316.5865     21.6227    127.7005      0.0000
   966.0000    316.7695     21.3765    129.8384      0.0000
   966.2500    316.9455     21.0672    134.9780      0.0000
   966.5000    317.0132     20.8663    140.7740      0.0000
   966.7500    316.8476     20.9012    145.3546      0.0000
   967.0000    316.4325     21.1740    148.5548      0.0000
   967.2500    315.9323     21.5585    151.0544      0.0000
   967.5000    315.5572     21.9151    153.1140      0.0000
   967.7500    315.3845     22.2046    154.3582      0.0000
   968.0000    315.3226     22.4704    154.2525      0.0000
   968.2500    315.2742     22.7283    152.6672      0.0000
   968.5000    315.3004     22.8639    150.2371      0.0000
   968.7500    315.5115     22.7152    148.1011      0.0000
   969.0000    315.8471     22.3118    146.9748      0.0000
   969.2500    316.0857     21.9153    146.4889      0.0000
   969.5000    316.1038     21.7601    145.6129      0.0000
   969.7500    316.0428     21.8180    143.7120      0.0000
   970.0000    316.1483     21.8686    141.2189      0.0000
   970.2500    316.5180     21.7761    139.3977      0.0000
   970.5000    317.2490     21.5812    139.3439      0.0000
   970.7500    319.1195     21.3237    140.9958      0.0000
   971.0000    323.9290     20.9689    143.0941      0.0000
   971.2500    332.8445     20.5157    144.1530      0.0000
   971.5000    343.5403     20.0416    143.4802      0.0000
   971.7500    350.7899     19.6867    141.4620      0.0000
   972.0000    350.6607     19.6091    139.1238      0.0000
   972.2500    343.1260     19.8686    137.4289      0.0000
   972.5000    332.1909     20.3284    136.8541      0.0000
   972.7500    323.3022     20.7222    137.3565      0.0000
   973.0000    318.8417     20.8792    138.3913      0.0000
   973.2500    317.4122     20.8635    138.9784      0.0000
   973.5000    317.0021     20.8265    138.2133      0.0000
   973.7500    316.7937     20.8141    135.9669      0.0000
   974.0000    316.6591     20.8208    132.8209      0.0000
   974.2500    316.4853     20.9138    129.1965      0.0000
   974.5000    316.1693     21.1922    125.0701      0.0000
   974.7500    315.7348     21.6837    120.7627      0.0000
   975.0000    315.2567     22.3404    117.4146      0.0000
   975.2500    314.7956     23.0834    116.1731      0.0000
   975.5000    314.4117     23.7908    117.1025      0.0000
   975.7500    314.1541     24.3430    119.1756      0.0000
   976.0000    314.0009     24.7707    121.3395      0.0000
   976.2500    313.8526     25.2624    123.4168      0.0000
   976.5000    313.6179     25.9976    125.7957      0.0000
   976.7500    313.2879     27.0678    128.1760      0.0000
   977.0000    312.9085     28.4853    128.9023      0.0000
   977.2500    312.5979     30.0148    125.9708      0.0000
   977.5000    312.8400     30.9145    119.0286      0.0000
   977.7500    314.8146     30.3766    110.2587      0.0000
   978.0000    319.8127     28.7937    102.8730      0.0000
   978.2500    326.7407     27.6233     98.5989      0.0000
   978.5000    330.9340     27.2694     96.7960      0.0000
   978.7500    329.2710     26.9202     95.8236      0.0000
   979.0000    324.6081     26.3637     94.7104      0.0000
   979.2500    321.2474     25.8695     93.4145      0.0000
   979.5000    320.1745     25.3677     92.1163     -2.6596
   979.7500    320.6499     24.7349     90.7334      3.0594
   980.0000    323.0914     23.9824     89.0598      1.7410
   980.2500    329.9881     23.0700     87.2056      0.0000
   980.5000    343.1564     21.9561     85.7977      0.0000
   980.7500    357.1776     20.9862     85.6411      0.0000
   981.0000    360.1107     20.7691     87.1061      0.0000
   981.2500    347.9438     21.2955     89.7309      0.0000
   981.5000    330.8949     22.0756     92.3297      0.0000
   981.7500    319.5401     22.9750     93.6552      0.0000
   982.0000    315.0703     23.7587     93.2834      0.0000
   982.2500    314.1556     23.8683     92.0165      0.0000
   982.5000    314.4348     23.2286     91.4660      0.0000
   982.7500    315.0887     22.3132     93.1247      0.0000
   983.0000    316.1087     21.5399     97.3410      0.0000
   983.2500    318.3027     21.0034    102.7356      0.0000
   983.5000    323.4707     20.6157    106.7479      0.0000
   983.7500    332.8395     20.3014    107.1794      0.0000
   984.0000    344.3253     19.9907    103.5803      0.0000
   984.2500    353.5485     19.5725     97.5387      0.0000
   984.5000    358.4076     18.9918     91.7471      0.0000
   984.7500    360.1160     18.3561     88.4154      0.0000
   985.0000    360.4919     17.8556     88.1631      0.0000
   985.2500    360.5522     17.5165     90.1567      0.0000
   985.5000    360.7682     17.1110     92.9414      0.0000
