~Version Information
 VERS.                      2.0: CWLS Log ASCII Standard - VERSION 2.0
 WRAP.                       NO: One line per depth step
 ~Well Information Block
 STRT.FT               115.0000: 
 STOP.FT              1768.2500: 
 STEP.FT                 0.2500: 
 NULL.                -999.2500: 
 COMP.          Petrogulf Corporation: COMPANY
 WELL.           Parsons 23-15V: WELL
 FLD.           Purgatorie River: FIELD
 LOC.           2095' FSL & 1817' FWL--API 05 071 07556 00----: LOCATION
 CNTY.               Las Animas: COUNTY
 SRVC.                         : SERVICE COMPANY
 DATE.          Fri Apr 19 16:58:41 2002: LOG DATE
 UWI.                          : UNIQUE WELL ID
 STAT.                       CO: STATE
 PROV.                         :Province
 ~Curve Information Block
 DEPT.FT            0 000 00 00: Depth
 SP.mV                         : DIL Spontaneous Potential
 RILD.Ohm-m                    : DIL Deep Resistivity
 RILM.Ohm-m                    : DIL Medium Resistivity
 RLL3.Ohm-m                    : DIL Shallow Resistivity
 GR.GAPI                       : Gamma Ray
 ~Parameter Information Block
 ~A  Depth        SP         RILD        RILM        RLL3         GR     
# ...
   675.0000   -244.5303     10.9263     11.1739     13.7355    152.4337
   675.2500   -244.6448     10.7066     10.9037     13.4647    153.3697
   675.5000   -244.7215     10.4762     10.5842     13.2011    155.2079
   675.7500   -244.7687     10.2497     10.2346     12.9173    158.2678
   676.0000   -244.7891     10.0382      9.8788     12.5447    162.0038
   676.2500   -244.7790      9.8473      9.5412     12.0568    165.3322
   676.5000   -244.7339      9.6773      9.2421     11.5097    167.4086
   676.7500   -244.6549      9.5242      8.9952     11.0052    167.8706
   677.0000   -244.5500      9.3813      8.8066     10.6281    166.6751
   677.2500   -244.4336      9.2411      8.6747     10.4189    164.1033
   677.5000   -244.3243      9.0982      8.5922     10.3873    160.6611
   677.7500   -244.2403      8.9514      8.5467     10.5265    156.7588
   678.0000   -244.1908      8.8044      8.5226     10.8023    152.8963
   678.2500   -244.1696      8.6642      8.5032     11.1349    150.1595
   678.5000   -244.1547      8.5382      8.4742     11.4091    149.7906
   678.7500   -244.1148      8.4319      8.4267     11.5239    151.8637
   679.0000   -244.0216      8.3495      8.3586     11.4477    154.8474
   679.2500   -243.8590      8.2928      8.2739     11.2361    156.9794
   679.5000   -243.6266      8.2620      8.1797     10.9935    157.9977
   679.7500   -243.3353      8.2546      8.0841     10.7967    159.2124
   680.0000   -243.0011      8.2654      7.9943     10.6440    161.8513
   680.2500   -242.6421      8.2878      7.9170     10.4831    165.5528
   680.5000   -242.2773      8.3160      7.8579     10.2915    168.7056
   680.7500   -241.9257      8.3470      7.8215     10.1194    170.1265
   681.0000   -241.6028      8.3808      7.8105     10.0507    169.9850
   681.2500   -241.3185      8.4196      7.8256     10.1302    168.9661
   681.5000   -241.0813      8.4657      7.8668     10.3273    166.9231
   681.7500   -240.9038      8.5217      7.9343     10.5601    162.8394
   682.0000   -240.8037      8.5899      8.0288     10.7598    156.3050
   682.2500   -240.7947      8.6735      8.1515     10.9279    148.7731
   682.5000   -240.8722      8.7763      8.3023     11.1357    142.8577
   682.7500   -241.0071      8.9022      8.4786     11.4522    140.1741
   683.0000   -241.1560      9.0540      8.6759     11.8646    140.1086
   683.2500   -241.2810      9.2330      8.8889     12.2719    140.9111
   683.5000   -241.3620      9.4393      9.1139     12.5591    141.6213
   683.7500   -241.3963      9.6717      9.3512     12.6805    142.4625
   684.0000   -241.3907      9.9275      9.6060     12.6854    143.5714
   684.2500   -241.3543     10.2001      9.8881     12.6836    144.1388
   684.5000   -241.2939     10.4787     10.2089     12.7995    143.1458
   684.7500   -241.2138     10.7487     10.5756     13.1633    140.4986
   685.0000   -241.1168     10.9956     10.9861     13.9218    137.0253
   685.2500   -241.0042     11.2093     11.4247     15.1777    133.5827
   685.5000   -240.8729     11.3873     11.8634     16.8248    130.5172
   685.7500   -240.7153     11.5348     12.2676     18.4374    127.8208
   686.0000   -240.5260     11.6615     12.6064     19.4364    125.4679
   686.2500   -240.3122     11.7788     12.8621     19.4842    123.6485
   686.5000   -240.0940     11.8967     13.0352     18.7399    122.8240
   686.7500   -239.8921     12.0226     13.1405     17.7130    123.4006
   687.0000   -239.7106     12.1606     13.1990     16.8803    125.1803
   687.2500   -239.5301     12.3097     13.2290     16.4252    127.3051
   687.5000   -239.3180     12.4638     13.2422     16.2529    128.9727
   687.7500   -239.0479     12.6154     13.2442     16.1678    130.1563
   688.0000   -238.7097     12.7596     13.2401     16.0429    131.4296
   688.2500   -238.3086     12.8985     13.2380     15.8815    133.1465
   688.5000   -237.8571     13.0409     13.2505     15.7714    135.1066
   688.7500   -237.3721     13.2000     13.2917     15.7925    137.0462
   689.0000   -236.8739     13.3900     13.3738     15.9552    139.0800
   689.2500   -236.3825     13.6243     13.5059     16.2011    141.4631
   689.5000   -235.9119     13.9152     13.6970     16.4537    144.0799
   689.7500   -235.4694     14.2745     13.9616     16.6861    146.3167
   690.0000   -235.0613     14.7132     14.3237     16.9763    147.3078
   690.2500   -234.7006     15.2402     14.8159     17.5625    146.0211
   690.5000   -234.4077     15.8607     15.4759     18.9663    141.1803
   690.7500   -234.2050     16.5741     16.3406     22.1783    131.7751
   691.0000   -234.1074     17.3769     17.4405     28.6401    118.2140
   691.2500   -234.1158     18.2677     18.7973     39.6109    102.7568
   691.5000   -234.2127     19.2511     20.4246     55.0624     88.3396
   691.7500   -234.3660     20.3362     22.3324     73.3557     76.9248
   692.0000   -234.5403     21.5292     24.5324     93.0523     68.9207
   692.2500   -234.7110     22.8248     27.0402    115.9171     63.6628
   692.5000   -234.8706     24.1964     29.8707    147.5894     60.0845
   692.7500   -235.0228     25.5824     33.0185    193.4713     57.1698
   693.0000   -235.1723     26.8712     36.4181    252.1260     54.2528
   693.2500   -235.3208     27.8984     39.8835    312.0187     51.2861
   693.5000   -235.4693     28.4774     43.0497    355.6572     49.0003
   693.7500   -235.6230     28.4654     45.3661    369.0356     48.5999
   694.0000   -235.7907     27.8320     46.2005    349.2303     50.9108
   694.2500   -235.9799     26.6800     45.0799    304.5786     55.7928
   694.5000   -236.1919     25.2045     41.9847    248.5949     62.6271
   694.7500   -236.4222     23.6201     37.4688    193.1047     71.2392
   695.0000   -236.6668     22.0986     32.4235    144.6833     82.0126
   695.2500   -236.9252     20.7433     27.6510    105.0416     95.1876
   695.5000   -237.1971     19.5958     23.6085     73.6115    110.2310
   695.7500   -237.4728     18.6575     20.4250     49.7485    125.6678
   696.0000   -237.7305     17.9080     18.0398     33.1125    139.4319
   696.2500   -237.9445     17.3161     16.3238     22.9427    149.7347
   696.5000   -238.0989     16.8421     15.1435     17.7205    155.7877
   696.7500   -238.1922     16.4419     14.3861     15.6538    157.4449
   697.0000   -238.2321     16.0758     13.9635     15.4113    154.2565
   697.2500   -238.2250     15.7201     13.8089     16.5653    145.6710
   697.5000   -238.1708     15.3746     13.8684     19.5661    132.6455
   697.7500   -238.0676     15.0595     14.0903     25.1315    118.4042
   698.0000   -237.9207     14.8062     14.4153     33.0848    106.7264
   698.2500   -237.7479     14.6480     14.7737     41.4452     99.5807
   698.5000   -237.5759     14.6141     15.0939     47.0770     96.6954
   698.7500   -237.4298     14.7275     15.3228     47.8667     96.7424
   699.0000   -237.3246     15.0046     15.4487     44.2662     98.3066
   699.2500   -237.2661     15.4533     15.5087     38.4683    100.2881
   699.5000   -237.2606     16.0695     15.5780     32.4436    102.1823
   699.7500   -237.3215     16.8318     15.7466     27.1752    103.8494
   700.0000   -237.4654     17.6966     16.0986     23.3078    104.7189
   700.2500   -237.6975     18.5971     16.7015     21.8640    103.4494
   700.5000   -238.0050     19.4527     17.6012     24.6078     98.6686
   700.7500   -238.3626     20.1866     18.8189     34.5135     90.0162
   701.0000   -238.7448     20.7444     20.3416     55.9437     78.4227
   701.2500   -239.1318     21.1047     22.1051     93.1712     65.5171
   701.5000   -239.5082     21.2760     23.9751    146.6502     52.9510
   701.7500   -239.8609     21.2843     25.7425    208.8550     42.1478
   702.0000   -240.1816     21.1623     27.1553    263.8206     34.2456
   702.2500   -240.4668     20.9424     27.9891    293.4527     29.9819
   702.5000   -240.7149     20.6556     28.1169    287.7948     29.6863
   702.7500   -240.9260     20.3310     27.5359    250.9902     33.4589
