~Version Information
VERS.                      2.0: CWLS Log ASCII Standard - VERSION 2.0
WRAP.                       NO: One line per depth step
~Well Information Block
STRT.FT               758.7500: 
STOP.FT              2420.7500: 
STEP.FT                 0.2500: 
NULL.                -999.2500: 
COMP.          Petrogulf Corporation: COMPANY
WELL.            Montoya 7-21V: WELL
FLD.           Purgatorie River: FIELD
LOC.           738' FSL & 2070' FWL: LOCATION
CNTY.               Las Animas: COUNTY
SRVC.                         : SERVICE COMPANY
DATE.          Fri Aug 20 07:13:07 2004: LOG DATE
UWI.           05 071 08018 00: UNIQUE WELL ID
STAT.                 Colorado: STATE
~Curve Information Block
DEPT.FT            0 000 00 00: Depth
SP.mV                         : DIL Spontaneous Potential
RILD.Ohm-m                    : DIL Deep Resistivity
RILM.Ohm-m                    : DIL Medium Resistivity
RLL3.Ohm-m                    : DIL Shallow Resistivity
GR.GAPI                       : Gamma Ray
~Parameter Information Block
~A  Depth        SP         RILD        RILM        RLL3         GR     
# ...
  1738.7500    -17.6116     66.7572     67.8638     99.5793     39.6613
  1739.0000    -17.7974     68.6746     68.4140    105.9150     36.0643
  1739.2500    -17.8405     70.1324     68.9097    110.7754     34.0544
  1739.5000    -17.7360     70.8208     69.2647    113.9521     31.7436
  1739.7500    -17.4885     70.4758     69.3206    115.7738     30.7000
  1740.0000    -17.1091     68.9922     68.8561    117.0028     29.7896
  1740.2500    -16.6127     66.4559     67.6168    118.5808     29.4830
  1740.5000    -16.0160     63.0670     65.3762    121.3160     29.1957
  1740.7500    -15.3355     59.0396     62.0170    125.6052     28.9457
  1741.0000    -14.5869     54.5630     57.6040    131.2211     28.1982
  1741.2500    -13.7849     49.8280     52.4034    137.1526     27.4471
  1741.5000    -12.9437     45.0553     46.8208    141.5629     26.5984
  1741.7500    -12.0788     40.4814     41.2852    142.0638     27.0216
  1742.0000    -11.2074     36.3053     36.1425    136.4639     30.8742
  1742.2500    -10.3495     32.6455     31.6035    123.8013     36.5559
  1742.5000     -9.5267     29.5322     27.7490    105.0790     50.9860
  1742.7500     -8.7610     26.9281     24.5667     83.1295     64.7272
  1743.0000     -8.0709     24.7595     21.9915     61.5654     89.9952
  1743.2500     -7.4693     22.9407     19.9366     43.4087    107.7742
  1743.5000     -6.9606     21.3905     18.3124     30.1809    131.2011
  1743.7500     -6.5407     20.0421     17.0365     21.8367    142.6885
  1744.0000     -6.1987     18.8484     16.0367     17.3438    153.0489
  1744.2500     -5.9192     17.7841     15.2520     15.4080    156.2744
  1744.5000     -5.6870     16.8423     14.6319     14.9517    157.6853
  1744.7500     -5.4893     16.0266     14.1359     15.2507    157.1465
  1745.0000     -5.3179     15.3420     13.7325     15.8564    154.6209
  1745.2500     -5.1698     14.7889     13.3991     16.4727    152.0820
  1745.5000     -5.0454     14.3605     13.1204     16.8915    148.4267
  1745.7500     -4.9471     14.0445     12.8875     16.9935    147.2715
  1746.0000     -4.8768     13.8253     12.6958     16.7717    148.5162
  1746.2500     -4.8344     13.6858     12.5430     16.3293    150.8831
  1746.5000     -4.8173     13.6075     12.4265     15.8380    154.8857
  1746.7500     -4.8212     13.5706     12.3426     15.4719    156.9005
  1747.0000     -4.8408     13.5552     12.2848     15.3450    158.3884
  1747.2500     -4.8717     13.5439     12.2445     15.4704    158.7778
  1747.5000     -4.9115     13.5254     12.2119     15.7545    159.9213
  1747.7500     -4.9597     13.4965     12.1775     16.0358    161.6160
  1748.0000     -5.0175     13.4623     12.1342     16.1577    165.0241
  1748.2500     -5.0871     13.4322     12.0789     16.0421    166.8964
  1748.5000     -5.1699     13.4163     12.0129     15.7158    167.3652
  1748.7500     -5.2670     13.4213     11.9417     15.2725    165.4912
  1749.0000     -5.3780     13.4494     11.8735     14.8091    159.3920
  1749.2500     -5.5024     13.4986     11.8179     14.3876    153.8237
  1749.5000     -5.6391     13.5653     11.7837     14.0438    145.2531
  1749.7500     -5.7870     13.6462     11.7779     13.8166    140.5745
  1750.0000     -5.9447     13.7394     11.8052     13.7598    136.0586
  1750.2500     -6.1101     13.8453     11.8674     13.9252    134.4720
  1750.5000     -6.2800     13.9647     11.9639     14.3299    133.2094
  1750.7500     -6.4498     14.0981     12.0929     14.9330    132.6500
  1751.0000     -6.6132     14.2432     12.2520     15.6365    131.9062
  1751.2500     -6.7629     14.3931     12.4395     16.3166    131.5980
  1751.5000     -6.8909     14.5344     12.6549     16.8786    132.2461
  1751.7500     -6.9898     14.6477     12.8994     17.3074    133.8415
  1752.0000     -7.0545     14.7105     13.1745     17.6873    137.4384
  1752.2500     -7.0838     14.7037     13.4805     18.1790    139.6701
  1752.5000     -7.0817     14.6190     13.8140     18.9645    141.4942
  1752.7500     -7.0577     14.4631     14.1654     20.1714    141.6409
  1753.0000     -7.0253     14.2561     14.5171     21.7866    140.5960
  1753.2500     -6.9998     14.0232     14.8437     23.5904    139.0876
  1753.5000     -6.9953     13.7857     15.1138     25.1765    135.8224
  1753.7500     -7.0222     13.5545     15.2955     26.1028    133.5220
  1754.0000     -7.0858     13.3301     15.3623     26.1136    130.9685
  1754.2500     -7.1862     13.1069     15.2996     25.2804    130.1742
  1754.5000     -7.3186     12.8789     15.1078     23.9426    130.5807
  1754.7500     -7.4756     12.6432     14.8029     22.4826    132.0774
  1755.0000     -7.6485     12.4011     14.4126     21.1094    135.9227
  1755.2500     -7.8290     12.1565     13.9711     19.8055    138.8628
  1755.5000     -8.0100     11.9143     13.5137     18.4453    142.4657
  1755.7500     -8.1862     11.6796     13.0720     16.9607    144.1131
  1756.0000     -8.3534     11.4574     12.6716     15.4194    146.2942
  1756.2500     -8.5080     11.2526     12.3310     13.9841    148.0510
  1756.5000     -8.6463     11.0696     12.0619     12.8197    150.6915
  1756.7500     -8.7643     10.9132     11.8704     12.0310    151.7133
  1757.0000     -8.8580     10.7877     11.7583     11.6596    151.8483
  1757.2500     -8.9238     10.6984     11.7244     11.7141    151.6862
  1757.5000     -8.9599     10.6512     11.7658     12.1905    152.2755
  1757.7500     -8.9665     10.6529     11.8784     13.0638    153.2675
  1758.0000     -8.9459     10.7107     12.0577     14.2604    154.9935
  1758.2500     -8.9017     10.8310     12.2988     15.6378    156.0165
  1758.5000     -8.8378     11.0172     12.5967     17.0037    157.1830
  1758.7500     -8.7575     11.2671     12.9463     18.1809    157.6215
  1759.0000     -8.6631     11.5716     13.3416     19.0886    157.6109
  1759.2500     -8.5570     11.9150     13.7753     19.7879    157.1686
  1759.5000     -8.4421     12.2773     14.2378     20.4547    156.1644
  1759.7500     -8.3224     12.6383     14.7158     21.2884    155.6427
  1760.0000     -8.2024     12.9809     15.1919     22.3950    155.5678
  1760.2500     -8.0860     13.2925     15.6448     23.6989    155.6714
  1760.5000     -7.9748     13.5662     16.0515     24.9299    154.5212
  1760.7500     -7.8675     13.7996     16.3912     25.7102    152.3601
  1761.0000     -7.7606     13.9944     16.6500     25.7182    148.3934
  1761.2500     -7.6498     14.1551     16.8244     24.8515    146.9669
  1761.5000     -7.5326     14.2878     16.9225     23.2933    148.4982
  1761.7500     -7.4101     14.3984     16.9615     21.4426    151.6592
  1762.0000     -7.2879     14.4899     16.9629     19.7583    157.9744
  1762.2500     -7.1754     14.5617     16.9459     18.6142    162.5017
  1762.5000     -7.0843     14.6104     16.9240     18.2228    168.5896
  1762.7500     -7.0263     14.6319     16.9022     18.6155    171.1669
  1763.0000     -7.0110     14.6253     16.8784     19.6440    171.6056
  1763.2500     -7.0438     14.5948     16.8459     21.0032    170.0316
  1763.5000     -7.1246     14.5496     16.7977     22.3022    166.9985
  1763.7500     -7.2472     14.5017     16.7306     23.1852    165.5764
  1764.0000     -7.3997     14.4628     16.6468     23.4502    164.9840
  1764.2500     -7.5661     14.4424     16.5551     23.0990    165.5706
  1764.5000     -7.7291     14.4464     16.4682     22.2963    167.4940
  1764.7500     -7.8718     14.4770     16.4000     21.2789    169.0553
  1765.0000     -7.9809     14.5316     16.3625     20.2776    171.3779
  1765.2500     -8.0475     14.6012     16.3634     19.4890    173.0844
  1765.5000     -8.0680     14.6715     16.4046     19.0797    176.1622
  1765.7500     -8.0447     14.7264     16.4820     19.1763    177.9599
  1766.0000     -7.9839     14.7545     16.5862     19.8152    178.0148
  1766.2500     -7.8955     14.7553     16.7040     20.8846    175.2268
  1766.5000     -7.7903     14.7404     16.8212     22.1218    167.0534
