~Version Information
VERS.                      2.0: CWLS Log ASCII Standard - VERSION 2.0
WRAP.                       NO: One line per depth step
~Well Information Block
STRT.FT               650.0000: 
STOP.FT              2085.0000: 
STEP.FT                 0.1000: 
NULL.                -999.2500: 
COMP.          Pioneer Natural Resources: COMPANY
WELL.           Galloway 32-13: WELL
FLD.           Purgatoire River: FIELD
LOC.           1809' FNL & 2004' FEL: LOCATION
PROV.                 Colorado: PROVINCE
CNTY.               Las Animas: COUNTRY
SRVC.                Patterson: SERVICE COMPANY
DATE.          Sat Jul 09 02:17:51 2005: LOG DATE
UWI.           05 071 08423 00: UNIQUE WELL ID
~Curve Information Block
DEPT.FT            0 000 00 00: Depth
DCAL.in                       : CDL Caliper
RHOB.g/cc                     : CDL Bulk Density
RHOC.g/cc                     : CDL Density Correction
DPOR.pu                       : CDL Density Porosity
GR.GAPI                       : Gamma Ray
NPOR.pu                       : Neutron Porosity
~Parameter Information Block
~A  Depth       DCAL        RHOB        RHOC        DPOR         GR         NPOR    
# ...
  1878.8000      8.0066      2.5278      0.0503      7.4036     80.7659     19.5038
  1878.9000      8.0066      2.5233      0.0522      7.6789     82.1058     19.8410
  1879.0000      8.0150      2.5085      0.0609      8.5752     84.4430     20.3650
  1879.1000      8.0150      2.4859      0.0566      9.9480     85.3003     20.5045
  1879.2000      8.0150      2.4701     -0.0061     10.9024     83.7426     20.5969
  1879.3000      8.0158      2.4727      0.0353     10.7477     80.9384     20.7024
  1879.4000      8.0158      2.4836      0.0269     10.0847     79.6213     20.4350
  1879.5000      8.0070      2.4969      0.0068      9.2818     83.0716     20.1555
  1879.6000      8.0070      2.5086      0.0518      8.5718     92.0544     20.4177
  1879.7000      8.0070      2.5023      0.0570      8.9502    104.5353     20.7984
  1879.8000      7.9862      2.4756      0.0455     10.5712    114.1356     20.7650
  1879.9000      7.9862      2.4434      0.0714     12.5207    112.7718     21.0372
  1880.0000      7.9612      2.4163      0.0330     14.1625    104.0739     22.4269
  1880.1000      7.9612      2.4018     -0.0136     15.0442    100.0969     24.0434
  1880.2000      7.9612      2.4031      0.0310     14.9646     99.1385     24.4548
  1880.3000      7.9559      2.4108      0.0404     14.4990     95.1939     23.6803
  1880.4000      7.9559      2.4165      0.0363     14.1526     93.4407     23.0472
  1880.5000      7.9699      2.4180      0.0755     14.0632     97.2873     23.3183
  1880.6000      7.9699      2.4143      0.0288     14.2849    103.1255     24.1345
  1880.7000      7.9699      2.4099      0.0611     14.5534    108.7344     24.9726
  1880.8000      7.9765      2.4081      0.0831     14.6621    114.1513     25.6656
  1880.9000      7.9765      2.4077      0.0562     14.6834    115.8785     26.7115
  1881.0000      7.9697      2.4020      0.0371     15.0328    112.4298     28.1458
  1881.1000      7.9697      2.3912      0.0407     15.6869    110.6746     28.6094
  1881.2000      7.9697      2.3947      0.0219     15.4743    113.7577     27.2662
  1881.3000      7.9672      2.4252      0.0026     13.6216    113.7111     25.7635
  1881.4000      7.9672      2.4575      0.0960     11.6688    105.4566     25.1405
  1881.5000      7.9728      2.4652      0.0421     11.1979     97.0875     24.2602
  1881.6000      7.9728      2.4730      0.0081     10.7275     95.0922     23.0795
  1881.7000      7.9728      2.4999      0.0907      9.0963     94.6440     22.5503
  1881.8000      7.9819      2.5199      0.1021      7.8843     91.0198     22.5528
  1881.9000      7.9819      2.5147      0.1151      8.2007     86.9253     22.5862
  1882.0000      7.9920      2.5007      0.0048      9.0514     84.8338     22.5589
  1882.1000      7.9920      2.4986      0.0176      9.1756     81.8068     22.6098
  1882.2000      7.9920      2.5096      0.0289      8.5062     76.4725     22.6140
  1882.3000      8.0012      2.5288      0.0383      7.3425     75.9706     22.2367
  1882.4000      8.0012      2.5536      0.0403      5.8422     83.7314     21.3848
  1882.5000      8.0070      2.5709      0.0506      4.7968     89.4000     20.5967
  1882.6000      8.0070      2.5579      0.0664      5.5816     87.0684     20.4823
  1882.7000      8.0070      2.5145     -0.0127      8.2102     86.9267     20.6616
  1882.8000      8.0094      2.4644      0.0389     11.2503     93.8153     20.5342
  1882.9000      8.0094      2.4266     -0.0555     13.5399     97.0931     20.0993
  1883.0000      8.0065      2.4193     -0.0423     13.9848     91.7113     19.6330
  1883.1000      8.0065      2.4420      0.0278     12.6083     87.2641     19.6419
  1883.2000      8.0065      2.4660      0.0003     11.1505     89.5060     20.7548
  1883.3000      7.9968      2.4707      0.0569     10.8648     92.3809     22.1207
  1883.4000      7.9968      2.4620      0.0106     11.3945     91.7527     21.9209
  1883.5000      7.9842      2.4583      0.0184     11.6186     92.0748     20.3187
  1883.6000      7.9842      2.4694      0.0121     10.9464     95.3985     18.9798
  1883.7000      7.9842      2.4867      0.0734      9.8979     99.8288     19.0541
  1883.8000      7.9736      2.4935      0.0499      9.4861    102.8172     20.6556
  1883.9000      7.9736      2.4910      0.0527      9.6335    101.5269     22.9280
  1884.0000      7.9639      2.4915      0.0484      9.6082     96.3826     24.4949
  1884.1000      7.9639      2.4944      0.0130      9.4328     93.0553     24.5848
  1884.2000      7.9639      2.4965      0.0574      9.3021     96.4461     23.7554
  1884.3000      7.9535      2.4971      0.0514      9.2655    101.0474     23.0298
  1884.4000      7.9535      2.4914      0.0786      9.6120     98.9824     22.7898
  1884.5000      7.9480      2.4797      0.0345     10.3183     91.7171     22.9073
  1884.6000      7.9480      2.4658      0.0565     11.1614     87.6906     23.1164
  1884.7000      7.9480      2.4535      0.0016     11.9062     90.7281     22.7987
  1884.8000      7.9445      2.4562     -0.0043     11.7477     93.4969     21.8481
  1884.9000      7.9445      2.4727      0.0322     10.7428     89.3000     21.1631
  1885.0000      7.9369      2.4853      0.0675      9.9839     82.6300     21.2958
  1885.1000      7.9369      2.4877      0.0291      9.8393     80.6035     21.8473
  1885.2000      7.9369      2.4900      0.0510      9.6978     82.6762     22.2455
  1885.3000      7.9317      2.4965      0.0367      9.3032     84.6974     22.5998
  1885.4000      7.9317      2.4998      0.0669      9.1025     85.0570     23.1104
  1885.5000      7.9373      2.4949      0.0511      9.3978     83.2371     23.5688
  1885.6000      7.9373      2.4927      0.0152      9.5357     79.3668     23.6503
  1885.7000      7.9373      2.5071      0.0452      8.6623     76.3437     22.9367
  1885.8000      7.9494      2.5277      0.0532      7.4112     77.2450     22.0975
  1885.9000      7.9494      2.5301      0.0701      7.2669     84.1139     22.5793
  1886.0000      7.9575      2.5179      0.0135      8.0038     92.4023     23.6601
  1886.1000      7.9575      2.5187      0.0424      7.9601     95.0743     23.3488
  1886.2000      7.9575      2.5355      0.0526      6.9420     92.8920     21.6832
  1886.3000      7.9622      2.5512      0.0566      5.9888     88.5784     20.0579
  1886.4000      7.9622      2.5557      0.0356      5.7158     82.6967     19.2837
  1886.5000      7.9640      2.5517      0.0263      5.9594     76.2047     19.4663
  1886.6000      7.9640      2.5523      0.0577      5.9190     72.6451     19.8430
  1886.7000      7.9640      2.5665      0.0033      5.0622     72.8700     19.4182
  1886.8000      7.9663      2.5824      0.0592      4.0961     72.4428     18.4061
  1886.9000      7.9663      2.5818      0.0144      4.1356     69.4241     17.6225
  1887.0000      7.9713      2.5631      0.0302      5.2652     66.8475     17.1422
  1887.1000      7.9713      2.5345      0.0391      7.0009     65.8430     16.6140
  1887.2000      7.9713      2.5099      0.0140      8.4930     66.1836     16.0973
  1887.3000      7.9682      2.4983      0.0505      9.1945     68.3917     15.7273
  1887.4000      7.9682      2.4927      0.0033      9.5355     70.8700     15.1905
  1887.5000      7.9535      2.4900      0.0372      9.6975     71.2622     14.5430
  1887.6000      7.9535      2.4981      0.0230      9.2039     69.4060     14.4316
  1887.7000      7.9535      2.5228      0.0654      7.7066     67.1990     15.2328
  1887.8000      7.9400      2.5555      0.0692      5.7248     67.0093     16.6886
  1887.9000      7.9400      2.5783      0.0751      4.3482     71.7518     17.8218
  1888.0000      7.9358      2.5777      0.1116      4.3801     78.2090     17.9794
  1888.1000      7.9358      2.5545      0.0795      5.7860     81.4677     17.8244
  1888.2000      7.9358      2.5218      0.0101      7.7711     82.9619     18.1100
  1888.3000      7.9378      2.5034     -0.0197      8.8863     84.8101     19.0044
