~Version Information
 VERS.                                  2.0 : CWLS LAS VERSION
 WRAP.                                   NO : WRAPING MODE
 SWARE .                 MController 2.5.0J : SOFTWARE VERSION
~Well Information
 WELL.                         State 16-43R : WELL
 COMP.                Petrogulf Corporation : COMPANY
 FLD.                      Purgatoire River : FIELD
 LOC.                NE/SE Sec 16 T33S R67W : LOCATION
 DATE.                             08/09/05 : DATE(S) LOGGED
 SRVC.       BLANCO Geological Services LLC : SERVICE COMPANY
 STAT.                                   CO : STATE
 CNTY.                           Las Animas : COUNTY
 CTRY.                                  USA : COUNTRY
 API.                       05-071-08338-00 : API NUMBER
 STRT.FT                               0.00 : START DEPTH
 STOP.FT                            1565.00 : STOP DEPTH
 STEP.FT                               1.00 : DEPTH INCREMENT
 NULL.                                -9999 : NULL VALUE
~Curve information
 DEPTH.FT                                   :
 ROP.MIN/FT                                 :
 GAS.UNITS                                  :
~ASCII Log data
# ...
      1200.0         2.32        182.5 
      1201.0         0.33         40.5 
      1202.0         0.27         37.9 
      1203.0         0.23         36.8 
      1204.0         0.20         36.2 
      1205.0         0.23         36.3 
      1206.0         0.17         36.2 
      1207.0         0.23         36.1 
      1208.0         0.33         36.2 
      1209.0         0.27         35.5 
      1210.0         0.33         34.8 
      1211.0         0.30         33.8 
      1212.0         0.35         33.6 
      1213.0         0.23         34.2 
      1214.0         0.23         34.6 
      1215.0         0.27         34.6 
      1216.0         0.23         34.2 
      1217.0         0.23         33.6 
      1218.0         0.30         38.2 
      1219.0         0.27         45.8 
      1220.0         0.27         46.2 
      1221.0         0.30         43.3 
      1222.0         0.23         39.5 
      1223.0         0.23         38.0 
      1224.0         0.22         36.9 
      1225.0         0.23         36.3 
      1226.0         0.23         34.3 
      1227.0         0.27         31.4 
      1228.0         0.37         28.4 
      1229.0         0.43         44.2 
      1230.0         1.82         91.7 
      1231.0         0.47         48.6 
      1232.0         0.37         41.9 
      1233.0         0.27         39.0 
      1234.0         0.20         36.7 
      1235.0         0.20         35.5 
      1236.0         0.30         34.9 
      1237.0         0.27         34.8 
      1238.0         0.13         34.5 
      1239.0         0.17         34.4 
      1240.0         0.17         34.1 
      1241.0         0.13         34.0 
      1242.0         0.27         34.1 
      1243.0         0.35         33.7 
      1244.0         0.27         33.5 
      1245.0         0.30         33.2 
      1246.0         0.27         32.9 
      1247.0         0.30         33.2 
      1248.0         0.27         32.3 
      1249.0         0.20         31.7 
      1250.0         0.37         31.7 
      1251.0         0.40         30.7 
      1252.0         0.13         26.9 
      1253.0         0.17         25.7 
      1254.0         0.20         24.3 
      1255.0         0.17         25.3 
      1256.0         0.22         33.4 
      1257.0         0.20         47.3 
      1258.0         0.17         59.7 
      1259.0         0.17         76.5 
      1260.0         2.30         93.8 
      1261.0         0.28         37.0 
      1262.0         0.40         35.6 
      1263.0         0.33         33.2 
      1264.0         0.20         32.2 
      1265.0         0.13         31.6 
      1266.0         0.27         31.6 
      1267.0         0.23         31.7 
      1268.0         0.17         31.3 
      1269.0         0.17         31.2 
      1270.0         0.20         32.6 
      1271.0         0.17         31.8 
      1272.0         0.20         33.0 
      1273.0         0.20         33.5 
      1274.0         0.17         34.3 
      1275.0         0.25         34.2 
      1276.0         0.43         32.7 
      1277.0         0.40         31.3 
      1278.0         0.23         30.8 
      1279.0         0.17         29.9 
      1280.0         0.27         30.1 
      1281.0         0.20         29.4 
      1282.0         0.20         27.3 
      1283.0         0.17         25.6 
      1284.0         0.17         23.5 
      1285.0         0.17         23.9 
      1286.0         0.17         28.5 
      1287.0         0.25         43.4 
      1288.0         0.27         66.8 
      1289.0         0.17         76.5 
      1290.0         2.03         86.9 
      1291.0         0.30         37.3 
      1292.0         0.28         33.7 
      1293.0         0.23         28.5 
      1294.0         0.23         25.7 
      1295.0         0.17         24.9 
      1296.0         0.17         25.4 
      1297.0         0.17         26.7 
      1298.0         0.20         33.3 
      1299.0         0.53         40.5 
      1300.0         0.20         40.3 
      1301.0         0.30         38.4 
      1302.0         0.17         37.2 
      1303.0         0.27         36.2 
      1304.0         0.48         32.0 
      1305.0         0.27         32.3 
      1306.0         0.40         32.9 
      1307.0         0.43         32.4 
      1308.0         0.33         31.8 
      1309.0         0.37         32.2 
      1310.0         0.47         32.5 
      1311.0         0.33         31.2 
      1312.0         0.47         30.1 
      1313.0         0.68         30.9 
      1314.0         0.30         30.7 
      1315.0         0.23         31.1 
      1316.0         0.27         32.5 
      1317.0         0.23         31.7 
      1318.0         0.17         28.8 
      1319.0         0.23         27.9 
      1320.0         2.82        120.3 
      1321.0         0.43         79.0 
      1322.0         0.40         66.6 
      1323.0         0.23         59.7 
      1324.0         0.23         57.3 
      1325.0         0.30         55.0 
      1326.0         0.28         52.8 
      1327.0         0.27         51.4 
      1328.0         0.33         50.6 
      1329.0         0.27         49.6 
      1330.0         0.33         49.3 
      1331.0         0.40         53.8 
      1332.0         0.33         54.7 
      1333.0         0.37         52.2 
      1334.0         0.37         48.7 
      1335.0         0.30         47.9 
      1336.0         0.23         49.6 
      1337.0         0.12         50.0 
      1338.0         0.27         49.9 
      1339.0         0.37         48.4 
      1340.0         0.33         45.9 
      1341.0         0.27         43.5 
      1342.0         0.23         39.9 
      1343.0         0.23         35.4 
      1344.0         0.23         34.5 
      1345.0         0.20         39.8 
      1346.0         0.17         49.4 
      1347.0         0.23         70.2 
      1348.0         0.20         95.7 
      1349.0         0.33        124.1 
      1350.0         1.48        126.9 
      1351.0         0.30         52.6 
      1352.0         0.23         40.8 
      1353.0         0.20         37.0 
      1354.0         0.20         41.5 
      1355.0         0.23         51.5 
      1356.0         0.17         54.2 
      1357.0         0.57         54.4 
      1358.0         0.32         49.4 
      1359.0         0.23         46.0 
      1360.0         0.33         44.7 
      1361.0         0.23         43.8 
      1362.0         0.23         43.7 
      1363.0         0.27         42.9 
      1364.0         0.27         42.2 
      1365.0         0.27         43.3 
      1366.0         0.27         43.3 
      1367.0         0.27         43.8 
      1368.0         0.33         43.3 
      1369.0         0.38         41.4 
      1370.0         0.47         42.5 
      1371.0         0.53         42.6 
      1372.0         0.53         42.7 
      1373.0         0.50         44.5 
      1374.0         0.43         44.7 
      1375.0         0.60         42.9 
      1376.0         0.48         35.0 
      1377.0         0.17         32.8 
      1378.0         0.20         35.9 
      1379.0         0.17         43.8 
      1380.0         2.52        130.1 
      1381.0         0.30         54.6 
      1382.0         0.33         49.8 
      1383.0         0.20         47.3 
      1384.0         0.17         46.1 
      1385.0         0.40         45.1 
      1386.0         0.50         42.7 
      1387.0         0.30         41.2 
      1388.0         0.17         40.6 
      1389.0         0.23         40.3 
      1390.0         0.13         40.4 
      1391.0         0.17         40.4 
      1392.0         0.20         40.0 
      1393.0         0.18         39.8 
      1394.0         0.17         39.8 
      1395.0         0.20         39.9 
      1396.0         0.17         39.6 
      1397.0         0.27         42.5 
      1398.0         0.27         43.3 
      1399.0         0.30         42.2 
