~Version Information
VERS.                      2.0: CWLS Log ASCII Standard - VERSION 2.0
WRAP.                       NO: One line per depth step
~Well Information Block
STRT.FT                -7.5000: 
STOP.FT              1716.7500: 
STEP.FT                 0.2500: 
NULL.                -999.2500: 
COMP.          Pioneer Natural Resources: COMPANY
WELL.          Lookout Point 31-23 Tr: WELL
FLD.           Purgatorie River: FIELD
LOC.           541' FNL & 1786' FEL--------: LOCATION
PROV.                       CO: PROVINCE
CNTY.               Las Animas: COUNTRY
SRVC.                         : SERVICE COMPANY
DATE.          Fri Jan 28 08:30:47 2005: LOG DATE
UWI.         005 071 08260 : UNIQUE WELL ID
~Curve Information Block
DEPT.FT            0 000 00 00: Depth
CCL.                          : Casing Collar Locator
TT3.usec                      : CBL 3' Travel Time
AMP3.mV                       : CBL 3' Amplitude
GR.GAPI                       : Gamma Ray
~Parameter Information Block
~A  Depth       CCL         TT3         AMP3         GR     
# ...
   662.5000      0.0000    759.6144      4.6833    142.4971
   662.7500      0.0000    747.6140      4.6639    139.6457
   663.0000      0.0000    734.4547      4.5971    135.3051
   663.2500      0.0000    722.8204      4.4766    128.8312
   663.5000      0.0000    713.8124      4.3477    120.4574
   663.7500      0.0000    706.0467      4.2623    112.4820
   664.0000      0.0000    698.7853      4.2337    108.3011
   664.2500     -2.0000    695.4621      4.2442    109.6797
   664.5000      2.0000    701.3806      4.2769    115.3932
   664.7500      0.0000    717.4282      4.3332    122.8579
   665.0000      0.0000    738.2581      4.4278    130.4325
   665.2500      0.0000    756.9593      4.5702    137.4788
   665.5000      0.0000    769.7475      4.7396    143.1653
   665.7500      0.0000    776.4053      4.8838    146.7028
   666.0000      0.0000    778.3424      4.9595    148.3503
   666.2500      0.0000    776.5956      4.9653    148.7470
   666.5000      0.0000    770.6158      4.9243    147.3763
   666.7500      0.0000    758.9373      4.8617    142.9479
   667.0000      0.0000    742.1183      4.8159    135.4833
   667.2500      0.0000    725.0427      4.8357    127.3087
   667.5000      0.0000    714.9015      4.9403    121.7962
   667.7500      0.0000    715.8062      5.0965    121.3130
   668.0000      0.0000    725.5757      5.2479    125.9954
   668.2500      0.0000    737.9274      5.3558    133.6654
   668.5000      0.0000    747.2885      5.4094    140.6953
   668.7500      0.0000    751.4191      5.4074    143.7341
   669.0000      0.0000    750.6285      5.3490    141.6405
   669.2500      0.0000    746.0121      5.2451    136.0975
   669.5000      0.0000    738.7447      5.1261    130.1318
   669.7500      0.0000    730.3632      5.0285    125.9231
   670.0000      0.0000    723.2100      4.9732    124.0425
   670.2500      0.0000    720.3304      4.9600    124.2658
   670.5000      0.0000    724.0411      4.9823    126.2559
   670.7500      0.0000    733.5070      5.0388    129.3915
   671.0000      0.0000    744.0886      5.1270    132.6960
   671.2500      0.0000    750.0596      5.2265    135.3835
   671.5000      0.0000    748.1453      5.2995    137.1600
   671.7500      0.0000    738.2166      5.3156    137.8631
   672.0000      0.0000    721.2160      5.2754    137.3791
   672.2500      0.0000    697.7578      5.2078    136.2280
   672.5000      0.0000    669.4908      5.1529    135.7393
   672.7500      0.0000    641.1445      5.1441    137.0892
   673.0000      0.0000    619.3497      5.1857    140.1086
   673.2500      0.0000    607.9285      5.2453    143.2178
   673.5000      0.0000    604.4164      5.2812    144.5427
   673.7500      0.0000    602.0947      5.2861    143.1428
   674.0000      0.0000    595.6700      5.2909    139.4769
   674.2500      0.0000    584.5504      5.3219    135.1659
   674.5000      0.0000    571.1891      5.3641    132.3552
   674.7500      0.0000    558.2145      5.3748    132.6953
   675.0000      0.0000    547.8427      5.3258    136.2645
   675.2500      0.0000    541.8597      5.2251    141.3915
   675.5000      0.0000    540.0092      5.1124    145.7619
   675.7500      0.0000    538.8884      5.0449    147.9101
   676.0000      0.0000    533.9299      5.0710    147.9771
   676.2500      0.0000    522.6566      5.1995    147.3089
   676.5000      0.0000    505.9711      5.3937    147.2624
   676.7500      0.0000    487.2782      5.5967    148.1650
   677.0000      0.0000    470.8549      5.7566    149.1796
   677.2500      0.0000    460.3841      5.8362    149.0686
   677.5000      0.0000    458.1194      5.8262    147.2717
   677.7500      0.0000    464.8746      5.7589    144.5177
   678.0000      0.0000    479.7069      5.6915    142.4087
   678.2500      0.0000    498.4285      5.6667    142.2369
   678.5000      0.0000    513.0897      5.6882    144.0428
   678.7500      0.0000    515.6668      5.7293    146.6523
   679.0000      0.0000    504.2840      5.7581    148.5995
   679.2500      0.0000    485.0533      5.7634    149.0048
   679.5000      0.0000    466.7853      5.7608    147.5446
   679.7500      0.0000    454.9111      5.7657    143.9785
   680.0000      0.0000    450.7246      5.7685    138.4759
   680.2500      0.0000    454.1341      5.7491    132.2546
   680.5000      0.0000    464.5130      5.7122    126.8854
   680.7500      0.0000    478.3166      5.6903    122.6509
   681.0000      0.0000    487.5259      5.7126    118.3463
   681.2500      0.0000    483.5612      5.7807    113.1265
   681.5000      0.0000    464.6022      5.8678    107.9314
   681.7500      0.0000    437.9329      5.9365    104.6422
   682.0000      0.0000    413.7582      5.9615    104.2775
   682.2500      0.0000    397.7216      5.9405    106.2606
   682.5000      0.0000    389.5457      5.8795    108.9365
   682.7500      0.0000    386.4029      5.7780    110.6824
   683.0000      0.0000    386.0645      5.6389    111.0978
   683.2500      0.0000    388.1414      5.4866    111.2525
   683.5000      0.0000    394.4118      5.3637    112.4996
   683.7500      0.0000    408.3279      5.3069    115.0266
   684.0000      0.0000    432.6071      5.3253    117.6284
   684.2500      0.0000    465.9041      5.4040    118.7902
   684.5000      0.0000    501.8128      5.5216    117.9611
   684.7500      0.0000    531.3903      5.6549    115.8790
   685.0000      0.0000    546.6995      5.7707    113.8999
   685.2500      0.0000    544.3051      5.8281    113.1012
   685.5000      0.0000    528.9325      5.8017    113.7061
   685.7500      0.0000    512.4880      5.7001    115.0547
   686.0000      0.0000    504.8930      5.5615    116.0372
   686.2500      0.0000    504.7893      5.4342    115.6358
   686.5000      0.0000    501.4275      5.3532    113.3103
   686.7500      0.0000    486.1000      5.3259    109.2670
   687.0000      0.0000    460.2415      5.3328    104.4625
   687.2500      0.0000    432.6395      5.3508    100.1771
   687.5000      0.0000    411.5444      5.3790     97.3555
   687.7500      0.0000    400.7683      5.4374     96.1174
   688.0000      0.0000    401.5461      5.5336     95.7758
   688.2500      0.0000    415.4956      5.6335     95.6180
   688.5000      0.0000    443.7022      5.6796     95.9774
   688.7500      0.0000    482.2691      5.6429     98.3249
   689.0000      0.0000    520.4105      5.5471    103.7622
   689.2500      0.0000    545.6200      5.4335    111.2983
   689.5000      0.0000    551.4131      5.3187    117.9211
   689.7500      0.0000    539.9969      5.1990    120.7675
   690.0000      0.0000    519.7186      5.0845    119.3960
   690.2500      0.0000    501.3601      5.0057    115.8093
   690.5000      0.0000    493.9887      4.9894    112.1936
   690.7500      0.0000    500.1835      5.0324    109.0093
   691.0000      0.0000    513.5690      5.1002    105.5615
   691.2500      0.0000    522.5043      5.1586    101.9821
   691.5000      0.0000    519.2426      5.1983     99.9039
   691.7500      0.0000    506.8581      5.2152    101.2372
   692.0000      0.0000    496.7621      5.1819    106.7344
   692.2500      0.0000    499.8299      5.0735    115.4608
   692.5000      0.0000    519.9077      4.9159    125.1397
   692.7500      0.0000    553.3062      4.7837    133.4419
   693.0000      0.0000    591.7291      4.7479    139.5104
   693.2500      0.0000    626.2811      4.8279    144.0012
   693.5000      0.0000    651.5266      4.9780    147.4267
   693.7500      0.0000    667.6489      5.1130    148.9319
   694.0000      0.0000    678.7698      5.1644    147.1207
   694.2500      0.0000    688.9835      5.1280    141.7590
   694.5000      0.0000    699.7528      5.0569    134.1343
   694.7500      0.0000    710.0297      5.0106    125.8054
   695.0000      0.0000    717.7471      5.0131    117.3347
   695.2500      0.0000    721.4815      5.0485    108.2715
   695.5000      0.0000    721.6290      5.0783     98.3095
   695.7500      0.0000    720.3841      5.0630     88.4341
