~Version Information
VERS.                      2.0: CWLS Log ASCII Standard - VERSION 2.0
WRAP.                       NO: One line per depth step
~Well Information Block
STRT.FT               620.0000: 
STOP.FT              2660.0000: 
STEP.FT                 0.1000: 
NULL.                -999.2500: 
COMP.          Evergreen Operating Corporation: COMPANY
WELL.             Carbon 34-21: WELL
FLD.           Purgatoire River: FIELD
LOC.           56' FSL & 2304' FEL: LOCATION
PROV.                 Colorado: PROVINCE
CNTY.               Las Animas: COUNTRY
SRVC.                Patterson: SERVICE COMPANY
DATE.          Mon Sep 13 14:13:15 2004: LOG DATE
UWI.           05 071 08117 00: UNIQUE WELL ID
~Curve Information Block
DEPT.FT            0 000 00 00: Depth
DCAL.in                       : CDL Caliper
DPOR.pu                       : CDL Density Porosity
NPOR.pu                       : Neutron Porosity
RHOB.g/cc                     : CDL Bulk Density
RHOC.g/cc                     : CDL Density Correction
GR.GAPI                       : Gamma Ray
~Parameter Information Block
~A  Depth       DCAL        DPOR        NPOR        RHOB        RHOC         GR     
# ...
   754.4000      8.1800      8.8039     24.9746      2.5047      0.0119    119.9883
   754.5000      8.1799      8.2836     23.7100      2.5133      0.0315    126.0094
   754.6000      8.1799      7.4431     24.2287      2.5272      0.0048    135.1795
   754.7000      8.1799      6.5033     26.0306      2.5427      0.0827    141.5490
   754.8000      8.1805      5.7975     26.5780      2.5543      0.0831    142.6469
   754.9000      8.1805      5.7243     23.9287      2.5555      0.0980    137.4786
   755.0000      8.1825      6.4507     19.5531      2.5436      0.0587    127.5309
   755.1000      8.1825      6.9067     16.4995      2.5360      0.0305    116.7886
   755.2000      8.1825      6.4329     15.5981      2.5439      0.0805    107.3460
   755.3000      8.1905      5.9262     16.2206      2.5522      0.0513    100.1572
   755.4000      8.1905      5.6748     18.2444      2.5564      0.0580     96.1004
   755.5000      8.1972      5.2651     20.2367      2.5631      0.0730     95.3580
   755.6000      8.1972      4.5060     19.8379      2.5757      0.0577     95.1082
   755.7000      8.1972      3.7959     18.0587      2.5874      0.0832     91.6732
   755.8000      8.1925      4.2336     17.4772      2.5801      0.0733     86.7510
   755.9000      8.1925      5.5968     18.3978      2.5577      0.0229     85.7948
   756.0000      8.1884      6.3339     19.4995      2.5455      0.0233     88.0947
   756.1000      8.1884      6.2256     19.7970      2.5473      0.0520     87.7191
   756.2000      8.1884      6.2057     19.3086      2.5476      0.0563     83.1790
   756.3000      8.1868      6.6309     18.5891      2.5406      0.0300     79.4517
   756.4000      8.1868      7.7891     18.1725      2.5215      0.0256     81.0632
   756.5000      8.1869     10.2691     18.1773      2.4806      0.0381     85.3725
   756.6000      8.1869     14.0129     19.0250      2.4188     -0.0141     88.3353
   756.7000      8.1869     17.9583     21.5087      2.3537     -0.0552     90.8874
   756.8000      8.1957     20.8385     24.9758      2.3062     -0.0985     93.9403
   756.9000      8.1957     22.5257     27.4553      2.2783     -0.0454     95.9524
   757.0000      8.2123     23.6077     27.8836      2.2605     -0.0683     97.9151
   757.1000      8.2123     23.7372     26.3832      2.2583     -0.0382    104.5614
   757.2000      8.2123     22.4190     23.9511      2.2801     -0.0006    115.7565
   757.3000      8.2306     19.7205     22.4198      2.3246      0.0419    125.0690
   757.4000      8.2306     15.4369     22.7007      2.3953      0.1005    128.3266
   757.5000      8.2535     10.0332     24.3131      2.4845      0.2418    128.9211
   757.6000      8.2535      6.4174     26.8612      2.5441      0.3969    131.4141
   757.7000      8.2535      6.9314     29.2960      2.5356      0.2976    133.2418
   757.8000      8.2695      9.3430     29.5844      2.4958      0.2366    133.4307
   757.9000      8.2695     10.6282     27.7026      2.4746      0.2583    139.4268
   758.0000      8.2643     11.1602     25.5294      2.4659      0.1769    151.3024
   758.1000      8.2643     12.6021     24.1815      2.4421      0.1168    159.8945
   758.2000      8.2643     14.7977     24.2576      2.4058      0.0076    160.3210
   758.3000      8.2531     16.2615     25.8448      2.3817      0.0156    155.2874
   758.4000      8.2531     16.2690     27.7446      2.3816      0.0414    150.0364
   758.5000      8.2404     14.6252     27.8025      2.4087      0.0463    145.4977
   758.6000      8.2404     11.4410     24.7885      2.4612      0.1500    139.9133
   758.7000      8.2404      7.8072     20.2003      2.5212      0.2110    130.3706
   758.8000      8.2114      4.9911     16.6240      2.5676      0.2276    115.4572
   758.9000      8.2114      3.4351     14.8582      2.5933      0.2084    101.5921
   759.0000      8.1700      3.1163     14.2850      2.5986      0.2262     94.5618
   759.1000      8.1700      3.6497     14.6465      2.5898      0.1481     90.6062
   759.2000      8.1700      4.1716     15.9985      2.5812      0.1135     83.6665
   759.3000      8.1464      4.2358     17.5578      2.5801      0.0754     74.6739
   759.4000      8.1464      4.4455     18.1143      2.5766      0.0943     67.5162
   759.5000      8.1415      5.5418     17.3348      2.5586      0.0224     62.7783
   759.6000      8.1415      6.9053     16.1426      2.5361      0.0366     60.0919
   759.7000      8.1415      7.0381     15.7000      2.5339      0.0017     59.6386
   759.8000      8.1427      5.1226     16.7325      2.5655      0.0121     61.3024
   759.9000      8.1427      2.3611     19.4327      2.6110      0.0676     65.0969
   760.0000      8.1504      0.8947     22.2739      2.6352      0.0812     69.0529
   760.1000      8.1504      0.9965     22.7137      2.6336      0.0369     70.4225
   760.2000      8.1504      1.7265     20.9279      2.6215      0.0502     70.2677
   760.3000      8.1631      3.1331     19.3842      2.5983      0.0678     71.6744
   760.4000      8.1631      5.0231     19.4935      2.5671      0.0338     76.7662
   760.5000      8.1710      6.1509     20.9051      2.5485     -0.0106     84.8691
   760.6000      8.1710      6.1266     22.1450      2.5489      0.0073     94.0372
   760.7000      8.1710      6.0158     21.8235      2.5507      0.0399    102.8166
   760.8000      8.1715      6.4827     19.9574      2.5430      0.0129    108.7639
   760.9000      8.1715      6.6253     17.6435      2.5407     -0.0053    109.4038
   761.0000      8.1691      5.7099     15.7799      2.5558      0.0552    106.4852
   761.1000      8.1691      4.7967     14.8119      2.5709      0.0663    105.0810
   761.2000      8.1691      4.9895     14.8597      2.5677      0.0674    104.3230
   761.3000      8.1674      5.5238     15.3826      2.5589      0.0056    101.3511
   761.4000      8.1674      5.2906     15.7653      2.5627      0.0470     98.6634
   761.5000      8.1675      4.7421     16.1839      2.5718      0.0408     96.0809
   761.6000      8.1675      5.0293     17.2235      2.5670      0.0429     91.8733
   761.7000      8.1675      6.3949     18.8092      2.5445      0.0339     87.8400
   761.8000      8.1683      7.6267     19.7507      2.5242      0.0082     86.4803
   761.9000      8.1683      7.6077     19.3340      2.5245      0.0311     89.5372
   762.0000      8.1688      7.0899     18.9131      2.5330      0.0326     95.5142
   762.1000      8.1688      7.4058     19.7577      2.5278      0.0294     99.5543
   762.2000      8.1688      8.8531     21.6573      2.5039      0.0115    102.7108
   762.3000      8.1781     11.2931     24.5533      2.4637     -0.0045    109.4222
   762.4000      8.1781     14.6286     28.2712      2.4086     -0.0475    117.2271
   762.5000      8.2068     18.3557     30.5583      2.3471     -0.0124    121.7271
   762.6000      8.2068     21.8453     29.1822      2.2896     -0.0203    124.5662
   762.7000      8.2068     24.6560     25.3890      2.2432     -0.0526    129.9816
   762.8000      8.2480     26.7684     22.4846      2.2083     -0.0411    138.6928
   762.9000      8.2480     29.1427     21.9502      2.1691     -0.0258    146.2009
   763.0000      8.3124     32.5722     23.1010      2.1126     -0.0531    149.9868
   763.1000      8.3124     35.2754     25.2128      2.0680     -0.0997    152.5573
   763.2000      8.3124     34.0946     27.5738      2.0874     -0.0551    155.7471
   763.3000      8.4755     29.2185     28.4545      2.1679      0.2179    160.6222
   763.4000      8.4755     24.0295     27.6847      2.2535      0.3300    165.1091
   763.5000      8.7005     20.2014     27.5118      2.3167      0.3739    165.8151
   763.6000      8.7005     17.2247     28.9598      2.3658      0.3511    164.3657
   763.7000      8.7005     14.8221     30.8025      2.4054      0.3124    160.8968
   763.8000      8.7507     13.2623     31.5947      2.4312      0.2572    155.3627
   763.9000      8.7507     12.3463     31.0682      2.4463      0.2189    150.3608
