~Version Information
VERS.                      2.0: CWLS Log ASCII Standard - VERSION 2.0
WRAP.                       NO: One line per depth step
~Well Information Block
STRT.FT               750.0000: 
STOP.FT              2433.0000: 
STEP.FT                 0.2500: 
NULL.                -999.2500: 
COMP.          Petrogulf Corporation: COMPANY
WELL.           McDaniel 9-34V: WELL
FLD.           Purgatorie River: FIELD
LOC.           620' FSL & 1800' FEL: LOCATION
PROV.                 Colorado: PROVINCE
CNTY.               Las Animas: COUNTRY
SRVC.                Patterson: SERVICE COMPANY
DATE.          Tue Sep 27 19:56:11 2005: LOG DATE
UWI.                          : UNIQUE WELL ID
~Curve Information Block
DEPT.FT            0 000 00 00: Depth
SP.mV                         : DIL Spontaneous Potential
RILD.Ohm-m                    : DIL Deep Resistivity
RILM.Ohm-m                    : DIL Medium Resistivity
RLL3.Ohm-m                    : DIL Shallow Resistivity
GR.GAPI                       : Gamma Ray
~Parameter Information Block
~A  Depth        SP         RILD        RILM        RLL3         GR     
# ...
  2402.0000    221.0964     17.2920     19.3228     37.1620     83.1588
  2402.2500    220.6198     17.4932     20.3685     37.6604     80.0425
  2402.5000    220.2753     17.8111     21.2581     36.6699     76.1162
  2402.7500    220.0178     18.2478     21.9669     34.9058     74.7727
  2403.0000    219.7879     18.7653     22.4936     32.9134     74.8618
  2403.2500    219.5222     19.2995     22.8468     30.9725     75.9869
  2403.5000    219.1656     19.7783     23.0356     29.1985     78.4238
  2403.7500    218.6837     20.1395     23.0667     27.6637     80.1318
  2404.0000    218.0720     20.3429     22.9485     26.4298     82.6043
  2404.2500    217.3593     20.3755     22.6958     25.5039     84.2785
  2404.5000    216.6032     20.2517     22.3324     24.8134     86.6064
  2404.7500    215.8798     20.0080     21.8902     24.2375     87.5375
  2405.0000    215.2678     19.6938     21.4059     23.6513     87.3570
  2405.2500    214.8336     19.3618     20.9174     22.9412     86.4541
  2405.5000    214.6196     19.0594     20.4593     22.0267     85.1400
  2405.7500    214.6369     18.8214     20.0613     20.9106     84.6311
  2406.0000    214.8654     18.6642     19.7455     19.7074     83.3761
  2406.2500    215.2571     18.5844     19.5264     18.6065     80.9558
  2406.5000    215.7427     18.5638     19.4108     17.8186     73.0006
  2406.7500    216.2401     18.5781     19.3981     17.5809     64.3010
  2407.0000    216.6636     18.6082     19.4811     18.2620     47.0149
  2407.2500    216.9333     18.6478     19.6470     20.5170     34.3709
  2407.5000    216.9850     18.7060     19.8783     25.2806     17.7105
  2407.7500    216.7797     18.8006     20.1559     33.2075      9.8348
  2408.0000    216.3105     18.9503     20.4623     43.5016      3.1942
  2408.2500    215.6055     19.1670     20.7871     53.1450      1.2718
  2408.5000    214.7268     19.4549     21.1316     58.0293      0.2437
  2408.7500    213.7624     19.8117     21.5111     55.7914      0.0664
  2409.0000    212.8136     20.2311     21.9523     47.7342      0.0060
  2409.2500    211.9784     20.7009     22.4853     37.7972      0.0000
  2409.5000    211.3344     21.1964     23.1328     29.8479   -999.2500
  2409.7500    210.9260     21.6722     23.8950     26.0077   -999.2500
  2410.0000    210.7595     22.0609     24.7372     26.7249   -999.2500
  2410.2500    210.8068     22.2849     25.5807     31.3232   -999.2500
  2410.5000    211.0183     22.2751     26.3060     38.1333   -999.2500
  2410.7500    211.3381     21.9905     26.7752     44.6300   -999.2500
  2411.0000    211.7185     21.4297     26.8721     48.2293   -999.2500
  2411.2500    212.1264     20.6364     26.5421     47.4965   -999.2500
  2411.5000    212.5426     19.6921     25.8103     42.8379   -999.2500
  2411.7500    212.9540     18.6958     24.7638     36.1054   -999.2500
  2412.0000    213.3447     17.7353     23.5155     29.4736   -999.2500
  2412.2500    213.6895     16.8671     22.1706     24.4247   -999.2500
  2412.5000    213.9538     16.1142     20.8105     21.3798   -999.2500
  2412.7500    214.0997     15.4781     19.4935     19.9300   -999.2500
  2413.0000    214.0964     14.9544     18.2620     19.2962   -999.2500
  2413.2500    213.9317     14.5402     17.1501     18.7335   -999.2500
  2413.5000    213.6188     14.2322     16.1870     17.7819   -999.2500
  2413.7500    213.1952     14.0206     15.3973     16.3522   -999.2500
  2414.0000    212.7132     13.8855     14.7988     14.6644   -999.2500
  2414.2500    212.2231     13.7459     14.4008     13.1228   -999.2500
  2414.5000    211.7483     13.6328     14.2026     12.2154   -999.2500
  2414.7500    211.2784     13.5821     14.1915     12.4041   -999.2500
  2415.0000    210.7504     13.5323     14.3408     13.9374   -999.2500
  2415.2500    210.0499     13.4798     14.6066     16.6677   -999.2500
  2415.5000    209.0151     13.4218     14.9277     20.0446   -999.2500
  2415.7500    207.4419     13.3582     15.2300     23.3160   -999.2500
  2416.0000    205.0849     13.2966     15.4404     25.7950   -999.2500
  2416.2500    201.6543     13.2559     15.5051     27.0441   -999.2500
  2416.5000    196.8135     13.2636     15.4069     26.9264   -999.2500
  2416.7500    190.1907     13.3537     15.1688     25.5498   -999.2500
  2417.0000    181.4173     13.5727     14.8427     23.1784   -999.2500
  2417.2500    170.1999     13.9995     14.4903     20.1932   -999.2500
  2417.5000    156.4179     14.7767     14.1644     17.1216   -999.2500
  2417.7500    140.2210     16.1484     13.8990     14.6282   -999.2500
  2418.0000    122.0894     18.6238     13.7062     13.3247   -999.2500
  2418.2500    102.8215     22.6375     13.5785     13.4350   -999.2500
  2418.5000     83.4371     29.2195     13.4948     14.5938   -999.2500
  2418.7500     65.0119     39.5586     13.4285     16.0152   -999.2500
  2419.0000     48.4899     54.3971     13.3555     16.9258   -999.2500
  2419.2500     34.5283     72.3307     13.2621     16.9264   -999.2500
  2419.5000     23.4191     89.0061     13.1489     16.0986   -999.2500
  2419.7500     15.1004    100.4733     13.0293     14.9078   -999.2500
  2420.0000      9.2406    106.7720     12.9266     13.9805   -999.2500
  2420.2500      5.3589    110.4296     12.8721     13.7935   -999.2500
  2420.5000      2.9414    113.7949     12.9058     14.3941   -999.2500
  2420.7500      1.5260    118.3839     13.0798     15.3515   -999.2500
  2421.0000      0.7472    346.3147     13.4647     16.0153   -999.2500
  2421.2500      0.3445    426.2045     14.1566     15.9157   -999.2500
  2421.5000      0.1488    563.4707     15.2886     15.0262   -999.2500
  2421.7500      0.0595    796.7392     17.0486     13.7182   -999.2500
  2422.0000      0.0211   1176.0765     19.7065     12.4961   -999.2500
  2422.2500      0.0057   1722.4492     23.6502     11.7564   -999.2500
  2422.5000   -999.2500   2341.3965     29.4169     11.7051   -999.2500
  2422.7500   -999.2500   2836.3433     37.6730     12.3493   -999.2500
  2423.0000   -999.2500   3108.5171     48.8805     13.4734   -999.2500
  2423.2500   -999.2500   3217.5588     63.6025     14.6771   -999.2500
  2423.5000   -999.2500   3251.8899     80.2478     15.5763   -999.2500
  2423.7500   -999.2500   3260.8154     96.4606     16.0460   -999.2500
  2424.0000   -999.2500 100000.0000    109.5118     16.2486   -999.2500
  2424.2500   -999.2500 100000.0000    118.1422     16.4119   -999.2500
  2424.5000   -999.2500 100000.0000    122.8877     16.6092   -999.2500
  2424.7500   -999.2500 100000.0000    125.0821     16.7369   -999.2500
  2425.0000   -999.2500 100000.0000    125.9335     16.6247   -999.2500
  2425.2500   -999.2500 100000.0000    126.2336     16.1575   -999.2500
  2425.5000   -999.2500 100000.0000    126.4360     15.3890   -999.2500
  2425.7500   -999.2500 100000.0000    659.0239     14.6174   -999.2500
  2426.0000   -999.2500 100000.0000    678.3324     14.2640   -999.2500
  2426.2500   -999.2500 100000.0000    713.4183     14.5082   -999.2500
  2426.5000   -999.2500 100000.0000    771.2017     14.9619   -999.2500
  2426.7500   -999.2500 100000.0000    861.5898     14.7689   -999.2500
  2427.0000   -999.2500 100000.0000    999.1277     13.1762   -999.2500
  2427.2500   -999.2500 100000.0000   1205.3694     10.1432   -999.2500
  2427.5000   -999.2500   -999.2500   1511.5763      6.4454   -999.2500
  2427.7500   -999.2500   -999.2500   1959.7328      3.1419   -999.2500
  2428.0000   -999.2500   -999.2500   2596.0562      0.8882   -999.2500
  2428.2500   -999.2500   -999.2500   3446.3757     -0.3032   -999.2500
  2428.5000   -999.2500   -999.2500   4469.4092     -0.7939   -999.2500
  2428.7500   -999.2500   -999.2500   5523.6660     -0.9516   -999.2500
  2429.0000   -999.2500   -999.2500   6419.8145     -0.9911   -999.2500
  2429.2500   -999.2500   -999.2500   7042.2671     -0.9988   -999.2500
  2429.5000   -999.2500   -999.2500   7402.3086   -999.2500   -999.2500
  2429.7500   -999.2500   -999.2500   7581.3896   -999.2500   -999.2500
