~Version Information
 VERS.                                  2.0 : CWLS LAS VERSION
 WRAP.                                   NO : WRAPING MODE
 SWARE .                 MController 2.5.0J : SOFTWARE VERSION
~Well Information
 WELL.                           Furu 6-23R : WELL
 COMP.                Petrogulf Corporation : COMPANY
 FLD.                       Purgatory River : FIELD
 LOC.                  NE/SW Sec6 T33S R67W : LOCATION
 DATE.                    6/19/06 - 6/21/06 : DATE(S) LOGGED
 SRVC.      Blanco Geological Services, LLC : SERVICE COMPANY
 STAT.                             Colorado : STATE
 CNTY.                           Las Animas : COUNTY
 CTRY.                                  USA : COUNTRY
 API.                       05-071-08266-00 : API NUMBER
 STRT.FT                             566.00 : START DEPTH
 STOP.FT                            2205.00 : STOP DEPTH
 STEP.FT                               1.00 : DEPTH INCREMENT
 NULL.                                -9999 : NULL VALUE
~Curve information
 DEPTH.FT                                   :
 ROP.MIN/FT                                 :
 GAS.UNITS                                  :
~ASCII Log data
# ...
      1166.0         3.72       3859.8 
      1167.0         0.77        925.0 
      1168.0         0.77        674.9 
      1169.0         0.80         99.6 
      1170.0         0.48         31.6 
      1171.0         0.30         27.9 
      1172.0         0.37         26.5 
      1173.0         0.33         23.8 
      1174.0         0.33         21.4 
      1175.0         0.33         22.2 
      1176.0         0.37         23.3 
      1177.0         0.30         28.8 
      1178.0         0.30         47.9 
      1179.0         0.27         65.9 
      1180.0         0.32         87.9 
      1181.0         0.30        139.0 
      1182.0         0.30        215.3 
      1183.0         0.37        339.9 
      1184.0         0.37        919.3 
      1185.0         0.27       1031.6 
      1186.0         0.33       1152.6 
      1187.0         0.40       1229.1 
      1188.0         0.40       1295.4 
      1189.0         0.43       1320.5 
      1190.0         0.45       1317.9 
      1191.0         0.43       1292.2 
      1192.0         0.40       1275.1 
      1193.0         0.40       1253.5 
      1194.0         0.53       1228.4 
      1195.0         0.40       1184.9 
      1196.0         3.42       4845.6 
      1197.0         0.33       1812.4 
      1198.0         0.52        931.4 
      1199.0         0.50        460.4 
      1200.0         0.63         79.0 
      1201.0         0.40         59.7 
      1202.0         0.40         43.1 
      1203.0         0.50         37.8 
      1204.0         0.37         27.3 
      1205.0         0.40         22.7 
      1206.0         0.38         19.2 
      1207.0         0.37         21.0 
      1208.0         0.37         42.8 
      1209.0         0.23         63.9 
      1210.0         0.33        159.5 
      1211.0         0.33        290.9 
      1212.0         0.37        398.7 
      1213.0         0.37        991.7 
      1214.0         0.40       1164.3 
      1215.0         0.45       1291.6 
      1216.0         0.47       1338.6 
      1217.0         0.43       1364.9 
      1218.0         0.43       1396.3 
      1219.0         0.57       1412.8 
      1220.0         0.43       1397.6 
      1221.0         0.53       1347.4 
      1222.0         0.58       1342.0 
      1223.0         0.57       1218.6 
      1224.0         0.50       1087.2 
      1225.0         0.47        974.5 
      1226.0         4.58       2675.1 
      1227.0         0.82        440.0 
      1228.0         0.80         35.7 
      1229.0         0.60         19.9 
      1230.0         0.47         13.3 
      1231.0         0.43         12.2 
      1232.0         0.52         11.6 
      1233.0         0.60         11.4 
      1234.0         0.43         11.4 
      1235.0         0.50         11.7 
      1236.0         0.50         11.8 
      1237.0         0.60         11.2 
      1238.0         0.72         11.1 
      1239.0         0.53         11.1 
      1240.0         0.57         11.3 
      1241.0         0.40         11.2 
      1242.0         0.53         11.6 
      1243.0         0.37         11.5 
      1244.0         0.43         12.0 
      1245.0         0.45         12.9 
      1246.0         0.57         13.7 
      1247.0         0.53         13.9 
      1248.0         0.27         13.9 
      1249.0         0.30         14.4 
      1250.0         0.47         15.1 
      1251.0         0.43         14.9 
      1252.0         0.82         15.4 
      1253.0         0.40         14.1 
      1254.0         0.63         12.8 
      1255.0         0.70         11.8 
      1256.0         7.03       8148.0 
      1257.0         0.53        567.0 
      1258.0         0.43         70.1 
      1259.0         0.55         35.8 
      1260.0         0.40         23.4 
      1261.0         0.43         18.0 
      1262.0         0.43         16.2 
      1263.0         0.50         16.4 
      1264.0         0.53         18.4 
      1265.0         0.43         23.2 
      1266.0         0.52         24.1 
      1267.0         0.43         23.4 
      1268.0         0.43         21.8 
      1269.0         0.47         20.5 
      1270.0         0.53         19.7 
      1271.0         0.43         19.2 
      1272.0         0.43         18.7 
      1273.0         0.48         18.8 
      1274.0         0.47         19.9 
      1275.0         0.43         19.8 
      1276.0         0.70         22.0 
      1277.0         0.20         22.3 
      1278.0         0.40         21.5 
      1279.0         0.47         22.5 
      1280.0         0.52         22.5 
      1281.0         0.47         21.2 
      1282.0         0.43         21.2 
      1283.0         0.43         20.6 
      1284.0         0.50         19.6 
      1285.0         0.30         18.1 
      1286.0         9.18       8244.8 
      1287.0         0.40       1079.6 
      1288.0         0.40        521.3 
      1289.0         0.33        440.0 
      1290.0         0.30         50.2 
      1291.0         0.30         36.4 
      1292.0         0.32         26.8 
      1293.0         0.43         23.8 
      1294.0         0.37         21.3 
      1295.0         0.33         21.5 
      1296.0         0.37         22.5 
      1297.0         0.33         22.7 
      1298.0         0.40         23.0 
      1299.0         0.40         22.1 
      1300.0         0.37         21.9 
      1301.0         0.32         20.9 
      1302.0         0.37         19.9 
      1303.0         0.33         19.6 
      1304.0         0.43         20.2 
      1305.0         0.43         20.7 
      1306.0         0.40         20.7 
      1307.0         0.40         21.3 
      1308.0         0.47         21.3 
      1309.0         0.43         20.6 
      1310.0         0.42         18.7 
      1311.0         0.60         17.4 
      1312.0         0.63         16.9 
      1313.0         0.47         16.2 
      1314.0         0.43         16.6 
      1315.0         0.23         17.1 
      1316.0        22.62       3681.8 
      1317.0         0.40         18.2 
      1318.0         0.70         18.7 
      1319.0         0.65         41.8 
      1320.0         0.23         42.3 
      1321.0         0.33         42.2 
      1322.0         0.33         36.0 
      1323.0         0.33         25.7 
      1324.0         0.33         22.5 
      1325.0         0.33         19.4 
      1326.0         0.30         18.4 
      1327.0         0.30         18.3 
      1328.0         0.23         18.9 
      1329.0         0.23         19.9 
      1330.0         0.38         20.7 
      1331.0         0.47         23.4 
      1332.0         0.37         25.7 
      1333.0         0.30         28.4 
      1334.0         0.40         29.6 
      1335.0         0.40         29.2 
      1336.0         0.30         27.9 
      1337.0         0.37         27.3 
      1338.0         0.37         28.8 
      1339.0         0.35         32.1 
      1340.0         0.37         34.2 
      1341.0         0.47         35.1 
      1342.0         0.47         35.2 
      1343.0         0.40         34.8 
      1344.0         0.33         34.6 
      1345.0         0.40         35.4 
      1346.0         5.33       5811.8 
      1347.0         0.47         54.4 
      1348.0         0.33         37.4 
      1349.0         0.47         29.7 
      1350.0         0.43         25.7 
      1351.0         0.38         24.0 
      1352.0         0.33         22.1 
      1353.0         0.37         23.4 
      1354.0         0.50         26.8 
      1355.0         0.50         33.3 
      1356.0         0.50         39.0 
      1357.0         0.50         38.7 
      1358.0         0.47         30.9 
      1359.0         0.45         25.8 
      1360.0         0.33         24.5 
      1361.0         0.43         24.8 
      1362.0         0.37         25.6 
      1363.0         0.40         26.1 
      1364.0         0.40         27.1 
      1365.0         0.47         28.2 
