~Version Information
VERS.                      2.0: CWLS Log ASCII Standard - VERSION 2.0
WRAP.                       NO: One line per depth step
~Well Information Block
STRT.FT               710.0000: 
STOP.FT              2922.5000: 
STEP.FT                 0.2500: 
NULL.                -999.2500: 
COMP.          Petrogulf Corporation: COMPANY
WELL.            Montoya 1-41V: WELL
FLD.           Purgatorie River: FIELD
LOC.           610' FNL & 1205' FEL: LOCATION
PROV.                 Colorado: PROVINCE
CNTY.               Las Animas: COUNTRY
SRVC.                Patterson: SERVICE COMPANY
DATE.          Mon Aug 22 08:00:56 2005: LOG DATE
UWI.                          : UNIQUE WELL ID
~Curve Information Block
DEPT.FT            0 000 00 00: Depth
SP.mV                         : DIL Spontaneous Potential
RILD.Ohm-m                    : DIL Deep Resistivity
RILM.Ohm-m                    : DIL Medium Resistivity
RLL3.Ohm-m                    : DIL Shallow Resistivity
GR.GAPI                       : Gamma Ray
~Parameter Information Block
~A  Depth        SP         RILD        RILM        RLL3         GR     
# ...
   850.0000   2000.0000     16.9338     18.1388   2000.0000    129.8779
   850.2500   2000.0000     16.8692     18.2530   2000.0000    126.3821
   850.5000   2000.0000     17.0252     18.7632   2000.0000    132.2004
   850.7500   2000.0000     17.2721     18.8825   2000.0000    141.1911
   851.0000   2000.0000     16.9398     17.6872   2000.0000    155.8082
   851.2500   2000.0000     17.3857     16.7876   2000.0000    161.2356
   851.5000   2000.0000     17.3128     16.1393   2000.0000    170.8007
   851.7500   2000.0000     16.3104     15.9819   2000.0000    160.5729
   852.0000   2000.0000     17.1297     16.0783   2000.0000    143.1557
   852.2500   2000.0000     18.0436     16.0528   2000.0000    137.8948
   852.5000   2000.0000     18.2196     16.3021   2000.0000    150.8952
   852.7500   2000.0000     17.6039     16.5744   2000.0000    149.4649
   853.0000   2000.0000     17.1686     17.5582   2000.0000    138.8193
   853.2500   2000.0000     16.8840     17.6237   2000.0000    139.9832
   853.5000   2000.0000     16.1010     17.7703   2000.0000    135.3657
   853.7500   2000.0000     16.3491     17.6184   2000.0000    149.1987
   854.0000   2000.0000     16.8233     17.6429   2000.0000    138.2753
   854.2500   2000.0000     16.3938     16.9605   2000.0000    142.1056
   854.5000   2000.0000     16.8173     16.3518   2000.0000    155.6417
   854.7500   2000.0000     16.8684     16.5448   2000.0000    150.2004
   855.0000   2000.0000     16.5368     16.4137   2000.0000    133.4134
   855.2500   2000.0000     16.7477     17.1521   2000.0000    141.9171
   855.5000   2000.0000     16.4577     17.4856   2000.0000    153.0631
   855.7500   2000.0000     16.5742     17.1080   2000.0000    151.3610
   856.0000   2000.0000     16.4078     16.2845   2000.0000    140.1664
   856.2500   2000.0000     15.9706     15.8183   2000.0000    133.3480
   856.5000   2000.0000     16.1385     15.7095   2000.0000    161.3146
   856.7500   2000.0000     15.8488     15.3202   2000.0000    160.7577
   857.0000   2000.0000     16.3065     15.0701   2000.0000    140.4754
   857.2500   2000.0000     17.0332     15.6146   2000.0000    159.0344
   857.5000   2000.0000     17.5238     15.6704   2000.0000    196.9303
   857.7500   2000.0000     18.2272     15.5282   2000.0000    183.9863
   858.0000   2000.0000     18.8496     16.8663   2000.0000    166.2451
   858.2500   2000.0000     20.4072     17.5752   2000.0000    167.8207
   858.5000   2000.0000     20.5728     18.5949   2000.0000    166.0060
   858.7500   2000.0000     21.4056     22.0869   2000.0000    129.7019
   859.0000   2000.0000     21.1342     24.2957   2000.0000    142.3134
   859.2500   2000.0000     20.8503     26.4681   2000.0000    133.8836
   859.5000   2000.0000     21.1930     27.5750   2000.0000    129.1617
   859.7500   2000.0000     22.0065     27.5121   2000.0000    124.6165
   860.0000   2000.0000     21.6580     27.9142   2000.0000    120.9799
   860.2500   2000.0000     21.8206     25.7874   2000.0000    130.7874
   860.5000   2000.0000     22.7094     26.0149   2000.0000    117.2147
   860.7500   2000.0000     23.2253     24.5398   2000.0000    105.9725
   861.0000   2000.0000     24.4913     22.8275   2000.0000    111.2257
   861.2500   2000.0000     25.7190     22.4297   2000.0000    118.9128
   861.5000   2000.0000     24.6456     21.0989   2000.0000    141.0318
   861.7500   2000.0000     24.4138     21.1876   2000.0000    142.9770
   862.0000   2000.0000     21.8755     21.4353   2000.0000    140.9799
   862.2500   2000.0000     22.3342     22.4159   2000.0000    131.0760
   862.5000   2000.0000     21.9373     22.9008   2000.0000    122.0702
   862.7500   2000.0000     20.7618     23.1959   2000.0000    115.5221
   863.0000   2000.0000     19.2207     22.6018   2000.0000     98.2174
   863.2500   2000.0000     18.2072     21.4894   2000.0000    106.7937
   863.5000   2000.0000     18.9433     20.1596   2000.0000    102.9308
   863.7500   2000.0000     18.4527     20.1523   2000.0000    111.5803
   864.0000   2000.0000     17.5176     19.4960   2000.0000    112.5884
   864.2500   2000.0000     17.1988     18.4949   2000.0000    130.6830
   864.5000   2000.0000     16.2714     18.4286   2000.0000    133.8649
   864.7500   2000.0000     16.7044     17.5287   2000.0000    132.0005
   865.0000   2000.0000     16.0411     16.2425   2000.0000    132.3906
   865.2500   2000.0000     16.3539     15.4652   2000.0000    137.4544
   865.5000   2000.0000     15.3860     14.7163   2000.0000    168.1230
   865.7500   2000.0000     14.9672     14.6793   2000.0000    163.8885
   866.0000   2000.0000     14.5751     13.5443   2000.0000    156.3200
   866.2500   2000.0000     14.2949     13.1673   2000.0000    159.7821
   866.5000   2000.0000     13.9383     13.0833   2000.0000    157.4297
   866.7500   2000.0000     13.1654     12.9102   2000.0000    181.5273
   867.0000   2000.0000     12.7689     12.9181   2000.0000    162.6012
   867.2500   2000.0000     12.8021     12.3935   2000.0000    155.8443
   867.5000   2000.0000     12.7208     12.2301   2000.0000    124.7563
   867.7500   2000.0000     12.4724     11.9677   2000.0000    122.3596
   868.0000   2000.0000     12.3818     11.6766   2000.0000    141.3849
   868.2500   2000.0000     12.2184     11.8557   2000.0000    140.1836
   868.5000   2000.0000     12.2143     11.7626   2000.0000    128.6985
   868.7500   2000.0000     12.5164     11.6545   2000.0000    128.8824
   869.0000   2000.0000     12.3444     12.3734   2000.0000    131.4169
   869.2500   2000.0000     12.8585     11.7987   2000.0000    153.1024
   869.5000   2000.0000     13.0613     11.8496   2000.0000    167.3010
   869.7500   2000.0000     13.5374     11.8436   2000.0000    170.8099
   870.0000   2000.0000     13.4665     11.9479   2000.0000    155.6383
   870.2500   2000.0000     13.4290     12.5172   2000.0000    151.9294
   870.5000   2000.0000     13.4647     13.2186   2000.0000    133.3352
   870.7500   2000.0000     13.5610     13.9856   2000.0000    136.1301
   871.0000   2000.0000     13.8022     13.9840   2000.0000    151.8625
   871.2500   2000.0000     13.9260     14.1438   2000.0000    137.8886
   871.5000   2000.0000     14.1275     14.9107   2000.0000    146.9350
   871.7500   2000.0000     14.4672     15.1698   2000.0000    150.2419
   872.0000   2000.0000     14.5071     15.6851   2000.0000    144.0011
   872.2500   2000.0000     14.9585     16.1777   2000.0000    145.1827
   872.5000   2000.0000     15.1143     16.0589   2000.0000    143.5738
   872.7500   2000.0000     15.1652     16.2495   2000.0000    141.4672
   873.0000   2000.0000     15.4662     15.8859   2000.0000    145.3857
   873.2500   2000.0000     15.6999     15.2952   2000.0000    152.3369
   873.5000   2000.0000     15.4604     14.5835   2000.0000    148.3267
   873.7500   2000.0000     15.5398     14.7928   2000.0000    146.3754
   874.0000   2000.0000     15.2242     14.8335   2000.0000    150.8765
   874.2500   2000.0000     15.1915     14.9078   2000.0000    148.7552
   874.5000   2000.0000     14.9790     14.6206   2000.0000    140.2676
   874.7500   2000.0000     14.8971     14.6762   2000.0000    140.2686
   875.0000   2000.0000     14.7688     14.7882   2000.0000    158.4948
   875.2500   2000.0000     14.9565     14.8970   2000.0000    168.3680
   875.5000   2000.0000     14.8289     14.7959   2000.0000    153.6044
   875.7500   2000.0000     15.3005     14.8437   2000.0000    133.3579
   876.0000   2000.0000     15.2213     14.7963   2000.0000    117.7478
   876.2500   2000.0000     15.8763     14.8065   2000.0000    134.4292
   876.5000   2000.0000     16.2674     15.2560   2000.0000    142.1385
   876.7500   2000.0000     15.9142     15.4446   2000.0000    126.8134
   877.0000   2000.0000     16.1817     15.2833   2000.0000    131.0975
   877.2500   2000.0000     15.9551     15.3584   2000.0000    127.3143
   877.5000   2000.0000     16.8180     15.8026   2000.0000    111.9940
   877.7500   2000.0000     16.8982     17.0665   2000.0000    127.4590
