~Version Information
VERS.                      2.0: CWLS Log ASCII Standard - VERSION 2.0
WRAP.                       NO: One line per depth step
~Well Information Block
STRT.FT               702.7000: 
STOP.FT              2529.2000: 
STEP.FT                 0.1000: 
NULL.                -999.2500: 
COMP.          Pioneer Natural Resources: COMPANY
WELL.          Aztec Federal 41-15: WELL
FLD.           Purgatorie River: FIELD
LOC.           706' FNL & 1253' FEL: LOCATION
CNTY.               Las Animas: COUNTY
SRVC.          Superior Well Services: SERVICE COMPANY
DATE.          Tue Mar 18 09-36-47 2008: LOG DATE
UWI.           05-071-08342-00: UNIQUE WELL ID
STAT.                       CO: STATE
~Curve Information Block
DEPT.FT            0 000 00 00: Depth
DCAL.in                       : CDL Caliper
DPOR.pu                       : CDL Density Porosity
GR.GAPI                       : Gamma Ray
RHOB.g/cc                     : CDL Bulk Density
RHOC.g/cc                     : CDL Density Correction
~Parameter Information Block
~A  Depth       DCAL        DPOR         GR         RHOB        RHOC    
# ...
  1195.5000      8.0181     15.1086     90.6013      2.4007      0.0297
  1195.6000      8.0214     14.7099     86.2530      2.4073      0.0505
  1195.7000      8.0251     14.0081     83.2227      2.4189      0.0766
  1195.8000      8.0295     13.8737     82.3566      2.4211      0.0901
  1195.9000      8.0344     14.4438     83.0472      2.4117      0.0878
  1196.0000      8.0390     15.8860     84.9983      2.3879      0.0725
  1196.1000      8.0421     17.6981     88.3145      2.3580      0.0561
  1196.2000      8.0424     18.0044     89.0142      2.3529      0.0600
  1196.3000      8.0388     16.4961     85.2653      2.3778      0.0766
  1196.4000      8.0303     14.1784     80.9590      2.4161      0.0907
  1196.5000      8.0168     11.9032     78.8874      2.4536      0.1034
  1196.6000      7.9994     10.2122     79.7825      2.4815      0.1096
  1196.7000      7.9798      9.2440     82.3084      2.4975      0.1005
  1196.8000      7.9609      9.4849     85.7133      2.4935      0.0775
  1196.9000      7.9450     10.5827     93.4667      2.4754      0.0565
  1197.0000      7.9336     11.1234    105.6097      2.4665      0.0497
  1197.1000      7.9268     10.5315    116.5538      2.4762      0.0522
  1197.2000      7.9239      9.3101    120.9525      2.4964      0.0546
  1197.3000      7.9239      8.5693    118.0512      2.5086      0.0507
  1197.4000      7.9259      9.1087    112.3483      2.4997      0.0391
  1197.5000      7.9289     10.3001    109.6256      2.4800      0.0257
  1197.6000      7.9325     10.3116    112.4172      2.4799      0.0213
  1197.7000      7.9359      8.2816    118.0681      2.5134      0.0288
  1197.8000      7.9388      5.4545    122.9276      2.5600      0.0428
  1197.9000      7.9408      3.6454    125.4206      2.5899      0.0550
  1198.0000      7.9417      2.8901    125.2735      2.6023      0.0633
  1198.1000      7.9418      2.4718    124.2090      2.6092      0.0698
  1198.2000      7.9409      2.6569    121.9856      2.6062      0.0699
  1198.3000      7.9392      3.3920    116.7206      2.5940      0.0649
  1198.4000      7.9368      4.0244    111.3834      2.5836      0.0635
  1198.5000      7.9337      4.4931    109.9023      2.5759      0.0622
  1198.6000      7.9298      4.2648    108.5040      2.5796      0.0618
  1198.7000      7.9254      2.9273    104.0007      2.6017      0.0683
  1198.8000      7.9206      1.9499    101.9540      2.6178      0.0736
  1198.9000      7.9157      2.5627    103.6062      2.6077      0.0695
  1199.0000      7.9112      4.2454    104.0096      2.5800      0.0575
  1199.1000      7.9072      5.4690    104.2368      2.5598      0.0442
  1199.2000      7.9039      5.3544    105.3529      2.5617      0.0310
  1199.3000      7.9012      5.0506    104.7910      2.5667      0.0082
  1199.4000      7.8991      5.1252    103.8384      2.5654     -0.0167
  1199.5000      7.8977      3.9980    104.0373      2.5840     -0.0168
  1199.6000      7.8970      0.4442    102.4159      2.6427      0.0159
  1199.7000      7.8974     -4.9268     95.9999      2.7313      0.0638
  1199.8000      7.8996     -9.9497     87.0877      2.8142      0.1052
  1199.9000      7.9047    -12.8507     79.6800      2.8620      0.1293
  1200.0000      7.9138    -13.8391     74.8582      2.8783      0.1361
  1200.1000      7.9275    -12.9408     72.2933      2.8635      0.1304
  1200.2000      7.9447     -9.9063     72.0208      2.8135      0.1165
  1200.3000      7.9627     -6.1767     74.0314      2.7519      0.0992
  1200.4000      7.9776     -3.1740     75.9646      2.7024      0.0861
  1200.5000      7.9861     -0.6678     75.5096      2.6610      0.0816
  1200.6000      7.9871      1.7378     74.4596      2.6213      0.0781
  1200.7000      7.9821      3.3855     77.1667      2.5941      0.0727
  1200.8000      7.9744      3.6835     83.5505      2.5892      0.0760
  1200.9000      7.9672      3.1681     89.4660      2.5977      0.0929
  1201.0000      7.9619      2.1313     95.0564      2.6148      0.1228
  1201.1000      7.9589      0.9443    103.6163      2.6344      0.1560
  1201.2000      7.9575      1.0513    113.8294      2.6327      0.1724
  1201.3000      7.9569      2.6357    121.5331      2.6065      0.1694
  1201.4000      7.9571      4.8065    123.5740      2.5707      0.1558
  1201.5000      7.9583      7.3197    120.5118      2.5292      0.1335
  1201.6000      7.9613      9.7074    116.5256      2.4898      0.1136
  1201.7000      7.9667     11.5258    114.4370      2.4598      0.1078
  1201.8000      7.9752     13.6510    115.0287      2.4248      0.1059
  1201.9000      7.9866     16.3348    116.9158      2.3805      0.0990
  1202.0000      7.9994     18.6194    115.5082      2.3428      0.0899
  1202.1000      8.0110     20.3904    110.5745      2.3136      0.0796
  1202.2000      8.0185     21.5058    108.7957      2.2952      0.0724
  1202.3000      8.0198     21.3499    112.5699      2.2977      0.0749
  1202.4000      8.0152     20.3353    116.7878      2.3145      0.0813
  1202.5000      8.0071     18.9160    117.9461      2.3379      0.0906
  1202.6000      7.9986     17.6203    117.7802      2.3593      0.0997
  1202.7000      7.9921     17.6669    118.8290      2.3585      0.0878
  1202.8000      7.9888     18.5368    118.8126      2.3441      0.0537
  1202.9000      7.9885     18.3300    114.3848      2.3476      0.0280
  1203.0000      7.9909     17.6082    109.8514      2.3595      0.0220
  1203.1000      7.9950     17.5750    110.5432      2.3600      0.0222
  1203.2000      8.0000     16.9098    114.3176      2.3710      0.0297
  1203.3000      8.0048     14.8816    116.3593      2.4045      0.0502
  1203.4000      8.0089     12.2579    114.5403      2.4477      0.0801
  1203.5000      8.0120     10.2047    110.5683      2.4816      0.1036
  1203.6000      8.0143     10.1804    107.7994      2.4820      0.1088
  1203.7000      8.0162     12.9817    107.8786      2.4358      0.1055
  1203.8000      8.0181     16.9191    110.5040      2.3708      0.1158
  1203.9000      8.0202     18.4762    112.9431      2.3451      0.1603
  1204.0000      8.0223     16.3442    112.7436      2.3803      0.2352
  1204.1000      8.0247     13.3810    112.7909      2.4292      0.2950
  1204.2000      8.0278     13.9294    116.8933      2.4202      0.2899
  1204.3000      8.0327     19.2270    122.9129      2.3328      0.2216
  1204.4000      8.0413     26.0609    126.9221      2.2200      0.1415
  1204.5000      8.0556     31.4435    127.8436      2.1312      0.0890
  1204.6000      8.0770     35.2356    125.7763      2.0686      0.0585
  1204.7000      8.1041     37.0552    123.2374      2.0386      0.0395
  1204.8000      8.1320     36.2453    125.1256      2.0520      0.0294
  1204.9000      8.1526     33.1411    131.5359      2.1032      0.0302
  1205.0000      8.1581     29.0318    134.4173      2.1710      0.0471
  1205.1000      8.1458     26.2637    128.3606      2.2166      0.0643
  1205.2000      8.1195     25.7499    120.5157      2.2251      0.0642
  1205.3000      8.0875     25.6577    118.5572      2.2266      0.0601
  1205.4000      8.0586     24.7724    118.5510      2.2413      0.0627
  1205.5000      8.0376     24.2137    114.5203      2.2505      0.0591
  1205.6000      8.0249     24.5086    110.0117      2.2456      0.0457
  1205.7000      8.0181     24.7147    110.0345      2.2422      0.0336
  1205.8000      8.0140     24.1511    110.9079      2.2515      0.0323
  1205.9000      8.0107     23.0052    107.8733      2.2704      0.0394
  1206.0000      8.0078     21.6845    103.3764      2.2922      0.0445
  1206.1000      8.0055     20.1770    101.9519      2.3171      0.0485
  1206.2000      8.0040     19.3880    104.6143      2.3301      0.0520
  1206.3000      8.0033     21.0509    109.3437      2.3027      0.0462
  1206.4000      8.0030     24.3695    113.2738      2.2479      0.0386
  1206.5000      8.0027     26.6945    115.0856      2.2095      0.0518
  1206.6000      8.0023     27.5314    115.5597      2.1957      0.0848
