~Version Information
VERS.                      2.0: CWLS Log ASCII Standard - VERSION 2.0
WRAP.                       NO: One line per depth step
~Well Information Block
STRT.FT               430.0000: 
STOP.FT              1910.2500: 
STEP.FT                 0.2500: 
NULL.                -999.2500: 
COMP.          Pioneer Natural Resources: COMPANY
WELL.          Formula 23-11 Tr: WELL
FLD.           Purgatoire River: FIELD
LOC.           1976' FSL & 1935' FWL--: LOCATION
PROV.                 Colorado: PROVINCE
CNTY.               Las Animas: COUNTRY
SRVC.                Patterson: SERVICE COMPANY
DATE.          Fri Jun 10 22:41:39 2005: LOG DATE
UWI.           05 071 08399 00: UNIQUE WELL ID
~Curve Information Block
DEPT.FT            0 000 00 00: Depth
SN.Ohm-m                      : IEL Short Normal
SP.mV                         : IEL Spontaneous Potential
DIR.Ohm-m                     : IEL Induction Resistivity
GR.GAPI                       : Gamma Ray
~Parameter Information Block
~A  Depth        SN          SP         DIR          GR     
# ...
  1669.5000     66.0758     51.3929     36.2730     44.3916
  1669.7500     67.7313     52.3946     39.0616     44.5006
  1670.0000     67.4637     53.6109     41.0099     46.1043
  1670.2500     65.8768     55.0197     41.7097     48.1348
  1670.5000     63.6280     56.5907     41.1809     52.8880
  1670.7500     61.1878     58.2866     39.8473     57.4182
  1671.0000     58.7177     60.0638     38.2391     66.2177
  1671.2500     56.1338     61.8729     36.7392     72.7850
  1671.5000     53.3046     63.6620     35.5185     81.4300
  1671.7500     50.2241     65.3805     34.5866     84.9356
  1672.0000     47.0521     66.9857     33.8673     85.7450
  1672.2500     44.0358     68.4477     33.2534     84.0490
  1672.5000     41.3934     69.7532     32.6333     81.0074
  1672.7500     39.2208     70.9050     31.9026     80.1816
  1673.0000     37.4624     71.9184     30.9848     81.5348
  1673.2500     35.9574     72.8157     29.8612     83.5725
  1673.5000     34.5355     73.6199     28.5846     86.9948
  1673.7500     33.1035     74.3502     27.2550     89.3549
  1674.0000     31.6781     75.0198     25.9757     94.0055
  1674.2500     30.3508     75.6351     24.8219     98.5766
  1674.5000     29.2115     76.1972     23.8358    107.7488
  1674.7500     28.2807     76.7035     23.0338    114.4534
  1675.0000     27.5011     77.1499     22.4126    122.5488
  1675.2500     26.7944     77.5327     21.9503    125.0070
  1675.5000     26.1386     77.8507     21.6120    122.9936
  1675.7500     25.6091     78.1065     21.3689    118.4320
  1676.0000     25.3562     78.3067     21.2223    109.6145
  1676.2500     25.5310     78.4627     21.2124    104.2401
  1676.5000     26.1938     78.5893     21.4000     98.4608
  1676.7500     27.2524     78.7034     21.8314     95.8434
  1677.0000     28.4730     78.8236     22.5044     92.4092
  1677.2500     29.5631     78.9690     23.3469     90.0138
  1677.5000     30.2747     79.1602     24.2162     86.9521
  1677.7500     30.4727     79.4174     24.9215     86.2698
  1678.0000     30.1467     79.7586     25.2705     88.6272
  1678.2500     29.3783     80.1933     25.1279     92.3356
  1678.5000     28.2876     80.7155     24.4672     99.6277
  1678.7500     26.9889     81.2966     23.3889    104.8962
  1679.0000     25.5749     81.8808     22.0840    113.3247
  1679.2500     24.1218     82.3899     20.7547    119.5386
  1679.5000     22.6922     82.7360     19.5451    129.3112
  1679.7500     21.3316     82.8427     18.5151    135.1940
  1680.0000     20.0664     82.6704     17.6562    141.2018
  1680.2500     18.9113     82.2373     16.9266    142.6424
  1680.5000     17.8792     81.6274     16.2833    140.8967
  1680.7500     16.9849     80.9807     15.7023    137.7088
  1681.0000     16.2437     80.4656     15.1807    131.7357
  1681.2500     15.6666     80.2394     14.7273    128.3164
  1681.5000     15.2529     80.4082     14.3510    125.9996
  1681.7500     14.9820     81.0008     14.0531    126.7983
  1682.0000     14.8137     81.9650     13.8246    131.1125
  1682.2500     14.6995     83.1886     13.6465    135.4466
  1682.5000     14.5977     84.5384     13.4940    142.7051
  1682.7500     14.4825     85.8997     13.3423    147.0463
  1683.0000     14.3446     87.2032     13.1733    151.4378
  1683.2500     14.1867     88.4269     12.9802    152.7651
  1683.5000     14.0173     89.5753     12.7687    152.9237
  1683.7500     13.8449     90.6469     12.5537    152.2688
  1684.0000     13.6722     91.6079     12.3526    150.7567
  1684.2500     13.4965     92.3833     12.1783    149.6192
  1684.5000     13.3191     92.8739     12.0352    147.7567
  1684.7500     13.1548     92.9888     11.9211    146.2258
  1685.0000     13.0306     92.6814     11.8306    143.2191
  1685.2500     12.9727     91.9708     11.7598    140.9011
  1685.5000     12.9925     90.9416     11.7083    137.9276
  1685.7500     13.0807     89.7230     11.6774    136.9366
  1686.0000     13.2090     88.4559     11.6684    137.2535
  1686.2500     13.3371     87.2605     11.6794    138.1971
  1686.5000     13.4256     86.2166     11.7045    139.4569
  1686.7500     13.4495     85.3564     11.7319    139.7705
  1687.0000     13.4069     84.6725     11.7454    139.6992
  1687.2500     13.3171     84.1322     11.7283    139.7814
  1687.5000     13.2087     83.6913     11.6686    140.7156
  1687.7500     13.1059     83.3065     11.5630    141.7829
  1688.0000     13.0220     82.9412     11.4181    143.3244
  1688.2500     12.9634     82.5671     11.2503    144.0080
  1688.5000     12.9398     82.1622     11.0837    144.7810
  1688.7500     12.9703     81.7121     10.9470    145.6241
  1689.0000     13.0775     81.2093     10.8700    147.8695
  1689.2500     13.2722     80.6550     10.8787    149.5126
  1689.5000     13.5422     80.0616     10.9910    149.9246
  1689.7500     13.8589     79.4543     11.2146    147.4704
  1690.0000     14.1986     78.8712     11.5473    139.0312
  1690.2500     14.5627     78.3598     11.9787    131.0653
  1690.5000     14.9826     77.9739     12.4934    118.1271
  1690.7500     15.5011     77.7681     13.0712    110.0625
  1691.0000     16.1411     77.7924     13.6845     99.3361
  1691.2500     16.8843     78.0875     14.2952     92.7501
  1691.5000     17.6753     78.6801     14.8547     83.7684
  1691.7500     18.4437     79.5786     15.3089     79.3546
  1692.0000     19.1164     80.7708     15.6079     77.4132
  1692.2500     19.6111     82.2220     15.7173     79.9864
  1692.5000     19.8356     83.8762     15.6288     89.1952
  1692.7500     19.7226     85.6603     15.3643     97.9744
  1693.0000     19.2823     87.4908     14.9705    113.1491
  1693.2500     18.6209     89.2827     14.5062    123.2784
  1693.5000     17.8986     90.9584     14.0296    135.8624
  1693.7500     17.2582     92.4557     13.5901    141.2580
  1694.0000     16.7788     93.7328     13.2267    144.5383
  1694.2500     16.4776     94.7705     12.9687    144.4532
  1694.5000     16.3358     95.5694     12.8371    143.0263
  1694.7500     16.3212     96.1468     12.8434    141.8663
  1695.0000     16.3985     96.5315     12.9892    139.5029
  1695.2500     16.5364     96.7590     13.2657    136.9378
  1695.5000     16.7135     96.8676     13.6547    131.2496
  1695.7500     16.9236     96.8961     14.1306    126.7779
  1696.0000     17.1755     96.8811     14.6621    120.8413
  1696.2500     17.4876     96.8551     15.2136    118.2775
  1696.5000     17.8758     96.8449     15.7497    116.7621
  1696.7500     18.3417     96.8692     16.2406    116.7491
  1697.0000     18.8645     96.9374     16.6664    117.1787
  1697.2500     19.4037     97.0482     17.0192    117.5835
  1697.5000     19.9125     97.1901     17.3007    118.5401
  1697.7500     20.3568     97.3435     17.5194    119.2739
  1698.0000     20.7310     97.4837     17.6874    119.4873
  1698.2500     21.0602     97.5858     17.8166    118.3234
  1698.5000     21.3884     97.6287     17.9138    114.1713
  1698.7500     21.7566     97.5993     17.9805    110.1201
  1699.0000     22.1848     97.4945     18.0158    103.0757
  1699.2500     22.6745     97.3203     18.0241     98.2725
  1699.5000     23.2303     97.0899     18.0205     91.9353
  1699.7500     23.8781     96.8200     18.0319     89.0233
  1700.0000     24.6511     96.5275     18.0918     87.7082
  1700.2500     25.5396     96.2276     18.2318     89.0158
  1700.5000     26.4405     95.9326     18.4682     93.1344
  1700.7500     27.1527     95.6531     18.7865     95.9764
  1701.0000     27.4349     95.3988     19.1284     98.1442
  1701.2500     27.1026     95.1786     19.3923     97.6665
  1701.5000     26.1136     95.0003     19.4588     94.6313
  1701.7500     24.5998     94.8701     19.2362     91.7724
  1702.0000     22.8270     94.7902     18.6990     87.6735
  1702.2500     21.0917     94.7603     17.8907     86.1888
  1702.5000     19.5973     94.7809     16.8951     87.9470
  1702.7500     18.3797     94.8576     15.8040     92.4635
