~Version Information
VERS.                      2.0: CWLS Log ASCII Standard - VERSION 2.0
WRAP.                       NO: One line per depth step
~Well Information Block
STRT.FT                -0.2500: 
STOP.FT              2376.7500: 
STEP.FT                 0.2500: 
NULL.                -999.2500: 
COMP.          Petrogulf Corporation: COMPANY
WELL.             State 16-23V: WELL
FLD.           Purgatorie River: FIELD
LOC.           2414' FSL & 2215' FWL: LOCATION
PROV.                 Colorado: PROVINCE
CNTY.               Las Animas: COUNTRY
SRVC.          Patterson Wireline: SERVICE COMPANY
DATE.          Wed Jun 25 14:56:54 2003: LOG DATE
UWI.           05 071 07865 00: UNIQUE WELL ID
~Curve Information Block
DEPT.FT            0 000 00 00: Depth
CCL.                          : Casing Collar Locator
TT3.usec                      : CBL 3' Travel Time
AMP3.mV                       : CBL 3' Amplitude
GR.GAPI                       : Gamma Ray
~Parameter Information Block
~A  Depth       CCL         TT3         AMP3         GR     
# ...
  1239.2500      0.0000    257.0670     61.3237    138.9755
  1239.5000      0.0000    257.0358     61.4979    136.5520
  1239.7500      0.0000    257.0358     61.5906    133.0161
  1240.0000      0.0000    257.0671     61.5633    127.4109
  1240.2500      0.0000    257.1219     61.4355    119.2762
  1240.5000      0.0000    257.1783     61.2735    109.5831
  1240.7500      0.0000    257.2083     61.1462    100.4425
  1241.0000      0.0000    257.2035     61.0784     94.0336
  1241.2500      0.0000    257.1880     61.0568     91.6415
  1241.5000      0.0000    257.1945     61.0798     93.1984
  1241.7500      0.0000    257.2301     61.1760     97.1627
  1242.0000      0.0000    257.2734     61.3663    100.7256
  1242.2500      0.0000    257.3015     61.6170    100.8245
  1242.5000      0.0000    257.3067     61.8275     95.9189
  1242.7500      0.0000    257.2935     61.8835     87.0670
  1243.0000      0.0000    257.2766     61.7476     76.9789
  1243.2500      0.0000    257.2777     61.4802     67.9458
  1243.5000      0.0000    257.3078     61.1617     60.7722
  1243.7500      0.0000    257.3480     60.8391     55.2473
  1244.0000      0.0000    257.3614     60.5556     50.9619
  1244.2500      0.0000    257.3249     60.3778     47.6812
  1244.5000      0.0000    257.2500     60.3648     45.5543
  1244.7500      0.0000    257.1751     60.5172     45.3004
  1245.0000      0.0000    257.1387     60.7462     47.9070
  1245.2500      0.0000    257.1524     60.9112     53.8143
  1245.5000      0.0000    257.1940     60.9191     62.3054
  1245.7500      0.0000    257.2288     60.7891     71.8585
  1246.0000      0.0000    257.2412     60.6232     81.3675
  1246.2500      0.0000    257.2421     60.5441     91.0021
  1246.5000      0.0000    257.2413     60.6406    101.5805
  1246.7500      0.0000    257.2292     60.9113    113.0546
  1247.0000      0.0000    257.1963     61.2496    123.7969
  1247.2500      0.0000    257.1617     61.5135    131.3607
  1247.5000      0.0000    257.1679     61.6253    133.7317
  1247.7500      0.0000    257.2487     61.6123    130.1835
  1248.0000      0.0000    257.3981     61.5733    121.9241
  1248.2500      0.0000    257.5662     61.6112    112.3934
  1248.5000      0.0000    257.6840     61.7647    106.1012
  1248.7500      0.0000    257.7084     61.9807    105.9827
  1249.0000      0.0000    257.6535     62.1699    111.5336
  1249.2500      0.0000    257.5773     62.3041    119.6454
  1249.5000      0.0000    257.5300     62.4323    127.0985
  1249.7500      0.0000    257.5162     62.5933    132.2223
  1250.0000      0.0000    257.5144     62.7478    134.8206
  1250.2500      0.0000    257.5213     62.8136    135.4262
  1250.5000      0.0000    257.5508     62.7451    134.9551
  1250.7500      0.0000    257.5914     62.5730    134.5673
  1251.0000      0.0000    257.5984     62.3874    135.1952
  1251.2500      0.0000    257.5432     62.2765    136.9198
  1251.5000      0.0000    257.4562     62.2642    138.8833
  1251.7500      0.0000    257.3990     62.3080    140.1215
  1252.0000      0.0000    257.3976     62.3648    140.6380
  1252.2500      0.0000    257.4135     62.4371    141.3638
  1252.5000      0.0000    257.3869     62.5499    142.9494
  1252.7500      0.0000    257.2997     62.7123    144.8530
  1253.0000      0.0000    257.1862     62.9140    145.7443
  1253.2500      0.0000    257.0920     63.1279    144.6364
  1253.5000      0.0000    257.0392     63.2956    141.6992
  1253.7500      0.0000    257.0328     63.3128    138.4136
  1254.0000      0.0000    257.1119     63.0043    137.0815
  1254.2500      0.0000    257.4280     62.0541    139.7256
  1254.5000      0.0000    258.3322     59.9671    146.6990
  1254.7500      0.0000    260.3275     56.3176    155.8316
  1255.0000      0.0000    263.7281     51.2904    163.2566
  1255.2500      0.0000    268.1560     45.9121    165.9332
  1255.5000      0.0000    272.4027     41.4193    163.7635
  1255.7500      0.0000    274.9939     38.3418    159.1566
  1256.0000      0.0000    275.0969     36.4013    154.6998
  1256.2500      0.0000    273.0557     35.1632    151.3367
  1256.5000      0.0000    270.1239     34.4422    148.3351
  1256.7500      0.0000    267.6485     34.1577    144.4723
  1257.0000      2.0000    266.4701     34.1618    139.1116
  1257.2500      0.0000    267.0110     34.3178    132.2254
  1257.5000      0.0000    269.4854     34.7176    123.7952
  1257.7500      0.0000    273.4345     35.8106    113.9096
  1258.0000      0.0000    277.0387     38.2168    103.5408
  1258.2500      0.0000    277.7451     42.2162     94.4691
  1258.5000      0.0000    274.3906     47.3789     87.8914
  1258.7500      0.0000    268.4412     52.7953     83.3955
  1259.0000      0.0000    262.6489     57.6181     79.6569
  1259.2500      0.0000    258.7832     61.3480     76.1653
  1259.5000      0.0000    256.9171     63.8430     74.1407
  1259.7500      0.0000    256.2764     65.2761     75.6112
  1260.0000      0.0000    256.1545     66.0054     81.4819
  1260.2500      0.0000    256.1779     66.3412     90.5457
  1260.5000      0.0000    256.1981     66.4258    100.3380
  1260.7500      0.0000    256.1757     66.3345    108.6619
  1261.0000      0.0000    256.1209     66.2103    114.3664
  1261.2500      0.0000    256.0648     66.2160    117.3825
  1261.5000      0.0000    256.0274     66.3896    118.3699
  1261.7500      0.0000    256.0110     66.6198    117.8953
  1262.0000      0.0000    256.0114     66.7915    115.7787
  1262.2500      0.0000    256.0297     66.9006    111.7218
  1262.5000      0.0000    256.0735     67.0026    106.5936
  1262.7500      0.0000    256.1475     67.0915    102.4527
  1263.0000      0.0000    256.2386     67.0802    100.9362
  1263.2500      0.0000    256.3117     66.9065    101.8448
  1263.5000      0.0000    256.3251     66.6293    103.4913
  1263.7500      0.0000    256.2557     66.3906    104.3273
  1264.0000      0.0000    256.1198     66.2814    103.9320
  1264.2500      0.0000    255.9720     66.2669    102.3751
  1264.5000      0.0000    255.8746     66.2481     99.2539
  1264.7500      0.0000    255.8558     66.1830     93.9753
  1265.0000      0.0000    255.8992     66.1347     86.6578
  1265.2500      0.0000    255.9734     66.1993     78.2976
  1265.5000      0.0000    256.0656     66.3894     70.3811
  1265.7500      0.0000    256.1793     66.5956     64.4989
  1266.0000      0.0000    256.3036     66.6733     61.6201
  1266.2500      0.0000    256.4021     66.5647     61.2245
  1266.5000      0.0000    256.4406     66.3387     61.4867
  1266.7500      0.0000    256.4202     66.1193     60.6795
  1267.0000      0.0000    256.3706     65.9759     58.3080
  1267.2500      0.0000    256.3186     65.8870     55.0441
  1267.5000      0.0000    256.2787     65.8081     51.9628
  1267.7500      0.0000    256.2617     65.7410     49.7999
  1268.0000      0.0000    256.2709     65.7064     48.5949
  1268.2500      0.0000    256.2944     65.6689     47.8468
  1268.5000      0.0000    256.3168     65.5397     47.0006
  1268.7500      0.0000    256.3350     65.2749     45.8742
  1269.0000      0.0000    256.3569     64.9410     44.7376
  1269.2500      0.0000    256.3911     64.6588     44.0148
  1269.5000      0.0000    256.4355     64.4906     43.8301
  1269.7500      0.0000    256.4695     64.4041     43.8475
  1270.0000      0.0000    256.4677     64.3361     43.6634
  1270.2500      0.0000    256.4269     64.2729     43.3555
  1270.5000      0.0000    256.3645     64.2631     43.4219
  1270.7500      0.0000    256.2944     64.3459     44.0724
  1271.0000      0.0000    256.2233     64.4563     44.8070
  1271.2500      0.0000    256.1699     64.4377     44.8855
  1271.5000      0.0000    256.1680     64.1997     43.9800
  1271.7500      0.0000    256.2408     63.8481     42.2244
  1272.0000      0.0000    256.3733     63.5964     39.9304
  1272.2500      0.0000    256.5097     63.5412     37.4608
  1272.5000      0.0000    256.5878     63.5797     35.1723
