~Version Information
VERS.                      2.0: CWLS Log ASCII Standard - VERSION 2.0
WRAP.                       NO: One line per depth step
~Well Information Block
STRT.FT               770.0000: 
STOP.FT              1997.7000: 
STEP.FT                 0.1000: 
NULL.                -999.2500: 
COMP.          Pioneer Natural Resources: COMPANY
WELL.          Titan Federal 34-17: WELL
FLD.           Purgatoire River: FIELD
LOC.           321' FSL & 1911' FEL--: LOCATION
STAT.                 Colorado: State
CNTY.               Las Animas: COUNTY
CTRY. USA : Country
SECT. 17 : Section
TOWN. 32S : Township
RANG. 65W : Range
SRVC.                Patterson: SERVICE COMPANY
DATE.          Thu Oct 06 15:09:27 2005: LOG DATE
API.           05 071 08272 00: UNIQUE WELL ID
~Curve Information Block
DEPT.FT            0 000 00 00: Depth
DCAL.in                       : CDL Caliper
RHOB.g/cc                     : CDL Bulk Density
RHOC.g/cc                     : CDL Density Correction
DPOR.pu                       : CDL Density Porosity
NPOR.pu                       : Neutron Porosity
GR.GAPI                       : Gamma Ray
~Parameter Information Block
~A  Depth       DCAL        RHOB        RHOC        DPOR        NPOR         GR     
# ...
  1086.8000      8.2435      2.5049      0.0442      8.7967     25.7016    132.9947
  1086.9000      8.2435      2.4868      0.0118      9.8886     25.0407    137.3126
  1087.0000      8.2472      2.4752      0.0369     10.5910     24.5514    138.8852
  1087.1000      8.2472      2.4670      0.0210     11.0884     24.4634    137.2846
  1087.2000      8.2472      2.4547      0.0578     11.8371     24.4341    133.1453
  1087.3000      8.2472      2.4438     -0.0116     12.4995     23.8592    128.5073
  1087.4000      8.2472      2.4533      0.0256     11.9202     23.0818    125.0153
  1087.5000      8.2459      2.4841      0.0337     10.0533     22.9839    121.6658
  1087.6000      8.2459      2.5099      0.0597      8.4914     23.4055    119.9005
  1087.7000      8.2459      2.5198      0.0069      7.8910     23.4953    121.9861
  1087.8000      8.2461      2.5374      0.0278      6.8271     23.2067    123.9898
  1087.9000      8.2461      2.5780      0.0394      4.3649     23.0021    122.0032
  1088.0000      8.2454      2.6213      0.1091      1.7388     22.8862    119.7021
  1088.1000      8.2454      2.6388      0.0970      0.6807     22.9191    121.5255
  1088.2000      8.2454      2.6353      0.0330      0.8902     23.3985    124.7250
  1088.3000      8.2434      2.6331      0.0444      1.0266     24.1112    123.6869
  1088.4000      8.2434      2.6322      0.0676      1.0765     24.7191    118.2989
  1088.5000      8.2416      2.6163      0.0706      2.0396     25.1553    112.1692
  1088.6000      8.2416      2.5818      0.0244      4.1332     25.3694    108.9797
  1088.7000      8.2416      2.5439      0.0156      6.4290     25.3234    109.0903
  1088.8000      8.2435      2.5178     -0.0472      8.0138     25.1058    109.0988
  1088.9000      8.2435      2.5118      0.0106      8.3778     24.9250    107.3961
  1089.0000      8.2474      2.5251     -0.0018      7.5678     24.9818    108.6908
  1089.1000      8.2474      2.5531      0.0300      5.8747     25.2705    115.5663
  1089.2000      8.2474      2.5915      0.0244      3.5483     25.6018    122.7024
  1089.3000      8.2488      2.6264      0.0828      1.4301     25.7520    126.2299
  1089.4000      8.2488      2.6336      0.0839      0.9928     25.8941    127.0044
  1089.5000      8.2475      2.6048      0.0730      2.7393     26.5773    123.5772
  1089.6000      8.2475      2.5596      0.0305      5.4803     27.7497    116.1576
  1089.7000      8.2475      2.5262      0.0181      7.5003     28.5400    110.7366
  1089.8000      8.2468      2.5135     -0.0163      8.2722     28.4745    110.7381
  1089.9000      8.2468      2.5079     -0.0527      8.6136     27.9187    113.6553
  1090.0000      8.2481      2.4971     -0.0668      9.2651     27.1924    116.0603
  1090.1000      8.2481      2.4808     -0.0766     10.2554     26.3275    116.8183
  1090.2000      8.2481      2.4687     -0.0733     10.9903     25.2886    118.0483
  1090.3000      8.2489      2.4693     -0.0273     10.9527     23.7974    122.9775
  1090.4000      8.2489      2.4755     -0.0046     10.5753     22.2868    127.9517
  1090.5000      8.2492      2.4785      0.0501     10.3953     21.7725    126.5746
  1090.6000      8.2492      2.4773      0.0823     10.4638     22.0412    121.4840
  1090.7000      8.2492      2.4742      0.0619     10.6529     22.4292    117.0230
  1090.8000      8.2480      2.4753      0.0764     10.5871     22.9696    111.9859
  1090.9000      8.2480      2.4782      0.0911     10.4101     23.7319    105.2505
  1091.0000      8.2469      2.4737      0.0489     10.6835     24.6413     99.7110
  1091.1000      8.2469      2.4684      0.0254     11.0039     25.7673     97.6300
  1091.2000      8.2469      2.4712      0.0500     10.8366     27.4246     97.9456
  1091.3000      8.2477      2.4765      0.0248     10.5139     29.4037     96.6306
  1091.4000      8.2477      2.4763      0.0254     10.5302     30.9475     91.8923
  1091.5000      8.2492      2.4686      0.0138     10.9957     31.8752     88.8021
  1091.6000      8.2492      2.4587      0.0649     11.5932     32.4435     91.2837
  1091.7000      8.2492      2.4521      0.0293     11.9934     32.4019     95.0237
  1091.8000      8.2531      2.4509      0.0685     12.0672     31.4347     96.9860
  1091.9000      8.2531      2.4596      0.0278     11.5413     30.0490    100.0420
  1092.0000      8.2646      2.4842      0.0926     10.0504     28.4866    104.1221
  1092.1000      8.2646      2.5136      0.1293      8.2694     26.2907    108.6843
  1092.2000      8.2646      2.5294      0.1259      7.3083     24.1554    114.0369
  1092.3000      8.2881      2.5298      0.1364      7.2875     23.2844    115.8300
  1092.4000      8.2881      2.5238      0.1326      7.6499     23.4384    114.3825
  1092.5000      8.3143      2.5189      0.0981      7.9448     23.3980    116.3083
  1092.6000      8.3143      2.5175      0.0699      8.0281     22.4626    122.9707
  1092.7000      8.3143      2.5183      0.0992      7.9839     21.4082    129.9643
  1092.8000      8.3278      2.5131      0.0965      8.2962     21.2114    134.5449
  1092.9000      8.3278      2.4976      0.0497      9.2369     21.7636    135.4386
  1093.0000      8.3303      2.4786      0.0583     10.3863     22.4315    131.6593
  1093.1000      8.3303      2.4638      0.0141     11.2875     22.7252    125.8012
  1093.2000      8.3303      2.4518      0.0487     12.0094     22.6576    123.0692
  1093.3000      8.3319      2.4355      0.0437     12.9984     22.6526    125.3464
  1093.4000      8.3319      2.4220      0.0053     13.8153     22.7873    128.8875
  1093.5000      8.3406      2.4274      0.0046     13.4936     22.9254    131.1247
  1093.6000      8.3406      2.4453      0.0548     12.4072     23.1478    133.9020
  1093.7000      8.3406      2.4530      0.0620     11.9414     23.1024    137.3848
  1093.8000      8.3531      2.4477      0.0130     12.2602     22.5501    139.1256
  1093.9000      8.3531      2.4502      0.0499     12.1119     21.8363    136.7477
  1094.0000      8.3602      2.4599      0.0578     11.5219     21.1991    132.2571
  1094.1000      8.3602      2.4545      0.0518     11.8511     20.7372    129.2712
  1094.2000      8.3602      2.4346      0.0056     13.0540     20.5033    128.3974
  1094.3000      8.3618      2.4262      0.0201     13.5614     20.3156    129.0755
  1094.4000      8.3618      2.4383      0.0410     12.8273     20.3921    132.0753
  1094.5000      8.3619      2.4513      0.0957     12.0442     21.2777    134.4677
  1094.6000      8.3619      2.4479      0.0904     12.2497     22.7247    132.3539
  1094.7000      8.3619      2.4397      0.0082     12.7472     23.9269    127.8461
  1094.8000      8.3624      2.4467      0.0690     12.3239     24.5405    125.5738
  1094.9000      8.3624      2.4619      0.0699     11.4011     24.7050    127.0160
  1095.0000      8.3641      2.4662      0.0290     11.1422     24.7276    130.4691
  1095.1000      8.3641      2.4567      0.0202     11.7169     24.6025    135.5320
  1095.2000      8.3641      2.4461      0.0273     12.3601     23.9670    140.9165
  1095.3000      8.3673      2.4451      0.0175     12.4177     22.8381    145.1312
  1095.4000      8.3673      2.4495      0.0383     12.1527     21.8920    147.3273
  1095.5000      8.3729      2.4471      0.0290     12.2986     21.7239    144.3762
  1095.6000      8.3729      2.4339      0.0174     13.0977     22.2062    136.9846
  1095.7000      8.3729      2.4188      0.0270     14.0129     22.9496    131.3352
  1095.8000      8.3804      2.4153      0.0096     14.2251     23.6591    129.0192
  1095.9000      8.3804      2.4265      0.0452     13.5454     24.0906    127.2551
  1096.0000      8.3878      2.4362      0.0408     12.9557     24.2404    126.9564
  1096.1000      8.3878      2.4165      0.0460     14.1498     24.0383    125.9766
  1096.2000      8.3878      2.3451      0.0197     18.4770     23.2621    119.8931
  1096.3000      8.3988      2.2292     -0.0386     25.5022     22.0087    114.3205
