~Version Information
VERS.                      2.0: CWLS Log ASCII Standard - VERSION 2.0
WRAP.                       NO: One line per depth step
~Well Information Block
STRT.FT                37.7500: 
STOP.FT              1898.5000: 
STEP.FT                 0.2500: 
NULL.                -999.2500: 
COMP.          Petrogulf Corporation: COMPANY
WELL.           Montoya 12-41R: WELL
FLD.           Purgatorie River: FIELD
LOC.           1086' FNL & 610' FEL--: LOCATION
PROV.                       CO: PROVINCE
CNTY.               Las Animas: COUNTRY
SRVC.                         : SERVICE COMPANY
DATE.          Wed Feb 09 11:45:45 2005: LOG DATE
UWI.         005 071 08241 : UNIQUE WELL ID
~Curve Information Block
DEPT.FT            0 000 00 00: Depth
CCL.                          : Casing Collar Locator
TT3.usec                      : CBL 3' Travel Time
AMP3.mV                       : CBL 3' Amplitude
GR.GAPI                       : Gamma Ray
~Parameter Information Block
~A  Depth       CCL         TT3         AMP3         GR     
# ...
  1009.2500      0.0000    265.5504     69.4100    105.3222
  1009.5000      0.0000    265.5283     69.3784    105.2094
  1009.7500      0.0000    265.5245     69.3315    107.7476
  1010.0000      0.0000    265.5461     69.2571    112.0546
  1010.2500      0.0000    265.5910     69.1462    116.0772
  1010.5000      0.0000    265.6429     69.0194    118.2872
  1010.7500      0.0000    265.6785     68.9267    118.8805
  1011.0000      0.0000    265.6833     68.9121    119.0352
  1011.2500      0.0000    265.6592     68.9779    119.2478
  1011.5000      0.0000    265.6217     69.0918    118.7718
  1011.7500      0.0000    265.5905     69.2230    116.8161
  1012.0000      0.0000    265.5786     69.3644    114.2150
  1012.2500      0.0000    265.5845     69.5225    113.7710
  1012.5000      0.0000    265.5955     69.6887    118.5567
  1012.7500      0.0000    265.6019     69.8234    129.1780
  1013.0000      0.0000    265.6043     69.8687    142.3342
  1013.2500      0.0000    265.6082     69.7815    152.5088
  1013.5000      0.0000    265.6168     69.5625    156.0383
  1013.7500      0.0000    265.6292     69.2650    154.2313
  1014.0000      0.0000    265.6441     68.9722    152.3765
  1014.2500      0.0000    265.6591     68.7524    154.9826
  1014.5000      0.0000    265.6698     68.6272    161.7917
  1014.7500      0.0000    265.6731     68.5779    168.5811
  1015.0000      0.0000    265.6721     68.5703    171.3013
  1015.2500      0.0000    265.6734     68.5719    168.9251
  1015.5000      0.0000    265.6793     68.5595    163.0289
  1015.7500      0.0000    265.6850     68.5245    155.8590
  1016.0000      0.0000    265.6859     68.4673    149.0924
  1016.2500      0.0000    265.6841     68.3864    143.7056
  1016.5000      0.0000    265.6871     68.2802    140.1997
  1016.7500      0.0000    265.6982     68.1551    138.6183
  1017.0000      0.0000    265.7115     68.0187    138.3939
  1017.2500      0.0000    265.7173     67.8640    138.1213
  1017.5000      0.0000    265.7131     67.6784    135.4882
  1017.7500      0.0000    265.7071     67.4788    128.1163
  1018.0000      0.0000    265.7097     67.3219    115.4242
  1018.2500      0.0000    265.7250     67.2606     99.6810
  1018.5000      0.0000    265.7491     67.2992     84.6240
  1018.7500      0.0000    265.7736     67.4005     72.8624
  1019.0000      0.0000    265.7893     67.5291     64.6568
  1019.2500      0.0000    265.7901     67.6750     58.7675
  1019.5000      0.0000    265.7745     67.8350     53.9530
  1019.7500      0.0000    265.7466     67.9801     49.6392
  1020.0000      0.0000    265.7156     68.0465     45.6174
  1020.2500      0.0000    265.6929     67.9661     41.6700
  1020.5000      0.0000    265.6871     67.7191     37.8210
  1020.7500      0.0000    265.6988     67.3689     34.7243
  1021.0000      0.0000    265.7214     67.0437     33.2662
  1021.2500      0.0000    265.7479     66.8739     33.6503
  1021.5000      0.0000    265.7748     66.9251     35.1958
  1021.7500      0.0000    265.7995     67.1718     37.1235
  1022.0000      0.0000    265.8151     67.5212     39.3720
  1022.2500      0.0000    265.8138     67.8648     42.8238
  1022.5000      0.0000    265.7937     68.1190     49.1196
  1022.7500      0.0000    265.7617     68.2404     59.9207
  1023.0000      0.0000    265.7290     68.2242     75.5050
  1023.2500      0.0000    265.7037     68.0970     93.7302
  1023.5000      0.0000    265.6883     67.9056    110.6916
  1023.7500      0.0000    265.6814     67.7047    122.8387
  1024.0000      0.0000    265.6820     67.5421    128.8868
  1024.2500      0.0000    265.6903     67.4453    130.1466
  1024.5000      0.0000    265.7034     67.4161    129.2648
  1024.7500      0.0000    265.7155     67.4336    128.5767
  1025.0000      0.0000    265.7233     67.4679    129.3736
  1025.2500      0.0000    265.7278     67.5026    132.2378
  1025.5000      0.0000    265.7285     67.5463    137.3623
  1025.7500      0.0000    265.7209     67.6189    144.0491
  1026.0000      0.0000    265.7023     67.7260    150.2601
  1026.2500      0.0000    265.6790     67.8509    153.6941
  1026.5000      0.0000    265.6650     67.9618    153.7165
  1026.7500      0.0000    265.6720     68.0245    151.7216
  1027.0000      0.0000    265.6995     68.0148    149.4892
  1027.2500      0.0000    265.7350     67.9298    147.6928
  1027.5000      0.0000    265.7631     67.7885    146.0786
  1027.7500      0.0000    265.7766     67.6250    144.5597
  1028.0000      0.0000    265.7794     67.4832    143.7727
  1028.2500      0.0000    265.7800     67.4053    144.5294
  1028.5000      0.0000    265.7821     67.4138    146.9413
  1028.7500      0.0000    265.7845     67.4983    150.4434
  1029.0000      0.0000    265.7857     67.6199    154.5777
  1029.2500      0.0000    265.7842     67.7341    159.2760
  1029.5000      0.0000    265.7748     67.8182    164.2240
  1029.7500      0.0000    265.7528     67.8777    168.4232
  1030.0000      0.0000    265.7214     67.9240    170.6301
  1030.2500      0.0000    265.6919     67.9524    169.9108
  1030.5000      0.0000    265.6737     67.9461    165.7977
  1030.7500      0.0000    265.6674     67.9021    158.4805
  1031.0000      0.0000    265.6691     67.8421    149.1837
  1031.2500      0.0000    265.6766     67.7906    140.0809
  1031.5000      0.0000    265.6898     67.7493    133.3918
  1031.7500      0.0000    265.7086     67.7054    130.2691
  1032.0000      0.0000    265.7318     67.6584    130.4062
  1032.2500      0.0000    265.7553     67.6260    132.6780
  1032.5000      0.0000    265.7717     67.6233    136.2754
  1032.7500      0.0000    265.7730     67.6472    141.2171
  1033.0000      0.0000    265.7563     67.6770    147.6674
  1033.2500      0.0000    265.7277     67.6876    154.8041
  1033.5000      0.0000    265.6996     67.6645    160.5432
  1033.7500      0.0000    265.6846     67.6105    162.7047
  1034.0000      0.0000    265.6884     67.5356    160.7344
  1034.2500      0.0000    265.7065     67.4468    156.2891
  1034.5000      0.0000    265.7277     67.3504    151.8482
  1034.7500      0.0000    265.7411     67.2637    148.6954
  1035.0000      0.0000    265.7419     67.2125    146.6304
  1035.2500      0.0000    265.7321     67.2125    145.4309
  1035.5000      0.0000    265.7181     67.2544    145.7083
  1035.7500      0.0000    265.7075     67.3071    148.0245
  1036.0000      0.0000    265.7052     67.3368    151.7819
  1036.2500      0.0000    265.7110     67.3263    155.3296
  1036.5000      0.0000    265.7190     67.2841    157.0552
  1036.7500      0.0000    265.7213     67.2363    156.5013
  1037.0000      0.0000    265.7139     67.2114    154.5135
  1037.2500      0.0000    265.7018     67.2323    152.0905
  1037.5000      0.0000    265.6954     67.3195    149.4248
  1037.7500      0.0000    265.7025     67.4926    146.5416
  1038.0000      0.0000    265.7206     67.7562    144.0682
  1038.2500      0.0000    265.7408     68.0814    142.3811
  1038.5000      0.0000    265.7563     68.4010    140.8253
  1038.7500      0.0000    265.7701     68.6124    138.9793
  1039.0000      0.0000    265.7975     68.5630    138.0857
  1039.2500      0.0000    265.8743     68.0281    140.0502
  1039.5000      0.0000    266.0811     66.7565    145.1349
  1039.7500      0.0000    266.5616     64.6016    151.3112
  1040.0000      0.0000    267.4725     61.6225    155.9780
  1040.2500      0.0000    268.8484     58.0654    158.0470
  1040.5000      0.0000    270.4871     54.3211    158.3116
  1040.7500      0.0000    272.0131     50.9099    157.9908
  1041.0000      0.0000    273.1102     48.3351    157.3347
  1041.2500      0.0000    273.7037     46.8044    155.7204
  1041.5000      0.0000    273.9322     46.1189    152.6207
  1041.7500      0.0000    273.9989     45.8481    148.1290
  1042.0000      2.0000    274.0703     45.5442    142.9224
  1042.2500      0.0000    274.2509     44.8398    138.2026
  1042.5000      0.0000    274.5385     43.5903    135.4733
