~Version Information
VERS.                      2.0: CWLS Log ASCII Standard - VERSION 2.0
WRAP.                       NO: One line per depth step
~Well Information Block
STRT.FT               450.0000: 
STOP.FT              2753.5000: 
STEP.FT                 0.1000: 
NULL.                -999.2500: 
COMP.          Pioneer Natural Resources: COMPANY
WELL.             Squeal 11-26: WELL
FLD.           Purgatoire River: FIELD
LOC.           1186' FNL & 152' FWL: LOCATION
PROV.                 Colorado: PROVINCE
CNTY.               Las Animas: COUNTRY
SRVC.                Patterson: SERVICE COMPANY
DATE.          Wed Jun 15 09:11:52 2005: LOG DATE
UWI.           05 071 08404 00: UNIQUE WELL ID
~Curve Information Block
DEPT.FT            0 000 00 00: Depth
DCAL.in                       : CDL Caliper
RHOB.g/cc                     : CDL Bulk Density
RHOC.g/cc                     : CDL Density Correction
DPOR.pu                       : CDL Density Porosity
GR.GAPI                       : Gamma Ray
NPOR.pu                       : Neutron Porosity
~Parameter Information Block
~A  Depth       DCAL        RHOB        RHOC        DPOR         GR         NPOR    
# ...
  1208.4000      8.1132      2.5665      0.0880      5.0584    132.7751     28.9225
  1208.5000      8.1089      2.5780      0.0480      4.3623    136.2384     27.5449
  1208.6000      8.1089      2.5915      0.0081      3.5461    139.7303     25.4625
  1208.7000      8.1089      2.6119      0.1040      2.3079    136.4886     24.4473
  1208.8000      8.0923      2.6302      0.1589      1.2024    131.3524     25.2069
  1208.9000      8.0923      2.6386      0.1292      0.6899    130.0297     26.2539
  1209.0000      8.0801      2.6356      0.1565      0.8737    128.8503     26.6648
  1209.1000      8.0801      2.6199      0.1314      1.8231    124.4768     26.9795
  1209.2000      8.0801      2.6073      0.0837      2.5886    118.1276     27.7514
  1209.3000      8.0412      2.6224      0.0830      1.6711    112.7316     28.7504
  1209.4000      8.0412      2.6606      0.1635     -0.6424    112.3580     29.0441
  1209.5000      7.9982      2.6882      0.1619     -2.3127    116.8656     28.4584
  1209.6000      7.9982      2.6773      0.1692     -1.6533    122.3471     28.1400
  1209.7000      7.9982      2.6231      0.1268      1.6315    127.4504     28.7110
  1209.8000      7.9810      2.5416      0.0630      6.5715    133.0815     29.5172
  1209.9000      7.9810      2.4632      0.0384     11.3241    134.1883     30.5665
  1210.0000      8.0439      2.4124     -0.0249     14.3983    128.3186     32.0451
  1210.1000      8.0439      2.3929     -0.0227     15.5810    127.2009     32.7712
  1210.2000      8.0439      2.4017     -0.0226     15.0482    138.3921     32.3362
  1210.3000      8.0897      2.4402      0.0327     12.7136    150.9490     31.8900
  1210.4000      8.0897      2.4949      0.0971      9.3972    157.0302     31.6601
  1210.5000      8.0852      2.5344      0.1772      7.0061    159.3058     31.0282
  1210.6000      8.0852      2.5414      0.1658      6.5818    156.8588     30.3481
  1210.7000      8.0852      2.5256      0.1864      7.5386    149.2982     30.3443
  1210.8000      8.0838      2.4975      0.1677      9.2443    142.4666     31.2921
  1210.9000      8.0838      2.4528      0.1401     11.9522    137.4513     32.9639
  1211.0000      8.0887      2.3841      0.1039     16.1143    133.1629     34.3640
  1211.1000      8.0887      2.3009      0.0695     21.1598    132.6220     34.6640
  1211.2000      8.0887      2.2362     -0.0189     25.0772    136.4888     34.1159
  1211.3000      8.1266      2.2143      0.0185     26.4083    142.5668     33.5374
  1211.4000      8.1266      2.2235      0.0458     25.8509    147.0280     33.1534
  1211.5000      8.1211      2.2461      0.0526     24.4781    145.2145     32.4919
  1211.6000      8.1211      2.2829      0.0461     22.2513    137.0960     31.7248
  1211.7000      8.1211      2.3373      0.0777     18.9490    126.8520     31.3567
  1211.8000      8.1211      2.4001      0.1273     15.1446    122.4754     30.8727
  1211.9000      8.1211      2.4617      0.1042     11.4103    128.2915     29.8543
  1212.0000      8.1616      2.5128      0.2224      8.3164    138.7816     28.9943
  1212.1000      8.1616      2.5335      0.1715      7.0582    146.4054     29.2939
  1212.2000      8.1616      2.5275      0.0717      7.4253    147.9188     30.7795
  1212.3000      8.1603      2.5180      0.0379      7.9983    146.2541     32.0404
  1212.4000      8.1603      2.5114      0.0216      8.4022    143.8506     32.1611
  1212.5000      8.1428      2.5016      0.0275      8.9959    142.2326     31.7478
  1212.6000      8.1428      2.4883      0.0083      9.8025    145.7377     31.3510
  1212.7000      8.1428      2.4844      0.0144     10.0379    150.7794     30.7841
  1212.8000      8.1128      2.5047      0.0192      8.8062    149.3535     30.1097
  1212.9000      8.1128      2.5328      0.0751      7.1026    143.5522     29.9178
  1213.0000      8.1007      2.5352      0.0524      6.9548    139.4696     30.5157
  1213.1000      8.1007      2.5162      0.0340      8.1097    139.1979     31.0782
  1213.2000      8.1007      2.5005      0.0478      9.0598    140.5232     30.5044
  1213.3000      8.0939      2.4942      0.0557      9.4438    140.7772     29.1551
  1213.4000      8.0939      2.5021      0.0280      8.9621    140.6278     28.1263
  1213.5000      8.1005      2.5335      0.0530      7.0580    142.5786     27.9443
  1213.6000      8.1005      2.5715      0.0864      4.7552    146.4664     28.2842
  1213.7000      8.1005      2.5812      0.1250      4.1685    149.3142     28.5169
  1213.8000      8.1110      2.5563      0.0512      5.6762    151.5456     28.8460
  1213.9000      8.1110      2.5276      0.0396      7.4193    152.4434     29.8663
  1214.0000      8.1125      2.5206      0.0375      7.8434    150.9335     31.3006
  1214.1000      8.1125      2.5363      0.0541      6.8928    150.7123     32.1595
  1214.2000      8.1125      2.5589      0.0800      5.5191    151.2071     32.2134
  1214.3000      8.1196      2.5700      0.1115      4.8484    147.9303     31.8847
  1214.4000      8.1196      2.5661      0.0696      5.0860    142.0110     31.4309
  1214.5000      8.1157      2.5564      0.0833      5.6744    138.0745     30.8354
  1214.6000      8.1157      2.5396      0.0498      6.6923    136.9554     30.1593
  1214.7000      8.1157      2.5066      0.0708      8.6933    136.3596     29.8456
  1214.8000      8.1173      2.4733     -0.0519     10.7119    135.5818     29.9011
  1214.9000      8.1173      2.4641      0.0468     11.2695    135.2826     29.8986
  1215.0000      8.1311      2.4675      0.0309     11.0636    134.7796     30.1012
  1215.1000      8.1311      2.4683      0.0165     11.0096    132.3431     30.7866
  1215.2000      8.1311      2.4669      0.0897     11.0979    129.7786     31.2026
  1215.3000      8.1644      2.4588      0.0889     11.5907    129.4829     30.9073
  1215.4000      8.1644      2.4426      0.0597     12.5679    129.2343     30.5286
  1215.5000      8.1939      2.4199      0.0869     13.9443    128.3258     30.6788
  1215.6000      8.1939      2.3917      0.0296     15.6524    129.3951     30.9641
  1215.7000      8.1939      2.3718      0.0104     16.8624    133.0787     30.6986
  1215.8000      8.1800      2.3644      0.0734     17.3092    136.3937     30.3864
  1215.9000      8.1800      2.3531      0.0788     17.9962    140.2648     30.5489
  1216.0000      8.1797      2.3343      0.0829     19.1329    149.3552     30.6747
  1216.1000      8.1797      2.3272      0.0667     19.5624    160.0207     30.5799
  1216.2000      8.1797      2.3516      0.1136     18.0865    161.2471     30.5493
  1216.3000      8.1885      2.4122      0.1446     14.4108    151.7221     30.5599
  1216.4000      8.1885      2.4934      0.2581      9.4928    141.9826     30.4214
  1216.5000      8.2003      2.5589      0.3892      5.5232    139.2917     30.2452
  1216.6000      8.2003      2.5807      0.3662      4.2003    142.5654     30.6662
  1216.7000      8.2003      2.5636      0.3199      5.2362    147.4634     31.7515
  1216.8000      8.2628      2.5173      0.2948      8.0395    147.8414     32.4061
  1216.9000      8.2628      2.4490      0.2139     12.1835    141.4113     32.4167
  1217.0000      8.3970      2.3894      0.0902     15.7930    135.0998     32.6745
  1217.1000      8.3970      2.3629      0.0571     17.3995    134.1765     33.0867
  1217.2000      8.3970      2.3483      0.0837     18.2858    138.5596     32.6382
  1217.3000      8.2499      2.3162      0.0627     20.2303    146.8400     31.1839
  1217.4000      8.2499      2.2632      0.0136     23.4405    151.6271     29.7715
  1217.5000      8.2374      2.1934      0.0331     27.6736    145.2719     29.2311
  1217.6000      8.2374      2.1275     -0.0718     31.6654    133.7633     29.6317
  1217.7000      8.2374      2.1067     -0.0277     32.9276    127.5520     30.6022
  1217.8000      8.2379      2.1321      0.0475     31.3890    126.4183     31.5518
  1217.9000      8.2379      2.1643      0.0921     29.4364    127.1932     32.0413
