~Version Information
VERS.                      2.0: CWLS Log ASCII Standard - VERSION 2.0
WRAP.                       NO: One line per depth step
~Well Information Block
STRT.FT               577.0000: 
STOP.FT              2643.2000: 
STEP.FT                 0.1000: 
NULL.                -999.2500: 
COMP.          Petrogulf Corporation: COMPANY
WELL.           Montoya 12-41V: WELL
FLD.           Purgatorie River: FIELD
LOC.           1081' FNL & 605' FEL: LOCATION
CNTY.               Las Animas: COUNTY
SRVC.                         : SERVICE COMPANY
DATE.          Tue Aug 10 14:17:12 2004: LOG DATE
UWI.           05 071 08094 00: UNIQUE WELL ID
STAT.                 Colorado: STATE
~Curve Information Block
DEPT.FT            0 000 00 00: Depth
DCAL.in                       : CDL Caliper
RHOB.g/cc                     : CDL Bulk Density
RHOC.g/cc                     : CDL Density Correction
DPOR.pu                       : CDL Density Porosity
GR.GAPI                       : Gamma Ray
NPOR.pu                       : Neutron Porosity
~Parameter Information Block
~A  Depth       DCAL        RHOB        RHOC        DPOR         GR         NPOR    
# ...
  1537.0000      8.0430      2.4735      0.0191     10.6967     75.5264     20.3310
  1537.1000      8.0430      2.4856      0.0010      9.9636     71.3392     20.4724
  1537.2000      8.0430      2.4919      0.0395      9.5820     68.9870     20.4861
  1537.3000      8.0446      2.4849      0.0314     10.0063     64.0244     20.2561
  1537.4000      8.0446      2.4695     -0.0032     10.9410     57.5706     20.2097
  1537.5000      8.0397      2.4615      0.0241     11.4246     54.4750     20.3358
  1537.6000      8.0397      2.4697     -0.0269     10.9300     57.3953     20.2245
  1537.7000      8.0397      2.4888      0.0315      9.7692     63.9512     19.8741
  1537.8000      8.0376      2.5058      0.0202      8.7414     67.4077     19.5671
  1537.9000      8.0376      2.5189      0.0305      7.9447     64.8502     19.3772
  1538.0000      8.0405      2.5328      0.0493      7.1054     60.9581     19.2778
  1538.1000      8.0405      2.5423      0.0291      6.5263     61.4772     19.0061
  1538.2000      8.0405      2.5419      0.0636      6.5536     65.0819     18.4245
  1538.3000      8.0422      2.5301      0.0649      7.2683     67.9497     17.9221
  1538.4000      8.0422      2.5115      0.0576      8.3916     72.2120     17.7483
  1538.5000      8.0438      2.4942      0.0079      9.4419     77.0230     17.8837
  1538.6000      8.0438      2.4883     -0.0168      9.8012     75.7344     18.1036
  1538.7000      8.0438      2.4942      0.0288      9.4410     67.1725     18.2617
  1538.8000      8.0402      2.4923      0.0338      9.5576     57.9008     18.4235
  1538.9000      8.0402      2.4704     -0.0021     10.8857     54.1601     18.6460
  1539.0000      8.0317      2.4474     -0.0259     12.2774     55.8979     18.5943
  1539.1000      8.0317      2.4479     -0.0187     12.2491     58.4343     18.0727
  1539.2000      8.0317      2.4701      0.0247     10.9048     58.0531     17.3461
  1539.3000      8.0257      2.4989      0.0151      9.1547     58.5477     16.8446
  1539.4000      8.0257      2.5302      0.0320      7.2596     64.1460     16.7902
  1539.5000      8.0255      2.5616      0.0608      5.3568     69.7924     16.8521
  1539.6000      8.0255      2.5844      0.1219      3.9741     70.4278     16.8282
  1539.7000      8.0255      2.5946      0.1190      3.3558     66.8376     16.7934
  1539.8000      8.0256      2.5993      0.1589      3.0747     61.7367     16.4616
  1539.9000      8.0256      2.6049      0.1405      2.7352     59.3757     15.9113
  1540.0000      8.0329      2.6106      0.1199      2.3873     58.9699     15.5182
  1540.1000      8.0329      2.6074      0.1114      2.5829     56.0689     15.4815
  1540.2000      8.0329      2.5918      0.0203      3.5262     54.0737     15.5962
  1540.3000      8.0229      2.5727      0.0272      4.6832     58.0573     15.4993
  1540.4000      8.0229      2.5556     -0.0022      5.7194     66.9898     15.4648
  1540.5000      8.0258      2.5414     -0.0211      6.5844     76.5149     15.7895
  1540.6000      8.0258      2.5291      0.0213      7.3272     79.6001     16.2115
  1540.7000      8.0258      2.5201     -0.0124      7.8712     73.6004     16.4892
  1540.8000      8.0229      2.5190      0.0206      7.9422     67.0751     16.6966
  1540.9000      8.0229      2.5240      0.0108      7.6359     67.4128     16.7347
  1541.0000      8.0235      2.5330      0.0039      7.0916     71.6728     16.3815
  1541.1000      8.0235      2.5393      0.0251      6.7075     72.6424     15.6345
  1541.2000      8.0235      2.5321     -0.0014      7.1457     70.0303     14.9841
  1541.3000      8.0200      2.5173     -0.0270      8.0432     68.6563     15.1764
  1541.4000      8.0200      2.5135     -0.0035      8.2739     68.6632     16.0391
  1541.5000      7.9996      2.5252      0.0010      7.5636     68.2323     16.4857
  1541.6000      7.9996      2.5430     -0.0014      6.4828     67.0289     16.2230
  1541.7000      7.9996      2.5569      0.0315      5.6418     66.0640     15.8442
  1541.8000      7.9967      2.5572      0.0291      5.6225     68.4843     15.7884
  1541.9000      7.9967      2.5423      0.0042      6.5269     75.2684     16.2367
  1542.0000      7.9911      2.5279     -0.0169      7.4003     80.4941     17.0253
  1542.1000      7.9911      2.5312     -0.0142      7.1985     79.8997     17.8095
  1542.2000      7.9911      2.5469      0.0319      6.2483     75.8889     17.9819
  1542.3000      7.9919      2.5573      0.0048      5.6152     71.5490     17.2011
  1542.4000      7.9919      2.5610     -0.0138      5.3940     69.5633     16.3231
  1542.5000      7.9886      2.5672      0.0155      5.0161     70.7545     16.1049
  1542.6000      7.9886      2.5768      0.0077      4.4385     72.6996     16.3175
  1542.7000      7.9886      2.5741      0.0962      4.5986     74.6196     16.5337
  1542.8000      7.9778      2.5484     -0.0031      6.1605     78.7238     16.5099
  1542.9000      7.9778      2.5194     -0.0366      7.9139     81.7822     16.4899
  1543.0000      7.9749      2.5076      0.0231      8.6319     78.9352     16.6839
  1543.1000      7.9749      2.5061      0.0092      8.7187     74.9860     17.0170
  1543.2000      7.9749      2.5039      0.0067      8.8563     75.2878     17.3495
  1543.3000      7.9753      2.5080     -0.0124      8.6055     77.4792     17.6149
  1543.4000      7.9753      2.5282      0.0378      7.3836     76.7834     18.0186
  1543.5000      7.9757      2.5489      0.0535      6.1248     70.4249     18.6563
  1543.6000      7.9757      2.5542      0.0169      5.8078     61.3285     19.0511
  1543.7000      7.9757      2.5499      0.0351      6.0692     56.7877     19.1270
  1543.8000      7.9751      2.5436      0.0393      6.4478     60.6325     19.5775
  1543.9000      7.9751      2.5394      0.0231      6.7038     68.5301     20.3246
  1544.0000      7.9750      2.5392      0.0189      6.7131     75.0648     20.4795
  1544.1000      7.9750      2.5352      0.0426      6.9556     77.7021     20.2458
  1544.2000      7.9750      2.5258      0.0280      7.5289     75.7340     20.5374
  1544.3000      7.9756      2.5225      0.0239      7.7284     72.2265     21.4000
  1544.4000      7.9756      2.5293      0.0199      7.3144     69.7520     22.2080
  1544.5000      7.9776      2.5387      0.0152      6.7448     68.4220     22.5776
  1544.6000      7.9776      2.5410      0.0144      6.6052     67.1332     22.5787
  1544.7000      7.9776      2.5390      0.0223      6.7301     63.2199     21.9474
  1544.8000      7.9755      2.5428      0.0298      6.4991     58.4233     20.8585
  1544.9000      7.9755      2.5494      0.0443      6.0997     60.1066     20.5507
  1545.0000      7.9741      2.5501      0.0259      6.0542     68.7241     21.1367
  1545.1000      7.9741      2.5422      0.0231      6.5349     76.3128     21.2715
  1545.2000      7.9741      2.5327     -0.0288      7.1083     77.4976     20.6224
  1545.3000      7.9742      2.5367     -0.0120      6.8694     75.5594     20.1418
  1545.4000      7.9742      2.5498      0.0382      6.0703     74.9661     20.2941
  1545.5000      7.9722      2.5494      0.0746      6.0958     75.4555     21.0079
  1545.6000      7.9722      2.5303      0.0103      7.2535     75.1579     21.7029
  1545.7000      7.9722      2.5103      0.0202      8.4645     73.3265     21.2693
  1545.8000      7.9748      2.5035     -0.0234      8.8770     70.0313     19.8442
  1545.9000      7.9748      2.5110     -0.0130      8.4268     65.8792     19.0271
  1546.0000      7.9717      2.5238      0.0248      7.6496     63.5961     19.1871
  1546.1000      7.9717      2.5326      0.0213      7.1147     64.7830     19.4723
  1546.2000      7.9717      2.5344      0.0262      7.0089     66.7466     19.6165
  1546.3000      7.9721      2.5264      0.0271      7.4935     67.9216     19.6115
  1546.4000      7.9721      2.5071      0.0629      8.6591     67.6269     19.4100
  1546.5000      7.9723      2.4883     -0.0263      9.8011     65.7762     19.4129
