~Version Information
VERS.                      2.0: CWLS Log ASCII Standard - VERSION 2.0
WRAP.                       NO: One line per depth step
~Well Information Block
STRT.FT               710.0000: 
STOP.FT              2304.5000: 
STEP.FT                 0.2500: 
NULL.                -999.2500: 
COMP.          Pioneer Natural Resources: COMPANY
WELL.           Ogallela 44-12: WELL
FLD.           Purgatoire River: FIELD
LOC.           610' FSL & 671' FEL: LOCATION
PROV.                 Colorado: PROVINCE
CNTY.               Las Animas: COUNTRY
SRVC.                Patterson: SERVICE COMPANY
DATE.          Wed Feb 23 00:14:59 2005: LOG DATE
UWI.           05 071 08283 00: UNIQUE WELL ID
~Curve Information Block
DEPT.FT            0 000 00 00: Depth
SN.Ohm-m                      : IEL Short Normal
SP.mV                         : IEL Spontaneous Potential
DIR.Ohm-m                     : IEL Induction Resistivity
GR.GAPI                       : Gamma Ray
~Parameter Information Block
~A  Depth        SN          SP         DIR          GR     
# ...
  1145.5000   2000.0000   2040.0000     29.6461    123.4942
  1145.7500   2000.0000   2040.0000     29.7432    125.3230
  1146.0000   2000.0000   2040.0000     29.8843    127.0592
  1146.2500   2000.0000   2040.0000     30.0449    127.0872
  1146.5000   2000.0000   2040.0000     30.2271    124.9492
  1146.7500   2000.0000   2040.0000     30.4362    122.1332
  1147.0000   2000.0000   2040.0000     30.6508    116.8193
  1147.2500   2000.0000   2040.0000     30.8232    113.3584
  1147.5000   2000.0000   2040.0000     30.9168    109.1192
  1147.7500   2000.0000   2040.0000     30.9487    107.0056
  1148.0000   2000.0000   2040.0000     30.9918    105.0681
  1148.2500   2000.0000   2040.0000     31.1269    104.8864
  1148.5000   2000.0000   2040.0000     31.3869    106.3974
  1148.7500   2000.0000   2040.0000     31.7394    108.0564
  1149.0000   2000.0000   2040.0000     32.1163    110.0010
  1149.2500   2000.0000   2040.0000     32.4577    110.2854
  1149.5000   2000.0000   2040.0000     32.7286    109.0104
  1149.7500   2000.0000   2040.0000     32.8980    107.3864
  1150.0000   2000.0000   2040.0000     32.9101    104.9239
  1150.2500   2000.0000   2040.0000     32.6843    103.9652
  1150.5000   2000.0000   2040.0000     32.1521    104.0004
  1150.7500   2000.0000   2040.0000     31.2941    104.5922
  1151.0000   2000.0000   2040.0000     30.1450    105.1201
  1151.2500   2000.0000   2040.0000     28.7665    104.9171
  1151.5000   2000.0000   2040.0000     27.2254    104.4528
  1151.7500   2000.0000   2040.0000     25.5898    104.8026
  1152.0000   2000.0000   2040.0000     23.9344    107.3616
  1152.2500   2000.0000   2040.0000     22.3351    110.6814
  1152.5000   2000.0000   2040.0000     20.8566    117.8585
  1152.7500   2000.0000   2040.0000     19.5440    123.4806
  1153.0000   2000.0000   2040.0000     18.4271    131.2567
  1153.2500   2000.0000   2040.0000     17.5271    134.8878
  1153.5000   2000.0000   2040.0000     16.8559    137.4944
  1153.7500   2000.0000   2040.0000     16.4076    138.0702
  1154.0000   2000.0000   2040.0000     16.1494    138.9318
  1154.2500   2000.0000   2040.0000     16.0237    139.9306
  1154.5000   2000.0000   2040.0000     15.9648    141.4368
  1154.7500   2000.0000   2040.0000     15.9225    141.6970
  1155.0000   2000.0000   2040.0000     15.8775    139.7001
  1155.2500   2000.0000   2040.0000     15.8356    136.2568
  1155.5000   2000.0000   2040.0000     15.8073    128.1160
  1155.7500   2000.0000   2040.0000     15.7890    121.8247
  1156.0000   2000.0000   2040.0000     15.7601    114.3992
  1156.2500   2000.0000   2040.0000     15.6973    112.7417
  1156.5000   2000.0000   2040.0000     15.5951    116.9241
  1156.7500   2000.0000   2040.0000     15.4745    123.6935
  1157.0000   2000.0000   2040.0000     15.3745    136.7581
  1157.2500   2000.0000   2040.0000     15.3315    145.0679
  1157.5000   2000.0000   2040.0000     15.3635    153.6372
  1157.7500   2000.0000   2040.0000     15.4637    155.7990
  1158.0000   2000.0000   2040.0000     15.6022    154.1538
  1158.2500   2000.0000   2040.0000     15.7363    151.1857
  1158.5000   2000.0000   2040.0000     15.8305    146.9860
  1158.7500   2000.0000   2040.0000     15.8751    145.3594
  1159.0000   2000.0000   2040.0000     15.8919    143.8713
  1159.2500   2000.0000   2040.0000     15.9193    142.1907
  1159.5000   2000.0000   2040.0000     15.9903    137.4422
  1159.7500   2000.0000   2040.0000     16.1188    133.5823
  1160.0000   2000.0000   2040.0000     16.3020    129.7210
  1160.2500   2000.0000   2040.0000     16.5342    129.7024
  1160.5000   2000.0000   2040.0000     16.8216    133.1785
  1160.7500   2000.0000   2040.0000     17.1858    136.5780
  1161.0000   2000.0000   2040.0000     17.6496    141.2361
  1161.2500   2000.0000   2040.0000     18.2175    143.4119
  1161.5000   2000.0000   2040.0000     18.8646    144.8435
  1161.7500   2000.0000   2040.0000     19.5463    144.4656
  1162.0000   2000.0000   2040.0000     20.2259    142.0014
  1162.2500   2000.0000   2040.0000     20.8996    139.3979
  1162.5000   2000.0000   2040.0000     21.5994    134.8907
  1162.7500   2000.0000   2040.0000     22.3673    131.9500
  1163.0000   2000.0000   2040.0000     23.2160    127.8810
  1163.2500   2000.0000   2040.0000     24.1040    125.1016
  1163.5000   2000.0000   2040.0000     24.9505    119.9194
  1163.7500   2000.0000   2040.0000     25.6914    115.4002
  1164.0000   2000.0000   2040.0000     26.3342    107.4187
  1164.2500   2000.0000   2040.0000     26.9606    102.4186
  1164.5000   2000.0000   2040.0000     27.6642     98.3013
  1164.7500   2000.0000   2040.0000     28.4733     99.1411
  1165.0000   2000.0000   2040.0000     29.3074    105.8760
  1165.2500   2000.0000   2040.0000     29.9966    112.7985
  1165.5000   2000.0000   2040.0000     30.3526    123.8056
  1165.7500   2000.0000   2040.0000     30.2409    129.9465
  1166.0000   2000.0000   2040.0000     29.6044    135.4577
  1166.2500   2000.0000   2040.0000     28.4441    136.1241
  1166.5000   2000.0000   2040.0000     26.8067    132.7922
  1166.7500   2000.0000   2040.0000     24.8023    128.5445
  1167.0000   2000.0000   2040.0000     22.6194    121.7465
  1167.2500   2000.0000   2040.0000     20.4944    118.6418
  1167.5000   2000.0000   2040.0000     18.6411    117.9991
  1167.7500   2000.0000   2040.0000     17.1891    120.1205
  1168.0000   2000.0000   2040.0000     16.1711    124.7602
  1168.2500   2000.0000   2040.0000     15.5495    126.8806
  1168.5000   2000.0000   2040.0000     15.2594    126.2505
  1168.7500   2000.0000   2040.0000     15.2615    123.1602
  1169.0000   2000.0000   2040.0000     15.6147    115.9838
  1169.2500   2000.0000   2040.0000     16.6033    110.6215
  1169.5000   2000.0000   2040.0000     19.0497    103.3732
  1169.7500   2000.0000   2040.0000     25.6788     99.9032
  1170.0000   2000.0000   2040.0000     54.0727     97.6395
  1170.2500   2000.0000   2040.0000 100000.0000     97.9360
  1170.5000   2000.0000   2040.0000 100000.0000     99.6192
  1170.7500   2000.0000   2040.0000 100000.0000    100.5639
  1171.0000   2000.0000   2040.0000 100000.0000    100.8780
  1171.2500   2000.0000   2040.0000 100000.0000    100.5425
  1171.5000   2000.0000   2040.0000 100000.0000    100.2930
  1171.7500   2000.0000   2040.0000 100000.0000    100.9927
  1172.0000   2000.0000   2040.0000 100000.0000    103.7952
  1172.2500   2000.0000   2040.0000 100000.0000    106.3520
  1172.5000   2000.0000   2040.0000 100000.0000    109.7912
  1172.7500   2000.0000   2040.0000 100000.0000    111.5206
  1173.0000   2000.0000   2040.0000 100000.0000    114.3509
  1173.2500   2000.0000   2040.0000 100000.0000    117.1785
  1173.5000   2000.0000   2040.0000 100000.0000    122.4322
  1173.7500   2000.0000   2040.0000 100000.0000    125.2653
  1174.0000   2000.0000   2040.0000 100000.0000    126.0942
  1174.2500   2000.0000   2040.0000 100000.0000    123.8272
  1174.5000   2000.0000   2040.0000 100000.0000    117.1279
  1174.7500   2000.0000   2040.0000 100000.0000    111.7360
  1175.0000   2000.0000   2040.0000 100000.0000    104.4680
  1175.2500   2000.0000   2040.0000 100000.0000    100.7349
  1175.5000   2000.0000   2040.0000 100000.0000     96.2344
  1175.7500   2000.0000   2040.0000 100000.0000     93.4026
  1176.0000   2000.0000   2040.0000 100000.0000     89.3911
  1176.2500   2000.0000   2040.0000 100000.0000     87.4078
  1176.5000   2000.0000   2040.0000     10.7435     86.1729
  1176.7500   2000.0000   2040.0000      1.4604     86.2685
  1177.0000   2000.0000   2040.0000      0.6361     86.3745
  1177.2500   2000.0000   2040.0000      0.3711     85.5528
  1177.5000   2000.0000   2040.0000      0.2702     82.3390
  1177.7500   2000.0000   2040.0000      0.2532     79.0571
  1178.0000   2000.0000   2040.0000      0.3081     73.1228
  1178.2500   2000.0000   2040.0000      0.4685     68.8689
  1178.5000   2000.0000   2040.0000      0.8734     62.8047
  1178.7500   2000.0000   2040.0000      2.3045     59.7157
