~Version Information
VERS.                      2.0: CWLS Log ASCII Standard - VERSION 2.0
WRAP.                       NO: One line per depth step
~Well Information Block
STRT.FT               846.5000: 
STOP.FT              2610.0000: 
STEP.FT                 0.2500: 
NULL.                -999.2500: 
COMP.          Petrogulf Corporation: COMPANY
WELL.            Lavedure 7-44: WELL
FLD.           Purgatoire River: FIELD
LOC.           969' FSL & 501' FEL: LOCATION
PROV.                 Colorado: PROVINCE
CNTY.               Las Animas: COUNTRY
SRVC.                Patterson: SERVICE COMPANY
DATE.          Sun Dec 07 15:26:03 2003: LOG DATE
UWI.                          : UNIQUE WELL ID
~Curve Information Block
DEPT.FT            0 000 00 00: Depth
SP.mV                         : DIL Spontaneous Potential
RILD.Ohm-m                    : DIL Deep Resistivity
RILM.Ohm-m                    : DIL Medium Resistivity
RLL3.Ohm-m                    : DIL Shallow Resistivity
GR.GAPI                       : Gamma Ray
~Parameter Information Block
~A  Depth        SP         RILD        RILM        RLL3         GR     
# ...
  1798.5000   -585.7629     28.5024     31.0246     43.3157     47.3169
  1798.7500   -585.7062     28.2584     30.9078     44.1046     47.9157
  1799.0000   -585.6854     27.9661     30.6719     44.1438     48.6731
  1799.2500   -585.7111     27.7146     30.3148     42.6861     49.3292
  1799.5000   -585.8236     27.5233     29.8697     39.8371     50.9205
  1799.7500   -586.0656     27.3533     29.3915     36.4675     52.3451
  1800.0000   -586.4310     27.1474     28.9405     33.6174     54.4010
  1800.2500   -586.8432     26.8685     28.5675     31.9328     55.1284
  1800.5000   -587.1872     26.5249     28.2993     31.5072     54.3887
  1800.7500   -587.3715     26.1755     28.1305     32.0091     52.6422
  1801.0000   -587.3726     25.9109     28.0272     32.8751     49.0511
  1801.2500   -587.2441     25.8085     27.9482     33.5505     46.7173
  1801.5000   -587.0944     25.8871     27.8719     33.7626     43.9818
  1801.7500   -587.0426     26.0917     27.8143     33.6414     42.6781
  1802.0000   -587.1653     26.3238     27.8224     33.5733     41.2968
  1802.2500   -587.4553     26.5061     27.9516     33.9229     40.6544
  1802.5000   -587.8206     26.6370     28.2395     34.8348     39.8081
  1802.7500   -588.1313     26.7965     28.6905     36.1994     39.0131
  1803.0000   -588.2842     27.1004     29.2749     37.7473     37.0473
  1803.2500   -588.2468     27.6359     29.9445     39.1970     35.2998
  1803.5000   -588.0657     28.4241     30.6575     40.3768     32.7850
  1803.7500   -587.8470     29.4255     31.3979     41.2863     31.6883
  1804.0000   -587.7222     30.5806     32.1772     42.1053     31.2099
  1804.2500   -587.7990     31.8538     33.0164     43.1468     31.4176
  1804.5000   -588.1030     33.2468     33.9272     44.7445     31.7736
  1804.7500   -588.5505     34.7698     34.9066     47.1171     31.6723
  1805.0000   -588.9838     36.3968     35.9509     50.2913     30.6842
  1805.2500   -589.2552     38.0481     37.0708     54.1131     29.4881
  1805.5000   -589.2996     39.6235     38.2894     58.3100     27.2906
  1805.7500   -589.1526     41.0640     39.6189     62.5788     25.8812
  1806.0000   -588.9105     42.3777     41.0352     66.6859     24.1888
  1806.2500   -588.6661     43.6018     42.4768     70.5366     23.3544
  1806.5000   -588.4622     44.7467     43.8807     74.1648     22.4600
  1806.7500   -588.2896     45.7857     45.2391     77.6690     22.0742
  1807.0000   -588.1190     46.6856     46.6260     81.1462     21.6802
  1807.2500   -587.9354     47.4272     48.1478     84.6167     21.3646
  1807.5000   -587.7583     47.9891     49.8263     87.9033     20.5945
  1807.7500   -587.6404     48.3313     51.4960     90.5204     19.9829
  1808.0000   -587.6444     48.4051     52.8124     91.6861     19.3749
  1808.2500   -587.8087     48.1776     53.4164     90.5284     19.3430
  1808.5000   -588.1295     47.6342     53.1515     86.4833     19.6799
  1808.7500   -588.5684     46.7477     52.1420     79.7784     19.9194
  1809.0000   -589.0609     45.4574     50.6778     71.6796     20.1049
  1809.2500   -589.5096     43.6964     49.0512     64.0829     20.2306
  1809.5000   -589.7947     41.4568     47.4731     58.4627     20.7615
  1809.7500   -589.8239     38.8319     46.0688     54.9504     21.4039
  1810.0000   -589.5832     35.9863     44.8780     52.4546     22.6355
  1810.2500   -589.1366     33.0835     43.8136     49.8017     23.6089
  1810.5000   -588.5825     30.2383     42.6020     46.8056     25.6887
  1810.7500   -588.0021     27.5273     40.8035     44.2847     27.8705
  1811.0000   -587.4235     25.0187     38.0382     43.1302     32.7962
  1811.2500   -586.8149     22.7821     34.3210     43.3003     37.2220
  1811.5000   -586.1077     20.8691     30.1315     43.5406     45.4104
  1811.7500   -585.2388     19.2927     26.0861     42.1056     51.8071
  1812.0000   -584.1866     18.0249     22.5992     38.0185     62.7170
  1812.2500   -582.9871     17.0107     19.8140     31.8288     70.8350
  1812.5000   -581.7290     16.1874     17.7007     25.1910     84.1910
  1812.7500   -580.5347     15.4952     16.1594     19.7295     93.6546
  1813.0000   -579.5287     14.8812     15.0768     16.2348    107.5406
  1813.2500   -578.8051     14.2978     14.3481     14.6476    115.4627
  1813.5000   -578.3977     13.7071     13.8817     14.4758    123.3990
  1813.7500   -578.2677     13.0912     13.5955     15.1549    125.4480
  1814.0000   -578.3194     12.4639     13.4130     16.2142    123.9503
  1814.2500   -578.4419     11.8684     13.2644     17.3156    120.8311
  1814.5000   -578.5479     11.3588     13.0960     18.2110    115.4635
  1814.7500   -578.5912     10.9741     12.8816     18.6745    112.9223
  1815.0000   -578.5632     10.7224     12.6256     18.5255    112.1696
  1815.2500   -578.4803     10.5804     12.3547     17.7568    113.6263
  1815.5000   -578.3719     10.5078     12.1039     16.6040    117.1296
  1815.7500   -578.2745     10.4665     11.9042     15.4386    119.0014
  1816.0000   -578.2268     10.4334     11.7728     14.5764    119.4964
  1816.2500   -578.2598     10.4008     11.7062     14.1570    118.3828
  1816.5000   -578.3840     10.3642     11.6804     14.1268    116.2939
  1816.7500   -578.5917     10.3109     11.6592     14.2932    115.6386
  1817.0000   -578.8702     10.2194     11.6111     14.4386    115.9873
  1817.2500   -579.2078     10.0709     11.5236     14.4507    116.5195
  1817.5000   -579.5831      9.8646     11.4046     14.3723    117.0833
  1817.7500   -579.9506      9.6208     11.2708     14.3327    117.6154
  1818.0000   -580.2441      9.3686     11.1321     14.4259    119.8229
  1818.2500   -580.4013      9.1306     10.9848     14.6404    122.4943
  1818.5000   -580.3912      8.9170     10.8148     14.8709    127.0592
  1818.7500   -580.2288      8.7284     10.6078     14.9712    129.1552
  1819.0000   -579.9717      8.5622     10.3606     14.8103    129.5636
  1819.2500   -579.7032      8.4174     10.0849     14.3360    128.4918
  1819.5000   -579.5059      8.2944      9.8030     13.6327    127.1796
  1819.7500   -579.4334      8.1942      9.5381     12.9025    127.7848
  1820.0000   -579.4900      8.1162      9.3072     12.3423    131.5246
  1820.2500   -579.6250      8.0573      9.1190     12.0136    135.0961
  1820.5000   -579.7453      8.0135      8.9769     11.8349    139.6201
  1820.7500   -579.7441      7.9810      8.8819     11.6939    140.9863
  1821.0000   -579.5391      7.9586      8.8328     11.5581    140.4022
  1821.2500   -579.1071      7.9495      8.8265     11.4877    138.9349
  1821.5000   -578.4980      7.9619      8.8594     11.5616    136.2513
  1821.7500   -577.8233      8.0080      8.9316     11.7935    134.2909
  1822.0000   -577.2238      8.1016      9.0494     12.1232    130.7628
  1822.2500   -576.8240      8.2553      9.2237     12.4904    128.0016
  1822.5000   -576.6809      8.4771      9.4659     12.8982    123.9233
  1822.7500   -576.7491      8.7680      9.7875     13.3902    121.6511
  1823.0000   -576.8936      9.1202     10.2020     14.0016    118.7617
  1823.2500   -576.9553      9.5161     10.7274     14.8149    116.7378
  1823.5000   -576.8326      9.9287     11.3851     16.1049    113.0728
  1823.7500   -576.5202     10.3231     12.1915     18.3913    110.1086
  1824.0000   -576.0806     10.6622     13.1437     22.2816    104.3508
  1824.2500   -575.5845     10.9179     14.1999     28.1782     99.1870
  1824.5000   -575.0738     11.0817     15.2583     35.9019     89.5123
  1824.7500   -574.5671     11.1642     16.1482     44.2265     82.6048
  1825.0000   -574.0820     11.1818     16.6636     50.7447     73.6821
  1825.2500   -573.6526     11.1428     16.6511     52.7994     69.7295
  1825.5000   -573.3332     11.0450     16.1060     49.2321     67.6728
  1825.7500   -573.1893     10.8827     15.1807     41.3418     68.9873
  1826.0000   -573.2750     10.6562     14.0901     31.9891     74.7209
  1826.2500   -573.6027     10.3757     13.0086     23.7870     80.5132
