~Version Information
VERS.                      2.0: CWLS Log ASCII Standard - VERSION 2.0
WRAP.                       NO: One line per depth step
~Well Information Block
STRT.FT               -12.2500: 
STOP.FT              1948.2500: 
STEP.FT                 0.2500: 
NULL.                -999.2500: 
COMP.          Petrogulf Corporation: COMPANY
WELL.            Torcom 17-33R: WELL
FLD.           Purgatorie River: FIELD
LOC.           1483' FSL & 1804' FEL--: LOCATION
PROV.                       CO: PROVINCE
CNTY.               Las Animas: COUNTRY
SRVC.          Patterson Wireline: SERVICE COMPANY
DATE.          Fri Sep 30 10:11:43 2005: LOG DATE
UWI.           05 071 08096 00: UNIQUE WELL ID
~Curve Information Block
DEPT.FT            0 000 00 00: Depth
CCL.                          : Casing Collar Locator
TT3.usec                      : CBL 3' Travel Time
AMP3.mV                       : CBL 3' Amplitude
GR.GAPI                       : Gamma Ray
~Parameter Information Block
~A  Depth       CCL         TT3         AMP3         GR     
# ...
   389.7500      0.0000    278.9278     75.0320     89.5887
   390.0000      0.0000    278.9313     74.9146     93.7002
   390.2500      0.0000    278.9263     74.8386     97.2495
   390.5000      0.0000    278.9173     74.8451     99.4378
   390.7500      0.0000    278.9153     74.8923    100.6392
   391.0000      0.0000    278.9298     74.8984    101.6954
   391.2500      0.0000    278.9599     74.8144    102.3983
   391.5000      0.0000    278.9927     74.6657    101.6379
   391.7500      0.0000    279.0121     74.5350     98.8893
   392.0000      0.0000    279.0091     74.4977     94.7882
   392.2500      0.0000    278.9880     74.5564     90.2830
   392.5000      0.0000    278.9626     74.6343     85.9066
   392.7500      0.0000    278.9469     74.6377     82.0290
   393.0000      0.0000    278.9465     74.5364     79.3182
   393.2500      0.0000    278.9585     74.3895     78.5031
   393.5000      0.0000    278.9760     74.2921     79.6886
   393.7500      0.0000    278.9932     74.2892     82.1180
   394.0000      0.0000    279.0072     74.3335     84.7295
   394.2500      0.0000    279.0184     74.3219     86.9127
   394.5000      0.0000    279.0301     74.1748     88.6448
   394.7500      0.0000    279.0466     73.8969     90.0389
   395.0000      0.0000    279.0711     73.5740     91.1476
   395.2500      0.0000    279.1017     73.3090     92.2911
   395.5000      0.0000    279.1323     73.1513     94.3240
   395.7500      0.0000    279.1565     73.0756     98.2501
   396.0000      0.0000    279.1732     73.0213    104.3686
   396.2500      0.0000    279.1881     72.9420    111.5012
   396.5000      0.0000    279.2116     72.8007    117.0442
   396.7500      0.0000    279.2637     72.4843    118.3421
   397.0000      0.0000    279.3947     71.6895    114.5303
   397.2500      0.0000    279.7115     69.9227    106.9394
   397.5000      0.0000    280.3626     66.8434     97.6907
   397.7500      0.0000    281.4447     62.8435     88.2513
   398.0000      0.0000    282.8795     59.1330     79.3625
   398.2500      0.0000    284.3937     56.8285     71.7882
   398.5000      0.0000    285.6607     55.9538     66.5429
   398.7500      0.0000    286.4850     55.6617     64.3000
   399.0000      0.0000    286.8758     55.2836     64.8295
   399.2500      0.0000    286.9796     54.7702     67.1528
   399.5000      0.0000    286.9604     54.2931     70.1148
   399.7500     -2.0000    286.9239     53.8708     72.8484
   400.0000      2.0000    286.9148     53.3896     75.0537
   400.2500      0.0000    286.9216     52.7897     76.9599
   400.5000      0.0000    286.8269     52.2380     78.8708
   400.7500      0.0000    286.3739     52.2050     80.6412
   401.0000      0.0000    285.3072     53.2775     81.6526
   401.2500      0.0000    283.6578     55.7396     81.4197
   401.5000      0.0000    281.8389     59.3107     80.2265
   401.7500      0.0000    280.3617     63.2746     78.9741
   402.0000      0.0000    279.4706     66.8424     78.4528
   402.2500      0.0000    279.0754     69.4919     78.9861
   402.5000      0.0000    278.9523     71.1231     80.4550
   402.7500      0.0000    278.9293     71.9645     82.3494
   403.0000      0.0000    278.9297     72.3379     84.2309
   403.2500      0.0000    278.9330     72.4854     86.4682
   403.5000      0.0000    278.9365     72.5351     90.0736
   403.7500      0.0000    278.9395     72.5426     95.4406
   404.0000      0.0000    278.9415     72.5281    101.4698
   404.2500      0.0000    278.9445     72.4981    106.2123
   404.5000      0.0000    278.9522     72.4525    108.3648
   404.7500      0.0000    278.9678     72.3907    108.1296
   405.0000      0.0000    278.9895     72.3159    106.8597
   405.2500      0.0000    279.0113     72.2363    106.0877
   405.5000      0.0000    279.0263     72.1604    106.7071
   405.7500      0.0000    279.0315     72.0897    108.6727
   406.0000      0.0000    279.0297     72.0134    111.1924
   406.2500      0.0000    279.0286     71.9128    113.2785
   406.5000      0.0000    279.0360     71.7738    114.3038
   406.7500      0.0000    279.0551     71.5984    114.3376
   407.0000      0.0000    279.0809     71.4055    114.1189
   407.2500      0.0000    279.1038     71.2231    114.5239
   407.5000      0.0000    279.1178     71.0750    115.9179
   407.7500      0.0000    279.1250     70.9719    118.0253
   408.0000      0.0000    279.1320     70.9139    120.0915
   408.2500      0.0000    279.1422     70.9040    120.7355
   408.5000      0.0000    279.1524     70.9537    118.0775
   408.7500      0.0000    279.1572     71.0745    110.8618
   409.0000      0.0000    279.1540     71.2615     99.5898
   409.2500      0.0000    279.1457     71.4871     86.2330
   409.5000      0.0000    279.1385     71.7115     73.0021
   409.7500      0.0000    279.1371     71.9024     61.6393
   410.0000      0.0000    279.1415     72.0478     53.3729
   410.2500      0.0000    279.1477     72.1566     48.8610
   410.5000      0.0000    279.1511     72.2487     47.8869
   410.7500      0.0000    279.1494     72.3431     49.1921
   411.0000      0.0000    279.1429     72.4503     50.8838
   411.2500      0.0000    279.1330     72.5725     51.4837
   411.5000      0.0000    279.1197     72.7090     50.9261
   411.7500      0.0000    279.1024     72.8574     50.4302
   412.0000      0.0000    279.0816     73.0085     51.2093
   412.2500      0.0000    279.0600     73.1401     53.3890
   412.5000      0.0000    279.0414     73.2248     56.2834
   412.7500      0.0000    279.0284     73.2445     59.4117
   413.0000      0.0000    279.0215     73.1985     62.8420
   413.2500      0.0000    279.0201     73.0956     66.7447
   413.5000      0.0000    279.0238     72.9463     71.1076
   413.7500      0.0000    279.0327     72.7645     75.8020
   414.0000      0.0000    279.0475     72.5729     80.4941
   414.2500      0.0000    279.0703     72.3979     84.4533
   414.5000      0.0000    279.1022     72.2583     86.6734
   414.7500      0.0000    279.1411     72.1608     86.3048
   415.0000      0.0000    279.1800     72.1030     83.1168
   415.2500      0.0000    279.2100     72.0793     77.7664
   415.5000      0.0000    279.2261     72.0836     71.6920
   415.7500      0.0000    279.2300     72.1098     66.5151
   416.0000      0.0000    279.2291     72.1514     63.2270
   416.2500      0.0000    279.2311     72.2030     61.7606
   416.5000      0.0000    279.2409     72.2619     61.4183
   416.7500      0.0000    279.2587     72.3257     61.8981
   417.0000      0.0000    279.2821     72.3907     63.9556
   417.2500      0.0000    279.3080     72.4548     68.7872
   417.5000      0.0000    279.3327     72.5217     76.5897
   417.7500      0.0000    279.3530     72.5993     85.8439
   418.0000      0.0000    279.3655     72.6943     94.0800
   418.2500      0.0000    279.3686     72.8094     99.2977
   418.5000      0.0000    279.3625     72.9426    100.9838
   418.7500      0.0000    279.3503     73.0869    100.2605
   419.0000      0.0000    279.3368     73.2322     99.0452
   419.2500      0.0000    279.3260     73.3682     98.6210
   419.5000      0.0000    279.3188     73.4888     98.7910
   419.7500      0.0000    279.3129     73.5938     98.4785
   420.0000      0.0000    279.3053     73.6859     97.1287
   420.2500      0.0000    279.2956     73.7660     95.3621
   420.5000      0.0000    279.2863     73.8317     94.1783
   420.7500      0.0000    279.2800     73.8787     93.7771
   421.0000      0.0000    279.2773     73.9044     93.4390
   421.2500      0.0000    279.2768     73.9117     92.3154
   421.5000      0.0000    279.2762     73.9126     90.0108
   421.7500      0.0000    279.2740     73.9219     86.5879
   422.0000      0.0000    279.2706     73.9450     82.4776
   422.2500      0.0000    279.2679     73.9723     78.4377
   422.5000      0.0000    279.2675     73.9847     75.3173
   422.7500      0.0000    279.2703     73.9643     73.6007
   423.0000      0.0000    279.2769     73.8985     73.0983
