~Version Information
VERS.                      2.0: CWLS Log ASCII Standard - VERSION 2.0
WRAP.                       NO: One line per depth step
~Well Information Block
STRT.FT                -3.2500: 
STOP.FT              1637.5000: 
STEP.FT                 0.2500: 
NULL.                -999.2500: 
COMP.          Pioneer Natural Resources: COMPANY
WELL.            Mad Dog 42-31: WELL
FLD.           Purgatorie River: FIELD
LOC.           2064' FNL & 479' FEL--: LOCATION
PROV.                       CO: PROVINCE
CNTY.               Las Animas: COUNTRY
SRVC.                         : SERVICE COMPANY
DATE.          Fri Oct 15 16:13:39 2004: LOG DATE
UWI.          005 071 08195   : UNIQUE WELL ID
~Curve Information Block
DEPT.FT            0 000 00 00: Depth
HVOLTA.V                      : Head Voltage Apparent
GR.GAPI                       : Gamma Ray
CCL.                          : Casing Collar Locator
TT3.usec                      : CBL 3' Travel Time
AMP3.mV                       : CBL 3' Amplitude
~Parameter Information Block
~A  Depth      HVOLTA        GR         CCL         TT3         AMP3    
# ...
   108.7500     97.0801     83.6715      0.0000    893.3031      8.0561
   109.0000     97.2916     81.7038      0.0000    887.0350      8.2937
   109.2500     97.3537     82.2904      0.0000    884.8347      8.5888
   109.5000     97.2139     86.3635      0.0000    884.5714      8.9303
   109.7500     97.1697     93.6438      0.0000    884.6326      9.2528
   110.0000     97.2032    102.4212      0.0000    886.5944      9.4822
   110.2500     97.2642    110.2622      0.0000    892.4204      9.5950
   110.5000     97.2795    114.7217      0.0000    900.6422      9.6348
   110.7500     97.1590    114.1445      0.0000    907.2119      9.6705
   111.0000     97.1112    108.9371      0.0000    909.0397      9.7447
   111.2500     97.1076    101.9725      0.0000    905.5698      9.8553
   111.5000     97.1219     96.8013      0.0000    898.3620      9.9663
   111.7500     97.2271     95.1106      0.0000    890.6714     10.0254
   112.0000     97.1447     95.9773      0.0000    886.0892      9.9903
   112.2500     97.1936     97.2902      0.0000    885.5387      9.8552
   112.5000     97.0049     97.6998      0.0000    885.8461      9.6555
   112.7500     97.1721     97.5119      0.0000    882.3122      9.4421
   113.0000     97.2175     97.9928      0.0000    872.0883      9.2483
   113.2500     97.2545     99.9060      0.0000    855.0335      9.0755
   113.5000     97.0598    102.8061      0.0000    833.2778      8.9028
   113.7500     97.1936    105.3974      0.0000    810.9211      8.7100
   114.0000     97.2963    106.2842      0.0000    792.5804      8.4925
   114.2500     97.1625    104.7437      0.0000    780.8313      8.2609
   114.5000     97.1590    101.1894      0.0000    775.1025      8.0281
   114.7500     97.1889     96.7833      0.0000    773.0146      7.7985
   115.0000     97.1219     92.4720      0.0000    772.3221      7.5680
   115.2500     97.1697     88.5169      0.0000    771.8366      7.3357
   115.5000     97.0013     84.8596      0.0000    771.2966      7.1162
   115.7500     97.0527     81.6116      0.0000    770.8665      6.9389
   116.0000     97.2820     79.0996      0.0000    770.7114      6.8304
   116.2500     97.1625     77.5531      0.0000    770.8198      6.7981
   116.5000     97.1936     76.7562      0.0000    771.0492      6.8314
   116.7500     97.0598     76.0521      0.0000    771.2614      6.9147
   117.0000     97.1554     74.9928      0.0000    771.4070      7.0392
   117.2500     97.1183     74.0969      0.0000    771.5105      7.2102
   117.5000     97.2032     74.6928      0.0000    771.6215      7.4482
   117.7500     97.0837     77.7954      0.0000    771.8141      7.7698
   118.0000     97.1829     83.2348      0.0000    772.2128      8.1550
   118.2500     97.2784     89.8061      0.0000    773.0792      8.5397
   118.5000     97.2677     95.9979      0.0000    775.0739      8.8543
   118.7500     97.1147    100.4655      0.0000    779.7565      9.0732
   119.0000     97.3059    102.2904      0.0000    789.7963      9.2279
   119.2500     97.1554    101.5548      0.0000    807.7864      9.3733
   119.5000     97.0181     99.8385      0.0000    833.5831      9.5405
   119.7500     97.2485     99.5241      0.0000    862.6785      9.7168
   120.0000     97.2175    102.1165      0.0000    888.3249      9.8686
   120.2500     97.3369    107.1562      0.0000    905.9413      9.9759
   120.5000     97.2892    112.5031      0.0000    915.3242     10.0400
   120.7500     97.1829    115.5716      0.0000    918.9947     10.0636
   121.0000     97.2449    114.9618      0.0000    919.2867     10.0396
   121.2500     97.2749    111.5915      0.0000    916.8274      9.9671
   121.5000     97.3298    108.0206      0.0000    910.9326      9.8669
   121.7500     97.3573    106.0008      0.0000    901.2605      9.7668
   122.0000     97.1793    104.8477      0.0000    889.0627      9.6732
   122.2500     97.2545    102.8152      0.0000    876.0377      9.5675
   122.5000     96.9738     99.6783      0.0000    861.9243      9.4332
   122.7500     97.2342     96.9290      0.0000    845.2684      9.2766
   123.0000     97.2545     95.4945      0.0000    827.7045      9.1158
   123.2500     97.3979     94.4427      0.0000    815.4069      8.9578
   123.5000     97.0909     92.4461      0.0000    813.9137      8.7939
   123.7500     97.2449     89.8003      0.0000    821.5400      8.6228
   124.0000     97.3166     88.3709      0.0000    829.1805      8.4700
   124.2500     97.3166     89.7901      0.0000    827.6752      8.3746
   124.5000     97.0466     93.9760      0.0000    815.5157      8.3523
   124.7500     97.2820     99.1474      0.0000    798.9066      8.3737
   125.0000     97.4051    103.0992      0.0000    785.0928      8.3900
   125.2500     97.2414    104.6749      0.0000    776.9488      8.3754
   125.5000     97.2474    104.2781      0.0000    773.2208      8.3339
   125.7500     97.3680    103.1078      0.0000    771.5728      8.2714
   126.0000     97.1554    101.9997      0.0000    770.5045      8.1911
   126.2500     97.1351    100.8678      0.0000    769.4829      8.1275
   126.5000     97.1829     98.9442      0.0000    768.4589      8.1521
   126.7500     97.2713     95.3818      0.0000    767.5323      8.3193
   127.0000     97.1864     89.8835      0.0000    766.8289      8.6102
   127.2500     97.2927     83.2099      0.0000    766.4432      8.9389
   127.5000     97.3202     77.0915      0.0000    766.3871      9.2096
   127.7500     97.2545     73.3327      0.0000    766.5804      9.3687
   128.0000     97.1625     72.8773      0.0000    766.8907      9.4231
   128.2500     97.2139     75.6120      0.0000    767.2008      9.4270
   128.5000     97.2271     80.5300      0.0000    767.4757      9.4445
   128.7500     97.3191     85.8582      0.0000    767.7855      9.5057
   129.0000     97.3166     89.6691      0.0000    768.2516      9.5906
   129.2500     97.2927     91.0502      0.0000    768.9899      9.6527
   129.5000     97.1255     90.7967      0.0000    770.2000      9.6541
   129.7500     97.1351     90.7511      0.0000    772.3690      9.5817
   130.0000     97.0634     92.2467      0.0000    776.2112      9.4510
   130.2500     97.2485     94.9786      0.0000    781.9573      9.3022
   130.5000     97.0491     97.4065      0.0000    788.4232      9.1811
   130.7500     97.2653     98.4426      0.0000    793.1369      9.1172
   131.0000     97.2271     98.5339      0.0000    794.1691      9.1219
   131.2500     97.2856     98.6772      0.0000    791.9945      9.1977
   131.5000     97.0730     98.6173      0.0000    789.0621      9.3340
   131.7500     97.2199     96.7551      0.0000    787.6459      9.4952
   132.0000     97.0837     92.0121      0.0000    789.0335      9.6211
   132.2500     97.1494     85.2749      0.0000    794.7737      9.6462
   132.5000     97.1279     78.8209      0.0000    806.7639      9.5326
   132.7500     97.2653     74.7115      0.0000    824.6647      9.3016
   133.0000     97.2510     73.7801      0.0000    844.5350      9.0311
   133.2500     97.2474     75.4700      0.0000    862.0512      8.8088
   133.5000     97.0670     78.1547      0.0000    876.2720      8.6912
   133.7500     97.2653     80.0154      0.0000    888.3934      8.7010
   134.0000     97.2963     80.2466      0.0000    897.8105      8.8339
   134.2500     97.3573     79.5083      0.0000    901.8571      9.0393
   134.5000     97.1971     79.1737      0.0000    899.5801      9.2133
   134.7500     97.1483     80.3711      0.0000    894.3675      9.2510
   135.0000     97.3262     83.5621      0.0000    891.9537      9.1220
   135.2500     97.3130     88.2195      0.0000    895.5776      8.8914
   135.5000     97.1386     92.6159      0.0000    903.5042      8.6727
   135.7500     97.4026     94.7771      0.0000    911.3502      8.5607
   136.0000     97.3369     94.3858      0.0000    915.8298      8.5847
   136.2500     97.2307     93.3992      0.0000    915.7866      8.7011
   136.5000     97.0980     94.2120      0.0000    911.2021      8.8347
