~Version Information
VERS.                      2.0: CWLS Log ASCII Standard - VERSION 2.0
WRAP.                       NO: One line per depth step
~Well Information Block
STRT.FT                -9.5000: 
STOP.FT              1862.5000: 
STEP.FT                 0.2500: 
NULL.                -999.2500: 
COMP.          Petrogulf Corporation: COMPANY
WELL.             State 16-34R: WELL
FLD.           Purgatoire River: FIELD
LOC.           1095' FSL & 1498' FEL--: LOCATION
CNTY.               Las Animas: COUNTY
SRVC.                         : SERVICE COMPANY
DATE.          Mon May 10 14:56:57 2004: LOG DATE
UWI.                          : UNIQUE WELL ID
STAT.                       CO: STATE
~Curve Information Block
DEPT.FT            0 000 00 00: Depth
GR.GAPI                       : Gamma Ray
CCL.                          : Casing Collar Locator
TT3.usec                      : CBL 3' Travel Time
AMP3.mV                       : CBL 3' Amplitude
~Parameter Information Block
~A  Depth        GR         CCL         TT3         AMP3    
# ...
  1833.0000     50.4922      0.0000    741.5176      2.9768
  1833.2500     48.4050      0.0000    770.1467      3.0354
  1833.5000     47.5333      0.0000    797.4288      3.0681
  1833.7500     47.7487      0.0000    818.7267      3.0150
  1834.0000     48.9294      0.0000    829.6899      2.8791
  1834.2500     51.4907      0.0000    831.3990      2.7449
  1834.5000     55.9030      0.0000    828.5075      2.6849
  1834.7500     61.6810      0.0000    823.1370      2.7131
  1835.0000     67.1308      0.0000    813.5033      2.7958
  1835.2500     70.3005      0.0000    802.1149      2.8931
  1835.5000     70.1945      0.0000    801.3890      3.0449
  1835.7500     67.0539      0.0000    815.5906      3.2814
  1836.0000     61.7497      0.0000    823.0370      3.4642
  1836.2500     55.2757      0.0000    808.3975      3.4537
  1836.5000     48.8791      0.0000    792.5491      3.3232
  1836.7500     44.1360      0.0000    796.4231      3.2399
  1837.0000     42.2244      0.0000    814.0106      3.2646
  1837.2500     43.0516     -5.0000    835.7896      3.3366
  1837.5000     45.4655      0.0000    859.3309      3.3775
  1837.7500     48.3064      0.0000    871.6362      3.3539
  1838.0000     50.9068      0.0000    851.0688      3.2676
  1838.2500     52.7519      0.0000    798.1946      3.1499
  1838.5000     53.2639      0.0000    741.6186      3.0497
  1838.7500     52.2624      0.0000    704.8659      2.9904
  1839.0000     50.4315      0.0000    690.7423      2.9780
  1839.2500     49.0366      0.0000    696.7607      3.0301
  1839.5000     49.0934      0.0000    720.6608      3.1611
  1839.7500     50.7644      0.0000    752.1982      3.3582
  1840.0000     53.3703      0.0000    778.7438      3.5416
  1840.2500     55.9347      0.0000    795.9191      3.5907
  1840.5000     57.8671      0.0000    803.3755      3.4733
  1840.7500     59.0458      0.0000    798.9775      3.2829
  1841.0000     59.2025      0.0000    782.1853      3.1364
  1841.2500     57.6894      0.0000    758.4573      3.1022
  1841.5000     54.2663      0.0000    735.8522      3.1716
  1841.7500     49.8658      0.0000    718.2812      3.2531
  1842.0000     46.1330      0.0000    707.3644      3.2559
  1842.2500     44.2210      0.0000    706.1051      3.1708
  1842.5000     44.2797      0.0000    715.9208      3.0416
  1842.7500     46.0012      0.0000    736.7733      2.9130
  1843.0000     49.2688      0.0000    767.1455      2.8069
  1843.2500     54.1603      0.0000    795.3002      2.7084
  1843.5000     60.4997      0.0000    805.2620      2.5977
  1843.7500     67.3521      0.0000    801.8868      2.4866
  1844.0000     72.8855      0.0000    804.1708      2.4113
  1844.2500     75.1554      0.0000    809.1440      2.3966
  1844.5000     73.4985      0.0000    797.9399      2.4119
  1844.7500     69.0168      0.0000    770.5637      2.3964
  1845.0000     63.5459      0.0000    742.4753      2.3430
  1845.2500     58.4872      0.0000    722.2635      2.2801
  1845.5000     54.7143      0.0000    710.0750      2.2179
  1845.7500     52.9183      0.0000    705.8661      2.1886
  1846.0000     53.4652      0.0000    710.4345      2.2308
  1846.2500     55.9432      0.0000    724.7635      2.3020
  1846.5000     58.9928      0.0000    752.1057      2.3302
  1846.7500     60.8258      0.0000    787.2558      2.3163
  1847.0000     60.4273      0.0000    805.7823      2.2821
  1847.2500     58.4972      0.0000    792.1671      2.2190
  1847.5000     56.8387      0.0000    768.0705      2.1429
  1847.7500     56.4446      0.0000    762.6000      2.0890
  1848.0000     56.4820      0.0000    776.2237      2.0622
  1848.2500     55.5223      0.0000    789.8858      2.0569
  1848.5000     53.4951      0.0000    788.7404      2.0930
  1848.7500     51.9331      0.0000    769.2252      2.2103
  1849.0000     52.3414      0.0000    735.6541      2.4210
  1849.2500     54.6994      0.0000    698.6622      2.6315
  1849.5000     57.6043      0.0000    670.2241      2.6569
  1849.7500     59.5075      0.0000    651.2244      2.4387
  1850.0000     59.6932      0.0000    623.0107      2.1360
  1850.2500     58.4296      0.0000    550.7252      1.9010
  1850.5000     56.5268      0.0000    411.9424      1.7521
  1850.7500     54.8202      0.0000    238.8378      1.6630
  1851.0000     54.0041      0.0000    100.2453      1.6179
  1851.2500     54.7505      0.0000     29.0926      1.6010
  1851.5000     57.6376      0.0000      5.6706      1.5966
  1851.7500     62.6990      0.0000      0.7271      1.5958
  1852.0000     69.0070      0.0000      0.0580      1.5957
  1852.2500     74.7646      0.0000   -999.2500   -999.2500
  1852.5000     78.0024      0.0000   -999.2500   -999.2500
  1852.7500     77.5100      0.0000   -999.2500   -999.2500
  1853.0000     73.4332      0.0000   -999.2500   -999.2500
  1853.2500     67.2327      0.0000   -999.2500   -999.2500
  1853.5000     61.1026      0.0000   -999.2500   -999.2500
  1853.7500     57.0289      0.0000   -999.2500   -999.2500
  1854.0000     55.9471      0.0000   -999.2500   -999.2500
  1854.2500     57.7685      0.0000   -999.2500   -999.2500
  1854.5000     62.3172      0.0000   -999.2500   -999.2500
  1854.7500     70.0404      0.0000   -999.2500   -999.2500
  1855.0000     81.5135      0.0000   -999.2500   -999.2500
  1855.2500     96.3062      0.0000   -999.2500   -999.2500
  1855.5000    112.5557      0.0000   -999.2500   -999.2500
  1855.7500    127.6237      0.0000   -999.2500   -999.2500
  1856.0000    139.3668      0.0000   -999.2500   -999.2500
  1856.2500    147.2137      0.0000   -999.2500   -999.2500
  1856.5000    152.0501      0.0000   -999.2500   -999.2500
  1856.7500    154.9226      0.0000   -999.2500   -999.2500
  1857.0000    156.1478      0.0000   -999.2500   -999.2500
  1857.2500    155.9502      0.0000   -999.2500   -999.2500
  1857.5000    155.5181      0.0000   -999.2500   -999.2500
  1857.7500    156.4966      0.0000   -999.2500   -999.2500
  1858.0000    159.0639   -999.2500   -999.2500   -999.2500
  1858.2500    161.2838   -999.2500   -999.2500   -999.2500
  1858.5000    161.1314   -999.2500   -999.2500   -999.2500
  1858.7500    158.6258   -999.2500   -999.2500   -999.2500
  1859.0000    155.0870   -999.2500   -999.2500   -999.2500
  1859.2500    150.5359   -999.2500   -999.2500   -999.2500
  1859.5000    142.4952   -999.2500   -999.2500   -999.2500
  1859.7500    127.5532   -999.2500   -999.2500   -999.2500
  1860.0000    104.3773   -999.2500   -999.2500   -999.2500
  1860.2500     75.6950   -999.2500   -999.2500   -999.2500
  1860.5000     47.3748   -999.2500   -999.2500   -999.2500
  1860.7500     25.0288   -999.2500   -999.2500   -999.2500
  1861.0000     10.9607   -999.2500   -999.2500   -999.2500
  1861.2500      3.9208   -999.2500   -999.2500   -999.2500
  1861.5000      1.1321   -999.2500   -999.2500   -999.2500
  1861.7500      0.2608   -999.2500   -999.2500   -999.2500
  1862.0000      0.0468   -999.2500   -999.2500   -999.2500
  1862.2500      0.0059   -999.2500   -999.2500   -999.2500
  1862.5000      0.0000   -999.2500   -999.2500   -999.2500
