~Version Information
VERS.                      2.0: CWLS Log ASCII Standard - VERSION 2.0
WRAP.                       NO: One line per depth step
~Well Information Block
STRT.FT               400.0000: 
STOP.FT              2201.0000: 
STEP.FT                 0.2500: 
NULL.                -999.2500: 
COMP.          Evergreen Operating Corporation: COMPANY
WELL.            Triumph 13-10: WELL
FLD.           Purgatorie River: FIELD
LOC.           1551' FSL & 522' FWL: LOCATION
PROV.                 Colorado: PROVINCE
CNTY.               Las Animas: COUNTRY
SRVC.                Patterson: SERVICE COMPANY
DATE.          Fri Jul 23 20:28:37 2004: LOG DATE
UWI.           05 071 08108 00: UNIQUE WELL ID
~Curve Information Block
DEPT.FT            0 000 00 00: Depth
SN.Ohm-m                      : IEL Short Normal
SP.mV                         : IEL Spontaneous Potential
DIR.Ohm-m                     : IEL Induction Resistivity
GR.GAPI                       : Gamma Ray
~Parameter Information Block
~A  Depth        SN          SP         DIR          GR     
# ...
   768.5000   2000.0000   2000.0000     15.4571    118.3236
   768.7500   2000.0000   2000.0000     15.1823    108.0117
   769.0000   2000.0000   2000.0000     15.0238     97.4182
   769.2500   2000.0000   2000.0000     14.9432     95.5056
   769.5000   2000.0000   2000.0000     14.8779    100.1927
   769.7500   2000.0000   2000.0000     14.7592    106.5923
   770.0000   2000.0000   2000.0000     14.5323    117.4225
   770.2500   2000.0000   2000.0000     14.1713    123.7219
   770.5000   2000.0000   2000.0000     13.6887    129.9639
   770.7500   2000.0000   2000.0000     13.1324    131.8333
   771.0000   2000.0000   2000.0000     12.5699    132.5525
   771.2500   2000.0000   2000.0000     12.0651    132.8065
   771.5000   2000.0000   2000.0000     11.6596    134.2296
   771.7500   2000.0000   2000.0000     11.3672    136.1785
   772.0000   2000.0000   2000.0000     11.1780    140.5395
   772.2500   2000.0000   2000.0000     11.0676    143.9847
   772.5000   2000.0000   2000.0000     11.0074    148.6083
   772.7500   2000.0000   2000.0000     10.9736    150.6219
   773.0000   2000.0000   2000.0000     10.9527    151.9426
   773.2500   2000.0000   2000.0000     10.9417    152.2557
   773.5000   2000.0000   2000.0000     10.9430    152.8890
   773.7500   2000.0000   2000.0000     10.9602    153.5187
   774.0000   2000.0000   2000.0000     10.9979    153.9728
   774.2500   2000.0000   2000.0000     11.0624    153.3005
   774.5000   2000.0000   2000.0000     11.1594    150.3750
   774.7500   2000.0000   2000.0000     11.2893    147.5117
   775.0000   2000.0000   2000.0000     11.4425    143.2590
   775.2500   2000.0000   2000.0000     11.6014    141.3042
   775.5000   2000.0000   2000.0000     11.7455    140.2185
   775.7500   2000.0000   2000.0000     11.8565    140.1284
   776.0000   2000.0000   2000.0000     11.9201    138.8096
   776.2500   2000.0000   2000.0000     11.9248    136.0026
   776.5000   2000.0000   2000.0000     11.8643    128.2451
   776.7500   2000.0000   2000.0000     11.7455    121.1189
   777.0000   2000.0000   2000.0000     11.5943    109.0833
   777.2500   2000.0000   2000.0000     11.4502    101.4262
   777.5000   2000.0000   2000.0000     11.3510     93.0341
   777.7500   2000.0000   2000.0000     11.3187     90.9197
   778.0000   2000.0000   2000.0000     11.3566     94.3374
   778.2500   2000.0000   2000.0000     11.4547    100.6851
   778.5000   2000.0000   2000.0000     11.5987    113.7056
   778.7500   2000.0000   2000.0000     11.7745    122.5832
   779.0000   2000.0000   2000.0000     11.9725    133.1336
   779.2500   2000.0000   2000.0000     12.1897    137.4306
   779.5000   2000.0000   2000.0000     12.4335    139.5743
   779.7500   2000.0000   2000.0000     12.7249    138.4142
   780.0000   2000.0000   2000.0000     13.0981    133.7085
   780.2500   2000.0000   2000.0000     13.5950    129.4965
   780.5000   2000.0000   2000.0000     14.2564    123.5651
   780.7500   2000.0000   2000.0000     15.1127    120.8541
   781.0000   2000.0000   2000.0000     16.1781    119.1711
   781.2500   2000.0000   2000.0000     17.4482    119.1055
   781.5000   2000.0000   2000.0000     18.9004    118.6792
   781.7500   2000.0000   2000.0000     20.4937    117.0588
   782.0000   2000.0000   2000.0000     22.1692    111.8787
   782.2500   2000.0000   2000.0000     23.8537    107.0602
   782.5000   2000.0000   2000.0000     25.4664     99.4616
   782.7500   2000.0000   2000.0000     26.9262     95.0941
   783.0000   2000.0000   2000.0000     28.1560     90.5714
   783.2500   2000.0000   2000.0000     29.0841     89.0542
   783.5000   2000.0000   2000.0000     29.6449     88.6799
   783.7500   2000.0000   2000.0000     29.7817     89.3282
   784.0000   2000.0000   2000.0000     29.4585     91.0264
   784.2500   2000.0000   2000.0000     28.6802     92.2929
   784.5000   2000.0000   2000.0000     27.5138     93.7821
   784.7500   2000.0000   2000.0000     26.0864     94.3180
   785.0000   2000.0000   2000.0000     24.5585     94.9681
   785.2500   2000.0000   2000.0000     23.0826     96.0881
   785.5000   2000.0000   2000.0000     21.7648    100.1976
   785.7500   2000.0000   2000.0000     20.6414    104.9350
   786.0000   2000.0000   2000.0000     19.6780    114.4868
   786.2500   2000.0000   2000.0000     18.8011    121.4828
   786.5000   2000.0000   2000.0000     17.9481    130.7466
   786.7500   2000.0000   2000.0000     17.1104    135.1853
   787.0000   2000.0000   2000.0000     16.3330    138.9479
   787.2500   2000.0000   2000.0000     15.6794    139.9668
   787.5000   2000.0000   2000.0000     15.1928    140.4073
   787.7500   2000.0000   2000.0000     14.8829    140.5030
   788.0000   2000.0000   2000.0000     14.7325    140.5137
   788.2500   2000.0000   2000.0000     14.7089    140.1226
   788.5000   2000.0000   2000.0000     14.7727    138.1994
   788.7500   2000.0000   2000.0000     14.8804    135.6800
   789.0000   2000.0000   2000.0000     14.9874    129.6488
   789.2500   2000.0000   2000.0000     15.0535    124.0579
   789.5000   2000.0000   2000.0000     15.0518    113.8779
   789.7500   2000.0000   2000.0000     14.9763    106.8363
   790.0000   2000.0000   2000.0000     14.8420     98.3567
   790.2500   2000.0000   2000.0000     14.6749     95.4741
   790.5000   2000.0000   2000.0000     14.4949     96.4535
   790.7500   2000.0000   2000.0000     14.3032    100.3260
   791.0000   2000.0000   2000.0000     14.0826    108.9005
   791.2500   2000.0000   2000.0000     13.8091    114.7093
   791.5000   2000.0000   2000.0000     13.4647    120.8455
   791.7500   2000.0000   2000.0000     13.0454    122.6299
   792.0000   2000.0000   2000.0000     12.5602    123.2017
   792.2500   2000.0000   2000.0000     12.0299    123.7919
   792.5000   2000.0000   2000.0000     11.4818    127.1777
   792.7500   2000.0000   2000.0000     10.9437    131.2799
   793.0000   2000.0000   2000.0000     10.4377    138.5533
   793.2500   2000.0000   2000.0000      9.9775    142.5978
   793.5000   2000.0000   2000.0000      9.5712    145.4301
   793.7500   2000.0000   2000.0000      9.2272    145.0967
   794.0000   2000.0000   2000.0000      8.9580    142.9790
   794.2500   2000.0000   2000.0000      8.7774    141.7229
   794.5000   2000.0000   2000.0000      8.6944    141.0781
   794.7500   2000.0000   2000.0000      8.7050    141.2622
   795.0000   2000.0000   2000.0000      8.7899    141.4593
   795.2500   2000.0000   2000.0000      8.9182    141.1197
   795.5000   2000.0000   2000.0000      9.0577    139.9091
   795.7500   2000.0000   2000.0000      9.1850    138.8603
   796.0000   2000.0000   2000.0000      9.2924    137.2273
   796.2500   2000.0000   2000.0000      9.3860    136.2247
   796.5000   2000.0000   2000.0000      9.4794    134.8999
   796.7500   2000.0000   2000.0000      9.5855    133.8458
   797.0000   2000.0000   2000.0000      9.7108    131.3133
   797.2500   2000.0000   2000.0000      9.8549    129.1487
   797.5000   2000.0000   2000.0000     10.0125    126.7873
   797.7500   2000.0000   2000.0000     10.1783    126.7958
   798.0000   2000.0000   2000.0000     10.3495    129.4869
   798.2500   2000.0000   2000.0000     10.5264    132.3105
   798.5000   2000.0000   2000.0000     10.7108    135.9944
   798.7500   2000.0000   2000.0000     10.9047    136.9573
   799.0000   2000.0000   2000.0000     11.1091    135.4048
   799.2500   2000.0000   2000.0000     11.3246    132.8893
   799.5000   2000.0000   2000.0000     11.5528    128.8466
   799.7500   2000.0000   2000.0000     11.8000    126.9489
   800.0000   2000.0000   2000.0000     12.0798    125.6215
   800.2500   2000.0000   2000.0000     12.4139    125.2325
   800.5000   2000.0000   2000.0000     12.8312    124.1654
   800.7500   2000.0000   2000.0000     13.3658    122.5578
   801.0000   2000.0000   2000.0000     14.0508    118.3351
   801.2500   2000.0000   2000.0000     14.9056    114.4502
   801.5000   2000.0000   2000.0000     15.9203    107.8710
   801.7500   2000.0000   2000.0000     17.0504    103.5449
