~Version Information
VERS.                      2.0: CWLS Log ASCII Standard - VERSION 2.0
WRAP.                       NO: One line per depth step
~Well Information Block
STRT.FT               260.0000: 
STOP.FT              2611.5000: 
STEP.FT                 0.2500: 
NULL.                -999.2500: 
COMP.          Pioneer Natural Resources: COMPANY
WELL.           Costello 44-24: WELL
FLD.           Purgatoire River: FIELD
LOC.           327' FSL & 378' FEL: LOCATION
PROV.                 Colorado: PROVINCE
CNTY.               Las Animas: COUNTRY
SRVC.                Patterson: SERVICE COMPANY
DATE.          Mon Jul 11 00:49:32 2005: LOG DATE
UWI.           05 071 08413 00: UNIQUE WELL ID
~Curve Information Block
DEPT.FT            0 000 00 00: Depth
SN.Ohm-m                      : IEL Short Normal
SP.mV                         : IEL Spontaneous Potential
DIR.Ohm-m                     : IEL Induction Resistivity
GR.GAPI                       : Gamma Ray
~Parameter Information Block
~A  Depth        SN          SP         DIR          GR     
# ...
  1030.5000   2000.0000    200.0000     39.1512     78.3854
  1030.7500   2000.0000    200.0000     39.0424     76.4029
  1031.0000   2000.0000    200.0000     38.8635     72.9059
  1031.2500   2000.0000    200.0000     38.8428     70.1156
  1031.5000   2000.0000    200.0000     39.1844     65.3675
  1031.7500   2000.0000    200.0000     39.9426     62.3618
  1032.0000   2000.0000    200.0000     41.0020     59.1744
  1032.2500   2000.0000    200.0000     42.1502     58.0655
  1032.5000   2000.0000    200.0000     43.1844     57.2369
  1032.7500   2000.0000    200.0000     43.9854     56.8474
  1033.0000   2000.0000    200.0000     44.5351     56.5514
  1033.2500   2000.0000    200.0000     44.9019     56.7079
  1033.5000   2000.0000    200.0000     45.2267     57.0798
  1033.7500   2000.0000    200.0000     45.7004     56.7995
  1034.0000   2000.0000    200.0000     46.4989     54.9254
  1034.2500   2000.0000    200.0000     47.6838     53.0365
  1034.5000   2000.0000    200.0000     49.1181     50.6686
  1034.7500   2000.0000    200.0000     50.4781     50.0389
  1035.0000   2000.0000    200.0000     51.4190     50.4466
  1035.2500   2000.0000    200.0000     51.8033     51.0776
  1035.5000   2000.0000    200.0000     51.7860     51.7183
  1035.7500   2000.0000    200.0000     51.6807     51.8231
  1036.0000   2000.0000    200.0000     51.7646     51.7923
  1036.2500   2000.0000    200.0000     52.1733     51.8130
  1036.5000   2000.0000    200.0000     52.8827     51.8497
  1036.7500   2000.0000    200.0000     53.7319     51.7326
  1037.0000   2000.0000    200.0000     54.4935     51.2525
  1037.2500   2000.0000    200.0000     55.0098     50.7945
  1037.5000   2000.0000    200.0000     55.3125     49.8848
  1037.7500   2000.0000    200.0000     55.5925     48.9226
  1038.0000   2000.0000    200.0000     56.0211     46.5789
  1038.2500   2000.0000    200.0000     56.5757     44.5052
  1038.5000   2000.0000    200.0000     57.0327     41.3855
  1038.7500   2000.0000    200.0000     57.1363     39.8670
  1039.0000   2000.0000    200.0000     56.8067     39.1119
  1039.2500   2000.0000    200.0000     56.1911     39.6481
  1039.5000   2000.0000    200.0000     55.5151     41.4118
  1039.7500   2000.0000    200.0000     54.8932     42.8123
  1040.0000   2000.0000    200.0000     54.2521     45.0655
  1040.2500   2000.0000    200.0000     53.4105     46.8359
  1040.5000   2000.0000    200.0000     52.2468     50.0774
  1040.7500   2000.0000    200.0000     50.8117     52.5362
  1041.0000   2000.0000    200.0000     49.2806     56.4268
  1041.2500   2000.0000    200.0000     47.8046     59.1495
  1041.5000   2000.0000    200.0000     46.4083     63.6947
  1041.7500   2000.0000    200.0000     44.9996     67.2296
  1042.0000   2000.0000    200.0000     43.4606     73.4999
  1042.2500   2000.0000    200.0000     41.7352     78.3079
  1042.5000   2000.0000    200.0000     39.8555     85.9132
  1042.7500   2000.0000    200.0000     37.9033     90.4642
  1043.0000   2000.0000    200.0000     35.9477     94.8444
  1043.2500   2000.0000    200.0000     34.0086     95.6709
  1043.5000   2000.0000    200.0000     32.0592     94.6010
  1043.7500   2000.0000    200.0000     30.0600     93.3926
  1044.0000   2000.0000    200.0000     28.0065     92.3977
  1044.2500   2000.0000    200.0000     25.9609     92.8548
  1044.5000   2000.0000    200.0000     24.0391     95.8440
  1044.7500   2000.0000    200.0000     22.3600     99.6093
  1045.0000   2000.0000    200.0000     20.9924    108.0452
  1045.2500   2000.0000    200.0000     19.9331    115.2450
  1045.5000   2000.0000    200.0000     19.1192    126.8483
  1045.7500   2000.0000    200.0000     18.4601    133.7165
  1046.0000   2000.0000    200.0000     17.8718    140.7431
  1046.2500   2000.0000    200.0000     17.2968    143.0361
  1046.5000   2000.0000    200.0000     16.7073    144.2027
  1046.7500   2000.0000    200.0000     16.0980    144.5576
  1047.0000   2000.0000    200.0000     15.4804    145.5698
  1047.2500   2000.0000    200.0000     14.8794    146.5213
  1047.5000   2000.0000    200.0000     14.3263    147.6037
  1047.7500   2000.0000    200.0000     13.8488    147.7742
  1048.0000   2000.0000    200.0000     13.4635    147.5722
  1048.2500   2000.0000    200.0000     13.1740    147.7431
  1048.5000   2000.0000    200.0000     12.9742    149.2067
  1048.7500   2000.0000    200.0000     12.8499    150.9090
  1049.0000   2000.0000    200.0000     12.7793    153.8422
  1049.2500   2000.0000    200.0000     12.7346    155.6077
  1049.5000   2000.0000    200.0000     12.6887    157.1756
  1049.7500   2000.0000    200.0000     12.6228    156.7969
  1050.0000   2000.0000    200.0000     12.5303    152.6486
  1050.2500   2000.0000    200.0000     12.4154    147.1914
  1050.5000   2000.0000    200.0000     12.2909    136.6342
  1050.7500   2000.0000    200.0000     12.1746    130.0868
  1051.0000   2000.0000    200.0000     12.0849    124.3846
  1051.2500   2000.0000    200.0000     12.0343    124.1482
  1051.5000   2000.0000    200.0000     12.0241    128.1021
  1051.7500   2000.0000    200.0000     12.0449    132.1009
  1052.0000   2000.0000    200.0000     12.0792    137.6830
  1052.2500   2000.0000    200.0000     12.1051    140.4583
  1052.5000   2000.0000    200.0000     12.1002    143.1610
  1052.7500   2000.0000    200.0000     12.0459    143.9536
  1053.0000   2000.0000    200.0000     11.9351    143.2478
  1053.2500   2000.0000    200.0000     11.7767    141.6915
  1053.5000   2000.0000    200.0000     11.5941    139.2877
  1053.7500   2000.0000    200.0000     11.4154    138.6890
  1054.0000   2000.0000    200.0000     11.2634    140.0367
  1054.2500   2000.0000    200.0000     11.1520    142.2868
  1054.5000   2000.0000    200.0000     11.0870    147.1442
  1054.7500   2000.0000    200.0000     11.0698    150.8071
  1055.0000   2000.0000    200.0000     11.0987    155.1859
  1055.2500   2000.0000    200.0000     11.1659    156.3104
  1055.5000   2000.0000    200.0000     11.2547    155.0284
  1055.7500   2000.0000    200.0000     11.3391    153.2351
  1056.0000   2000.0000    200.0000     11.3896    151.7162
  1056.2500   2000.0000    200.0000     11.3834    152.2914
  1056.5000   2000.0000    200.0000     11.3155    154.5553
  1056.7500   2000.0000    200.0000     11.2009    155.5696
  1057.0000   2000.0000    200.0000     11.0673    154.8571
  1057.2500   2000.0000    200.0000     10.9417    153.4046
  1057.5000   2000.0000    200.0000     10.8387    151.9937
  1057.7500   2000.0000    200.0000     10.7580    152.3700
  1058.0000   2000.0000    200.0000     10.6886    154.4099
  1058.2500   2000.0000    200.0000     10.6178    155.9960
  1058.5000   2000.0000    200.0000     10.5378    158.0492
  1058.7500   2000.0000    200.0000     10.4472    159.1512
  1059.0000   2000.0000    200.0000     10.3486    160.2350
  1059.2500   2000.0000    200.0000     10.2441    160.5752
  1059.5000   2000.0000    200.0000     10.1353    161.2084
  1059.7500   2000.0000    200.0000     10.0248    162.1559
  1060.0000   2000.0000    200.0000      9.9175    163.7966
  1060.2500   2000.0000    200.0000      9.8203    163.8539
  1060.5000   2000.0000    200.0000      9.7397    160.6739
  1060.7500   2000.0000    200.0000      9.6792    156.6659
  1061.0000   2000.0000    200.0000      9.6381    150.5376
  1061.2500   2000.0000    200.0000      9.6130    147.9563
  1061.5000   2000.0000    200.0000      9.6015    146.6612
  1061.7500   2000.0000    200.0000      9.6055    146.3983
  1062.0000   2000.0000    200.0000      9.6319    145.0208
  1062.2500   2000.0000    200.0000      9.6889    143.2916
  1062.5000   2000.0000    200.0000      9.7807    140.5160
  1062.7500   2000.0000    200.0000      9.9033    139.2177
  1063.0000   2000.0000    200.0000     10.0451    138.7248
  1063.2500   2000.0000    200.0000     10.1921    139.4352
  1063.5000   2000.0000    200.0000     10.3342    141.6425
  1063.7500   2000.0000    200.0000     10.4673    143.3208
