~Version Information
VERS.                      2.0: CWLS Log ASCII Standard - VERSION 2.0
WRAP.                       NO: One line per depth step
~Well Information Block
STRT.FT               -12.5000: 
STOP.FT              2487.7500: 
STEP.FT                 0.2500: 
NULL.                -999.2500: 
COMP.          Petrogulf Corporation: COMPANY
WELL.             Royal 8-33 V: WELL
FLD.           Purgatorie River: FIELD
LOC.           2365' FSL & 2336' FEL--: LOCATION
CNTY.               Las Animas: COUNTY
SRVC.                         : SERVICE COMPANY
DATE.          Sat Jan 17 11:43:49 2004: LOG DATE
UWI.           05 071 07934 00: UNIQUE WELL ID
STAT.                       CO: STATE
~Curve Information Block
DEPT.FT            0 000 00 00: Depth
CCL.                          : Casing Collar Locator
TT3.usec                      : CBL 3' Travel Time
AMP3.mV                       : CBL 3' Amplitude
GR.GAPI                       : Gamma Ray
~Parameter Information Block
~A  Depth       CCL         TT3         AMP3         GR     
# ...
   992.5000      0.0000    713.6863      3.5060     32.0465
   992.7500      0.0000    710.6758      3.4511     33.6576
   993.0000      0.0000    708.4452      3.4363     37.4085
   993.2500      0.0000    706.7104      3.4280     42.3199
   993.5000      0.0000    704.8420      3.3862     46.8284
   993.7500      0.0000    702.3651      3.3124     50.1221
   994.0000      0.0000    699.4003      3.2439     52.8813
   994.2500      0.0000    696.8499      3.2090     56.5939
   994.5000      0.0000    695.8983      3.2069     62.1941
   994.7500      0.0000    696.9618      3.2190     69.2636
   995.0000      0.0000    699.2005      3.2191     76.3180
   995.2500      0.0000    701.2026      3.1777     81.8623
   995.5000      0.0000    701.8970      3.0722     85.4365
   995.7500      0.0000    700.7477      2.8952     87.8929
   996.0000      0.0000    697.6868      2.6542     90.6819
   996.2500      0.0000    693.3410      2.3741     94.6565
   996.5000      0.0000    688.9497      2.1055     99.3627
   996.7500      0.0000    685.5073      1.9141    103.4639
   997.0000      0.0000    683.1785      1.8403    105.8049
   997.2500      0.0000    682.1547      1.8593    105.9569
   997.5000      0.0000    683.7067      1.8916    103.9220
   997.7500      0.0000    689.1761      1.8605     99.7625
   998.0000      0.0000    697.5444      1.7449     93.7588
   998.2500      0.0000    705.5111      1.5887     86.7878
   998.5000      0.0000    711.2275      1.4747     80.3181
   998.7500     -4.0000    716.6698      1.4871     75.9194
   999.0000      4.0000    724.9315      1.6707     74.5442
   999.2500      3.5623    736.3720      2.0043     75.9607
   999.5000      0.0000    748.9250      2.4101     78.7603
   999.7500      0.0000    761.1941      2.7892     81.0873
  1000.0000      0.0000    773.6858      3.0540     81.7802
  1000.2500      0.0000    786.9462      3.1621     81.1251
  1000.5000      0.0000    798.9396      3.1428     80.4281
  1000.7500      0.0000    804.9225      3.0755     80.7817
  1001.0000      0.0000    801.2373      3.0225     82.3252
  1001.2500      0.0000    789.9195      2.9951     84.5029
  1001.5000      0.0000    778.5338      2.9853     86.7725
  1001.7500      0.0000    774.1852      3.0057     89.0686
  1002.0000      0.0000    777.4974      3.0782     91.6712
  1002.2500      0.0000    782.9598      3.1970     94.6555
  1002.5000      0.0000    785.0195      3.3175     97.6068
  1002.7500      0.0000    783.3930      3.3909     99.9362
  1003.0000      0.0000    782.7463      3.4085    101.4292
  1003.2500      0.0000    787.8475      3.4099    102.5902
  1003.5000      0.0000    799.3726      3.4445    104.4628
  1003.7500      0.0000    813.9742      3.5269    107.6632
  1004.0000      0.0000    827.3702      3.6324    111.2644
  1004.2500      0.0000    836.9310      3.7251    113.0251
  1004.5000      0.0000    842.2315      3.7793    111.2126
  1004.7500      0.0000    844.3231      3.7786    106.2616
  1005.0000      0.0000    844.7763      3.7198    100.5928
  1005.2500      0.0000    845.0353      3.6191     96.7540
  1005.5000      0.0000    846.1667      3.5028     95.4974
  1005.7500      0.0000    848.6780      3.3905     95.4874
  1006.0000      0.0000    852.1685      3.2924     94.9370
  1006.2500      0.0000    855.2972      3.2186     93.3361
  1006.5000      0.0000    856.4374      3.1774     91.2958
  1006.7500      0.0000    854.3618      3.1633     89.1984
  1007.0000      0.0000    848.1406      3.1511     86.9141
  1007.2500      0.0000    837.0496      3.1136     84.6719
  1007.5000      0.0000    821.7106      3.0516     83.3333
  1007.7500      0.0000    805.6719      3.0051     83.6058
  1008.0000      0.0000    794.9371      3.0185     85.4007
  1008.2500      0.0000    794.5040      3.0943     88.0811
  1008.5000      0.0000    804.3224      3.1886     91.0711
  1008.7500      0.0000    818.4857      3.2563     93.9677
  1009.0000      0.0000    829.2684      3.3014     96.2410
  1009.2500      0.0000    832.9785      3.3906     97.3809
  1009.5000      0.0000    831.9776      3.6238     97.5486
  1009.7500      0.0000    831.0961      4.0818     97.6402
  1010.0000      0.0000    832.9379      4.7790     98.3802
  1010.2500      0.0000    836.8502      5.6447     99.5762
  1010.5000      0.0000    841.2584      6.5490    100.3716
  1010.7500      0.0000    845.8208      7.3656     99.9963
  1011.0000      0.0000    851.3952      8.0179     98.2788
  1011.2500      0.0000    858.5590      8.4674     95.8033
  1011.5000      0.0000    866.2765      8.6834     93.8513
  1011.7500      0.0000    871.8713      8.6464     93.8297
  1012.0000      0.0000    872.5534      8.3623     96.2184
  1012.2500      0.0000    867.5167      7.8527    100.0127
  1012.5000      0.0000    858.4639      7.1494    103.4106
  1012.7500      0.0000    847.8753      6.3191    105.0085
  1013.0000      0.0000    837.0291      5.4765    104.3687
  1013.2500      0.0000    825.7584      4.7431    101.9341
  1013.5000      0.0000    813.4207      4.1885     98.7931
  1013.7500      0.0000    799.7271      3.8194     96.1362
  1014.0000      0.0000    784.8458      3.6211     94.4815
  1014.2500      0.0000    768.9250      3.5906     93.5332
  1014.5000      0.0000    751.9077      3.7102     92.9309
  1014.7500      0.0000    734.3560      3.8952     92.8270
  1015.0000      0.0000    718.6509      3.9986     93.4536
  1015.2500      0.0000    708.9813      3.9070     94.2519
  1015.5000      0.0000    709.0020      3.6368     93.8082
  1015.7500      0.0000    718.4487      3.3143     90.8845
  1016.0000      0.0000    732.4139      3.0550     85.5172
  1016.2500      0.0000    745.2449      2.8742     79.0352
  1016.5000      4.0000    755.3901      2.7123     73.0625
  1016.7500      4.0000    765.3917      2.5227     68.5244
  1017.0000      0.0000    776.9993      2.3158     65.6571
  1017.2500      0.0000    787.7966      2.1306     64.8585
  1017.5000      0.0000    793.2757      1.9912     67.0046
  1017.7500      0.0000    791.2297      1.8978     72.5513
  1018.0000      0.0000    783.2833      1.8435     80.7240
  1018.2500      0.0000    772.6662      1.8251     89.8751
  1018.5000      0.0000    761.3800      1.8414     98.1259
  1018.7500      0.0000    749.9644      1.8868    103.6353
  1019.0000      0.0000    739.4778      1.9492    105.3448
  1019.2500      0.0000    732.0906      2.0110    104.0235
  1019.5000      0.0000    728.5871      2.0622    102.0372
  1019.7500      0.0000    726.5436      2.1166    101.7061
  1020.0000      0.0000    722.6031      2.2088    103.8329
  1020.2500      0.0000    715.8603      2.3636    107.4557
  1020.5000      0.0000    707.8118      2.5692    110.7204
  1020.7500      0.0000    700.0399      2.7791    112.2223
  1021.0000      0.0000    693.3926      2.9370    111.9943
  1021.2500      0.0000    688.5911      3.0111    111.2750
  1021.5000      0.0000    685.9258      3.0213    110.9964
  1021.7500      0.0000    684.3930      3.0295    110.5607
  1022.0000      0.0000    682.4866      3.0894    108.6813
  1022.2500      0.0000    680.2138      3.2096    105.3653
  1022.5000      0.0000    679.3047      3.3657    102.2601
  1022.7500      0.0000    680.8686      3.5264    100.9702
  1023.0000      0.0000    683.4492      3.6554    101.7006
  1023.2500      0.0000    684.2688      3.7092    103.6136
  1023.5000      0.0000    682.4693      3.6584    105.8964
  1023.7500      0.0000    680.4847      3.5117    108.1652
  1024.0000      0.0000    681.6387      3.3105    110.1152
  1024.2500      0.0000    686.6428      3.1033    111.3166
  1024.5000      0.0000    692.8094      2.9307    111.5681
  1024.7500      0.0000    695.8935      2.8187    111.0771
  1025.0000      0.0000    691.4297      2.7744    109.9636
  1025.2500      0.0000    675.0237      2.7888    107.9193
  1025.5000      0.0000    644.7033      2.8467    104.8139
  1025.7500      0.0000    605.5534      2.9310    101.5097
