~Version Information
VERS.                      2.0: CWLS Log ASCII Standard - VERSION 2.0
WRAP.                       NO: One line per depth step
~Well Information Block
STRT.FT               577.0000: 
STOP.FT              2643.2000: 
STEP.FT                 0.1000: 
NULL.                -999.2500: 
COMP.          Petrogulf Corporation: COMPANY
WELL.           Montoya 12-41V: WELL
FLD.           Purgatorie River: FIELD
LOC.           1081' FNL & 605' FEL: LOCATION
CNTY.               Las Animas: COUNTY
SRVC.                         : SERVICE COMPANY
DATE.          Tue Aug 10 14:17:12 2004: LOG DATE
UWI.           05 071 08094 00: UNIQUE WELL ID
STAT.                 Colorado: STATE
~Curve Information Block
DEPT.FT            0 000 00 00: Depth
DCAL.in                       : CDL Caliper
RHOB.g/cc                     : CDL Bulk Density
RHOC.g/cc                     : CDL Density Correction
DPOR.pu                       : CDL Density Porosity
GR.GAPI                       : Gamma Ray
NPOR.pu                       : Neutron Porosity
~Parameter Information Block
~A  Depth       DCAL        RHOB        RHOC        DPOR         GR         NPOR    
# ...
  1949.8000      8.0540      2.4232      0.2376     13.7458    139.5207     28.4680
  1949.9000      8.0540      2.4740      0.3010     10.6670    148.0276     28.0822
  1950.0000      8.2556      2.5157      0.3427      8.1410    143.8411     27.6205
  1950.1000      8.2556      2.5201      0.3665      7.8710    134.0007     27.5309
  1950.2000      8.2556      2.4919      0.3028      9.5790    126.1090     27.8730
  1950.3000      8.4688      2.4600      0.2659     11.5121    122.2650     28.3524
  1950.4000      8.4688      2.4374      0.2550     12.8862    121.2226     28.8825
  1950.5000      8.7968      2.4116      0.1813     14.4484    121.7749     29.3024
  1950.6000      8.7968      2.3688      0.0951     17.0444    125.0381     29.1958
  1950.7000      8.7968      2.3185      0.0434     20.0933    131.6629     28.7253
  1950.8000      8.8131      2.2856      0.0229     22.0869    137.8893     28.4707
  1950.9000      8.8131      2.2874      0.0285     21.9731    141.1698     28.6631
  1951.0000      8.3231      2.3295      0.1318     19.4270    139.8517     28.8825
  1951.1000      8.3231      2.4093      0.1979     14.5872    135.5020     28.4975
  1951.2000      8.3231      2.5169      0.2644      8.0670    136.4715     27.4822
  1951.3000      8.5197      2.6267      0.3409      1.4110    141.5066     26.5969
  1951.4000      8.5197      2.7048      0.3647     -3.3199    142.1823     26.6228
  1951.5000      8.4958      2.7378      0.3425     -5.3240    137.5705     27.0935
  1951.6000      8.4958      2.7383      0.3545     -5.3495    132.1502     27.0243
  1951.7000      8.4958      2.7088      0.3036     -3.5608    129.0701     26.5975
  1951.8000      7.9517      2.6491      0.1366      0.0563    128.7049     26.5048
  1951.9000      7.9517      2.5888      0.0614      3.7075    130.8602     26.7392
  1952.0000      7.9204      2.5569      0.0517      5.6421    133.8861     26.7258
  1952.1000      7.9204      2.5469      0.0533      6.2487    133.9134     26.4934
  1952.2000      7.9204      2.5369      0.0099      6.8549    128.8884     26.3712
  1952.3000      7.8759      2.5218      0.0091      7.7680    123.6330     26.0666
  1952.4000      7.8759      2.5135      0.0216      8.2714    123.9340     25.4576
  1952.5000      7.8518      2.5170      0.0352      8.0597    126.5997     24.9737
  1952.6000      7.8518      2.5222      0.0315      7.7436    123.6889     24.8004
  1952.7000      7.8518      2.5176      0.0582      8.0265    117.4719     24.8327
  1952.8000      7.8234      2.5064      0.0362      8.7019    115.9825     24.9859
  1952.9000      7.8234      2.5037      0.0165      8.8695    118.7625     24.9513
  1953.0000      7.8259      2.5121      0.0423      8.3604    121.5914     24.6519
  1953.1000      7.8259      2.5226      0.0424      7.7206    122.5792     24.3920
  1953.2000      7.8259      2.5332      0.0368      7.0807    123.8971     24.2961
  1953.3000      7.8197      2.5474      0.0542      6.2159    126.2725     24.4611
  1953.4000      7.8197      2.5602      0.0897      5.4411    125.7588     25.0858
  1953.5000      7.7947      2.5613      0.0676      5.3754    121.4395     25.7914
  1953.6000      7.7947      2.5548      0.0496      5.7684    118.9121     25.8801
  1953.7000      7.7947      2.5493      0.0547      6.1043    123.4365     25.5227
  1953.8000      7.7656      2.5451      0.0536      6.3596    135.0240     25.5926
  1953.9000      7.7656      2.5440      0.0270      6.4267    145.4580     26.2134
  1954.0000      7.7728      2.5418      0.0637      6.5568    149.0045     26.5582
  1954.1000      7.7728      2.5309      0.0381      7.2156    149.7811     26.4113
  1954.2000      7.7728      2.5241      0.0263      7.6318    151.7831     26.3552
  1954.3000      7.7632      2.5339      0.0445      7.0341    152.3509     26.4478
  1954.4000      7.7632      2.5477      0.0721      6.1975    148.4982     26.2847
  1954.5000      7.8166      2.5493      0.0589      6.1054    143.6007     25.7830
  1954.6000      7.8166      2.5367      0.0496      6.8695    139.5416     25.3037
  1954.7000      7.8166      2.5093      0.0442      8.5271    135.0491     25.2990
  1954.8000      7.8532      2.4635      0.0449     11.3002    132.7112     26.0144
  1954.9000      7.8532      2.4075      0.0192     14.6979    135.4130     27.3685
  1955.0000      7.8726      2.3605     -0.0151     17.5432    139.0843     28.6558
  1955.1000      7.8726      2.3310     -0.0275     19.3356    140.7093     29.2882
  1955.2000      7.8726      2.3122     -0.0339     20.4709    142.2306     29.0811
  1955.3000      7.8981      2.3069     -0.0409     20.7930    142.5689     28.3800
  1955.4000      7.8981      2.3242      0.0043     19.7475    139.8835     27.9878
  1955.5000      7.9518      2.3560      0.0702     17.8194    138.4327     27.9095
  1955.6000      7.9518      2.3899      0.1044     15.7619    143.6705     28.0132
  1955.7000      7.9518      2.4289      0.1070     13.3978    153.1761     28.6845
  1955.8000      7.9365      2.4735      0.1860     10.6942    163.6194     29.4372
  1955.9000      7.9365      2.5059      0.1529      8.7327    173.9910     29.1736
  1956.0000      7.9505      2.5165      0.0887      8.0886    179.9151     28.2293
  1956.1000      7.9505      2.5192      0.0567      7.9260    177.4048     27.7231
  1956.2000      7.9505      2.5258      0.1048      7.5250    171.3697     27.8576
  1956.3000      8.0563      2.5369      0.0203      6.8534    165.6955     27.7720
  1956.4000      8.0563      2.5510      0.0217      6.0030    157.8823     26.9041
  1956.5000      8.0474      2.5607      0.0269      5.4109    150.6689     25.9982
  1956.6000      8.0474      2.5627     -0.0149      5.2907    148.1975     25.5551
  1956.7000      8.0474      2.5623      0.0122      5.3156    149.5064     25.0759
  1956.8000      7.8738      2.5588      0.0082      5.5256    154.3386     24.2923
  1956.9000      7.8738      2.5463     -0.0101      6.2862    160.2870     23.5774
  1957.0000      7.8455      2.5288     -0.0229      7.3438    162.3555     23.1467
  1957.1000      7.8455      2.5264     -0.0386      7.4884    162.0306     23.2184
  1957.2000      7.8455      2.5576     -0.0057      5.6008    168.9703     23.7274
  1957.3000      7.8209      2.6092      0.0729      2.4744    182.5142     24.0695
  1957.4000      7.8209      2.6455      0.0644      0.2701    183.9742     23.7960
  1957.5000      7.8157      2.6523      0.0899     -0.1364    165.4619     22.8747
  1957.6000      7.8157      2.6461      0.0740      0.2384    144.6011     21.7930
  1957.7000      7.8157      2.6380      0.0722      0.7270    139.4058     21.0407
  1957.8000      7.8144      2.6224      0.0696      1.6746    145.2553     20.3681
  1957.9000      7.8144      2.6074      0.0605      2.5809    145.0029     19.4853
  1958.0000      7.8094      2.6084      0.0701      2.5203    134.9217     18.7615
  1958.1000      7.8094      2.6243      0.0690      1.5552    127.6422     18.4548
  1958.2000      7.8094      2.6459      0.0375      0.2481    128.5558     18.4280
  1958.3000      7.7831      2.6603      0.0641     -0.6255    130.7601     18.4934
  1958.4000      7.7831      2.6509      0.0501     -0.0546    128.1926     18.6382
  1958.5000      7.8123      2.6236      0.0040      1.6021    122.0272     18.8314
  1958.6000      7.8123      2.6042      0.0225      2.7753    119.3425     18.4558
  1958.7000      7.8123      2.5990      0.0123      3.0895    119.4055     17.5672
  1958.8000      7.7929      2.6012     -0.0150      2.9566    115.7473     17.0107
  1958.9000      7.7929      2.6074      0.0264      2.5812    111.8013     16.8575
  1959.0000      7.8115      2.6084      0.0001      2.5194    112.5921     16.6790
  1959.1000      7.8115      2.6016     -0.0040      2.9324    114.8429     16.3887
  1959.2000      7.8115      2.5942      0.0008      3.3813    116.6212     16.3423
  1959.3000      7.8156      2.5861     -0.0025      3.8738    120.9601     16.7690
