~Version Information
VERS.                      2.0: CWLS Log ASCII Standard - VERSION 2.0
WRAP.                       NO: One line per depth step
~Well Information Block
STRT.FT               480.0000: 
STOP.FT              1994.2000: 
STEP.FT                 0.1000: 
NULL.                -999.2500: 
COMP.          Evergreen Operating Corporation: COMPANY
WELL.          McCullough 34-32 Tr: WELL
FLD.           Purgatoire River: FIELD
LOC.           394' FSL & 2077' FEL: LOCATION
PROV.                 Colorado: PROVINCE
CNTY.               Las Animas: COUNTRY
SRVC.                Patterson: SERVICE COMPANY
DATE.          Mon Sep 20 07:30:00 2004: LOG DATE
UWI.           05 071 08157 00: UNIQUE WELL ID
~Curve Information Block
DEPT.FT            0 000 00 00: Depth
DCAL.in                       : CDL Caliper
RHOB.g/cc                     : CDL Bulk Density
RHOC.g/cc                     : CDL Density Correction
DPOR.pu                       : CDL Density Porosity
NPOR.pu                       : Neutron Porosity
GR.GAPI                       : Gamma Ray
~Parameter Information Block
~A  Depth       DCAL        RHOB        RHOC        DPOR        NPOR         GR     
# ...
  1372.8000      8.0393      2.5991      0.0676      3.0867     28.7451    118.4731
  1372.9000      8.0393      2.5870      0.0278      3.8170     28.6011    120.4789
  1373.0000      8.0407      2.5640      0.0183      5.2125     28.1828    131.7179
  1373.1000      8.0407      2.5448     -0.0100      6.3768     27.6191    142.8718
  1373.2000      8.0407      2.5298     -0.0096      7.2826     26.9583    143.4615
  1373.3000      8.0431      2.5135     -0.0173      8.2717     26.4682    135.7414
  1373.4000      8.0431      2.4999     -0.0633      9.0950     26.4926    129.2546
  1373.5000      8.0448      2.4977     -0.0226      9.2277     26.8834    131.5409
  1373.6000      8.0448      2.5096     -0.0156      8.5112     27.3975    142.1774
  1373.7000      8.0448      2.5296      0.0526      7.2995     27.7263    151.5238
  1373.8000      8.0418      2.5397      0.0240      6.6872     27.4007    152.1389
  1373.9000      8.0418      2.5311      0.0193      7.2040     26.5968    147.1141
  1374.0000      8.0395      2.5251      0.0001      7.5693     26.0505    142.8603
  1374.1000      8.0395      2.5428      0.0305      6.4976     26.0062    142.5269
  1374.2000      8.0395      2.5720      0.0993      4.7249     26.3237    143.0708
  1374.3000      8.0391      2.5948      0.0750      3.3484     26.7237    140.0269
  1374.4000      8.0391      2.6105      0.0497      2.3936     26.8335    136.3890
  1374.5000      8.0388      2.6179      0.0679      1.9468     26.9295    136.4173
  1374.6000      8.0388      2.6112      0.0852      2.3536     27.3446    140.6482
  1374.7000      8.0388      2.5970      0.0575      3.2128     27.7700    142.8982
  1374.8000      8.0388      2.5912      0.0647      3.5663     27.7607    134.1833
  1374.9000      8.0388      2.5996      0.0276      3.0518     27.2728    118.2709
  1375.0000      8.0390      2.6217      0.0154      1.7163     26.8568    106.8193
  1375.1000      8.0390      2.6533      0.0610     -0.2014     26.7946    104.4375
  1375.2000      8.0390      2.6818      0.0630     -1.9278     26.7851    109.0137
  1375.3000      8.0390      2.6938      0.0249     -2.6557     26.5381    113.7052
  1375.4000      8.0390      2.6844      0.0677     -2.0872     26.1823    113.6329
  1375.5000      8.0325      2.6644      0.0326     -0.8705     25.8694    113.6158
  1375.6000      8.0325      2.6584      0.0333     -0.5083     25.6346    118.2963
  1375.7000      8.0325      2.6756      0.0427     -1.5516     25.8809    125.4706
  1375.8000      8.0147      2.6962      0.0688     -2.8029     26.7290    133.7114
  1375.9000      8.0147      2.7022      0.0376     -3.1657     27.5686    140.8714
  1376.0000      7.9935      2.6956      0.0235     -2.7654     27.7968    143.4307
  1376.1000      7.9935      2.6764      0.0843     -1.6005     27.4815    138.8669
  1376.2000      7.9935      2.6485     -0.0004      0.0899     27.5078    127.6592
  1376.3000      7.9754      2.6286      0.0147      1.2974     27.7932    118.1009
  1376.4000      7.9754      2.6080      0.0542      2.5427     27.5554    117.6473
  1376.5000      7.9634      2.5722     -0.0159      4.7166     27.2846    122.2896
  1376.6000      7.9634      2.5366     -0.0048      6.8752     27.3331    125.5046
  1376.7000      7.9634      2.5209     -0.0262      7.8214     27.1799    127.1230
  1376.8000      7.9592      2.5346     -0.0424      6.9914     26.7497    127.5173
  1376.9000      7.9592      2.5718      0.0304      4.7383     26.4404    126.4470
  1377.0000      7.9580      2.6066      0.0822      2.6323     26.2930    124.1896
  1377.1000      7.9580      2.6198      0.0481      1.8277     26.3541    125.5823
  1377.2000      7.9580      2.6133      0.0694      2.2261     26.5438    131.5812
  1377.3000      7.9518      2.5985      0.0211      3.1203     26.5315    133.5224
  1377.4000      7.9518      2.5938      0.0328      3.4067     25.8648    128.4316
  1377.5000      7.9408      2.6012      0.0715      2.9553     24.6349    122.0379
  1377.6000      7.9408      2.6063      0.0325      2.6504     23.7725    117.6544
  1377.7000      7.9408      2.6071      0.0284      2.6022     23.5012    113.2136
  1377.8000      7.9325      2.6107      0.0273      2.3825     23.3969    107.6006
  1377.9000      7.9325      2.6167      0.0728      2.0177     23.3705    104.3110
  1378.0000      7.9279      2.6294      0.0036      1.2502     23.6056    104.3595
  1378.1000      7.9279      2.6548      0.0886     -0.2911     23.9154    103.3092
  1378.2000      7.9279      2.6788      0.0519     -1.7485     23.7924     99.9378
  1378.3000      7.9272      2.6885      0.0554     -2.3355     23.5523     98.6175
  1378.4000      7.9272      2.6808      0.0899     -1.8679     23.8549    102.2221
  1378.5000      7.9303      2.6589      0.0317     -0.5394     24.6780    106.0259
  1378.6000      7.9303      2.6353      0.0660      0.8903     25.6162    105.5578
  1378.7000      7.9303      2.6177      0.0190      1.9579     26.2076    106.5508
  1378.8000      7.9302      2.6059      0.0500      2.6703     26.3456    113.7255
  1378.9000      7.9302      2.5934      0.0181      3.4333     26.5598    121.3376
  1379.0000      7.9295      2.5743      0.0019      4.5895     27.0671    122.4742
  1379.1000      7.9295      2.5509      0.0198      6.0064     27.4332    117.5265
  1379.2000      7.9295      2.5335     -0.0193      7.0610     27.4214    111.2889
  1379.3000      7.9296      2.5304     -0.0138      7.2465     27.2764    109.0413
  1379.4000      7.9296      2.5310      0.0343      7.2141     27.1855    113.0074
  1379.5000      7.9301      2.5163      0.0169      8.1031     26.7482    118.4103
  1379.6000      7.9301      2.4930     -0.0046      9.5166     25.7728    117.7477
  1379.7000      7.9301      2.4862      0.0177      9.9253     25.2299    112.8121
  1379.8000      7.9302      2.5052     -0.0210      8.7768     25.8697    109.1558
  1379.9000      7.9302      2.5357      0.0414      6.9243     26.8918    103.3500
  1380.0000      7.9285      2.5528      0.0477      5.8896     27.3742     94.8379
  1380.1000      7.9285      2.5448      0.0763      6.3772     27.4241     91.4679
  1380.2000      7.9285      2.5286      0.0136      7.3601     27.5019     97.6221
  1380.3000      7.9228      2.5325      0.0209      7.1237     27.8233    107.8663
  1380.4000      7.9228      2.5576      0.0500      5.6006     27.8744    111.0705
  1380.5000      7.9105      2.5778      0.0602      4.3740     27.1879    106.5394
  1380.6000      7.9105      2.5835      0.0647      4.0290     26.0424    102.6308
  1380.7000      7.9105      2.5904      0.0546      3.6098     24.8834    101.7875
  1380.8000      7.8969      2.6051      0.0735      2.7199     23.7284    103.9013
  1380.9000      7.8969      2.6210      0.0892      1.7569     22.6014    106.2206
  1381.0000      7.8856      2.6344      0.1249      0.9478     21.5196    103.7611
  1381.1000      7.8856      2.6454      0.1010      0.2811     20.3140     97.7848
  1381.2000      7.8856      2.6606      0.1255     -0.6439     19.2375     90.4659
  1381.3000      7.8830      2.6888      0.1011     -2.3497     18.4260     82.7339
  1381.4000      7.8830      2.7278      0.1526     -4.7125     17.3208     75.8881
  1381.5000      7.8972      2.7556      0.1502     -6.4000     15.9388     68.6114
  1381.6000      7.8972      2.7540      0.0996     -6.3035     15.2478     60.0583
  1381.7000      7.8972      2.7283      0.0762     -4.7444     15.7167     54.1449
  1381.8000      7.9239      2.6934      0.0514     -2.6283     16.5274     54.0906
  1381.9000      7.9239      2.6649      0.0403     -0.9051     16.8384     59.1413
  1382.0000      7.9484      2.6577      0.0519     -0.4696     17.2823     66.9349
  1382.1000      7.9484      2.6773      0.0423     -1.6563     18.7754     72.8599
  1382.2000      7.9484      2.7073      0.0559     -3.4740     20.6908     72.3953
  1382.3000      7.9642      2.7164      0.0981     -4.0252     21.9433     68.9174
