~Version Information
VERS.                                  2.0 : CWLS LAS VERSION
WRAP.                                   NO : WRAPING MODE
SWARE .                 MController 2.5.0E : SOFTWARE VERSION
~Well Information
WELL.                         Warrior 32-1 : WELL
COMP.             Evergreen Operating Corp : COMPANY
FLD.                      Purgatorie River : FIELD
LOC.                SW/NE Sec 11 T33S R67W : LOCATION
DATE.                    10/02/04-10/03/04 : DATE(S) LOGGED
SRVC.       Blanco Geological Services LLC : SERVICE COMPANY
STAT.                                   CO : STATE
CNTY.                           Las Animas : COUNTY
CTRY.                                  USA : COUNTRY
API.                       05-071-08176-00 : API NUMBER
STRT.FT                             386.00 : START DEPTH
STOP.FT                            2265.00 : STOP DEPTH
STEP.FT                               1.00 : DEPTH INCREMENT
NULL.                                -9999 : NULL VALUE
~Curve information
DEPTH.FT                                   :
ROP.MIN/FT                                 :
GAS.UNITS                                  :
~ASCII Log data
# ...
     1416.00        0.100         43.8
     1417.00        0.133         42.5
     1418.00        0.167         41.1
     1419.00        0.167         38.9
     1420.00        0.133         37.0
     1421.00        0.267         37.7
     1422.00        0.233         39.0
     1423.00        0.100         40.6
     1424.00        0.133         41.4
     1425.00        0.133         41.8
     1426.00        0.133         41.6
     1427.00        0.200         40.4
     1428.00        0.133         40.5
     1429.00        0.133         39.7
     1430.00        0.233         38.1
     1431.00        0.233         36.0
     1432.00        0.200         34.7
     1433.00        0.200         34.3
     1434.00        0.250         33.1
     1435.00        0.167         32.5
     1436.00        0.233         31.0
     1437.00        0.300         29.7
     1438.00        0.267         30.0
     1439.00        0.267         29.5
     1440.00        0.233         32.7
     1441.00        0.267         35.7
     1442.00        0.400         31.8
     1443.00        2.017         24.6
     1444.00        0.267         30.1
     1445.00        0.267         35.3
     1446.00        0.267         36.9
     1447.00        0.200         37.2
     1448.00        0.167         36.2
     1449.00        0.200         34.5
     1450.00        0.200         34.2
     1451.00        0.200         35.4
     1452.00        0.200         36.7
     1453.00        0.167         37.1
     1454.00        0.167         37.0
     1455.00        0.217         36.3
     1456.00        0.300         35.0
     1457.00        0.367         33.4
     1458.00        0.400         31.9
     1459.00        0.333         30.3
     1460.00        0.200         29.9
     1461.00        0.200         28.8
     1462.00        0.300         27.8
     1463.00        0.167         26.9
     1464.00        0.200         27.0
     1465.00        0.267         28.4
     1466.00        0.367         27.8
     1467.00        0.283         27.0
     1468.00        0.267         24.8
     1469.00        0.233         23.5
     1470.00        0.233         23.7
     1471.00        0.267         23.2
     1472.00        2.950         16.4
     1473.00        0.300         18.1
     1474.00        0.300         22.6
     1475.00        0.200         28.2
     1476.00        0.233         33.1
     1477.00        0.233         35.3
     1478.00        0.267         35.7
     1479.00        0.200         34.0
     1480.00        0.267         31.2
     1481.00        0.233         29.1
     1482.00        0.233         29.0
     1483.00        0.250         31.2
     1484.00        0.267         32.7
     1485.00        0.267         32.7
     1486.00        0.233         32.4
     1487.00        0.233         31.1
     1488.00        0.233         30.1
     1489.00        0.233         28.8
     1490.00        0.200         28.4
     1491.00        0.233         27.4
     1492.00        0.267         27.4
     1493.00        0.233         26.3
     1494.00        0.233         25.6
     1495.00        0.300         25.5
     1496.00        0.200         24.5
     1497.00        0.350         24.1
     1498.00        0.367         23.5
     1499.00        0.467         24.2
     1500.00        0.400         23.8
     1501.00        0.333         25.4
     1502.00        0.233         26.0
     1503.00        5.167         37.7
     1504.00        0.267         44.5
     1505.00        0.533         72.0
     1506.00        0.267         76.4
     1507.00        0.267         66.7
     1508.00        0.333         48.7
     1509.00        0.267         37.8
     1510.00        0.267         30.7
     1511.00        0.267         28.0
     1512.00        0.267         28.3
     1513.00        0.283         29.2
     1514.00        0.267         30.4
     1515.00      333.900       9826.6
     1516.00        0.267       2351.8
     1517.00        0.267       1259.2
     1518.00        0.267        990.0
     1519.00        0.267        440.0
     1520.00        0.267        440.0
     1521.00        0.300         61.8
     1522.00        0.267         36.8
     1523.00        0.267         32.6
     1524.00        0.200         28.5
     1525.00        0.100         28.5
     1526.00        0.133         28.5
     1527.00        0.100         26.2
     1528.00        0.067         26.2
     1529.00        0.100         26.2
     1530.00        0.100         25.3
     1531.00        0.117         25.3
     1532.00        0.167         24.0
     1533.00        0.267         23.7
     1534.00        0.267         23.2
     1535.00        0.267         22.8
     1536.00        0.267         22.6
     1537.00        0.267         22.8
     1538.00        0.233         22.6
     1539.00        0.267         22.2
     1540.00        0.267         21.4
     1541.00        0.267         20.9
     1542.00        0.300         20.7
     1543.00       13.983       1228.6
     1544.00        0.200       1283.5
     1545.00        0.267       1340.7
     1546.00        0.233       1286.2
     1547.00        0.300       1138.3
     1548.00        0.267       1114.0
     1549.00        0.267        782.1
     1550.00        0.267        679.0
     1551.00        0.200        646.4
     1552.00        0.267        610.3
     1553.00        0.233        542.6
     1554.00        0.267        507.6
     1555.00        0.517        487.3
     1556.00        0.500        445.6
     1557.00        0.367        117.5
     1558.00        0.367        130.7
     1559.00        0.233        131.9
     1560.00        0.133        129.4
     1561.00        0.100        124.6
     1562.00        0.400        117.6
     1563.00        0.700        116.4
     1564.00        0.233        120.2
     1565.00        0.150        131.9
     1566.00        0.133        131.9
     1567.00        0.167        146.1
     1568.00        0.133        142.9
     1569.00        0.200        142.9
     1570.00        0.200        147.6
     1571.00        0.133        150.8
     1572.00        0.167        150.8
     1573.00        0.233        149.8
     1574.00        4.383       1515.6
     1575.00        0.900       1625.8
     1576.00        0.150       1330.3
     1577.00        0.167       1201.6
     1578.00        0.233       1016.0
     1579.00        0.300        798.3
     1580.00        0.233        694.9
     1581.00        0.300        624.1
     1582.00        0.233        586.1
     1583.00        0.200        547.0
     1584.00        0.233        511.3
     1585.00        0.233        498.5
     1586.00        0.300        467.8
     1587.00        0.233        467.8
     1588.00        0.267        459.0
     1589.00        0.200        456.0
     1590.00        0.283        448.9
     1591.00        0.267        446.6
     1592.00        0.400        115.3
     1593.00        0.467        112.0
     1594.00        0.333        112.0
     1595.00        0.267        114.8
     1596.00        0.200        116.4
     1597.00        0.167        115.1
     1598.00        0.167        114.0
     1599.00        0.167        110.6
     1600.00        0.233        106.2
     1601.00        0.300        104.5
     1602.00        0.317        121.0
     1603.00        0.367        118.1
     1604.00        6.183        188.6
     1605.00        0.550        224.7
     1606.00        0.433        200.7
     1607.00        0.267        105.8
     1608.00        0.267         93.2
     1609.00        0.400         67.0
     1610.00        0.500         62.6
     1611.00        0.600         60.2
     1612.00        0.617         85.7
     1613.00        0.633        103.1
     1614.00        0.567        105.5
     1615.00        0.300        100.7
     1616.00        0.333         98.8
     1617.00        0.300         96.8
     1618.00        0.333         95.3
     1619.00        0.367         91.7
     1620.00        0.483         86.8
     1621.00        0.267         87.3
