~Version Information
VERS.                      2.0: CWLS Log ASCII Standard - VERSION 2.0
WRAP.                       NO: One line per depth step
~Well Information Block
STRT.FT               660.8000: 
STOP.FT              2375.1000: 
STEP.FT                 0.1000: 
NULL.                -999.2500: 
COMP.          Petrogulf Corporation: COMPANY
WELL.             State 16-34V: WELL
FLD.           Purgatorie River: FIELD
LOC.           1146' FSL & 1393' FEL: LOCATION
CNTY.               Las Animas: COUNTY
SRVC.                         : SERVICE COMPANY
DATE.          Sat Jun 07 20:51:20 2003: LOG DATE
UWI.           05 071 07724 00: UNIQUE WELL ID
STAT.                 Colorado: STATE
~Curve Information Block
DEPT.FT            0 000 00 00: Depth
DCAL.in                       : Caliper from Density Tool
RHOB.g/cc                     : Bulk Density
RHOC.g/cc                     : Density Correction
DPOR.pu                       : Density Porosity
GR.GAPI                       : Gamma Ray
NPOR.pu                       : Neutron Porosity
~Parameter Information Block
~A  Depth       DCAL        RHOB        RHOC        DPOR         GR         NPOR    
# ...
  1908.8000      7.9091      2.4968      0.0430      9.2839     79.9353     18.0364
  1908.9000      7.9091      2.4968      0.0430      9.2839     80.1694     18.0001
  1909.0000      7.8478      2.4979      0.0441      9.2175     80.4899     17.9306
  1909.1000      7.8478      2.4979      0.0441      9.2175     80.8839     17.8314
  1909.2000      7.8478      2.4979      0.0441      9.2175     81.3333     17.7095
  1909.3000      7.7986      2.5009      0.0495      9.0358     81.8159     17.5754
  1909.4000      7.7986      2.5009      0.0495      9.0358     82.3064     17.4410
  1909.5000      7.7945      2.5040      0.0560      8.8484     82.7773     17.3192
  1909.6000      7.7945      2.5040      0.0560      8.8484     83.2039     17.2220
  1909.7000      7.7945      2.5040      0.0560      8.8484     83.5679     17.1594
  1909.8000      7.8230      2.5099      0.0692      8.4898     83.8622     17.1382
  1909.9000      7.8230      2.5099      0.0692      8.4898     84.0895     17.1619
  1910.0000      7.8561      2.5140      0.0792      8.2441     84.2643     17.2303
  1910.1000      7.8561      2.5140      0.0792      8.2441     84.4074     17.3400
  1910.2000      7.8561      2.5140      0.0792      8.2441     84.5427     17.4851
  1910.3000      7.8615      2.5184      0.0938      7.9780     84.6899     17.6586
  1910.4000      7.8615      2.5184      0.0938      7.9780     84.8608     17.8532
  1910.5000      7.8877      2.5191      0.1023      7.9307     85.0568     18.0621
  1910.6000      7.8877      2.5191      0.1023      7.9307     85.2706     18.2799
  1910.7000      7.8877      2.5191      0.1023      7.9307     85.4903     18.5030
  1910.8000      7.8949      2.5162      0.1125      8.1107     85.7034     18.7293
  1910.9000      7.8949      2.5162      0.1125      8.1107     85.9068     18.9583
  1911.0000      7.8656      2.5115      0.1178      8.3958     86.1114     19.1907
  1911.1000      7.8656      2.5115      0.1178      8.3958     86.3470     19.4276
  1911.2000      7.8656      2.5115      0.1178      8.3958     86.6637     19.6703
  1911.3000      7.8425      2.5011      0.1235      9.0244     87.1265     19.9193
  1911.4000      7.8425      2.5011      0.1235      9.0244     87.8098     20.1738
  1911.5000      7.8599      2.4928      0.1257      9.5263     88.7864     20.4314
  1911.6000      7.8599      2.4928      0.1257      9.5263     90.1200     20.6883
  1911.7000      7.8599      2.4928      0.1257      9.5263     91.8528     20.9390
  1911.8000      7.9230      2.4806      0.1269     10.2683     94.0008     21.1778
  1911.9000      7.9230      2.4806      0.1269     10.2683     96.5485     21.3991
  1912.0000      7.9575      2.4740      0.1266     10.6638     99.4526     21.5993
  1912.1000      7.9575      2.4740      0.1266     10.6638    102.6447     21.7767
  1912.2000      7.9575      2.4740      0.1266     10.6638    106.0371     21.9326
  1912.3000      7.9425      2.4684      0.1259     11.0049    109.5345     22.0703
  1912.4000      7.9425      2.4684      0.1259     11.0049    113.0362     22.1950
  1912.5000      7.9086      2.4673      0.1258     11.0725    116.4450     22.3122
  1912.6000      7.9086      2.4673      0.1258     11.0725    119.6725     22.4267
  1912.7000      7.9086      2.4673      0.1258     11.0725    122.6397     22.5422
  1912.8000      7.9352      2.4678      0.1257     11.0448    125.2831     22.6607
  1912.9000      7.9352      2.4678      0.1257     11.0448    127.5539     22.7833
  1913.0000      8.0052      2.4685      0.1252     11.0006    129.4228     22.9108
  1913.1000      8.0052      2.4685      0.1252     11.0006    130.8807     23.0443
  1913.2000      8.0052      2.4685      0.1252     11.0006    131.9389     23.1860
  1913.3000      8.0535      2.4705      0.1236     10.8812    132.6291     23.3390
  1913.4000      8.0535      2.4705      0.1236     10.8812    132.9974     23.5068
  1913.5000      8.0166      2.4738      0.1229     10.6805    133.0997     23.6925
  1913.6000      8.0166      2.4738      0.1229     10.6805    132.9931     23.8970
  1913.7000      8.0166      2.4738      0.1229     10.6805    132.7279     24.1184
  1913.8000      7.9574      2.4846      0.1248     10.0268    132.3425     24.3512
  1913.9000      7.9574      2.4846      0.1248     10.0268    131.8595     24.5865
  1914.0000      7.9636      2.4960      0.1290      9.3343    131.2867     24.8131
  1914.1000      7.9636      2.4960      0.1290      9.3343    130.6210     25.0182
  1914.2000      7.9636      2.4960      0.1290      9.3343    129.8513     25.1904
  1914.3000      7.9300      2.5161      0.1385      8.1135    128.9691     25.3200
  1914.4000      7.9300      2.5161      0.1385      8.1135    127.9727     25.4014
  1914.5000      7.8730      2.5279      0.1446      7.4023    126.8726     25.4330
  1914.6000      7.8730      2.5279      0.1446      7.4023    125.6911     25.4176
  1914.7000      7.8730      2.5279      0.1446      7.4023    124.4622     25.3613
  1914.8000      7.8642      2.5371      0.1483      6.8414    123.2247     25.2732
  1914.9000      7.8642      2.5371      0.1483      6.8414    122.0171     25.1636
  1915.0000      7.8850      2.5366      0.1453      6.8726    120.8716     25.0438
  1915.1000      7.8850      2.5366      0.1453      6.8726    119.8079     24.9248
  1915.2000      7.8850      2.5366      0.1453      6.8726    118.8330     24.8163
  1915.3000      7.8559      2.5289      0.1341      7.3376    117.9414     24.7268
  1915.4000      7.8559      2.5289      0.1341      7.3376    117.1208     24.6621
  1915.5000      7.8367      2.5229      0.1247      7.7009    116.3544     24.6255
  1915.6000      7.8367      2.5229      0.1247      7.7009    115.6280     24.6165
  1915.7000      7.8367      2.5229      0.1247      7.7009    114.9308     24.6310
  1915.8000      7.8366      2.5183      0.1135      7.9808    114.2553     24.6618
  1915.9000      7.8366      2.5183      0.1135      7.9808    113.5985     24.6985
  1916.0000      7.8431      2.5190      0.1097      7.9400    112.9587     24.7298
  1916.1000      7.8431      2.5190      0.1097      7.9400    112.3340     24.7444
  1916.2000      7.8431      2.5190      0.1097      7.9400    111.7237     24.7336
  1916.3000      7.8847      2.5221      0.1087      7.7529    111.1327     24.6917
  1916.4000      7.8847      2.5221      0.1087      7.7529    110.5726     24.6182
  1916.5000      7.9310      2.5223      0.1091      7.7381    110.0701     24.5171
  1916.6000      7.9310      2.5223      0.1091      7.7381    109.6674     24.3969
  1916.7000      7.9310      2.5223      0.1091      7.7381    109.4226     24.2692
  1916.8000      7.9308      2.5170      0.1089      8.0635    109.4077     24.1469
  1916.9000      7.9308      2.5170      0.1089      8.0635    109.6975     24.0426
  1917.0000      7.8719      2.5101      0.1079      8.4795    110.3610     23.9667
  1917.1000      7.8719      2.5101      0.1079      8.4795    111.4474     23.9258
  1917.2000      7.8719      2.5101      0.1079      8.4795    112.9743     23.9225
  1917.3000      7.8221      2.4978      0.1064      9.2224    114.9197     23.9546
  1917.4000      7.8221      2.4978      0.1064      9.2224    117.2193     24.0161
  1917.5000      7.8490      2.4899      0.1064      9.7051    119.7699     24.0978
  1917.6000      7.8490      2.4899      0.1064      9.7051    122.4407     24.1886
  1917.7000      7.8490      2.4899      0.1064      9.7051    125.0878     24.2773
  1917.8000      7.9090      2.4795      0.1096     10.3350    127.5750     24.3536
  1917.9000      7.9090      2.4795      0.1096     10.3350    129.7878     24.4095
  1918.0000      7.9650      2.4736      0.1146     10.6929    131.6483     24.4397
  1918.1000      7.9650      2.4736      0.1146     10.6929    133.1244     24.4421
  1918.2000      7.9650      2.4736      0.1146     10.6929    134.2260     24.4172
  1918.3000      8.0274      2.4647      0.1253     11.2301    135.0029     24.3677
