~Version Information
VERS.                      2.0: CWLS Log ASCII Standard - VERSION 2.0
WRAP.                       NO: One line per depth step
~Well Information Block
STRT.FT               860.0000: 
STOP.FT              2733.7000: 
STEP.FT                 0.1000: 
NULL.                -999.2500: 
COMP.          Pioneer Natural Resources: COMPANY
WELL.          Beacon 11-18 Tr: WELL
FLD.           Purgatoire River: FIELD
LOC.           409' FNL & 203' FWL: LOCATION
PROV.                 Colorado: PROVINCE
CNTY.               Las Animas: COUNTRY
SRVC.                Patterson: SERVICE COMPANY
DATE.          Mon Jan 17 07:36:09 2005: LOG DATE
UWI.           05 071 08251 00: UNIQUE WELL ID
~Curve Information Block
DEPT.FT            0 000 00 00: Depth
DCAL.in                       : CDL Caliper
RHOB.g/cc                     : CDL Bulk Density
RHOC.g/cc                     : CDL Density Correction
DPOR.pu                       : CDL Density Porosity
NPOR.pu                       : Neutron Porosity
GR.GAPI                       : Gamma Ray
~Parameter Information Block
~A  Depth       DCAL        RHOB        RHOC        DPOR        NPOR         GR     
# ...
  2213.6000      8.2713      2.1554      0.1048     29.9760     33.1183    105.5873
  2213.7000      8.2713      2.1907      0.1782     27.8361     33.1891    105.2233
  2213.8000      8.4759      2.2266      0.3468     25.6609     33.0971    106.1366
  2213.9000      8.4759      2.2202      0.2759     26.0495     33.5668    110.2655
  2214.0000      8.5967      2.1442      0.2309     30.6547     34.0708    117.6312
  2214.1000      8.5967      1.9941      0.1655     39.7515     34.1271    122.1946
  2214.2000      8.5967      1.8039      0.0327     51.2794     34.1539    117.6088
  2214.3000      8.6529      1.6556     -0.0181     60.2670     34.4958    110.4384
  2214.4000      8.6529      1.6142     -0.0057     62.7755     34.9278    108.2351
  2214.5000      8.8768      1.6697      0.1083     59.4120     35.1076    109.9488
  2214.6000      8.8768      1.7757      0.1666     52.9901     35.0769    112.8016
  2214.7000      8.8768      1.9056      0.2168     45.1161     34.9045    112.4503
  2214.8000      9.2471      2.0298      0.3823     37.5860     34.5134    108.4492
  2214.9000      9.2471      2.0986      0.3861     33.4157     34.0821    105.4888
  2215.0000      9.4703      2.0948      0.2993     33.6508     33.7700    105.9144
  2215.1000      9.4703      2.0450      0.2427     36.6693     33.5173    111.2190
  2215.2000      9.4703      1.9696      0.2359     41.2337     33.5974    118.6032
  2215.3000      9.4289      1.8689      0.1409     47.3382     34.3275    120.5803
  2215.4000      9.4289      1.7484      0.0454     54.6397     35.4578    118.5562
  2215.5000      9.1099      1.6171     -0.0306     62.6005     36.2769    116.2254
  2215.6000      9.1099      1.4785     -0.0760     70.9975     36.3911    107.6897
  2215.7000      9.1099      1.3417     -0.1481     79.2921     36.1946     91.6463
  2215.8000      8.6812      1.2282     -0.1568     86.1727     36.1686     75.4778
  2215.9000      8.6812      1.1610     -0.1191     90.2443     36.4458     65.5531
  2216.0000      8.5907      1.1410     -0.0042     91.4573     36.9021     61.6564
  2216.1000      8.5907      1.1430      0.0454     91.3329     37.2545     56.4409
  2216.2000      8.5907      1.1429      0.0580     91.3383     37.4456     46.2614
  2216.3000      9.0041      1.1362      0.0357     91.7469     37.5913     36.7886
  2216.4000      9.0041      1.1310      0.0272     92.0632     37.7296     32.9685
  2216.5000      9.7294      1.1323      0.0602     91.9812     37.7325     33.0573
  2216.6000      9.7294      1.1413      0.0379     91.4361     37.1189     35.3522
  2216.7000      9.7294      1.1640      0.0555     90.0614     36.1614     39.8341
  2216.8000     10.3689      1.2062      0.0882     87.5060     35.7926     43.1605
  2216.9000     10.3689      1.2689      0.0879     83.7042     35.7465     42.4725
  2217.0000     10.5220      1.3459      0.1243     79.0394     35.2937     41.5933
  2217.1000     10.5220      1.4178      0.1545     74.6804     34.8438     46.1428
  2217.2000     10.5220      1.4630      0.1847     71.9391     34.9787     53.6049
  2217.3000     10.0128      1.4762      0.1676     71.1418     35.4665     57.3117
  2217.4000     10.0128      1.4700      0.1386     71.5164     35.5745     55.5652
  2217.5000      9.1961      1.4585      0.1339     72.2148     35.0060     49.0340
  2217.6000      9.1961      1.4441      0.0915     73.0850     34.3696     41.0527
  2217.7000      9.1961      1.4247      0.0643     74.2586     34.0184     37.1619
  2217.8000      8.6495      1.4051      0.0155     75.4460     33.8054     38.8393
  2217.9000      8.6495      1.3951      0.0348     76.0529     33.6858     43.0950
  2218.0000      8.4820      1.4071     -0.0069     75.3260     33.4343     47.3907
  2218.1000      8.4820      1.4532      0.0312     72.5317     32.8749     49.2356
  2218.2000      8.4820      1.5285      0.1122     67.9673     32.1744     47.9164
  2218.3000      8.4945      1.6176      0.1868     62.5707     31.6766     47.2763
  2218.4000      8.4945      1.7213      0.2004     56.2838     31.4704     51.5350
  2218.5000      8.5218      1.8536      0.2575     48.2660     31.1201     62.0820
  2218.6000      8.5218      2.0118      0.2856     38.6778     30.6650     75.0650
  2218.7000      8.5218      2.1732      0.3214     28.8952     30.1981     83.1048
  2218.8000      8.4456      2.3154      0.3175     20.2772     29.3537     84.7831
  2218.9000      8.4456      2.4283      0.3426     13.4393     28.2388     85.2303
  2219.0000      8.2798      2.5079      0.3369      8.6115     26.9923     87.5081
  2219.1000      8.2798      2.5527      0.2956      5.8965     25.6782     92.5110
  2219.2000      8.2798      2.5693      0.1792      4.8911     25.0315     99.4892
  2219.3000      8.1762      2.5701      0.1509      4.8408     25.3458    103.8500
  2219.4000      8.1762      2.5622      0.1211      5.3242     26.2238    103.7414
  2219.5000      8.1540      2.5528      0.0767      5.8909     27.3699    101.0910
  2219.6000      8.1540      2.5450      0.0703      6.3640     28.4651     98.2604
  2219.7000      8.1540      2.5319      0.0353      7.1598     29.1457     99.4159
  2219.8000      8.1528      2.5152      0.0588      8.1689     29.1943    102.9600
  2219.9000      8.1528      2.5035      0.0392      8.8798     28.8739    102.8829
  2220.0000      8.1557      2.4988      0.0666      9.1651     28.5578    101.3229
  2220.1000      8.1557      2.4935      0.0947      9.4827     28.6672    105.0858
  2220.2000      8.1557      2.4810      0.1142     10.2404     29.4499    113.4231
  2220.3000      8.1662      2.4626      0.0883     11.3604     30.1680    119.8722
  2220.4000      8.1662      2.4419      0.0780     12.6145     30.4353    120.9349
  2220.5000      8.1887      2.4170      0.1085     14.1221     30.7893    118.6039
  2220.6000      8.1887      2.3884      0.0654     15.8532     31.0913    115.7678
  2220.7000      8.1887      2.3720      0.0468     16.8513     30.4876    115.9711
  2220.8000      8.2370      2.3827      0.0589     16.2029     29.5120    122.3915
  2220.9000      8.2370      2.4203      0.0925     13.9233     29.4534    132.3932
  2221.0000      8.3225      2.4670      0.1551     11.0901     29.9866    138.2819
  2221.1000      8.3225      2.4940      0.1738      9.4548     30.0067    135.1216
  2221.2000      8.3225      2.4913      0.1456      9.6188     29.4777    125.9156
  2221.3000      8.4300      2.4768      0.1372     10.4970     29.3238    117.4474
  2221.4000      8.4300      2.4663      0.1895     11.1304     29.9468    111.7455
  2221.5000      8.4981      2.4601      0.2188     11.5106     30.3467    111.2647
  2221.6000      8.4981      2.4596      0.1674     11.5414     29.9369    119.6363
  2221.7000      8.4981      2.4713      0.1403     10.8331     29.4665    132.4869
  2221.8000      8.4382      2.4908      0.1729      9.6495     29.5261    142.2607
  2221.9000      8.4382      2.4995      0.1806      9.1183     29.6691    144.4489
  2222.0000      8.2921      2.4864      0.1660      9.9171     29.3239    139.7147
  2222.1000      8.2921      2.4654      0.1077     11.1864     28.8147    133.2978
  2222.2000      8.2921      2.4640      0.1433     11.2732     28.6564    128.6908
  2222.3000      8.2024      2.5000      0.1262      9.0892     28.6034    126.3066
  2222.4000      8.2024      2.5640      0.2421      5.2119     27.9506    125.2219
  2222.5000      8.1811      2.6275      0.2390      1.3656     26.7965    122.6311
  2222.6000      8.1811      2.6891      0.2163     -2.3689     25.7033    114.6537
  2222.7000      8.1811      2.7691      0.2618     -7.2174     24.4509    101.0566
  2222.8000      8.1775      2.8764      0.2274    -13.7237     23.0047     90.4098
  2222.9000      8.1775      3.0079      0.2780    -21.6882     22.0470     90.4109
  2223.0000      8.1790      3.1485      0.3351    -30.2106     21.9755     95.6655
  2223.1000      8.1790      3.2699      0.3991    -37.5697     22.6650     93.5056
