~Version Information
VERS.                      2.0: CWLS Log ASCII Standard - VERSION 2.0
WRAP.                       NO: One line per depth step
~Well Information Block
STRT.FT               846.6000: 
STOP.FT              2609.1000: 
STEP.FT                 0.1000: 
NULL.                -999.2500: 
COMP.          Petrogulf Corporation: COMPANY
WELL.            Lavedure 7-44: WELL
FLD.           Purgatoire River: FIELD
LOC.           969' FSL & 501' FEL: LOCATION
PROV.                 Colorado: PROVINCE
CNTY.               Las Animas: COUNTRY
SRVC.                Patterson: SERVICE COMPANY
DATE.          Sun Dec 07 14:55:17 2003: LOG DATE
UWI.                          : UNIQUE WELL ID
~Curve Information Block
DEPT.FT            0 000 00 00: Depth
DCAL.in                       : CDL Caliper
RHOB.g/cc                     : CDL Bulk Density
RHOC.g/cc                     : CDL Density Correction
DPOR.pu                       : CDL Density Porosity
GR.GAPI                       : Gamma Ray
NPOR.pu                       : Neutron Porosity
~Parameter Information Block
~A  Depth       DCAL        RHOB        RHOC        DPOR         GR         NPOR    
# ...
  1441.8000      8.1889      2.5866      0.0662      3.8415    106.9317     21.4863
  1441.9000      8.1889      2.5848      0.0645      3.9517    105.0186     21.9444
  1442.0000      8.1595      2.5827      0.0630      4.0796    103.4828     22.4297
  1442.1000      8.1595      2.5803      0.0618      4.2222    102.3983     22.9169
  1442.2000      8.1595      2.5778      0.0608      4.3759    101.8139     23.3823
  1442.3000      8.1377      2.5752      0.0601      4.5360    101.7455     23.8060
  1442.4000      8.1377      2.5725      0.0597      4.6978    102.1674     24.1732
  1442.5000      8.1224      2.5699      0.0597      4.8561    103.0110     24.4745
  1442.6000      8.1224      2.5674      0.0599      5.0065    104.1774     24.7064
  1442.7000      8.1224      2.5651      0.0603      5.1448    105.5509     24.8699
  1442.8000      8.1353      2.5631      0.0609      5.2676    107.0135     24.9702
  1442.9000      8.1353      2.5614      0.0616      5.3723    108.4577     25.0148
  1443.0000      8.1690      2.5600      0.0623      5.4574    109.8009     25.0127
  1443.1000      8.1690      2.5589      0.0630      5.5219    110.9878     24.9729
  1443.2000      8.1690      2.5582      0.0637      5.5656    111.9880     24.9037
  1443.3000      8.1847      2.5578      0.0644      5.5889    112.7915     24.8120
  1443.4000      8.1847      2.5577      0.0650      5.5929    113.4050     24.7028
  1443.5000      8.1737      2.5579      0.0657      5.5789    113.8423     24.5794
  1443.6000      8.1737      2.5584      0.0663      5.5492    114.1225     24.4431
  1443.7000      8.1737      2.5591      0.0670      5.5062    114.2642     24.2941
  1443.8000      8.1603      2.5600      0.0676      5.4528    114.2858     24.1312
  1443.9000      8.1603      2.5610      0.0682      5.3922    114.1998     23.9534
  1444.0000      8.1640      2.5621      0.0686      5.3280    114.0131     23.7594
  1444.1000      8.1640      2.5632      0.0689      5.2634    113.7265     23.5490
  1444.2000      8.1640      2.5642      0.0688      5.2018    113.3311     23.3224
  1444.3000      8.1845      2.5651      0.0685      5.1457    112.8107     23.0815
  1444.4000      8.1845      2.5659      0.0677      5.0973    112.1442     22.8287
  1444.5000      8.1951      2.5665      0.0664      5.0576    111.3092     22.5675
  1444.6000      8.1951      2.5671      0.0646      5.0270    110.2860     22.3017
  1444.7000      8.1951      2.5674      0.0624      5.0047    109.0658     22.0358
  1444.8000      8.1821      2.5677      0.0598      4.9891    107.6519     21.7745
  1444.9000      8.1821      2.5679      0.0568      4.9784    106.0658     21.5222
  1445.0000      8.1695      2.5680      0.0537      4.9701    104.3442     21.2842
  1445.1000      8.1695      2.5681      0.0504      4.9621    102.5379     21.0663
  1445.2000      8.1695      2.5683      0.0470      4.9528    100.7050     20.8752
  1445.3000      8.1565      2.5685      0.0437      4.9414     98.9045     20.7179
  1445.4000      8.1565      2.5687      0.0405      4.9286     97.1896     20.6020
  1445.5000      8.1438      2.5689      0.0374      4.9164     95.6011     20.5345
  1445.6000      8.1438      2.5690      0.0344      4.9088     94.1646     20.5213
  1445.7000      8.1438      2.5690      0.0315      4.9112     92.8893     20.5665
  1445.8000      8.1380      2.5686      0.0289      4.9309     91.7699     20.6722
  1445.9000      8.1380      2.5679      0.0265      4.9765     90.7921     20.8383
  1446.0000      8.1382      2.5665      0.0243      5.0576     89.9359     21.0631
  1446.1000      8.1382      2.5645      0.0224      5.1844     89.1831     21.3442
  1446.2000      8.1382      2.5615      0.0207      5.3666     88.5163     21.6784
  1446.3000      8.1439      2.5574      0.0191      5.6135     87.9266     22.0628
  1446.4000      8.1439      2.5521      0.0174      5.9325     87.4088     22.4942
  1446.5000      8.1533      2.5456      0.0157      6.3289     86.9655     22.9688
  1446.6000      8.1533      2.5377      0.0139      6.8054     86.6020     23.4815
  1446.7000      8.1533      2.5285      0.0120      7.3615     86.3235     24.0252
  1446.8000      8.1646      2.5181      0.0103      7.9936     86.1317     24.5909
  1446.9000      8.1646      2.5065      0.0089      8.6949     86.0219     25.1672
  1447.0000      8.1874      2.4940      0.0083      9.4555     85.9812     25.7418
  1447.1000      8.1874      2.4807      0.0087     10.2633     85.9835     26.3015
  1447.2000      8.1874      2.4668      0.0103     11.1041     85.9958     26.8337
  1447.3000      8.2199      2.4526      0.0132     11.9623     85.9832     27.3271
  1447.4000      8.2199      2.4384      0.0174     12.8217     85.9142     27.7721
  1447.5000      8.2527      2.4245      0.0228     13.6659     85.7693     28.1614
  1447.6000      8.2527      2.4111      0.0291     14.4790     85.5504     28.4897
  1447.7000      8.2527      2.3984      0.0361     15.2457     85.2814     28.7547
  1447.8000      8.2747      2.3868      0.0435     15.9521     85.0107     28.9561
  1447.9000      8.2747      2.3763      0.0509     16.5858     84.7988     29.0966
  1448.0000      8.2785      2.3672      0.0581     17.1365     84.7149     29.1807
  1448.1000      8.2785      2.3597      0.0650     17.5959     84.8161     29.2151
  1448.2000      8.2785      2.3537      0.0712     17.9582     85.1389     29.2077
  1448.3000      8.2784      2.3494      0.0765     18.2204     85.6893     29.1670
  1448.4000      8.2784      2.3467      0.0807     18.3824     86.4395     29.1005
  1448.5000      8.2754      2.3456      0.0836     18.4471     87.3333     29.0153
  1448.6000      8.2754      2.3461      0.0850     18.4200     88.2975     28.9162
  1448.7000      8.2754      2.3479      0.0849     18.3096     89.2514     28.8070
  1448.8000      8.2675      2.3509      0.0833     18.1267     90.1258     28.6901
  1448.9000      8.2675      2.3549      0.0803     17.8838     90.8731     28.5677
  1449.0000      8.2538      2.3597      0.0763     17.5950     91.4738     28.4426
  1449.1000      8.2538      2.3650      0.0717     17.2751     91.9396     28.3182
  1449.2000      8.2538      2.3705      0.0668     16.9390     92.3032     28.1992
  1449.3000      8.2375      2.3761      0.0622     16.6009     92.6139     28.0909
  1449.4000      8.2375      2.3815      0.0581     16.2740     92.9236     27.9985
  1449.5000      8.2264      2.3865      0.0549     15.9694     93.2801     27.9263
  1449.6000      8.2264      2.3910      0.0528     15.6960     93.7280     27.8767
  1449.7000      8.2264      2.3949      0.0517     15.4599     94.3022     27.8494
  1449.8000      8.2243      2.3982      0.0519     15.2636     95.0402     27.8415
  1449.9000      8.2243      2.4007      0.0531     15.1061     95.9812     27.8481
  1450.0000      8.2325      2.4028      0.0553     14.9829     97.1718     27.8627
  1450.1000      8.2325      2.4044      0.0587     14.8852     98.6633     27.8784
  1450.2000      8.2325      2.4058      0.0633     14.8012    100.5014     27.8888
  1450.3000      8.2381      2.4072      0.0693     14.7158    102.7173     27.8887
  1450.4000      8.2381      2.4089      0.0767     14.6120    105.3119     27.8744
  1450.5000      8.2434      2.4112      0.0858     14.4715    108.2443     27.8438
  1450.6000      8.2434      2.4144      0.0966     14.2764    111.4280     27.7957
  1450.7000      8.2434      2.4188      0.1091     14.0102    114.7370     27.7302
  1450.8000      8.2765      2.4246      0.1231     13.6600    118.0160     27.6473
  1450.9000      8.2765      2.4319      0.1381     13.2170    121.1014     27.5475
  1451.0000      8.3712      2.4408      0.1536     12.6784    123.8429     27.4315
  1451.1000      8.3712      2.4512      0.1689     12.0475    126.1227     27.3007
  1451.2000      8.3712      2.4630      0.1832     11.3341    127.8676     27.1567
  1451.3000      8.5124      2.4759      0.1957     10.5543    129.0513     27.0024
