~Version Information
 VERS.                                  2.0 : CWLS LAS VERSION
 WRAP.                                   NO : WRAPING MODE
 SWARE .                 MController 2.5.0J : SOFTWARE VERSION
~Well Information
 WELL.                        MOO MOO 31-36 : WELL
 COMP.    PIONEER NATURAL RESOURCES USA INC : COMPANY
 FLD.                      PURGATOIRE RIVER : FIELD
 LOC.                NW/NE SEC 36 T32S R67W : LOCATION
 DATE.                             06/16/05 : DATE(S) LOGGED
 SRVC.       BLANCO GEOLOGICAL SERVICES LLC : SERVICE COMPANY
 STAT.                             COLORADO : STATE
 CNTY.                           LAS ANIMAS : COUNTY
 CTRY.                                  USA : COUNTRY
 API.                       05-071-08395-00 : API NUMBER
 STRT.FT                             303.00 : START DEPTH
 STOP.FT                            2275.00 : STOP DEPTH
 STEP.FT                               1.00 : DEPTH INCREMENT
 NULL.                                -9999 : NULL VALUE
~Curve information
 DEPTH.FT                                   :
 ROP.MIN/FT                                 :
 GAS.UNITS                                  :
~ASCII Log data
       303.0     -9999.00          2.2 
       304.0         7.10          2.3 
       305.0         0.27          1.6 
       306.0         0.20          1.8 
       307.0         0.17          2.3 
       308.0         0.17          3.3 
       309.0         0.20         36.5 
       310.0         0.17         91.9 
       311.0         0.17        103.5 
       312.0         0.50         28.0 
       313.0         0.23         16.7 
       314.0         0.20         10.9 
       315.0         0.25          6.9 
       316.0         0.20          4.0 
       317.0         0.23          3.1 
       318.0         0.20          2.4 
       319.0         0.20          2.0 
       320.0         0.23          1.2 
       321.0         0.23          0.9 
       322.0         0.23          0.7 
       323.0         0.20          0.7 
       324.0         0.23          1.4 
       325.0         0.23          1.8 
       326.0         1.25          1.6 
       327.0         0.23          1.6 
       328.0         0.33          2.1 
       329.0         0.33          2.0 
       330.0         0.20          1.3 
       331.0         0.17          1.3 
       332.0         0.23          2.0 
       333.0         0.27          1.7 
       334.0         0.23          2.4 
       335.0         0.20          2.1 
       336.0         0.23          2.3 
       337.0         0.17          2.1 
       338.0         0.23          2.5 
       339.0         0.20          2.5 
       340.0         0.25          2.7 
       341.0         0.23          2.6 
       342.0         0.20          2.3 
       343.0         0.20          2.4 
       344.0         0.23          2.7 
       345.0         0.20          2.6 
       346.0         0.23          3.0 
       347.0         0.23          2.8 
       348.0         0.20          2.3 
       349.0         0.23          2.6 
       350.0         0.20          2.6 
       351.0         0.20          2.9 
       352.0         0.23          3.4 
       353.0         0.17          3.2 
       354.0         0.33          2.8 
       355.0         0.22          3.3 
       356.0         0.67          3.8 
       357.0         0.30          3.3 
       358.0         0.13          3.3 
       359.0         0.37          3.9 
       360.0         0.30          3.7 
       361.0         0.23          3.8 
       362.0         0.27          3.0 
       363.0         0.20          3.6 
       364.0         0.23          4.0 
       365.0         0.20          4.1 
       366.0         0.23          3.6 
       367.0         0.22          3.8 
       368.0         0.20          3.6 
       369.0         0.23          4.4 
       370.0         0.20          4.9 
       371.0         0.20          4.2 
       372.0         0.23          4.0 
       373.0         0.20          3.7 
       374.0         0.20          3.7 
       375.0         0.20          3.6 
       376.0         0.13          3.8 
       377.0         0.20          4.5 
       378.0         0.17          4.0 
       379.0         0.17          4.3 
       380.0         0.20          4.3 
       381.0         0.17          5.0 
       382.0         0.10          5.1 
       383.0         0.10          4.7 
       384.0         0.20          4.8 
       385.0         0.18          5.4 
       386.0         0.97         20.1 
       387.0         0.17         31.8 
       388.0         0.13         41.3 
       389.0         0.23         56.9 
       390.0         0.20         83.4 
       391.0         0.27        173.0 
       392.0         0.27        171.4 
       393.0         0.20        133.1 
       394.0         0.20         99.0 
       395.0         0.23         73.6 
       396.0         0.20         60.0 
       397.0         0.22         52.2 
       398.0         0.23         49.0 
       399.0         0.30         45.5 
       400.0         0.20         44.5 
       401.0         0.27         45.0 
       402.0         0.23         44.8 
       403.0         0.17         44.9 
       404.0         0.17         44.6 
       405.0         0.20         43.3 
       406.0         0.20         43.5 
       407.0         0.20         44.6 
       408.0         0.17         43.7 
       409.0         0.30         44.0 
       410.0         0.23         43.0 
       411.0         0.20         44.1 
       412.0         0.22         42.5 
       413.0         0.07         42.7 
       414.0         0.20         43.2 
       415.0         0.13         43.3 
       416.0         0.77         37.4 
       417.0         0.13         36.2 
       418.0         0.23         44.2 
       419.0         0.30         57.3 
       420.0         0.27         87.9 
       421.0         0.27        147.6 
       422.0         0.23        140.2 
       423.0         0.27        108.8 
       424.0         0.27         80.8 
       425.0         0.13         70.7 
       426.0         0.12         65.5 
       427.0         0.17         58.3 
       428.0         0.20         52.1 
       429.0         0.20         48.8 
       430.0         0.23         47.2 
       431.0         0.23         45.6 
       432.0         0.23         45.2 
       433.0         0.23         44.9 
       434.0         0.30         43.8 
       435.0         0.23         44.1 
       436.0         0.13         44.7 
       437.0         0.13         44.1 
       438.0         0.10         44.2 
       439.0         0.10         42.6 
       440.0         0.20         41.6 
       441.0         0.17         42.4 
       442.0         0.20         42.9 
       443.0         0.22         44.0 
       444.0         0.23         45.1 
       445.0         0.17         43.8 
       446.0         0.83         34.0 
       447.0         0.23         41.7 
       448.0         0.17         47.5 
       449.0         0.20         54.2 
       450.0         0.23         98.9 
       451.0         0.23        146.8 
       452.0         0.23        140.6 
       453.0         0.27        108.3 
       454.0         0.23         82.9 
       455.0         0.23         66.3 
       456.0         0.25         56.0 
       457.0         0.27         49.9 
       458.0         0.27         45.9 
       459.0         0.23         43.5 
       460.0         0.20         43.4 
       461.0         0.17         43.1 
       462.0         0.20         43.9 
       463.0         0.37         45.5 
       464.0         0.17         45.2 
       465.0         0.10         45.6 
       466.0         0.10         47.3 
       467.0         0.10         46.5 
       468.0         0.13         47.8 
       469.0         0.23         46.9 
       470.0         0.27         46.9 
       471.0         0.23         48.2 
       472.0         0.22         51.7 
       473.0         0.23         57.7 
       474.0         0.20         59.7 
       475.0         0.20         59.7 
       476.0         0.77         48.8 
       477.0         0.17         58.5 
       478.0         0.20         72.3 
       479.0         0.17         82.1 
       480.0         0.33        150.7 
       481.0         0.33        213.9 
       482.0         0.30        160.2 
       483.0         0.23        126.9 
       484.0         0.25        102.9 
       485.0         0.23         86.9 
       486.0         0.20         76.4 
       487.0         0.20         69.2 
       488.0         0.20         64.4 
       489.0         0.17         61.0 
       490.0         0.13         59.4 
       491.0         0.10         58.0 
       492.0         0.13         57.4 
       493.0         0.17         55.6 
       494.0         0.17         55.2 
       495.0         0.20         55.4 
       496.0         0.20         54.0 
       497.0         0.23         53.7 
       498.0         0.23         55.0 
       499.0         0.20         55.6 
       500.0         0.20         56.4 
       501.0         0.22         56.0 
       502.0         0.20         56.1 
