~Version Information
VERS.                      2.0: CWLS Log ASCII Standard - VERSION 2.0
WRAP.                       NO: One line per depth step
~Well Information Block
STRT.FT                 0.0000: 
STOP.FT              2384.7500: 
STEP.FT                 0.2500: 
NULL.                -999.2500: 
COMP.          Petrogulf Corporation: COMPANY
WELL.           McDaniel 9-34V: WELL
FLD.           Purgatorie River: FIELD
LOC.           620' FSL & 1800' FEL: LOCATION
STAT.                 Colorado: State
CNTY.               Las Animas: COUNTY
CTRY. USA : Country
SECT. 9 : Section
TOWN. 33S : Township
RANG. 67W : Range
SRVC.                Patterson: SERVICE COMPANY
DATE.          Thu Nov 10 12:28:18 2005: LOG DATE
API. 05-071-08333                         : UNIQUE WELL ID
~Curve Information Block
DEPT.FT            0 000 00 00: Depth
AMP3.mV                       : CBL 3' Amplitude
CCL.                          : Casing Collar Locator
GR.GAPI                       : Gamma Ray
TT3.usec                      : CBL 3' Travel Time
~Parameter Information Block
~A  Depth       AMP3        CCL          GR         TT3     
# ...
  1239.5000      7.2632      0.0000    129.5515    662.7062
  1239.7500      7.2369      0.0000    136.0420    666.0863
  1240.0000      7.1829      0.0000    139.2037    673.7939
  1240.2500      7.1148      0.0000    139.5557    687.3690
  1240.5000      7.0315      0.0000    138.4962    699.7700
  1240.7500      6.9349      0.0000    136.8161    700.3420
  1241.0000      6.8606      0.0000    134.3504    688.6874
  1241.2500      6.8560      0.0000    130.8034    675.0531
  1241.5000      6.9049      0.0000    126.6582    666.9684
  1241.7500      6.9050      0.0000    123.2134    664.0020
  1242.0000      6.8060      0.0000    121.6896    662.3486
  1242.2500      6.7079      0.0000    122.3177    657.9113
  1242.5000      6.7176      0.0000    124.4012    647.5892
  1242.7500      6.8077      0.0000    127.1428    632.6536
  1243.0000      6.9041      0.0000    129.9862    619.7483
  1243.2500      6.9954      0.0000    132.1931    614.1372
  1243.5000      7.1116      0.0000    132.7652    614.0552
  1243.7500      7.2777      0.0000    131.1748    614.9559
  1244.0000      7.4976      0.0000    128.0356    615.0518
  1244.2500      7.7392      0.0000    124.8531    614.7643
  1244.5000      7.9543      0.0000    122.9723    614.4235
  1244.7500      8.1487      0.0000    122.5840    613.9387
  1245.0000      8.3609      0.0000    122.8704    613.3907
  1245.2500      8.5601      0.0000    123.2526    613.1072
  1245.5000      8.6780      0.0000    124.0942    613.3364
  1245.7500      8.7112      0.0000    125.9744    614.1248
  1246.0000      8.7111      0.0000    128.7208    615.7695
  1246.2500      8.7108      0.0000    131.4103    619.3906
  1246.5000      8.6976      0.0000    133.0684    625.8288
  1246.7500      8.6428      0.0000    133.3710    632.9828
  1247.0000      8.5303      0.0000    132.8614    636.6353
  1247.2500      8.3601      0.0000    132.4986    636.0899
  1247.5000      8.1423      0.0000    132.8980    635.6531
  1247.7500      7.8967      0.0000    133.9540    638.4771
  1248.0000      7.6523      0.0000    135.1420    641.5646
  1248.2500      7.4213      0.0000    136.2186    639.0686
  1248.5000      7.2135      0.0000    137.4963    630.3107
  1248.7500      7.0612      0.0000    139.2732    620.6964
  1249.0000      6.9696      0.0000    141.1666    615.6603
  1249.2500      6.9041      0.0000    142.3774    617.1474
  1249.5000      6.8405      0.0000    142.5604    621.4068
  1249.7500      6.7747      0.0000    142.1685    621.3427
  1250.0000      6.7037      0.0000    142.0086    617.3364
  1250.2500      6.6324      0.0000    142.7116    617.9073
  1250.5000      6.5753      0.0000    144.4727    626.1401
  1250.7500      6.5363      0.0000    147.0271    637.0948
  1251.0000      6.5161      0.0000    149.9623    646.1066
  1251.2500      6.5393      0.0000    153.1116    650.4797
  1251.5000      6.6401      0.0000    156.3677    649.4056
  1251.7500      6.8076      0.0000    159.2593    645.0757
  1252.0000      6.9819      0.0000    161.1837    639.5295
  1252.2500      7.1202      0.0000    161.9669    633.0471
  1252.5000      7.2118      0.0000    161.8473    626.2678
  1252.7500      7.2315      0.0000    161.0623    618.8301
  1253.0000      7.1918      0.0000    159.7937    607.5524
  1253.2500      7.2399      0.0000    158.4637    590.1462
  1253.5000      7.4584      0.0000    157.7525    573.7376
  1253.7500      7.5780      0.0000    157.9768    576.7819
  1254.0000      7.3498      0.0000    158.3013    606.1619
  1254.2500      7.0019      0.0000    157.1363    638.0584
  1254.5000      6.8319      0.0000    154.0906    645.9240
  1254.7500      6.8091      0.0000    151.0939    632.5494
  1255.0000      6.7939     -2.0000    150.5728    613.3029
  1255.2500      6.7446      0.0000    152.8596    590.4632
  1255.5000      6.6888      0.0000    156.3663    563.3801
  1255.7500      6.6866      0.0000    159.8508    539.1489
  1256.0000      6.8258      0.0000    163.3403    521.5956
  1256.2500      7.0886      0.0000    167.0117    508.9278
  1256.5000      7.2099      0.0000    170.3519    502.6794
  1256.7500      7.0194      0.0000    172.6751    505.0957
  1257.0000      6.7709      0.0000    173.8181    511.6791
  1257.2500      6.7113      0.0000    174.0671    516.1471
  1257.5000      6.7627      0.0000    173.8424    517.2521
  1257.7500      6.7907      0.0000    173.5384    516.5938
  1258.0000      6.7685      0.0000    173.1565    514.9843
  1258.2500      6.7102      0.0000    171.7650    511.9278
  1258.5000      6.6393      0.0000    167.9810    506.1890
  1258.7500      6.5774      0.0000    161.6932    497.9827
  1259.0000      6.5173      0.0000    154.8404    492.2991
  1259.2500      6.4647      0.0000    149.7223    496.6412
  1259.5000      6.4693      0.0000    146.8264    512.2577
  1259.7500      6.5548      0.0000    144.9247    531.1757
  1260.0000      6.6928      0.0000    143.0905    543.9720
  1260.2500      6.8555      0.0000    142.1258    546.7497
  1260.5000      7.0285      0.0000    143.8848    540.8044
  1260.7500      7.1922      0.0000    149.1834    530.4365
  1261.0000      7.3183      0.0000    156.4610    520.3329
  1261.2500      7.3751      0.0000    162.7939    512.1229
  1261.5000      7.3406      0.0000    166.2663    505.6702
  1261.7500      7.2247      0.0000    166.7735    502.9244
  1262.0000      7.0761      0.0000    164.5414    505.5210
  1262.2500      6.9621      0.0000    159.0694    510.8423
  1262.5000      6.9152      0.0000    150.2642    515.1005
  1262.7500      6.9003      0.0000    139.8211    517.1832
  1263.0000      6.8640      0.0000    130.5581    517.8221
  1263.2500      6.7967      0.0000    124.2894    517.8814
  1263.5000      6.7302      0.0000    120.4898    518.0041
  1263.7500      6.6846      0.0000    116.9606    519.3558
  1264.0000      6.6270      0.0000    111.7748    524.5798
  1264.2500      6.5275      0.0000    104.7680    536.5005
  1264.5000      6.4296      0.0000     97.3269    554.0476
  1264.7500      6.3930      0.0000     90.9262    571.1009
  1265.0000      6.4032      0.0000     86.1248    582.0003
  1265.2500      6.4197      0.0000     82.8858    586.4309
  1265.5000      6.4679      0.0000     81.2770    587.8683
  1265.7500      6.5809      0.0000     81.4626    589.8250
  1266.0000      6.7087      0.0000     83.3100    592.4926
  1266.2500      6.7790      0.0000     86.2996    590.1827
  1266.5000      6.7736      0.0000     89.6019    576.2231
  1266.7500      6.7117      0.0000     92.2400    553.5120
  1267.0000      6.6356      0.0000     93.6044    533.3080
  1267.2500      6.5961      0.0000     93.8737    522.3431
  1267.5000      6.5968      0.0000     93.6110    518.6067
  1267.7500      6.5756      0.0000     93.0119    517.6592
  1268.0000      6.4774      0.0000     91.8172    517.2809
  1268.2500      6.3267      0.0000     89.6570    518.2775
  1268.5000      6.1967      0.0000     86.2053    523.5665
  1268.7500      6.1158      0.0000     81.4383    534.0052
  1269.0000      6.0596      0.0000     76.0574    544.2812
  1269.2500      6.0254      0.0000     71.2034    547.9509
  1269.5000      6.0375      0.0000     67.5033    545.5576
  1269.7500      6.1134      0.0000     64.7325    542.2269
  1270.0000      6.2525      0.0000     62.4898    542.1646
  1270.2500      6.4056      0.0000     60.7991    549.2111
  1270.5000      6.4813      0.0000     59.7809    565.8936
  1270.7500      6.4435      0.0000     58.9947    588.8489
  1271.0000      6.3650      0.0000     57.5560    611.3201
  1271.2500      6.3306      0.0000     55.0577    630.4579
  1271.5000      6.3463      0.0000     52.0941    645.8444
  1271.7500      6.3732      0.0000     49.6801    655.2870
  1272.0000      6.3856      0.0000     48.3683    658.2623
  1272.2500      6.3858      0.0000     48.1241    658.3301
  1272.5000      6.3769      0.0000     48.8920    658.0651
  1272.7500      6.3501      0.0000     50.8664    655.0386
