~Version Information
VERS.                      2.0: CWLS Log ASCII Standard - VERSION 2.0
WRAP.                       NO: One line per depth step
~Well Information Block
STRT.FT               519.6000: 
STOP.FT              2727.5000: 
STEP.FT                 0.1000: 
NULL.                -999.2500: 
COMP.          Petrogulf Corporation: COMPANY
WELL.              Silva 6-22V: WELL
FLD.           Purgatorie River: FIELD
LOC.           1936' FNL & 1798' FWL: LOCATION
CNTY.               Las Animas: COUNTY
SRVC.                         : SERVICE COMPANY
DATE.          Tue Nov 09 12:21:27 2004: LOG DATE
UWI.           05 071 08143 00: UNIQUE WELL ID
STAT.                 Colorado: STATE
~Curve Information Block
DEPT.FT            0 000 00 00: Depth
DCAL.in                       : CDL Caliper
RHOB.g/cc                     : CDL Bulk Density
RHOC.g/cc                     : CDL Density Correction
DPOR.pu                       : CDL Density Porosity
GR.GAPI                       : Gamma Ray
NPOR.pu                       : Neutron Porosity
~Parameter Information Block
~A  Depth       DCAL        RHOB        RHOC        DPOR         GR         NPOR    
# ...
  1988.4000      7.7601      2.6271      0.1324      1.3899    102.1113     18.6942
  1988.5000      7.7683      2.6019      0.0926      2.9157    103.9247     19.1288
  1988.6000      7.7683      2.5732      0.1016      4.6561    105.2025     19.5067
  1988.7000      7.7683      2.5499      0.0587      6.0692    108.2909     19.8802
  1988.8000      7.7842      2.5450     -0.0038      6.3652    114.5653     20.3749
  1988.9000      7.7842      2.5628      0.0280      5.2832    118.9828     20.9429
  1989.0000      7.8041      2.5829      0.0395      4.0674    119.5203     21.3027
  1989.1000      7.8041      2.5840      0.0837      3.9984    121.1773     21.6724
  1989.2000      7.8041      2.5720      0.0489      4.7268    123.6616     22.1459
  1989.3000      7.8243      2.5638      0.0535      5.2236    122.7177     22.6613
  1989.4000      7.8243      2.5608      0.0440      5.4048    119.1856     23.4408
  1989.5000      7.8353      2.5601      0.0328      5.4499    117.4097     24.1686
  1989.6000      7.8353      2.5666      0.0173      5.0543    118.1085     24.1074
  1989.7000      7.8353      2.5737      0.0481      4.6256    116.1221     23.6575
  1989.8000      7.8454      2.5653      0.0280      5.1327    110.9324     23.3727
  1989.9000      7.8454      2.5444      0.0183      6.3971    109.4272     22.7531
  1990.0000      7.8517      2.5265     -0.0050      7.4877    112.6017     21.9723
  1990.1000      7.8517      2.5194     -0.0139      7.9181    118.3757     21.9669
  1990.2000      7.8517      2.5235     -0.0128      7.6639    125.5668     22.9535
  1990.3000      7.8448      2.5361      0.0329      6.9032    131.6380     23.9658
  1990.4000      7.8448      2.5502      0.0344      6.0484    138.1285     24.1552
  1990.5000      7.8289      2.5597      0.0619      5.4742    143.9681     24.1984
  1990.6000      7.8289      2.5627      0.0322      5.2880    143.5225     24.9971
  1990.7000      7.8289      2.5617      0.0384      5.3542    139.5872     26.3471
  1990.8000      7.8175      2.5578      0.0497      5.5906    139.7794     27.3930
  1990.9000      7.8175      2.5541      0.0190      5.8142    147.4939     27.8754
  1991.0000      7.8168      2.5509      0.0576      6.0056    156.7863     28.1318
  1991.1000      7.8168      2.5451      0.0292      6.3596    161.5750     28.1870
  1991.2000      7.8168      2.5407      0.0357      6.6239    165.5573     27.5379
  1991.3000      7.8243      2.5444      0.0322      6.3975    173.6361     26.3628
  1991.4000      7.8243      2.5595      0.0159      5.4877    180.2010     25.7462
  1991.5000      7.8359      2.5742      0.1106      4.5957    177.3123     26.1873
  1991.6000      7.8359      2.5715      0.0760      4.7566    167.5094     27.2506
  1991.7000      7.8359      2.5572      0.0419      5.6247    156.9059     27.6790
  1991.8000      7.8380      2.5464      0.0576      6.2803    151.2449     27.0342
  1991.9000      7.8380      2.5484      0.0118      6.1588    154.4481     26.5736
  1992.0000      7.8384      2.5655      0.0337      5.1225    162.9910     26.7902
  1992.1000      7.8384      2.5876      0.0570      3.7846    170.3274     27.3570
  1992.2000      7.8384      2.6045      0.0271      2.7562    174.9879     28.1146
  1992.3000      7.8413      2.6121      0.0566      2.2992    179.3429     28.5145
  1992.4000      7.8413      2.6097      0.0652      2.4430    178.5571     28.0531
  1992.5000      7.8440      2.6063      0.0418      2.6478    168.2717     27.0858
  1992.6000      7.8440      2.6071      0.0904      2.6019    157.4862     26.1693
  1992.7000      7.8440      2.6050      0.0574      2.7301    156.0680     25.6313
  1992.8000      7.8471      2.6006      0.0637      2.9952    161.6718     25.6536
  1992.9000      7.8471      2.6035      0.0352      2.8183    165.8028     25.9452
  1993.0000      7.8482      2.6084      0.0461      2.5195    163.7722     26.0013
  1993.1000      7.8482      2.5964      0.0228      3.2507    159.6048     25.3844
  1993.2000      7.8482      2.5683     -0.0051      4.9497    159.2131     24.5613
  1993.3000      7.8473      2.5460      0.0033      6.3036    163.7807     24.4246
  1993.4000      7.8473      2.5431      0.0210      6.4758    170.0638     24.7918
  1993.5000      7.8493      2.5606      0.0060      5.4176    168.8785     25.0353
  1993.6000      7.8493      2.5842      0.0836      3.9869    156.3272     25.3041
  1993.7000      7.8493      2.5946      0.0696      3.3570    142.0874     26.0503
  1993.8000      7.8539      2.5976      0.0397      3.1762    135.4134     27.1622
  1993.9000      7.8539      2.6085      0.0691      2.5133    135.1098     28.2589
  1994.0000      7.8577      2.6212      0.0415      1.7475    137.3892     28.9529
  1994.1000      7.8577      2.6217      0.0683      1.7145    138.9842     28.9645
  1994.2000      7.8577      2.6081      0.0505      2.5409    138.0510     28.4053
  1994.3000      7.8538      2.5849      0.0345      3.9463    138.4441     27.8267
  1994.4000      7.8538      2.5607      0.0200      5.4144    140.8560     27.6152
  1994.5000      7.8533      2.5505     -0.0014      6.0273    142.9936     27.7313
  1994.6000      7.8533      2.5609      0.0285      5.4005    147.6363     28.1085
  1994.7000      7.8533      2.5810      0.0086      4.1809    154.6183     28.1959
  1994.8000      7.8602      2.5979      0.0461      3.1569    154.2001     27.6168
  1994.9000      7.8602      2.6058      0.0387      2.6797    141.5132     26.4375
  1995.0000      7.8634      2.6026      0.0435      2.8752    128.7055     25.0380
  1995.1000      7.8634      2.5885      0.0354      3.7267    127.3523     24.1841
  1995.2000      7.8634      2.5763      0.0129      4.4683    134.0024     24.5661
  1995.3000      7.8631      2.5788      0.0090      4.3139    141.7503     25.8982
  1995.4000      7.8631      2.5916      0.0299      3.5411    147.0173     26.6811
  1995.5000      7.8592      2.6019      0.0654      2.9133    147.7763     26.2701
  1995.6000      7.8592      2.6041      0.0216      2.7830    143.6525     25.9998
  1995.7000      7.8592      2.6003      0.0183      3.0124    138.3375     26.5837
  1995.8000      7.8538      2.5909      0.0655      3.5816    136.4094     27.0465
  1995.9000      7.8538      2.5750      0.0274      4.5482    136.0972     27.0517
  1996.0000      7.8523      2.5610      0.0383      5.3929    133.2761     27.0650
  1996.1000      7.8523      2.5562      0.0527      5.6841    130.9855     27.2930
  1996.2000      7.8523      2.5607      0.0035      5.4140    134.4268     27.4789
  1996.3000      7.8556      2.5747      0.0326      4.5658    137.7971     27.4364
  1996.4000      7.8556      2.5929      0.0440      3.4600    136.2794     27.1216
  1996.5000      7.8596      2.5994      0.0873      3.0685    136.4769     26.7245
  1996.6000      7.8596      2.5909      0.0374      3.5802    138.3305     26.7658
  1996.7000      7.8596      2.5897      0.0328      3.6518    136.7308     27.3312
  1996.8000      7.8575      2.6038      0.0655      2.8009    136.9781     27.8081
  1996.9000      7.8575      2.6105      0.0780      2.3933    142.8999     27.5388
  1997.0000      7.8453      2.5944      0.0463      3.3672    147.3401     26.6940
  1997.1000      7.8453      2.5690     -0.0032      4.9098    148.4842     25.9136
  1997.2000      7.8453      2.5534      0.0337      5.8516    150.3499     25.2025
  1997.3000      7.8350      2.5530      0.0004      5.8793    146.6353     24.1418
  1997.4000      7.8350      2.5642      0.0475      5.2000    134.7589     23.1754
  1997.5000      7.8348      2.5784      0.0453      4.3406    127.0149     22.9523
  1997.6000      7.8348      2.5864      0.0696      3.8574    127.1475     23.4564
  1997.7000      7.8348      2.5806      0.0545      4.2067    126.7465     23.8754
  1997.8000      7.8359      2.5647      0.0063      5.1675    123.6936     23.5713
  1997.9000      7.8359      2.5529      0.0121      5.8842    121.9642     22.6036
