~Version Information
VERS.                      2.0: CWLS Log ASCII Standard - VERSION 2.0
WRAP.                       NO: One line per depth step
~Well Information Block
STRT.FT               259.0000: 
STOP.FT              2379.0000: 
STEP.FT                 0.2500: 
NULL.                -999.2500: 
COMP.          Pioneer Natural Resources: COMPANY
WELL.          Foothills 12-36: WELL
FLD.           Purgatoire River: FIELD
LOC.           2450' FNL & 201' FWL: LOCATION
PROV.                 Colorado: PROVINCE
CNTY.               Las Animas: COUNTRY
SRVC.                Patterson: SERVICE COMPANY
DATE.          Thu Apr 21 09:19:57 2005: LOG DATE
UWI.           05 071 08339 00: UNIQUE WELL ID
~Curve Information Block
DEPT.FT            0 000 00 00: Depth
DCAL.in                       : CDL Caliper
RHOB.g/cc                     : CDL Bulk Density
RHOC.g/cc                     : CDL Density Correction
DPOR.pu                       : CDL Density Porosity
GR.GAPI                       : Gamma Ray
NPOR.pu                       : Neutron Porosity
~Parameter Information Block
~A  Depth       DCAL        RHOB        RHOC        DPOR         GR         NPOR    
# ...
  2059.0000      8.0528      1.3271      0.0458     80.1785     27.0871     34.3963
  2059.2500      8.0536      1.2982      0.0609     81.9276     26.9685     33.6625
  2059.5000      8.0562      1.2781      0.0671     83.1469     36.6436     33.6386
  2059.7500      8.0546      1.2871      0.0281     82.5988     41.2720     33.0693
  2060.0000      8.0641      1.3754      0.0931     77.2481     59.2229     33.1286
  2060.2500      8.0623      1.3891      0.0867     76.4189     71.9893     33.7017
  2060.5000      8.0560      1.6466      0.1037     60.8095     86.5495     31.2068
  2060.7500      7.9862      1.9839      0.2479     40.3704     86.6638     29.5103
  2061.0000      7.8614      2.2361      0.3471     25.0860    100.9353     29.3599
  2061.2500      7.9327      2.3655      0.1817     17.2450    107.7809     30.8770
  2061.5000      7.8996      2.4576      0.1558     11.6594    112.7405     29.7635
  2061.7500      7.8931      2.4558      0.0989     11.7700    116.5072     30.4349
  2062.0000      7.9008      2.4168      0.0320     14.1360    114.1099     30.4914
  2062.2500      7.9009      2.4055     -0.0023     14.8171    110.9927     30.1211
  2062.5000      7.8918      2.3809      0.0058     16.3100    112.9405     28.4472
  2062.7500      7.8898      2.3659     -0.0350     17.2165    118.6204     29.8381
  2063.0000      7.8925      2.4594      0.0276     11.5485    113.2643     28.2673
  2063.2500      7.8923      2.4498      0.0019     12.1355    110.3308     25.5993
  2063.5000      7.8945      2.3987     -0.0293     15.2302    126.0932     29.4881
  2063.7500      7.9017      2.4023      0.0046     15.0096    122.6777     27.5440
  2064.0000      7.9075      2.3980      0.0510     15.2738    124.7787     29.9460
  2064.2500      7.9028      2.3597     -0.0225     17.5959    120.9938     28.3989
  2064.5000      7.8875      2.3642      0.0345     17.3186    124.4562     28.3791
  2064.7500      7.8712      2.3370      0.0201     18.9687    122.9747     27.8849
  2065.0000      7.8582      2.2448      0.0289     24.5566    118.8893     28.2656
  2065.2500      7.8528      2.2173      0.0058     26.2235    116.3463     30.0624
  2065.5000      7.8545      2.1544      0.0464     30.0362    105.0184     30.4796
  2065.7500      7.8653      2.0156     -0.0278     38.4494     97.6490     31.8347
  2066.0000      7.8988      2.0287      0.0359     37.6519     82.9983     31.0285
  2066.2500      7.9494      2.1287      0.1937     31.5930     80.9890     30.4088
  2066.5000      7.9619      2.2468      0.0037     24.4340     86.4592     30.0502
  2066.7500      7.9182      2.3390      0.0865     18.8486    101.5104     28.7423
  2067.0000      7.8848      2.3471      0.0133     18.3599    103.8771     28.2695
  2067.2500      7.8778      2.3960      0.0747     15.3959     97.3087     28.1011
  2067.5000      7.8777      2.4689      0.1059     10.9753    111.5387     32.1221
  2067.7500      7.8820      2.4915      0.1040      9.6038    102.3548     31.3242
  2068.0000      7.8954      2.4891      0.1193      9.7525    100.1522     29.6599
  2068.2500      7.9065      2.4387     -0.0078     12.8076    110.1297     29.6406
  2068.5000      7.9003      2.5147      0.1052      8.2018    109.6425     30.5922
  2068.7500      7.8901      2.5127      0.0635      8.3226    104.7971     27.0466
  2069.0000      7.8841      2.5393      0.0862      6.7085     94.5944     28.5107
  2069.2500      7.8793      2.5496      0.0988      6.0845     97.8198     29.1208
  2069.5000      7.8762      2.4338     -0.0410     13.1009     95.3808     25.5308
  2069.7500      7.8742      2.4376      0.0033     12.8725     82.0623     26.0046
  2070.0000      7.8779      2.4947      0.0555      9.4101     82.6911     26.3094
  2070.2500      7.8877      2.4597      0.0206     11.5352     89.7410     26.1593
  2070.5000      7.8925      2.4243      0.0143     13.6787     86.1204     26.6833
  2070.7500      7.8904      2.4544      0.0209     11.8519     84.5782     26.9889
  2071.0000      7.8871      2.4493     -0.0351     12.1632     80.4256     26.2894
  2071.2500      7.8805      2.5088      0.0708      8.5565     70.1685     26.4764
  2071.5000      7.8703      2.5083      0.0026      8.5898     70.8623     27.1896
  2071.7500      7.8609      2.5031      0.0326      8.9015     88.8509     25.0072
  2072.0000      7.8575      2.5644      0.1086      5.1899     89.6518     25.5414
  2072.2500      7.8643      2.5250     -0.0017      7.5767     87.2519     24.4635
  2072.5000      7.8796      2.5001      0.0353      9.0862     90.9555     23.6313
  2072.7500      7.8920      2.4711     -0.0016     10.8430     97.3079     27.1497
  2073.0000      7.8952      2.4973      0.0611      9.2558     86.2982     26.3522
  2073.2500      7.8951      2.4503      0.0083     12.1035     76.7288     26.5554
  2073.5000      7.8944      2.5127      0.0351      8.3221     82.2048     25.9247
  2073.7500      7.8972      2.5371      0.0193      6.8421     81.0038     25.1510
  2074.0000      7.9045      2.4123     -0.0472     14.4040     85.9430     24.9499
  2074.2500      7.9091      2.3947     -0.0683     15.4738     84.8887     24.9004
  2074.5000      7.9089      2.4639     -0.0066     11.2814     78.4291     25.2172
  2074.7500      7.9024      2.4698      0.0011     10.9222     76.0004     25.0709
  2075.0000      7.8893      2.5009      0.0203      9.0356     76.8364     26.0378
  2075.2500      7.8806      2.4876     -0.0029      9.8406     83.7056     26.4157
  2075.5000      7.8805      2.4610     -0.0170     11.4554     85.3571     26.2033
  2075.7500      7.8792      2.4860     -0.0077      9.9387     85.6555     27.1840
  2076.0000      7.8703      2.5091      0.0645      8.5374     88.9775     25.3079
  2076.2500      7.8569      2.5052      0.0695      8.7784     84.3884     23.1759
  2076.5000      7.8494      2.4817      0.0547     10.2012     77.0220     23.9789
  2076.7500      7.8504      2.5197      0.0294      7.8979     85.3046     24.1451
  2077.0000      7.8556      2.5556      0.0470      5.7186     82.7777     24.5515
  2077.2500      7.8593      2.5361      0.0535      6.9001     84.0861     23.7621
  2077.5000      7.8622      2.4947      0.0400      9.4098     79.8421     25.5965
  2077.7500      7.8667      2.5026      0.0521      8.9333     80.8790     26.1626
  2078.0000      7.8680      2.4846      0.0287     10.0260     93.5690     24.2197
  2078.2500      7.8665      2.5173      0.0408      8.0440     94.1073     24.2936
  2078.5000      7.8682      2.5705      0.0971      4.8182     78.8746     26.6061
  2078.7500      7.8756      2.5605      0.0989      5.4214     81.0648     27.1641
  2079.0000      7.8805      2.5116      0.0610      8.3896     88.5393     25.5167
  2079.2500      7.8807      2.5037      0.0335      8.8687     88.4747     25.0516
  2079.5000      7.8801      2.5036      0.0657      8.8714     78.0323     25.3250
  2079.7500      7.8792      2.4829      0.0667     10.1271     72.9630     24.5545
  2080.0000      7.8769      2.4424      0.0078     12.5820     72.1215     25.2600
  2080.2500      7.8724      2.4753      0.0308     10.5909     73.4910     25.7953
  2080.5000      7.8680      2.5149      0.0724      8.1853     75.6169     25.8211
  2080.7500      7.8673      2.5161      0.0203      8.1154     63.6329     22.7756
  2081.0000      7.8758      2.5021      0.0005      8.9630     65.8106     22.4706
  2081.2500      7.8903      2.5003     -0.0021      9.0731     61.0641     23.1740
  2081.5000      7.8956      2.5438      0.1026      6.4348     62.7292     25.8416
  2081.7500      7.8917      2.5383      0.0097      6.7682     75.9316     24.2751
  2082.0000      7.8880      2.5433      0.0180      6.4694     83.0746     24.6256
  2082.2500      7.8867      2.5069      0.0251      8.6705     81.5371     24.6761
  2082.5000      7.8881      2.4362     -0.0111     12.9600     81.5376     23.9059
  2082.7500      7.8928      2.4569     -0.0308     11.7001     71.8920     23.4721
