~Version Information
 VERS.                                  2.0 : CWLS LAS VERSION
 WRAP.                                   NO : WRAPING MODE
 SWARE .                 MController 2.5.0J : SOFTWARE VERSION
~Well Information
 WELL.                      Robinson 15-12R : WELL
 COMP.                Petrogulf Corporation : COMPANY
 FLD.                      Purgatoire River : FIELD
 LOC.                SW/NW Sec 15 T33S R67W : LOCATION
 DATE.                          09/12-13/05 : DATE(S) LOGGED
 SRVC.       BLANCO Geological Services LLC : SERVICE COMPANY
 STAT.                                   CO : STATE
 CNTY.                           Las Animas : COUNTY
 CTRY.                                  USA : COUNTRY
 API.                       05-071-08307-00 : API NUMBER
 STRT.FT                               1.00 : START DEPTH
 STOP.FT                            1460.00 : STOP DEPTH
 STEP.FT                               1.00 : DEPTH INCREMENT
 NULL.                                -9999 : NULL VALUE
~Curve information
 DEPTH.FT                                   :
 ROP.MIN/FT                                 :
 GAS.UNITS                                  :
~ASCII Log data
# ...
       801.0         0.07        776.2 
       802.0         0.10        790.4 
       803.0         0.10        790.8 
       804.0         0.10        787.9 
       805.0         0.13        770.4 
       806.0         0.17        748.9 
       807.0         0.20        706.6 
       808.0         2.58       1732.1 
       809.0         0.27       1059.6 
       810.0         0.23        990.1 
       811.0         0.27        940.6 
       812.0         0.27        885.7 
       813.0         0.23        825.7 
       814.0         0.23        779.0 
       815.0         0.23        740.9 
       816.0         0.23        714.6 
       817.0         0.20        692.7 
       818.0         0.20        682.5 
       819.0         0.23        684.7 
       820.0         0.22        691.1 
       821.0         0.17        695.2 
       822.0         0.13        696.8 
       823.0         0.27        697.8 
       824.0         0.23        699.7 
       825.0         0.27        698.4 
       826.0         0.23        691.4 
       827.0         0.23        685.1 
       828.0         0.23        755.8 
       829.0         0.27       1403.3 
       830.0         0.23       1803.2 
       831.0         0.20       1895.6 
       832.0         0.13       1896.8 
       833.0         0.13       1872.1 
       834.0         0.20       1827.6 
       835.0         0.18       1981.3 
       836.0         0.17       2309.4 
       837.0         0.20       2891.5 
       838.0         1.40       4937.7 
       839.0         0.27       3177.2 
       840.0         0.40       2284.4 
       841.0         0.30       1393.5 
       842.0         0.30       1163.4 
       843.0         0.22       1045.0 
       844.0         0.23        974.8 
       845.0         0.20        925.0 
       846.0         0.17        887.9 
       847.0         0.20        859.9 
       848.0         0.20        828.8 
       849.0         0.20        811.1 
       850.0         0.20        798.4 
       851.0         0.27        787.6 
       852.0         0.23        780.0 
       853.0         0.17        777.7 
       854.0         0.20        775.2 
       855.0         0.20        771.7 
       856.0         0.18        768.2 
       857.0         0.17        766.0 
       858.0         0.20        762.5 
       859.0         0.17        744.1 
       860.0         0.20        721.2 
       861.0         0.17        694.9 
       862.0         0.20        671.7 
       863.0         0.20        629.2 
       864.0         0.07        592.7 
       865.0         0.10        584.1 
       866.0         0.10        603.5 
       867.0         0.10        653.0 
       868.0         1.38       2394.8 
       869.0         0.10       2090.4 
       870.0         0.23       1951.1 
       871.0         0.17       1651.5 
       872.0         0.07       1503.9 
       873.0         0.10       1451.5 
       874.0         0.07       1367.4 
       875.0         0.17       1315.1 
       876.0         0.17       1178.3 
       877.0         0.13       1087.5 
       878.0         0.20       1015.5 
       879.0         0.20        938.0 
       880.0         0.23        877.7 
       881.0         0.23        829.2 
       882.0         0.20        783.5 
       883.0         0.17        758.7 
       884.0         0.17        756.5 
       885.0         0.13        750.8 
       886.0         0.13        744.4 
       887.0         0.10        730.1 
       888.0         0.15        719.0 
       889.0         0.13        700.6 
       890.0         0.17        678.4 
       891.0         0.17        640.9 
       892.0         0.13        599.7 
       893.0         0.10        568.6 
       894.0         0.13        553.7 
       895.0         0.07        537.8 
       896.0         0.10        537.2 
       897.0         0.13        539.7 
       898.0         2.98       2279.6 
       899.0         0.13       2047.6 
       900.0         0.20       1912.7 
       901.0         0.20       1701.0 
       902.0         0.17       1506.5 
       903.0         0.10       1363.3 
       904.0         0.13       1286.8 
       905.0         0.10       1205.3 
       906.0         0.20       1151.3 
       907.0         0.20       1078.6 
       908.0         0.17       1024.7 
       909.0         0.17        984.0 
       910.0         0.18        947.9 
       911.0         0.20        924.7 
       912.0         0.13        893.0 
       913.0         0.13        870.4 
       914.0         0.13        848.8 
       915.0         0.23        825.7 
       916.0         0.23        787.6 
       917.0         0.17        749.5 
       918.0         0.20        729.2 
       919.0         0.20        702.2 
       920.0         0.23        681.3 
       921.0         0.33        663.2 
       922.0         0.23        669.8 
       923.0         0.20        678.4 
       924.0         0.20        681.3 
       925.0         0.17        674.3 
       926.0         0.20        653.6 
       927.0         0.22        616.2 
       928.0         4.98       2273.2 
       929.0         0.37       1954.0 
       930.0         0.47       1532.8 
       931.0         0.47       1160.8 
       932.0         0.28       1020.5 
       933.0         0.30        964.0 
       934.0         0.27        898.3 
       935.0         0.27        839.0 
       936.0         0.27        794.6 
       937.0         0.23        759.0 
       938.0         0.27        736.2 
       939.0         0.27        721.2 
       940.0         0.30        717.1 
       941.0         0.40        711.1 
       942.0         0.37        687.3 
       943.0         0.15        667.3 
       944.0         0.13        674.6 
       945.0         0.13        680.9 
       946.0         0.10        681.9 
       947.0         0.13        684.1 
       948.0         0.10        685.1 
       949.0         0.17        687.9 
       950.0         0.20        703.2 
       951.0         0.17        709.8 
       952.0         0.17        712.7 
       953.0         0.17        710.5 
       954.0         0.20        697.4 
       955.0         0.17        658.1 
       956.0         0.20        624.8 
       957.0         0.17        692.0 
       958.0         1.38       2191.0 
       959.0         0.17       1799.4 
       960.0         0.30       1600.7 
       961.0         0.20       1262.7 
       962.0         0.27       1095.8 
       963.0         0.33        959.6 
       964.0         0.27        874.9 
       965.0         0.23        853.3 
       966.0         0.27        833.6 
       967.0         0.23        799.3 
       968.0         0.23        758.7 
       969.0         0.23        716.2 
       970.0         0.22        686.3 
       971.0         0.20        658.1 
       972.0         0.17        648.2 
       973.0         0.17        664.4 
       974.0         0.17        674.0 
       975.0         0.13        680.9 
       976.0         0.10        683.8 
       977.0         0.10        687.9 
       978.0         0.20        693.6 
       979.0         0.20        707.0 
       980.0         0.13        711.7 
       981.0         0.20        712.0 
       982.0         0.23        702.8 
       983.0         0.17        691.1 
       984.0         0.20        702.8 
       985.0         0.27        703.5 
       986.0         0.30        667.6 
       987.0         0.27        589.5 
       988.0         2.78       2512.6 
       989.0         0.27       1770.8 
       990.0         0.38       1453.1 
       991.0         0.27       1099.6 
       992.0         0.30        980.2 
       993.0         0.27        932.3 
       994.0         0.23        897.4 
       995.0         0.30        870.4 
       996.0         0.33        837.1 
       997.0         0.23        788.2 
       998.0         0.27        749.8 
       999.0         0.20        710.5 
      1000.0         0.20        693.6 
