~Version Information
VERS.                      2.0: CWLS Log ASCII Standard - VERSION 2.0
WRAP.                       NO: One line per depth step
~Well Information Block
STRT.FT               423.0000: 
STOP.FT              2306.0000: 
STEP.FT                 0.1000: 
NULL.                -999.2500: 
COMP.          Pioneer Natural Resources: COMPANY
WELL.             Culver 14-12: WELL
FLD.           Purgatoire River: FIELD
LOC.           913' FSL & 1140' FWL: LOCATION
PROV.                 Colorado: PROVINCE
CNTY.               Las Animas: COUNTRY
SRVC.                Patterson: SERVICE COMPANY
DATE.          Tue Jun 07 09:21:05 2005: LOG DATE
UWI.           05 071 08386 00: UNIQUE WELL ID
~Curve Information Block
DEPT.FT            0 000 00 00: Depth
DCAL.in                       : CDL Caliper
RHOB.g/cc                     : CDL Bulk Density
RHOC.g/cc                     : CDL Density Correction
DPOR.pu                       : CDL Density Porosity
GR.GAPI                       : Gamma Ray
NPOR.pu                       : Neutron Porosity
~Parameter Information Block
~A  Depth       DCAL        RHOB        RHOC        DPOR         GR         NPOR    
# ...
  1421.4000      9.0554      2.3590      0.1171     17.6335    119.7794     31.7563
  1421.5000      8.6608      2.3376      0.1690     18.9350    125.9481     31.6418
  1421.6000      8.6608      2.3256      0.1129     19.6631    137.0972     31.8116
  1421.7000      8.6608      2.3387      0.0786     18.8670    148.4528     32.5271
  1421.8000      8.7601      2.3764      0.1315     16.5798    149.6927     33.3339
  1421.9000      8.7601      2.4132      0.1983     14.3537    141.3063     33.3382
  1422.0000      8.7741      2.4298      0.2656     13.3462    134.0960     32.6247
  1422.1000      8.7741      2.4326      0.2792     13.1778    134.2356     31.9796
  1422.2000      8.7741      2.4340      0.3374     13.0932    138.4428     31.9593
  1422.3000      8.7298      2.4338      0.3477     13.1010    138.9899     32.6758
  1422.4000      8.7298      2.4451      0.1840     12.4171    133.7493     33.3816
  1422.5000      8.9618      2.4980      0.2032      9.2091    129.3805     33.4173
  1422.6000      8.9618      2.5851      0.2535      3.9309    129.5838     32.9861
  1422.7000      8.9618      2.6570      0.3940     -0.4228    134.1665     32.1092
  1422.8000      9.5105      2.6793      0.3922     -1.7783    141.3317     30.8468
  1422.9000      9.5105      2.6465      0.4074      0.2140    142.6447     30.0434
  1423.0000      9.6560      2.5538      0.3630      5.8322    134.1584     30.1347
  1423.1000      9.6560      2.4203      0.1775     13.9226    122.7890     30.7820
  1423.2000      9.6560      2.3015      0.0395     21.1216    116.5319     31.5418
  1423.3000      9.5524      2.2193      0.0348     26.1023    118.6565     31.7054
  1423.4000      9.5524      2.1510     -0.0160     30.2395    124.5956     30.9726
  1423.5000      9.2101      2.1105     -0.0160     32.7000    126.1199     30.1170
  1423.6000      9.2101      2.1318      0.0746     31.4085    122.0425     29.9005
  1423.7000      9.2101      2.1962      0.3116     27.5040    118.7746     30.0632
  1423.8000      8.8570      2.2638      0.3063     23.4062    119.9611     30.4203
  1423.9000      8.8570      2.3287      0.3441     19.4726    125.1963     31.3983
  1424.0000      8.7783      2.3826      0.4324     16.2046    131.2401     32.2966
  1424.1000      8.7783      2.4101      0.3934     14.5401    132.4087     31.9219
  1424.2000      8.7783      2.4235      0.3669     13.7295    127.7630     30.8968
  1424.3000      9.0529      2.4320      0.3712     13.2145    123.3578     30.5389
  1424.4000      9.0529      2.4297      0.3364     13.3543    125.6731     31.1523
  1424.5000      9.0533      2.4258      0.3360     13.5854    133.1677     32.0102
  1424.6000      9.0533      2.4360      0.3340     12.9695    138.9492     32.7674
  1424.7000      9.0533      2.4575      0.3725     11.6675    138.0248     33.5048
  1424.8000      8.7821      2.4770      0.3370     10.4840    133.4178     33.5614
  1424.9000      8.7821      2.4911      0.3452      9.6279    131.6005     32.8132
  1425.0000      8.9679      2.5017      0.3752      8.9876    134.0183     32.2286
  1425.1000      8.9679      2.5017      0.4161      8.9901    137.5932     32.1515
  1425.2000      8.9679      2.4781      0.4152     10.4156    138.9236     32.0967
  1425.3000      9.3438      2.4330      0.3543     13.1532    136.0171     32.2067
  1425.4000      9.3438      2.3761      0.3481     16.6020    131.7841     32.7689
  1425.5000      9.5163      2.2979      0.3373     21.3391    132.6581     33.3740
  1425.6000      9.5163      2.1924      0.2727     27.7314    136.9729     33.5990
  1425.7000      9.5163      2.0960      0.1847     33.5742    139.3096     33.3017
  1425.8000      9.6947      2.0558      0.2282     36.0093    141.2667     32.6056
  1425.9000      9.6947      2.0840      0.2674     34.3028    143.9826     32.0213
  1426.0000      9.5022      2.1752      0.2893     28.7767    141.9160     31.6738
  1426.1000      9.5022      2.3127      0.4095     20.4412    134.7509     31.4037
  1426.2000      9.5022      2.4534      0.4564     11.9142    130.8192     31.2283
  1426.3000      9.1399      2.5597      0.4815      5.4741    133.6504     31.1981
  1426.4000      9.1399      2.6294      0.4908      1.2491    137.4618     31.5273
  1426.5000      9.0158      2.6783      0.4680     -1.7173    139.4075     31.9978
  1426.6000      9.0158      2.7178      0.4581     -4.1100    142.3076     31.9718
  1426.7000      9.0158      2.7551      0.3772     -6.3725    142.2084     31.3541
  1426.8000      8.9886      2.7922      0.3222     -8.6161    132.4844     30.5678
  1426.9000      8.9886      2.8169      0.3140    -10.1136    119.8170     29.7414
  1427.0000      8.8227      2.8179      0.2297    -10.1738    116.2233     28.8989
  1427.1000      8.8227      2.7968      0.1299     -8.8970    119.9295     28.2755
  1427.2000      8.8227      2.7626      0.0763     -6.8258    119.1284     27.8444
  1427.3000      8.6386      2.7268      0.0864     -4.6520    110.7968     27.5461
  1427.4000      8.6386      2.6991      0.0365     -2.9734    102.5784     27.3679
  1427.5000      8.2672      2.6820      0.0623     -1.9373    100.5960     27.2418
  1427.6000      8.2672      2.6668      0.0638     -1.0196    106.4556     27.1406
  1427.7000      8.2672      2.6526      0.0377     -0.1581    114.7396     27.0143
  1427.8000      8.2021      2.6501      0.0053     -0.0042    117.4304     26.3832
  1427.9000      8.2021      2.6507      0.0330     -0.0402    114.5195     24.9960
  1428.0000      8.1746      2.6384     -0.0085      0.7021    110.3387     23.7508
  1428.1000      8.1746      2.6243      0.0141      1.5571    106.1702     23.7719
  1428.2000      8.1746      2.6225      0.0054      1.6665    100.8521     24.9859
  1428.3000      8.1534      2.6326      0.0476      1.0558     94.9047     26.2705
  1428.4000      8.1534      2.6493      0.0199      0.0429     91.5577     27.1035
  1428.5000      8.1532      2.6603      0.0679     -0.6254     92.5071     27.5045
  1428.6000      8.1532      2.6549     -0.0004     -0.2949     97.0885     27.5124
  1428.7000      8.1532      2.6434      0.0513      0.3999    102.9407     27.1382
  1428.8000      8.1578      2.6361      0.0523      0.8412    106.2774     26.5178
  1428.9000      8.1578      2.6357     -0.0091      0.8665    107.4261     26.1831
  1429.0000      8.1665      2.6505     -0.0361     -0.0312    109.3438     26.0586
  1429.1000      8.1665      2.6777      0.0042     -1.6790    110.4477     25.5047
  1429.2000      8.1665      2.6921      0.0589     -2.5512    108.2095     24.5370
  1429.3000      8.1726      2.6767     -0.0022     -1.6198    102.9454     23.7951
  1429.4000      8.1726      2.6508     -0.0384     -0.0481     95.6878     23.8435
  1429.5000      8.1648      2.6377     -0.0028      0.7440     89.1951     24.6820
  1429.6000      8.1648      2.6334      0.0352      1.0040     84.7141     25.7412
  1429.7000      8.1648      2.6302     -0.0365      1.2003     81.2910     26.3690
  1429.8000      8.1266      2.6346      0.0138      0.9306     79.4699     26.7949
  1429.9000      8.1266      2.6352      0.0824      0.8977     77.0216     27.2127
  1430.0000      8.1048      2.6179      0.0208      1.9471     74.5130     26.7590
  1430.1000      8.1048      2.6002      0.0499      3.0169     77.8167     25.7110
  1430.2000      8.1048      2.5937      0.0588      3.4116     84.9022     25.4490
  1430.3000      8.0970      2.5894      0.0677      3.6703     88.5507     25.9305
  1430.4000      8.0970      2.5913      0.0058      3.5602     89.0948     26.1457
  1430.5000      8.1341      2.6127      0.0666      2.2621     93.8956     26.2501
  1430.6000      8.1341      2.6382      0.1066      0.7128    101.6279     26.9133
  1430.7000      8.1341      2.6453      0.0577      0.2860    102.8418     27.5494
  1430.8000      8.1417      2.6403      0.0988      0.5885     97.4869     27.2346
  1430.9000      8.1417      2.6350      0.0438      0.9082     94.5795     26.3668
