~Version Information
VERS.                      2.0: CWLS Log ASCII Standard - VERSION 2.0
WRAP.                       NO: One line per depth step
~Well Information Block
STRT.FT               780.0000: 
STOP.FT              1557.5000: 
STEP.FT                 0.1000: 
NULL.                -999.2500: 
COMP.          Pioneer Natural Resources: COMPANY
WELL.          Bunner's 13-26 Tr: WELL
FLD.           Purgatoire River: FIELD
LOC.           1843' FSL & 456' FWL----: LOCATION
PROV.                 Colorado: PROVINCE
CNTY.               Las Animas: COUNTRY
SRVC.                Patterson: SERVICE COMPANY
DATE.          Tue Mar 29 07:41:16 2005: LOG DATE
UWI.           05 071 08331 00: UNIQUE WELL ID
~Curve Information Block
DEPT.FT            0 000 00 00: Depth
DCAL.in                       : CDL Caliper
RHOB.g/cc                     : CDL Bulk Density
RHOC.g/cc                     : CDL Density Correction
DPOR.pu                       : CDL Density Porosity
NPOR.pu                       : Neutron Porosity
GR.GAPI                       : Gamma Ray
~Parameter Information Block
~A  Depth       DCAL        RHOB        RHOC        DPOR        NPOR         GR     
# ...
  1279.2000      7.8626      2.4735      0.0428     10.6990     27.7708    122.3394
  1279.3000      7.8623      2.4414     -0.0234     12.6433     27.7702    122.8660
  1279.4000      7.8623      2.4725      0.0801     10.7566     27.9813    123.3509
  1279.5000      7.8612      2.5530      0.1165      5.8803     28.4770    122.5909
  1279.6000      7.8612      2.6334      0.1793      1.0057     28.9520    119.4774
  1279.7000      7.8612      2.6765      0.1797     -1.6052     29.4980    114.4933
  1279.8000      7.8601      2.6883      0.1339     -2.3184     30.5497    108.7059
  1279.9000      7.8601      2.6960      0.1379     -2.7880     31.8813    102.8284
  1280.0000      7.8606      2.7103      0.1186     -3.6549     32.5254     97.7468
  1280.1000      7.8606      2.7292      0.0792     -4.7998     32.2571     94.9954
  1280.2000      7.8606      2.7369      0.1005     -5.2658     31.9662     94.7441
  1280.3000      7.8630      2.7165      0.0458     -4.0273     32.0130     95.6052
  1280.4000      7.8630      2.6867     -0.0041     -2.2231     31.7871     98.9250
  1280.5000      7.8635      2.6694      0.0332     -1.1774     30.8428    106.5578
  1280.6000      7.8635      2.6582      0.0327     -0.4991     29.4233    115.2081
  1280.7000      7.8635      2.6527      0.0582     -0.1631     28.0889    118.3353
  1280.8000      7.8620      2.6547      0.0880     -0.2853     27.2879    115.0376
  1280.9000      7.8620      2.6463      0.0732      0.2247     27.1180    109.7735
  1281.0000      7.8615      2.6217      0.0319      1.7155     27.2068    108.0080
  1281.1000      7.8615      2.6032      0.0115      2.8393     27.0998    111.0882
  1281.2000      7.8615      2.5969      0.0472      3.2184     26.8374    111.0674
  1281.3000      7.8606      2.5861      0.0309      3.8713     26.7964    105.7518
  1281.4000      7.8606      2.5692      0.0150      4.8986     27.0639    101.8890
  1281.5000      7.8598      2.5573      0.0132      5.6189     26.9675    101.9211
  1281.6000      7.8598      2.5537      0.0081      5.8362     26.3121    104.5195
  1281.7000      7.8598      2.5508      0.0226      6.0128     25.9015    107.9514
  1281.8000      7.8615      2.5407     -0.0113      6.6218     26.2089    108.4710
  1281.9000      7.8615      2.5340     -0.0089      7.0293     26.9316    106.6131
  1282.0000      7.8634      2.5479      0.0157      6.1896     27.4168    106.4566
  1282.1000      7.8634      2.5741      0.0863      4.5987     27.3586    107.2198
  1282.2000      7.8634      2.5906      0.0600      3.6004     27.1109    105.5687
  1282.3000      7.8630      2.5967      0.0451      3.2302     27.1150    101.9796
  1282.4000      7.8630      2.6080      0.0536      2.5477     27.2237    100.8420
  1282.5000      7.8604      2.6239      0.1203      1.5802     27.2523    105.2570
  1282.6000      7.8604      2.6257      0.0898      1.4727     27.3739    110.5732
  1282.7000      7.8604      2.6100      0.0506      2.4234     27.7312    109.0014
  1282.8000      7.8581      2.5979      0.0431      3.1576     28.0411    102.4174
  1282.9000      7.8581      2.6023      0.0841      2.8887     27.7431     98.7752
  1283.0000      7.8577      2.6123      0.0923      2.2870     27.0613    100.7117
  1283.1000      7.8577      2.6131      0.0838      2.2341     26.5963    105.9056
  1283.2000      7.8577      2.6012      0.0389      2.9547     26.5531    110.4531
  1283.3000      7.8586      2.5783      0.0145      4.3457     26.8571    109.8605
  1283.4000      7.8586      2.5512     -0.0061      5.9908     27.2224    103.9619
  1283.5000      7.8611      2.5399     -0.0249      6.6698     27.3562     98.4760
  1283.6000      7.8611      2.5507      0.0378      6.0208     27.2283     97.6714
  1283.7000      7.8611      2.5649      0.0097      5.1587     26.8990    101.9516
  1283.8000      7.8634      2.5819      0.0398      4.1285     26.3976    109.3842
  1283.9000      7.8634      2.6091      0.0669      2.4788     25.8009    113.2131
  1284.0000      7.8641      2.6279      0.0868      1.3379     25.5832    108.6363
  1284.1000      7.8641      2.6237      0.0318      1.5969     26.1622    101.1133
  1284.2000      7.8641      2.6136      0.0209      2.2078     27.0622     96.6625
  1284.3000      7.8616      2.6143      0.0564      2.1631     27.4144     95.1138
  1284.4000      7.8616      2.6229      0.0521      1.6437     27.0319     95.4743
  1284.5000      7.8559      2.6309      0.0457      1.1564     26.6777     97.3532
  1284.6000      7.8559      2.6290      0.0568      1.2726     26.9666    100.3423
  1284.7000      7.8559      2.6127      0.0343      2.2623     27.6300    104.1247
  1284.8000      7.8488      2.5916      0.0453      3.5375     28.2705    107.7085
  1284.9000      7.8488      2.5758      0.0835      4.4961     28.7344    110.4499
  1285.0000      7.8411      2.5653      0.0408      5.1355     28.9173    114.0116
  1285.1000      7.8411      2.5530      0.0576      5.8804     28.8055    120.0923
  1285.2000      7.8411      2.5365      0.0139      6.8808     28.6250    125.6711
  1285.3000      7.8358      2.5320      0.0028      7.1524     28.4216    125.8839
  1285.4000      7.8358      2.5525      0.0551      5.9079     27.9088    121.5555
  1285.5000      7.8354      2.5906      0.0554      3.6020     27.1293    117.5280
  1285.6000      7.8354      2.6242      0.1007      1.5655     26.4057    117.4611
  1285.7000      7.8354      2.6309      0.0797      1.1589     25.9627    119.2992
  1285.8000      7.8374      2.6126      0.0780      2.2691     25.7505    117.3465
  1285.9000      7.8374      2.5913      0.0469      3.5597     25.4773    111.6605
  1286.0000      7.8387      2.5841      0.0559      3.9943     25.2525    106.6527
  1286.1000      7.8387      2.5951      0.0479      3.3300     25.2686    103.9921
  1286.2000      7.8387      2.6215      0.0667      1.7267     24.9527    103.5444
  1286.3000      7.8387      2.6516      0.0983     -0.0951     24.1853    103.8671
  1286.4000      7.8387      2.6633      0.1016     -0.8065     23.8581    102.0018
  1286.5000      7.8381      2.6487      0.0548      0.0798     24.2098     96.6670
  1286.6000      7.8381      2.6182      0.0454      1.9289     24.4661     90.5263
  1286.7000      7.8381      2.5787      0.0588      4.3239     24.1032     87.2614
  1286.8000      7.8385      2.5383     -0.0123      6.7724     23.5620     87.2867
  1286.9000      7.8385      2.5139      0.0276      8.2464     23.3265     88.3117
  1287.0000      7.8378      2.5100      0.0104      8.4864     23.1508     87.9241
  1287.1000      7.8378      2.5158      0.0407      8.1338     23.0554     85.6883
  1287.2000      7.8378      2.5270      0.0379      7.4563     23.4002     84.3407
  1287.3000      7.8361      2.5429      0.0571      6.4899     23.7460     87.0566
  1287.4000      7.8361      2.5542      0.0721      5.8076     23.5195     91.5200
  1287.5000      7.8364      2.5593      0.0695      5.4995     23.1745     92.8684
  1287.6000      7.8364      2.5661      0.0453      5.0869     23.3263     91.8747
  1287.7000      7.8364      2.5668      0.0620      5.0436     23.5965     90.0536
  1287.8000      7.8375      2.5456      0.0713      6.3248     23.5750     89.0627
  1287.9000      7.8375      2.5129      0.0451      8.3118     23.4435     93.6440
  1288.0000      7.8373      2.4964      0.0334      9.3065     23.3334    100.4343
  1288.1000      7.8373      2.5013      0.0423      9.0152     23.2083     99.2029
  1288.2000      7.8373      2.5019      0.0459      8.9771     23.2135     90.9694
  1288.3000      7.8365      2.4744      0.0372     10.6433     23.7580     86.8638
  1288.4000      7.8365      2.4191     -0.0104     13.9910     24.8857     90.1292
  1288.5000      7.8355      2.3545     -0.0105     17.9078     25.8291     94.1926
  1288.6000      7.8355      2.3056     -0.0438     20.8720     25.9177     96.0151
  1288.7000      7.8355      2.2935     -0.0575     21.6048     25.3481     97.2105
