~Version Information
VERS.                      2.0: CWLS Log ASCII Standard - VERSION 2.0
WRAP.                       NO: One line per depth step
~Well Information Block
STRT.FT               555.6000: 
STOP.FT              2132.0000: 
STEP.FT                 0.1000: 
NULL.                -999.2500: 
COMP.          Petrogulf Corporation: COMPANY
WELL.           Montoya 12-41R: WELL
FLD.           Purgatorie River: FIELD
LOC.           1086' FNL & 610' FEL: LOCATION
CNTY.               Las Animas: COUNTY
SRVC.                         : SERVICE COMPANY
DATE.          Thu Nov 18 08:45:51 2004: LOG DATE
UWI.           05 071 08241 00: UNIQUE WELL ID
STAT.                 Colorado: STATE
~Curve Information Block
DEPT.FT            0 000 00 00: Depth
DCAL.in                       : CDL Caliper
RHOB.g/cc                     : CDL Bulk Density
RHOC.g/cc                     : CDL Density Correction
DPOR.pu                       : CDL Density Porosity
GR.GAPI                       : Gamma Ray
NPOR.pu                       : Neutron Porosity
~Parameter Information Block
~A  Depth       DCAL        RHOB        RHOC        DPOR         GR         NPOR    
# ...
  1602.0000      7.8105      2.5758      0.2143      4.4954     81.0486     21.7606
  1602.1000      7.8105      2.6202      0.2538      1.8059     81.5460     20.8309
  1602.2000      7.8105      2.6527      0.2504     -0.1636     83.3400     20.0990
  1602.3000      7.8280      2.6732      0.2498     -1.4071     85.0857     19.7918
  1602.4000      7.8280      2.6804      0.2909     -1.8434     85.7455     19.9226
  1602.5000      7.8336      2.6696      0.2851     -1.1858     84.7861     20.0501
  1602.6000      7.8336      2.6409      0.2150      0.5486     84.0629     19.8119
  1602.7000      7.8336      2.6058      0.1729      2.6779     85.1539     19.5749
  1602.8000      7.8297      2.5792      0.1243      4.2890     86.9938     19.6187
  1602.9000      7.8297      2.5662      0.1075      5.0797     89.1835     19.5734
  1603.0000      7.8209      2.5624      0.0981      5.3120     91.7727     19.3121
  1603.1000      7.8209      2.5651      0.0964      5.1468     95.0377     19.5544
  1603.2000      7.8209      2.5693      0.0933      4.8927     99.5705     20.3618
  1603.3000      7.8091      2.5661      0.1043      5.0834    103.6465     20.5606
  1603.4000      7.8091      2.5581      0.0681      5.5709    105.5684     19.6868
  1603.5000      7.8019      2.5611      0.0618      5.3884    107.0537     18.6150
  1603.6000      7.8019      2.5778      0.0521      4.3733    108.3624     18.4534
  1603.7000      7.8019      2.5871      0.0879      3.8112    109.1885     19.0998
  1603.8000      7.8011      2.5750      0.0711      4.5473    111.3541     19.4408
  1603.9000      7.8011      2.5564      0.0632      5.6750    113.6302     19.5358
  1604.0000      7.8004      2.5448      0.0842      6.3755    113.1806     19.9457
  1604.1000      7.8004      2.5322      0.0795      7.1378    111.1778     20.0195
  1604.2000      7.8004      2.5147      0.0099      8.1985    110.1095     19.3548
  1604.3000      7.7917      2.4976      0.0477      9.2378    109.3029     18.7157
  1604.4000      7.7917      2.4807      0.0461     10.2624    108.3418     18.5233
  1604.5000      7.7829      2.4725      0.0049     10.7561    106.6811     18.7003
  1604.6000      7.7829      2.4817      0.0154     10.1995    101.7586     19.1975
  1604.7000      7.7829      2.4950      0.0564      9.3913     95.0117     19.5373
  1604.8000      7.7838      2.5009      0.0592      9.0351     90.4860     19.1918
  1604.9000      7.7838      2.5119      0.0631      8.3684     87.2021     18.7143
  1605.0000      7.7853      2.5365      0.1114      6.8814     80.8504     18.6599
  1605.1000      7.7853      2.5541      0.0976      5.8126     74.4942     18.8568
  1605.2000      7.7853      2.5482      0.0708      6.1685     75.6083     19.0061
  1605.3000      7.7857      2.5343      0.0322      7.0110     83.4295     18.6989
  1605.4000      7.7857      2.5338      0.0390      7.0425     91.9171     18.2581
  1605.5000      7.7928      2.5448      0.0626      6.3781     99.9817     18.3555
  1605.6000      7.7928      2.5538      0.0657      5.8329    108.8440     18.8858
  1605.7000      7.7928      2.5570      0.0225      5.6343    117.2622     19.8268
  1605.8000      7.8005      2.5553      0.0560      5.7406    125.4138     21.3027
  1605.9000      7.8005      2.5499     -0.0076      6.0655    134.6823     22.7007
  1606.0000      7.8026      2.5505      0.0309      6.0289    142.7301     23.3058
  1606.1000      7.8026      2.5613      0.0610      5.3734    146.7951     23.0691
  1606.2000      7.8026      2.5789      0.0958      4.3095    146.8324     22.5727
  1606.3000      7.8049      2.6053      0.1192      2.7085    142.5379     22.3474
  1606.4000      7.8049      2.6383      0.1218      0.7092    135.7092     22.6936
  1606.5000      7.8109      2.6530      0.2089     -0.1814    131.2713     23.5087
  1606.6000      7.8109      2.6360      0.1233      0.8515    131.6427     24.0083
  1606.7000      7.8109      2.6153      0.0779      2.1058    132.3575     23.7328
  1606.8000      7.8224      2.6115      0.1094      2.3304    128.7483     23.2644
  1606.9000      7.8224      2.6120      0.1163      2.3057    122.8928     23.1678
  1607.0000      7.8304      2.6055      0.0819      2.6973    120.0797     23.0594
  1607.1000      7.8304      2.5986      0.0817      3.1157    124.4842     22.6933
  1607.2000      7.8304      2.5971      0.0733      3.2047    134.8841     22.6989
  1607.3000      7.8370      2.5970      0.0868      3.2113    144.5980     23.4320
  1607.4000      7.8370      2.5909      0.0942      3.5797    148.9970     24.2018
  1607.5000      7.8549      2.5779      0.0843      4.3715    148.6009     24.2137
  1607.6000      7.8549      2.5605      0.0771      5.4241    144.1014     23.7622
  1607.7000      7.8549      2.5421      0.0621      6.5392    136.0506     23.5927
  1607.8000      7.8741      2.5308      0.0440      7.2269    130.3427     23.4833
  1607.9000      7.8741      2.5300      0.0461      7.2710    132.3222     22.7913
  1608.0000      7.8934      2.5337      0.0727      7.0504    137.9186     21.7673
  1608.1000      7.8934      2.5390      0.0441      6.7276    142.2170     21.2964
  1608.2000      7.8934      2.5468      0.0930      6.2575    145.0198     21.7058
  1608.3000      7.9113      2.5460      0.0750      6.3026    145.6528     22.7213
  1608.4000      7.9113      2.5301      0.0593      7.2676    142.7552     23.6751
  1608.5000      7.9229      2.5150      0.0585      8.1802    136.2729     24.1112
  1608.6000      7.9229      2.5196      0.0383      7.9057    128.7217     23.9139
  1608.7000      7.9229      2.5380      0.0666      6.7897    125.1895     23.2684
  1608.8000      7.9283      2.5483      0.0958      6.1625    126.7127     23.1084
  1608.9000      7.9283      2.5468      0.0712      6.2529    126.4932     23.8872
  1609.0000      7.9241      2.5437      0.0737      6.4400    124.2467     24.7441
  1609.1000      7.9241      2.5430      0.0271      6.4832    126.7303     25.1394
  1609.2000      7.9241      2.5452      0.1003      6.3506    133.0112     25.3226
  1609.3000      7.9141      2.5488      0.0702      6.1310    137.5851     25.3274
  1609.4000      7.9141      2.5529      0.0816      5.8849    139.4984     25.1036
  1609.5000      7.9063      2.5518      0.1211      5.9492    138.5746     24.7968
  1609.6000      7.9063      2.5433      0.0914      6.4691    137.3196     24.3116
  1609.7000      7.9063      2.5360      0.0525      6.9067    144.4937     23.5552
  1609.8000      7.9075      2.5324      0.0801      7.1249    156.3562     22.8207
  1609.9000      7.9075      2.5289      0.0329      7.3406    157.0324     22.3120
  1610.0000      7.9206      2.5255      0.0909      7.5436    149.0136     22.3119
  1610.1000      7.9206      2.5201      0.0680      7.8736    146.4116     23.2855
  1610.2000      7.9206      2.5123      0.0663      8.3467    148.8874     24.7841
  1610.3000      7.9572      2.5054      0.0589      8.7659    147.7193     25.7998
  1610.4000      7.9572      2.5054      0.0481      8.7655    141.9373     25.8367
  1610.5000      7.9779      2.5188      0.0477      7.9496    135.9918     24.6308
  1610.6000      7.9779      2.5432      0.0711      6.4722    131.9898     22.7531
  1610.7000      7.9779      2.5628      0.0998      5.2852    128.6611     21.2595
  1610.8000      7.9183      2.5622      0.0701      5.3194    123.8851     20.3133
  1610.9000      7.9183      2.5497      0.0343      6.0792    118.6991     19.6805
  1611.0000      7.8539      2.5458      0.0539      6.3146    115.9802     19.2650
  1611.1000      7.8539      2.5542      0.0606      5.8081    115.0275     18.8518
  1611.2000      7.8539      2.5636      0.0377      5.2335    112.1824     18.6672
  1611.3000      7.8320      2.5612      0.0591      5.3801    106.0084     18.8980
  1611.4000      7.8320      2.5454      0.0201      6.3368    102.1596     18.9576
  1611.5000      7.8349      2.5349     -0.0046      6.9766    105.6306     18.5205
