~Version Information
VERS.                      2.0: CWLS Log ASCII Standard - VERSION 2.0
WRAP.                       NO: One line per depth step
~Well Information Block
STRT.FT               650.0000: 
STOP.FT              2085.0000: 
STEP.FT                 0.1000: 
NULL.                -999.2500: 
COMP.          Pioneer Natural Resources: COMPANY
WELL.           Galloway 32-13: WELL
FLD.           Purgatoire River: FIELD
LOC.           1809' FNL & 2004' FEL: LOCATION
PROV.                 Colorado: PROVINCE
CNTY.               Las Animas: COUNTRY
SRVC.                Patterson: SERVICE COMPANY
DATE.          Sat Jul 09 02:17:51 2005: LOG DATE
UWI.           05 071 08423 00: UNIQUE WELL ID
~Curve Information Block
DEPT.FT            0 000 00 00: Depth
DCAL.in                       : CDL Caliper
RHOB.g/cc                     : CDL Bulk Density
RHOC.g/cc                     : CDL Density Correction
DPOR.pu                       : CDL Density Porosity
GR.GAPI                       : Gamma Ray
NPOR.pu                       : Neutron Porosity
~Parameter Information Block
~A  Depth       DCAL        RHOB        RHOC        DPOR         GR         NPOR    
   650.0000      8.2300      2.0937     -0.4175     33.7145     57.6182     16.5212
   650.1000      8.2300      2.0807     -0.4076     34.5014     56.0303     17.3991
   650.2000      8.2300      2.0646     -0.4263     35.4794     56.5497     17.7499
   650.3000      8.2280      2.0584     -0.3816     35.8530     60.5253     17.5487
   650.4000      8.2280      2.0607     -0.4144     35.7142     65.5324     16.8801
   650.5000      8.2257      2.0555     -0.3953     36.0288     71.1171     15.9235
   650.6000      8.2257      2.0457     -0.4303     36.6258     76.1985     15.6948
   650.7000      8.2257      2.0519     -0.4507     36.2464     79.6943     16.4664
   650.8000      8.2251      2.0755     -0.3958     34.8199     82.7758     17.3252
   650.9000      8.2251      2.0983     -0.3881     33.4377     86.1956     17.8934
   651.0000      8.2263      2.1155     -0.4122     32.3918     88.8657     18.7910
   651.1000      8.2263      2.1286     -0.3618     31.6014     88.4209     19.9290
   651.2000      8.2263      2.1285     -0.3675     31.6054     88.2926     20.4576
   651.3000      8.2266      2.1135     -0.4031     32.5172     94.5766     20.0858
   651.4000      8.2266      2.0950     -0.4496     33.6383    103.7708     19.5246
   651.5000      8.2276      2.0809     -0.4390     34.4926    109.6642     19.5342
   651.6000      8.2276      2.0727     -0.4224     34.9862    110.7780     19.9473
   651.7000      8.2276      2.0700     -0.4288     35.1539    109.2817     20.0920
   651.8000      8.2282      2.0643     -0.4491     35.4984    112.4052     19.9833
   651.9000      8.2282      2.0475     -0.4511     36.5153    119.2188     20.0189
   652.0000      8.2283      2.0312     -0.4946     37.5048    117.3917     20.1939
   652.1000      8.2283      2.0387     -0.4812     37.0456    105.5955     20.4871
   652.2000      8.2283      2.0731     -0.4533     34.9624     97.2935     20.6952
   652.3000      8.2294      2.1090     -0.3898     32.7895     97.7186     20.3690
   652.4000      8.2294      2.1235     -0.3672     31.9109     99.1377     19.2218
   652.5000      8.2288      2.1220     -0.4381     32.0015     95.8993     17.8524
   652.6000      8.2288      2.1198     -0.3890     32.1311     90.8619     17.4949
   652.7000      8.2288      2.1229     -0.4041     31.9479     88.4705     18.4517
   652.8000      8.2275      2.1343     -0.4223     31.2568     90.0179     19.9693
   652.9000      8.2275      2.1472     -0.3708     30.4725     94.4095     21.1402
   653.0000      8.2265      2.1524     -0.4155     30.1600     99.2422     20.8806
   653.1000      8.2265      2.1536     -0.3634     30.0827    104.1023     19.0510
   653.2000      8.2265      2.1492     -0.3724     30.3502    108.0179     17.3298
   653.3000      8.2278      2.1348     -0.3897     31.2232    109.0658     16.9085
   653.4000      8.2278      2.1274     -0.4167     31.6698    110.4989     17.3797
   653.5000      8.2303      2.1431     -0.3920     30.7219    114.6335     17.8963
   653.6000      8.2303      2.1647     -0.3649     29.4118    117.0742     17.9007
   653.7000      8.2303      2.1654     -0.3605     29.3725    114.4731     17.3412
   653.8000      8.2296      2.1436     -0.4221     30.6908    108.9941     16.5703
   653.9000      8.2296      2.1178     -0.4148     32.2567    103.2559     16.3797
   654.0000      8.2288      2.0984     -0.4592     33.4303     99.1375     17.3691
   654.1000      8.2288      2.0931     -0.4659     33.7527     97.4987     18.8921
   654.2000      8.2288      2.1059     -0.4001     32.9743     96.3186     19.6935
   654.3000      8.2307      2.1169     -0.3896     32.3073     93.2389     19.5894
   654.4000      8.2307      2.1079     -0.4185     32.8526     91.6001     18.8407
   654.5000      8.2315      2.0921     -0.4705     33.8096     96.5046     18.0704
   654.6000      8.2315      2.0911     -0.4555     33.8734    103.5268     18.2326
   654.7000      8.2315      2.1015     -0.3869     33.2437    105.6226     19.0685
   654.8000      8.2321      2.1065     -0.4028     32.9393    104.4289     19.1755
   654.9000      8.2321      2.1075     -0.4382     32.8782    103.3084     18.3128
   655.0000      8.2306      2.1172     -0.4354     32.2924    101.6040     17.8727
   655.1000      8.2306      2.1323     -0.4316     31.3751     99.7124     18.4940
   655.2000      8.2306      2.1370     -0.3640     31.0912     99.6262     19.0197
   655.3000      8.2276      2.1258     -0.4117     31.7702     99.3965     18.5457
   655.4000      8.2276      2.1074     -0.4461     32.8853     97.1621     17.6908
   655.5000      8.2255      2.0861     -0.4281     34.1786     95.9628     17.5679
   655.6000      8.2255      2.0612     -0.4605     35.6829     94.5665     18.2282
   655.7000      8.2255      2.0416     -0.4691     36.8734     90.8219     18.5266
   655.8000      8.2246      2.0358     -0.4282     37.2223     89.7872     18.2899
   655.9000      8.2246      2.0398     -0.4213     36.9804     94.1730     18.4399
   656.0000      8.2257      2.0458     -0.4590     36.6193     98.1088     19.0694
   656.1000      8.2257      2.0495     -0.4343     36.3942     97.4461     19.5116
   656.2000      8.2257      2.0541     -0.4891     36.1169     96.4844     19.6787
   656.3000      8.2272      2.0643     -0.4414     35.4940    101.2290     19.8563
   656.4000      8.2272      2.0730     -0.4537     34.9717    108.8809     19.8840
   656.5000      8.2269      2.0701     -0.4081     35.1466    113.0776     19.9251
   656.6000      8.2269      2.0517     -0.4314     36.2616    114.5147     20.6054
   656.7000      8.2269      2.0275     -0.4815     37.7275    112.9452     21.6268
   656.8000      8.2249      2.0217     -0.5026     38.0775    107.0807     21.7429
   656.9000      8.2249      2.0438     -0.4243     36.7421     99.7472     20.6963
   657.0000      8.2253      2.0682     -0.3981     35.2597     95.7545     19.5451
   657.1000      8.2253      2.0631     -0.3632     35.5711     95.9116     19.2723
   657.2000      8.2253      2.0275     -0.4746     37.7261     95.7278     19.4392
   657.3000      8.2265      1.9976     -0.5378     39.5385     95.3724     19.1507
   657.4000      8.2265      2.0022     -0.4926     39.2610    100.9149     18.8958
   657.5000      8.2247      2.0291     -0.4318     37.6331    110.9028     19.3781
   657.6000      8.2247      2.0497     -0.3917     36.3808    115.1342     19.9760
   657.7000      8.2247      2.0483     -0.4273     36.4676    112.6720     20.0085
   657.8000      8.2227      2.0251     -0.4310     37.8741    112.5582     19.7741
   657.9000      8.2227      1.9843     -0.4050     40.3444    115.6616     19.7080
   658.0000      8.2231      1.9331     -0.4918     43.4474    115.7231     19.8234
   658.1000      8.2231      1.8803     -0.4312     46.6486    112.2872     20.1678
   658.2000      8.2231      1.8370     -0.5326     49.2716    101.4000     20.9410
   658.3000      8.2239      1.8190     -0.5322     50.3624    100.8452     21.9584
   658.4000      8.2239      1.8169     -0.4808     50.4912    102.7116     23.1084
   658.5000      8.2229      1.8103     -0.5186     50.8931    101.7259     24.2882
   658.6000      8.2229      1.8068     -0.5477     51.1026     96.1307     24.9729
   658.7000      8.2229      1.8135     -0.5078     50.6972     90.8204     25.1280
   658.8000      8.2222      1.8120     -0.4866     50.7902     89.5144     25.3121
   658.9000      8.2222      1.7824     -0.4965     52.5807     88.0342     25.7179
   659.0000      8.2212      1.7220     -0.5265     56.2432     84.5278     26.3162
   659.1000      8.2212      1.6406     -0.5413     61.1787     82.8063     27.0175
   659.2000      8.2212      1.5548     -0.5935     66.3757     78.0798     27.8758
   659.3000      8.2199      1.4875     -0.6400     70.4522     80.6971     28.9599
   659.4000      8.2199      1.4562     -0.6678     72.3519     81.1974     30.0570
   659.5000      8.2219      1.4520     -0.6153     72.6040     77.0397     30.7070
