~Version Information
VERS.                      2.0: CWLS Log ASCII Standard - VERSION 2.0
WRAP.                       NO: One line per depth step
~Well Information Block
STRT.FT                -7.7500: 
STOP.FT               973.7500: 
STEP.FT                 0.2500: 
NULL.                -999.2500: 
COMP.          Pioneer Natural Resources: COMPANY
WELL.              Dylan 42-25: WELL
FLD.           Purgatorie River: FIELD
LOC.           2160' FNL & 855' FEL: LOCATION
PROV.                 Colorado: PROVINCE
CNTY.               Las Animas: COUNTRY
SRVC.          Patterson Wireline: SERVICE COMPANY
DATE.          Fri Apr 29 16:36:17 2005: LOG DATE
UWI.           05-071-08229-00: UNIQUE WELL ID
~Curve Information Block
DEPT.FT            0 000 00 00: Depth
CCL.                          : Casing Collar Locator
TT3.usec                      : CBL 3' Travel Time
AMP3.mV                       : CBL 3' Amplitude
GR.GAPI                       : Gamma Ray
~Parameter Information Block
~A  Depth       CCL         TT3         AMP3         GR     
# ...
   126.2500      0.0000    459.9562      6.8583     91.1040
   126.5000      0.0000    440.7052      6.8613     95.7582
   126.7500      0.0000    449.0136      6.8293     96.9532
   127.0000      0.0000    482.5508      6.7730     94.2452
   127.2500      0.0000    531.8452      6.7077     88.8747
   127.5000      0.0000    587.2126      6.6383     82.6241
   127.7500      0.0000    640.5760      6.5597     76.5255
   128.0000      0.0000    684.8179      6.4666     70.5542
   128.2500      0.0000    715.4100      6.3628     64.3586
   128.5000      0.0000    732.9438      6.2610     58.1168
   128.7500      0.0000    742.2559      6.1774     52.7494
   129.0000      0.0000    748.7788      6.1270     49.4799
   129.2500      0.0000    755.8286      6.1209     49.2639
   129.5000      0.0000    763.8900      6.1652     52.3926
   129.7500      0.0000    770.6147      6.2589     58.2480
   130.0000      0.0000    770.9212      6.3943     65.3843
   130.2500      0.0000    757.9911      6.5607     72.0898
   130.5000      0.0000    725.5176      6.7463     77.0449
   130.7500      0.0000    671.1191      6.9375     79.6872
   131.0000      0.0000    599.9796      7.1171     80.2881
   131.2500      0.0000    525.4210      7.2669     79.7331
   131.5000      0.0000    462.9840      7.3700     78.9841
   131.7500      0.0000    421.5304      7.4152     78.5760
   132.0000      0.0000    399.8940      7.4022     78.5303
   132.2500      0.0000    391.5469      7.3471     78.5400
   132.5000      0.0000    391.5458      7.2792     78.1039
   132.7500      0.0000    400.4613      7.2239     76.7490
   133.0000      0.0000    424.2657      7.1860     74.6369
   133.2500      0.0000    469.8779      7.1475     73.0476
   133.5000      0.0000    537.2689      7.0824     73.6641
   133.7500      0.0000    614.8560      6.9729     76.8139
   134.0000      0.0000    685.8505      6.8188     80.7034
   134.2500      0.0000    740.8146      6.6362     83.0265
   134.5000      0.0000    781.8401      6.4467     83.2305
   134.7500      0.0000    814.6150      6.2678     82.7079
   135.0000      0.0000    840.7219      6.1112     83.0095
   135.2500      0.0000    858.7401      5.9865     84.4672
   135.5000      0.0000    868.7496      5.9011     86.3228
   135.7500      0.0000    873.1851      5.8600     87.4807
   136.0000      0.0000    874.7643      5.8649     87.1658
   136.2500      0.0000    875.0001      5.9100     85.5714
   136.5000      0.0000    873.9435      5.9761     84.0598
   136.7500      0.0000    870.2216      6.0307     84.1727
   137.0000      0.0000    861.5812      6.0414     86.1108
   137.2500      0.0000    847.2247      5.9906     88.4094
   137.5000      0.0000    831.3094      5.8818     89.1863
   137.7500      0.0000    823.1532      5.7361     87.6348
   138.0000      0.0000    830.9988      5.5845     84.6381
   138.2500      0.0000    854.2899      5.4583     82.2485
   138.5000      0.0000    882.9048      5.3786     82.1950
   138.7500      0.0000    903.8931      5.3501     84.4659
   139.0000      0.0000    909.0006      5.3620     87.3882
   139.2500      0.0000    898.0287      5.3936     89.1433
   139.5000      0.0000    877.3514      5.4211     89.0997
   139.7500      0.0000    855.5894      5.4224     87.8351
   140.0000      0.0000    839.8279      5.3841     86.2960
   140.2500      0.0000    833.3754      5.3086     85.0440
   140.5000      0.0000    834.1696      5.2154     84.0142
   140.7500      0.0000    835.9955      5.1302     82.8293
   141.0000      0.0000    834.1177      5.0700     81.3987
   141.2500      0.0000    830.0345      5.0361     80.1020
   141.5000      0.0000    829.2814      5.0202     79.2731
   141.7500      0.0000    835.1034      5.0175     78.7982
   142.0000      0.0000    845.7139      5.0320     78.4715
   142.2500      0.0000    856.9503      5.0670     78.5064
   142.5000      0.0000    865.8028      5.1138     79.3628
   142.7500      0.0000    871.4386      5.1510     81.0580
   143.0000      0.0000    874.2806      5.1594     82.8310
   143.2500      0.0000    874.7910      5.1378     83.6831
   143.5000      0.0000    872.8057      5.1086     83.1998
   143.7500      0.0000    867.7734      5.1040     81.6359
   144.0000      0.0000    860.0261      5.1433     79.3428
   144.2500      0.0000    851.9836      5.2189     76.5444
   144.5000      0.0000    847.1434      5.3043     73.7220
   144.7500      0.0000    846.9625      5.3730     71.7279
   145.0000      0.0000    849.0568      5.4113     71.1962
   145.2500      0.0000    848.9932      5.4175     71.9511
   145.5000      0.0000    843.5551      5.3975     73.1082
   145.7500      0.0000    832.5115      5.3631     73.6888
   146.0000      0.0000    818.1555      5.3269     73.1854
   146.2500      0.0000    803.3658      5.2964     71.7350
   146.5000      0.0000    789.9888      5.2695     69.9327
   146.7500      0.0000    778.9225      5.2397     68.5892
   147.0000      0.0000    771.2019      5.2061     68.6103
   147.2500      0.0000    768.5825      5.1755     70.7303
   147.5000      0.0000    772.8132      5.1546     74.8682
   147.7500      0.0000    783.8298      5.1424     79.7712
   148.0000      0.0000    798.6003      5.1329     83.8251
   148.2500      0.0000    812.5061      5.1231     86.3860
   148.5000      0.0000    822.2601      5.1151     88.0098
   148.7500      0.0000    827.3914      5.1120     89.4154
   149.0000      0.0000    829.2557      5.1140     90.6689
   149.2500      0.0000    829.2990      5.1174     91.3990
   149.5000      0.0000    828.1277      5.1097     91.3552
   149.7500      0.0000    825.5752      5.0635     90.6427
   150.0000      0.0000    821.3094      4.9436     89.6247
   150.2500      0.0000    815.5839      4.7366     88.7056
   150.5000      0.0000    809.7791      4.4782     88.2468
   150.7500      0.0000    806.3133      4.2445     88.4800
   151.0000      0.0000    807.6633      4.0997     89.0285
   151.2500      0.0000    815.1053      4.0516     88.5269
   151.5000      0.0000    828.4402      4.0616     85.3742
   151.7500      0.0000    847.0699      4.0889     79.3662
   152.0000      0.0000    870.5439      4.1184     72.5141
   152.2500      0.0000    896.7084      4.1513     67.9256
   152.5000     -5.0000    919.5245      4.1889     67.6794
   152.7500     -4.4385    931.1877      4.2332     71.6013
   153.0000      0.0000    928.2218      4.3071     77.7021
   153.2500      0.0000    914.0042      4.4662     83.6027
   153.5000      0.0000    894.0736      4.7650     87.8568
   153.7500      0.0000    871.0401      5.1825     90.4312
   154.0000      0.0000    845.1294      5.5969     92.0968
   154.2500      0.0000    817.5505      5.8687     93.2623
   154.5000      0.0000    791.7193      5.9519     93.4501
   154.7500      0.0000    771.5469      5.9081     91.9464
   155.0000      0.0000    759.0869      5.8330     88.8081
   155.2500      0.0000    753.7915      5.7927     85.0746
   155.5000      0.0000    753.4401      5.8126     82.0272
   155.7500      0.0000    755.4189      5.8878     80.3030
   156.0000      0.0000    757.7552      5.9949     79.7411
   156.2500      0.0000    759.8563      6.1012     79.9684
   156.5000      0.0000    762.0884      6.1784     80.8947
   156.7500      0.0000    764.0930      6.2175     82.5810
   157.0000      0.0000    764.1883      6.2295     84.8513
   157.2500      0.0000    761.2271      6.2297     87.2138
   157.5000      0.0000    756.5373      6.2233     89.0945
   157.7500      0.0000    753.2828      6.2089     90.0836
   158.0000      0.0000    754.1791      6.1901     90.0746
   158.2500      0.0000    760.0052      6.1790     89.3199
   158.5000      0.0000    769.7979      6.1898     88.2572
   158.7500      0.0000    781.9847      6.2283     87.1605
   159.0000      0.0000    795.0779      6.2896     86.1683
   159.2500      0.0000    807.1447      6.3650     85.6132
   159.5000      0.0000    815.4339      6.4459     85.8104
