~Version Information
VERS.                      2.0: CWLS Log ASCII Standard - VERSION 2.0
WRAP.                       NO: One line per depth step
~Well Information Block
STRT.FT               920.0000: 
STOP.FT              3300.2000: 
STEP.FT                 0.1000: 
NULL.                -999.2500: 
COMP.          Pioneer Natural Resources: COMPANY
WELL.              Vespar 43-7: WELL
FLD.           Purgatoire River: FIELD
LOC.           2338' FSL & 1141' FEL: LOCATION
PROV.                 Colorado: PROVINCE
CNTY.               Las Animas: COUNTRY
SRVC.                Patterson: SERVICE COMPANY
DATE.          Wed Jan 26 13:38:02 2005: LOG DATE
UWI.           05 071 07955 00: UNIQUE WELL ID
~Curve Information Block
DEPT.FT            0 000 00 00: Depth
DCAL.in                       : CDL Caliper
RHOB.g/cc                     : CDL Bulk Density
RHOC.g/cc                     : CDL Density Correction
DPOR.pu                       : CDL Density Porosity
NPOR.pu                       : Neutron Porosity
GR.GAPI                       : Gamma Ray
~Parameter Information Block
~A  Depth       DCAL        RHOB        RHOC        DPOR        NPOR         GR     
# ...
  3118.4000      7.9203      2.5671      0.0335      5.0220     17.5569     72.7803
  3118.5000      7.9279      2.5782      0.0935      4.3521     18.5437     75.0414
  3118.6000      7.9279      2.5673      0.0773      5.0100     18.5536     80.7162
  3118.7000      7.9279      2.5385     -0.0047      6.7592     17.8360     83.8600
  3118.8000      7.9323      2.5214     -0.0170      7.7929     17.1236     85.0229
  3118.9000      7.9323      2.5281      0.0108      7.3869     16.8800     84.4058
  3119.0000      7.9345      2.5436      0.0315      6.4490     17.1189     80.0760
  3119.1000      7.9345      2.5535      0.0269      5.8506     17.5461     78.6115
  3119.2000      7.9345      2.5648      0.0300      5.1611     17.9072     83.4315
  3119.3000      7.9357      2.5841      0.0946      3.9927     17.7695     85.2842
  3119.4000      7.9357      2.5967      0.0812      3.2326     17.1988     81.7061
  3119.5000      7.9384      2.5944      0.0625      3.3674     16.8852     80.6417
  3119.6000      7.9384      2.5952      0.0796      3.3193     16.9421     83.4593
  3119.7000      7.9384      2.6122      0.0680      2.2887     17.2966     82.6107
  3119.8000      7.9405      2.6332      0.1093      1.0181     17.7678     76.2222
  3119.9000      7.9405      2.6414      0.0779      0.5238     17.6637     72.1135
  3120.0000      7.9385      2.6338      0.1032      0.9843     16.7593     74.4788
  3120.1000      7.9385      2.6207      0.0555      1.7767     15.4524     80.2268
  3120.2000      7.9385      2.6151      0.0591      2.1178     14.5360     81.0989
  3120.3000      7.9361      2.6129      0.0749      2.2478     14.9366     73.5057
  3120.4000      7.9361      2.5971      0.0534      3.2047     16.3097     66.1377
  3120.5000      7.9340      2.5694     -0.0029      4.8847     16.9986     63.8046
  3120.6000      7.9340      2.5539      0.0324      5.8244     16.5187     62.1708
  3120.7000      7.9340      2.5552      0.0547      5.7436     15.9227     59.7343
  3120.8000      7.9325      2.5569      0.0279      5.6413     15.8844     59.4977
  3120.9000      7.9325      2.5588      0.0342      5.5302     16.2448     63.0365
  3121.0000      7.9345      2.5677      0.0425      4.9885     16.6546     68.6386
  3121.1000      7.9345      2.5767      0.0481      4.4402     17.0344     69.7110
  3121.2000      7.9345      2.5799      0.0481      4.2515     17.4596     64.0203
  3121.3000      7.9376      2.5758      0.0873      4.4987     17.9708     58.0331
  3121.4000      7.9376      2.5674      0.0456      5.0071     18.1418     56.0734
  3121.5000      7.9363      2.5701      0.0383      4.8446     17.5805     57.0646
  3121.6000      7.9363      2.5859      0.1017      3.8874     16.7440     59.5741
  3121.7000      7.9363      2.5951      0.0833      3.3290     16.3931     62.5465
  3121.8000      7.9341      2.5915      0.0903      3.5476     16.8168     64.8843
  3121.9000      7.9341      2.5838      0.0890      4.0095     17.3053     67.2919
  3122.0000      7.9344      2.5823      0.0665      4.1048     16.8440     68.7733
  3122.1000      7.9344      2.5904      0.0503      3.6147     15.8804     67.9211
  3122.2000      7.9344      2.5989      0.0803      3.0975     15.4868     70.3045
  3122.3000      7.9334      2.6014      0.0647      2.9476     15.9233     76.8708
  3122.4000      7.9334      2.5930      0.1026      3.4524     16.7897     79.2978
  3122.5000      7.9312      2.5695      0.0486      4.8812     17.2160     75.1983
  3122.6000      7.9312      2.5502      0.0398      6.0498     17.1247     68.8741
  3122.7000      7.9312      2.5548      0.0259      5.7685     17.2801     62.9150
  3122.8000      7.9288      2.5744      0.0564      4.5793     17.6842     60.3807
  3122.9000      7.9288      2.5892      0.0726      3.6862     17.6557     65.2648
  3123.0000      7.9276      2.5934      0.0347      3.4285     17.0564     73.3264
  3123.1000      7.9276      2.5944      0.0537      3.3679     16.3896     76.5071
  3123.2000      7.9276      2.5912      0.0499      3.5632     16.1661     75.5974
  3123.3000      7.9317      2.5834      0.0409      4.0386     16.5855     75.5673
  3123.4000      7.9317      2.5811      0.0651      4.1741     17.2355     76.1728
  3123.5000      7.9369      2.5914      0.0182      3.5535     17.4518     74.8273
  3123.6000      7.9369      2.6045      0.1367      2.7572     17.3374     70.1049
  3123.7000      7.9369      2.6075      0.0737      2.5782     17.2144     63.7740
  3123.8000      7.9363      2.6074      0.0773      2.5828     17.1555     60.2528
  3123.9000      7.9363      2.6107      0.0658      2.3819     17.3401     61.5206
  3124.0000      7.9329      2.6132      0.0633      2.2326     17.4582     67.4698
  3124.1000      7.9329      2.6121      0.0904      2.2979     16.8314     75.7143
  3124.2000      7.9329      2.6103      0.0679      2.4056     15.9653     79.7972
  3124.3000      7.9319      2.6073      0.1061      2.5860     15.7316     77.2832
  3124.4000      7.9319      2.5999      0.0355      3.0346     15.8400     74.3749
  3124.5000      7.9330      2.5965      0.0268      3.2426     15.7638     74.8042
  3124.6000      7.9330      2.6003      0.0693      3.0108     15.6780     77.5697
  3124.7000      7.9330      2.6031      0.0494      2.8426     15.9586     82.8877
  3124.8000      7.9335      2.5992      0.0669      3.0768     16.7681     90.3673
  3124.9000      7.9335      2.5917      0.0027      3.5338     17.6537     92.7835
  3125.0000      7.9316      2.5825      0.0490      4.0930     17.8411     85.3190
  3125.1000      7.9316      2.5682      0.0133      4.9598     17.4322     77.8104
  3125.2000      7.9316      2.5627     -0.0071      5.2904     17.2565     75.5593
  3125.3000      7.9286      2.5768      0.0507      4.4346     17.6922     73.3915
  3125.4000      7.9286      2.5919      0.0631      3.5222     18.2750     70.6825
  3125.5000      7.9285      2.5987      0.0500      3.1103     18.1485     69.8949
  3125.6000      7.9285      2.6064      0.0659      2.6399     17.3878     70.3417
  3125.7000      7.9285      2.6070      0.0990      2.6088     16.8975     70.7097
  3125.8000      7.9309      2.5969      0.0067      3.2196     16.8241     73.8847
  3125.9000      7.9309      2.6016      0.0321      2.9339     16.8473     79.5605
  3126.0000      7.9332      2.6228      0.0603      1.6509     17.1182     82.0919
  3126.1000      7.9332      2.6269      0.0731      1.3981     17.6332     79.5976
  3126.2000      7.9332      2.5999      0.0677      3.0358     17.9231     74.0401
  3126.3000      7.9338      2.5578      0.0404      5.5892     17.7323     69.2393
  3126.4000      7.9338      2.5236     -0.0015      7.6590     17.6509     65.7026
  3126.5000      7.9341      2.5151     -0.0285      8.1750     17.8951     60.0639
  3126.6000      7.9341      2.5329      0.0275      7.0976     17.6980     55.5118
  3126.7000      7.9341      2.5628     -0.0021      5.2850     16.6538     56.1752
  3126.8000      7.9341      2.5871      0.0497      3.8143     15.3446     60.7400
  3126.9000      7.9341      2.5942      0.0516      3.3827     14.7420     67.7710
  3127.0000      7.9314      2.5941      0.0714      3.3881     15.2260     74.7359
  3127.1000      7.9314      2.6027      0.0369      2.8651     16.5994     77.7009
  3127.2000      7.9314      2.6188      0.0824      1.8901     17.8343     76.4524
  3127.3000      7.9275      2.6332      0.0553      1.0159     17.5027     73.7181
  3127.4000      7.9275      2.6444      0.0992      0.3392     16.2020     69.5632
  3127.5000      7.9232      2.6573      0.0318     -0.4450     15.5752     63.8426
  3127.6000      7.9232      2.6721      0.1007     -1.3417     15.8499     60.9315
  3127.7000      7.9232      2.6774      0.0877     -1.6580     16.4557     60.9546
  3127.8000      7.9194      2.6739      0.0744     -1.4471     16.9469     60.2165
  3127.9000      7.9194      2.6742      0.1076     -1.4680     17.4206     60.1138
