~Version Information
VERS.                      2.0: CWLS Log ASCII Standard - VERSION 2.0
WRAP.                       NO: One line per depth step
~Well Information Block
STRT.FT               -12.5000: 
STOP.FT              2284.7500: 
STEP.FT                 0.2500: 
NULL.                -999.2500: 
COMP.          Pioneer Natural Resources: COMPANY
WELL.          Hill Climb 22-2: WELL
FLD.           Purgatorie River: FIELD
LOC.           1820' FNL & 2193' FWL--: LOCATION
PROV.                       CO: PROVINCE
CNTY.               Las Animas: COUNTRY
SRVC.                         : SERVICE COMPANY
DATE.          Fri Oct 22 11:44:16 2004: LOG DATE
UWI.                          : UNIQUE WELL ID
~Curve Information Block
DEPT.FT            0 000 00 00: Depth
GR.GAPI                       : Gamma Ray
CCL.                          : Casing Collar Locator
TT3.usec                      : CBL 3' Travel Time
AMP3.mV                       : CBL 3' Amplitude
~Parameter Information Block
~A  Depth        GR         CCL         TT3         AMP3    
# ...
   892.0000    180.7029      0.0000    258.6711     82.2091
   892.2500    175.9463      0.0000    258.6435     82.4869
   892.5000    171.5125      0.0000    258.6495     82.5144
   892.7500    167.1660      0.0000    258.6673     82.4423
   893.0000    162.7627      0.0000    258.6845     82.3582
   893.2500    159.1129      0.0000    258.6937     82.2984
   893.5000    157.3466      0.0000    258.6945     82.2731
   893.7500    157.5562      0.0000    258.6935     82.2865
   894.0000    158.3778      0.0000    258.6956     82.3377
   894.2500    158.2108      0.0000    258.6984     82.4064
   894.5000    156.7953      0.0000    258.6977     82.4549
   894.7500    155.2590      0.0000    258.6935     82.4560
   895.0000    154.6100      0.0000    258.6891     82.4162
   895.2500    154.5899      0.0000    258.6862     82.3679
   895.5000    154.1240      0.0000    258.6857     82.3368
   895.7500    152.5424      0.0000    258.6870     82.3193
   896.0000    150.3351      0.0000    258.6859     82.2968
   896.2500    149.0143      0.0000    258.6758     82.2668
   896.5000    150.3084      0.0000    258.6535     82.2495
   896.7500    155.0675      0.0000    258.6226     82.2615
   897.0000    162.5771      0.0000    258.5908     82.2964
   897.2500    170.8205      0.0000    258.5660     82.3410
   897.5000    177.5258      0.0000    258.5522     82.3975
   897.7500    181.4328      0.0000    258.5483     82.4751
   898.0000    183.0300      0.0000    258.5519     82.5673
   898.2500    184.0459      0.0000    258.5619     82.6484
   898.5000    185.9818      0.0000    258.5768     82.6920
   898.7500    188.9167      0.0000    258.5926     82.6890
   899.0000    191.3027      0.0000    258.6061     82.6484
   899.2500    190.6636      0.0000    258.6187     82.5852
   899.5000    184.8747      0.0000    258.6326     82.5119
   899.7500    173.5829      0.0000    258.6454     82.4436
   900.0000    158.8721      0.0000    258.6522     82.3990
   900.2500    144.4247      0.0000    258.6532     82.3847
   900.5000    133.5764      0.0000    258.6544     82.3819
   900.7500    127.7712      0.0000    258.6625     82.3657
   901.0000    126.5893      0.0000    258.6773     82.3377
   901.2500    128.9114      0.0000    258.6901     82.3272
   901.5000    133.7658      0.0000    258.6900     82.3545
   901.7500    140.0656      0.0000    258.6740     82.4085
   902.0000    146.1596      0.0000    258.6484     82.4642
   902.2500    150.5565      0.0000    258.6194     82.5080
   902.5000    153.2628      0.0000    258.5883     82.5422
   902.7500    155.5846      0.0000    258.5589     82.5721
   903.0000    158.1779      0.0000    258.5425     82.5915
   903.2500    159.9813      0.0000    258.5489     82.5840
   903.5000    159.4783      0.0000    258.5756     82.5417
   903.7500    156.3501      0.0000    258.6118     82.4801
   904.0000    151.4941      0.0000    258.6443     82.4327
   904.2500    145.8497      0.0000    258.6604     82.4309
   904.5000    139.3803      0.0000    258.6547     82.4805
   904.7500    131.1393      0.0000    258.6361     82.5541
   905.0000    120.6393      0.0000    258.6220     82.6082
   905.2500    109.3551      0.0000    258.6223     82.6137
   905.5000    100.4356      0.0000    258.6342     82.5718
   905.7500     96.5521      0.0000    258.6487     82.5050
   906.0000     98.0576      0.0000    258.6581     82.4384
   906.2500    103.1074      0.0000    258.6585     82.3894
   906.5000    109.2779      0.0000    258.6505     82.3697
   906.7500    115.2339      0.0000    258.6370     82.3865
   907.0000    121.1766      0.0000    258.6204     82.4337
   907.2500    127.5826      0.0000    258.6018     82.4911
   907.5000    133.5045      0.0000    258.5836     82.5401
   907.7500    136.6736      0.0000    258.5707     82.5731
   908.0000    135.4593      0.0000    258.5684     82.5891
   908.2500    130.3735      0.0000    258.5781     82.5912
   908.5000    123.8382      0.0000    258.5951     82.5904
   908.7500    118.9952      0.0000    258.6095     82.5959
   909.0000    118.2473      0.0000    258.6129     82.6028
   909.2500    121.9452      0.0000    258.6049     82.5971
   909.5000    128.4356      0.0000    258.5937     82.5708
   909.7500    135.6567      0.0000    258.5882     82.5275
   910.0000    142.2244      0.0000    258.5915     82.4824
   910.2500    146.9668      0.0000    258.6003     82.4589
   910.5000    148.5656      0.0000    258.6093     82.4732
   910.7500    146.5118      0.0000    258.6142     82.5169
   911.0000    141.9588      0.0000    258.6152     82.5644
   911.2500    137.0578      0.0000    258.6153     82.5991
   911.5000    133.5363      0.0000    258.6156     82.6256
   911.7500    131.9588      0.0000    258.6137     82.6571
   912.0000    131.8941      0.0000    258.6091     82.6949
   912.2500    132.5450      0.0000    258.6062     82.7222
   912.5000    133.3035      0.0000    258.6097     82.7160
   912.7500    133.9513      0.0000    258.6190     82.6650
   913.0000    134.8129      0.0000    258.6310     82.5813
   913.2500    136.8910      0.0000    258.6428     82.4940
   913.5000    141.1025      0.0000    258.6529     82.4288
   913.7500    146.8591      0.0000    258.6596     82.3947
   914.0000    152.0599      0.0000    258.6629     82.3852
   914.2500    154.8650      0.0000    258.6638     82.3852
   914.5000    154.7943      0.0000    258.6634     82.3794
   914.7500    152.2082      0.0000    258.6625     82.3618
   915.0000    148.0194      0.0000    258.6638     82.3378
   915.2500    144.1167      0.0000    258.6694     82.3166
   915.5000    142.7593      0.0000    258.6765     82.3085
   915.7500    145.0355      0.0000    258.6780     82.3269
   916.0000    150.4326      0.0000    258.6695     82.3799
   916.2500    157.7179      0.0000    258.6524     82.4592
   916.5000    165.1687      0.0000    258.6333     82.5406
   916.7500    170.1394      0.0000    258.6213     82.5957
   917.0000    170.1415      0.0000    258.6242     82.5986
   917.2500    165.1806      0.0000    258.6425     82.5356
   917.5000    158.0855      0.0000    258.6687     82.4237
   917.7500    152.0074      0.0000    258.6909     82.3127
   918.0000    148.1302      0.0000    258.7000     82.2555
   918.2500    145.5650      0.0000    258.6934     82.2730
   918.5000    142.3781      0.0000    258.6751     82.3460
   918.7500    136.8339      0.0000    258.6538     82.4321
   919.0000    128.7975      0.0000    258.6365     82.4921
   919.2500    120.0930      0.0000    258.6250     82.5129
   919.5000    112.7569      0.0000    258.6161     82.5116
   919.7500    107.0243      0.0000    258.6047     82.5139
   920.0000    101.5480      0.0000    258.5885     82.5296
   920.2500     95.2901      0.0000    258.5732     82.5480
   920.5000     88.6345      0.0000    258.5679     82.5576
   920.7500     82.9171      0.0000    258.5732     82.5646
   921.0000     79.1922      0.0000    258.5779     82.5851
   921.2500     77.2980      0.0000    258.5722     82.6213
   921.5000     75.9570      0.0000    258.5581     82.6534
   921.7500     73.8008      0.0000    258.5425     82.6587
   922.0000     70.3732      0.0000    258.5291     82.6324
   922.2500     66.3497      0.0000    258.5211     82.5848
   922.5000     63.0021      0.0000    258.5239     82.5265
   922.7500     61.5081      0.0000    258.5390     82.4676
   923.0000     62.7294      0.0000    258.5593     82.4262
   923.2500     67.4124      0.0000    258.5758     82.4211
   923.5000     76.1010      0.0000    258.5840     82.4526
   923.7500     88.5025      0.0000    258.5847     82.4986
   924.0000    103.1166      0.0000    258.5805     82.5346
   924.2500    117.8491      0.0000    258.5736     82.5544
   924.5000    131.1100      0.0000    258.5629     82.5707
   924.7500    142.2746      0.0000    258.5472     82.5995
   925.0000    151.1419      0.0000    258.5311     82.6403
   925.2500    157.2518      0.0000    258.5260     82.6715
