~Version Information
VERS.                      2.0: CWLS Log ASCII Standard - VERSION 2.0
WRAP.                       NO: One line per depth step
~Well Information Block
STRT.FT                -2.2500: 
STOP.FT              1676.7500: 
STEP.FT                 0.2500: 
NULL.                -999.2500: 
COMP.          Pioneer Natural Resources: COMPANY
WELL.              Patten 22-2: WELL
FLD.           Purgatoire River: FIELD
LOC.           2157' FNL & 1528' FWL: LOCATION
PROV.                 Colorado: PROVINCE
CNTY.               Las Animas: COUNTRY
SRVC.                Patterson: SERVICE COMPANY
DATE.          Tue Dec 14 11:45:47 2004: LOG DATE
UWI.           05 071 08168 00: UNIQUE WELL ID
~Curve Information Block
DEPT.FT            0 000 00 00: Depth
GR.GAPI                       : Gamma Ray
CCL.                          : Casing Collar Locator
TT3.usec                      : CBL 3' Travel Time
AMP3.mV                       : CBL 3' Amplitude
~Parameter Information Block
~A  Depth        GR         CCL         TT3         AMP3    
    -2.2500   -999.2500   -999.2500   -999.2500   -999.2500
    -2.0000   -999.2500   -999.2500   -999.2500   -999.2500
    -1.7500   -999.2500   -999.2500   -999.2500   -999.2500
    -1.5000   -999.2500   -999.2500   -999.2500   -999.2500
    -1.2500   -999.2500   -999.2500   -999.2500   -999.2500
    -1.0000   -999.2500   -999.2500   1500.0000      3.0615
    -0.7500   -999.2500   -999.2500   1500.0000      3.0541
    -0.5000   -999.2500   -999.2500   1500.0000      3.0524
    -0.2500   -999.2500   -999.2500   1500.0000      3.0595
     0.0000   -999.2500   -999.2500   1500.0000      3.0694
     0.2500   -999.2500   -999.2500   1500.0000      3.0824
     0.5000   -999.2500   -999.2500   1500.0000      3.0911
     0.7500   -999.2500   -999.2500   1500.0000      3.1021
     1.0000   -999.2500   -999.2500   1500.0000      3.1079
     1.2500   -999.2500   -999.2500   1500.0000      3.0997
     1.5000   -999.2500   -999.2500   1500.0000      3.0747
     1.7500   -999.2500   -999.2500   1500.0000      3.0400
     2.0000   -999.2500   -999.2500   1500.0000      3.0084
     2.2500   -999.2500   -999.2500   1500.0000      2.9908
     2.5000   -999.2500   -999.2500   1500.0000      2.9911
     2.7500   -999.2500   -999.2500   1500.0000      3.0042
     3.0000   -999.2500   -999.2500   1500.0000      3.0188
     3.2500   -999.2500   -999.2500   1500.0000      3.0273
     3.5000   -999.2500   -999.2500   1500.0000      3.0357
     3.7500   -999.2500   -999.2500   1500.0000      3.0574
     4.0000   -999.2500      0.0000   1500.0000      3.0964
     4.2500   -999.2500      0.0000   1500.0000      3.1391
     4.5000   -999.2500      0.0000   1500.0000      3.1654
     4.7500   -999.2500      0.0000   1500.0000      3.1636
     5.0000   -999.2500      0.0000   1500.0000      3.1352
     5.2500   -999.2500      0.0000   1500.0000      3.0891
     5.5000   -999.2500      0.0000   1500.0000      3.0349
     5.7500   -999.2500      0.0000   1500.0000      2.9815
     6.0000   -999.2500      0.0000   1500.0000      2.9381
     6.2500   -999.2500      0.0000   1500.0000      2.9137
     6.5000   -999.2500      0.0000   1500.0000      2.9131
     6.7500   -999.2500      0.0000   1500.0000      2.9349
     7.0000   -999.2500      0.0000   1500.0000      2.9728
     7.2500   -999.2500      0.0000   1500.0000      3.0193
     7.5000   -999.2500      0.0000   1500.0000      3.0668
     7.7500   -999.2500      0.0000   1500.0000      3.1076
     8.0000   -999.2500      0.0000   1500.0000      3.1343
     8.2500   -999.2500      0.0000   1500.0000      3.1417
     8.5000   -999.2500      0.0000   1500.0000      3.1289
     8.7500     83.2678      0.0000   1500.0000      3.1010
     9.0000     81.9074      0.0000   1500.0000      3.0687
     9.2500     81.7385      0.0000   1500.0000      3.0424
     9.5000     82.0027      0.0000   1499.9828      3.0235
     9.7500     82.1651      0.0000   1499.8873      3.0020
    10.0000     82.4723      0.0000   1499.4158      2.9655
    10.2500     83.5218      0.0000   1497.6171      2.9096
    10.5000     85.1995      0.0000   1492.2767      2.8481
    10.7500     86.3248      0.0000   1479.7021      2.8183
    11.0000     85.5885      0.0000   1455.1041      2.9255
    11.2500     82.7449      0.0000   1411.9884      3.4790
    11.5000     78.7942      0.0000   1339.1573      5.2190
    11.7500     75.1403      0.0000   1220.6547      9.3754
    12.0000     72.6166      0.0000   1047.3044     17.0954
    12.2500     71.1428      0.0000    834.1243     28.2733
    12.5000     70.1665      0.0000    621.6671     40.8930
    12.7500     69.3782      0.0000    452.6990     52.0038
    13.0000     68.9706      0.0000    346.1187     59.6298
    13.2500     69.2718      0.0000    292.9644     63.7014
    13.5000     70.2729      0.0000    272.0574     65.3828
    13.7500     71.5145      0.0000    265.5891     65.9263
    14.0000     72.3564      0.0000    264.0073     66.1104
    14.2500     72.3694      0.0000    263.6864     66.2707
    14.5000     71.5790      0.0000    263.6099     66.4942
    14.7500     70.3298      0.0000    263.5751     66.7512
    15.0000     68.8855      0.0000    263.5567     66.9844
    15.2500     67.2542      0.0000    263.5577     67.1828
    15.5000     65.4984      0.0000    263.5639     67.4039
    15.7500     64.1021      0.0000    263.5613     67.7003
    16.0000     63.7329      0.0000    263.5557     68.0367
    16.2500     64.4785      0.0000    263.5661     68.3132
    16.5000     65.5706      0.0000    263.5979     68.4731
    16.7500     66.2992      0.0000    263.6344     68.5554
    17.0000     67.1826      0.0000    263.6559     68.6218
    17.2500     69.7639      0.0000    263.6646     68.6627
    17.5000     74.9521      0.0000    263.6879     68.6005
    17.7500     81.7836      0.0000    263.7955     68.3199
    18.0000     88.1274      0.0000    264.1651     67.5973
    18.2500     92.4405      0.0000    265.1849     65.9941
    18.5000     94.6388      0.0000    267.4350     63.0235
    18.7500     95.6842      0.0000    271.3955     58.6569
    19.0000     96.8089      0.0000    277.0417     53.6526
    19.2500     98.7810      0.0000    283.7698     49.1203
    19.5000    101.1810      0.0000    290.7233     45.6971
    19.7500    102.2749      0.0000    297.0717     43.3260
    20.0000    100.2102      0.0000    302.1035     41.7218
    20.2500     94.8652     -2.0000    305.4240     40.7107
    20.5000     88.4437      2.0000    307.1621     40.1664
    20.7500     83.8491      0.0000    307.7929     39.9534
    21.0000     82.2645     -2.0000    307.6824     40.0219
    21.2500     82.4810      0.0000    306.7617     40.5134
    21.5000     82.5856      0.0000    304.5506     41.7771
    21.7500     81.8834      0.0000    300.5327     44.2089
    22.0000     81.0728      0.0000    294.6682     47.8886
    22.2500     81.1849      0.0000    287.6099     52.3454
    22.5000     82.8075      0.0000    280.4017     56.8277
    22.7500     85.8202      0.0000    274.0278     60.7721
    23.0000     89.2490      0.0000    269.1536     63.9427
    23.2500     91.5704      0.0000    265.9975     66.2895
    23.5000     91.7316      0.0000    264.3121     67.8624
    23.7500     90.0401      0.0000    263.5864     68.8105
    24.0000     87.9651      0.0000    263.3399     69.3516
    24.2500     87.0359      0.0000    263.2751     69.7061
    24.5000     87.8901      0.0000    263.2609     70.0300
    24.7500     90.1752      0.0000    263.2553     70.3920
    25.0000     93.0613      0.0000    263.2475     70.7987
    25.2500     95.7543      0.0000    263.2291     71.2372
    25.5000     97.7592      0.0000    263.2002     71.6810
    25.7500     98.8926      0.0000    263.1711     72.0946
    26.0000     99.1174      0.0000    263.1482     72.4676
    26.2500     98.5085      0.0000    263.1222     72.8388
    26.5000     97.5411      0.0000    263.0810     73.2486
    26.7500     97.2246      0.0000    263.0347     73.6585
    27.0000     98.5139      0.0000    263.0139     73.9585
    27.2500    101.1975      0.0000    263.0372     74.0786
    27.5000    103.4916      0.0000    263.0882     74.0681
    27.7500    103.2460      0.0000    263.1345     74.0395
    28.0000     99.7586      0.0000    263.1600     74.0566
    28.2500     94.1395      0.0000    263.1696     74.1091
    28.5000     87.9955      0.0000    263.1701     74.1747
    28.7500     82.2975      0.0000    263.1642     74.2579
    29.0000     77.4524      0.0000    263.1585     74.3594
    29.2500     73.8099      0.0000    263.1626     74.4536
    29.5000     71.8106      0.0000    263.1750     74.5168
    29.7500     71.7884      0.0000    263.1821     74.5576
    30.0000     73.6844      0.0000    263.1760     74.6009
    30.2500     76.9115      0.0000    263.1648     74.6613
    30.5000     80.4612      0.0000    263.1593     74.7471
    30.7500     83.2749      0.0000    263.1574     74.8697
    31.0000     84.8374      0.0000    263.1480     75.0277
