~Version Information
VERS.                      2.0: CWLS Log ASCII Standard - VERSION 2.0
WRAP.                       NO: One line per depth step
~Well Information Block
STRT.FT                -7.7500: 
STOP.FT              1532.2500: 
STEP.FT                 0.2500: 
NULL.                -999.2500: 
COMP.          Pioneer Natural Resources: COMPANY
WELL.          Big Cat Federal 44-1: WELL
FLD.           Purgatorie River: FIELD
LOC.           197' FSL & 973' FEL--: LOCATION
CNTY.               Las Animas: COUNTY
SRVC.          Patterson Wireline: SERVICE COMPANY
DATE.          Fri Apr 28 12:21:06 2006: LOG DATE
UWI.           05 071 08042 00: UNIQUE WELL ID
STAT.                       CO: STATE
~Curve Information Block
DEPT.FT            0 000 00 00: Depth
CCL.                          : Casing Collar Locator
TT3.usec                      : CBL 3' Travel Time
AMP3.mV                       : CBL 3' Amplitude
GR.GAPI                       : Gamma Ray
~Parameter Information Block
~A  Depth       CCL         TT3         AMP3         GR     
# ...
  1298.7500      0.0000    602.1809     15.1871    124.3008
  1299.0000      0.0000    616.9810     14.7899    130.7541
  1299.2500      0.0000    610.2612     14.2558    135.3327
  1299.5000      0.0000    598.6514     13.6231    136.7214
  1299.7500      0.0000    602.8561     12.9522    134.3158
  1300.0000      0.0000    629.0994     12.3013    128.1378
  1300.2500      0.0000    665.6083     11.7121    119.0430
  1300.5000      0.0000    696.4823     11.2045    109.0452
  1300.7500      0.0000    714.5257     10.7819    100.7653
  1301.0000      0.0000    721.5585     10.4397     95.9866
  1301.2500      0.0000    722.1880     10.1744     94.6122
  1301.5000      0.0000    719.8026      9.9860     95.0580
  1301.7500      0.0000    716.3436      9.8739     95.6624
  1302.0000      0.0000    712.9510      9.8269     95.7509
  1302.2500      0.0000    710.1604      9.8189     95.4830
  1302.5000      0.0000    708.3825      9.8174     95.0197
  1302.7500      0.0000    708.5735      9.7975     94.2650
  1303.0000      0.0000    711.5703      9.7507     93.2001
  1303.2500      0.0000    716.3196      9.6830     91.9004
  1303.5000      0.0000    719.7650      9.6064     90.3289
  1303.7500      0.0000    719.3922      9.5277     88.6642
  1304.0000      0.0000    715.5974      9.4453     87.6016
  1304.2500      0.0000    711.0463      9.3576     87.7152
  1304.5000      0.0000    707.9885      9.2710     88.6889
  1304.7500      0.0000    706.8918      9.1993     89.6339
  1305.0000      0.0000    707.5759      9.1541     90.0598
  1305.2500      0.0000    710.3865      9.1373     90.3142
  1305.5000      0.0000    715.3994      9.1389     91.1720
  1305.7500      0.0000    721.1272      9.1458     93.1367
  1306.0000      0.0000    724.8833      9.1495     96.1402
  1306.2500      0.0000    724.4985      9.1467     99.6795
  1306.5000      0.0000    719.7784      9.1333    102.7879
  1306.7500      0.0000    712.5789      9.1025    103.9968
  1307.0000      0.0000    705.6960      9.0476    102.0333
  1307.2500      0.0000    701.4379      8.9655     96.8694
  1307.5000      0.0000    700.1506      8.8600     89.8341
  1307.7500      0.0000    698.6195      8.7421     82.7640
  1308.0000      0.0000    690.5298      8.6208     77.2963
  1308.2500      0.0000    671.7236      8.4839     74.4946
  1308.5000      0.0000    647.1868      8.2934     74.3384
  1308.7500      0.0000    630.9060      8.0156     75.6047
  1309.0000      0.0000    635.3594      7.6736     76.7655
  1309.2500      0.0000    660.6189      7.3623     77.0832
  1309.5000      0.0000    694.4924      7.1887     76.7506
  1309.7500      0.0000    722.0425      7.1908     76.1888
  1310.0000      0.0000    734.7823      7.3177     75.5136
  1310.2500     -2.0000    734.2729      7.4848     74.7247
  1310.5000      2.0000    729.5055      7.6339     74.0988
  1310.7500      0.0000    729.2709      7.7459     74.1042
  1311.0000      0.0000    735.1340      7.8278     75.0133
  1311.2500      0.0000    741.7947      7.9093     76.8700
  1311.5000      0.0000    743.8595      8.0353     79.6801
  1311.7500      0.0000    740.8821      8.2347     83.1925
  1312.0000      0.0000    736.2162      8.4977     86.4342
  1312.2500      0.0000    733.0126      8.7963     87.9417
  1312.5000      0.0000    732.4528      9.1084     86.8416
  1312.7500      0.0000    734.5966      9.4141     83.5978
  1313.0000      0.0000    738.9994      9.6899     79.5568
  1313.2500      0.0000    744.4367      9.9219     75.9480
  1313.5000      0.0000    749.2758     10.1134     73.4506
  1313.7500      0.0000    752.5432     10.2706     72.4686
  1314.0000      0.0000    754.2900     10.3818     73.3129
  1314.2500      0.0000    755.0760     10.4137     75.8028
  1314.5000      0.0000    755.4208     10.3374     78.9001
  1314.7500      0.0000    755.6309     10.1651     81.0897
  1315.0000      0.0000    755.8188      9.9596     81.1828
  1315.2500      0.0000    755.9872      9.8011     78.8484
  1315.5000      0.0000    756.1346      9.7443     74.7554
  1315.7500      0.0000    756.2905      9.8046     70.3527
  1316.0000      0.0000    756.4444      9.9723     67.3178
  1316.2500      0.0000    756.4386     10.2300     67.0907
  1316.5000      0.0000    755.9313     10.5575     70.6158
  1316.7500      0.0000    754.5240     10.9271     77.8644
  1317.0000      0.0000    752.0945     11.3043     87.2656
  1317.2500      0.0000    749.0601     11.6587     95.9418
  1317.5000      0.0000    745.8342     11.9783    101.0967
  1317.7500      0.0000    741.3262     12.2774    101.5730
  1318.0000      0.0000    731.3597     12.5891     98.3393
  1318.2500      0.0000    708.6054     12.9434     93.8730
  1318.5000      0.0000    666.1602     13.3428     91.0730
  1318.7500      0.0000    604.8502     13.7491     91.9167
  1319.0000      0.0000    538.6636     14.0834     96.2660
  1319.2500      0.0000    490.0018     14.2491    101.9955
  1319.5000      0.0000    475.8817     14.1741    106.6623
  1319.7500      0.0000    497.6412     13.8506    108.9261
  1320.0000      0.0000    543.5352     13.3390    108.4353
  1320.2500      0.0000    598.9771     12.7318    105.2406
  1320.5000      0.0000    652.7766     12.1095    100.0507
  1320.7500      0.0000    697.1304     11.5218     94.6818
  1321.0000      0.0000    727.5656     10.9945     91.5202
  1321.2500      0.0000    744.3414     10.5404     92.2090
  1321.5000      0.0000    751.5692     10.1634     96.6366
  1321.7500      0.0000    754.0134      9.8599    102.8303
  1322.0000      0.0000    754.9255      9.6195    107.8926
  1322.2500      0.0000    756.1531      9.4280    109.6221
  1322.5000      0.0000    759.2158      9.2704    107.5973
  1322.7500      0.0000    765.9217      9.1332    102.8128
  1323.0000      0.0000    777.8894      9.0040     96.6676
  1323.2500      0.0000    794.9495      8.8722     90.4591
  1323.5000      0.0000    814.1462      8.7304     85.1833
  1323.7500      0.0000    831.0309      8.5788     81.1715
  1324.0000      0.0000    842.4109      8.4273     77.8644
  1324.2500      0.0000    847.7308      8.2939     74.1149
  1324.5000      0.0000    848.1208      8.1956     69.0970
  1324.7500      0.0000    844.8471      8.1402     63.3379
  1325.0000      0.0000    838.4846      8.1262     58.6845
  1325.2500      0.0000    828.6288      8.1490     56.7806
  1325.5000      0.0000    814.3690      8.2040     57.6549
  1325.7500      0.0000    796.3755      8.2815     59.8830
  1326.0000      0.0000    778.8521      8.3621     61.6734
  1326.2500      0.0000    767.6161      8.4201     61.6839
  1326.5000      0.0000    765.0941      8.4320     59.6362
  1326.7500      0.0000    768.2768      8.3873     56.7695
  1327.0000      0.0000    772.2849      8.2975     55.2672
  1327.2500      0.0000    774.5843      8.1951     56.6619
  1327.5000      0.0000    775.1053      8.1181     60.7947
  1327.7500      0.0000    773.9891      8.0925     66.1870
  1328.0000      0.0000    770.6960      8.1235     71.0328
  1328.2500      0.0000    764.6854      8.1962     73.9409
  1328.5000      0.0000    755.9717      8.2817     74.1950
  1328.7500      0.0000    745.3513      8.3513     71.6822
  1329.0000      0.0000    734.9489      8.3904     67.0114
  1329.2500      0.0000    728.2228      8.3994     61.7935
  1329.5000      0.0000    727.9532      8.3824     58.1047
  1329.7500      0.0000    733.6218      8.3402     57.1914
  1330.0000      0.0000    741.4302      8.2762     58.9497
  1330.2500      0.0000    747.1174      8.2037     62.4722
  1330.5000      0.0000    748.4512      8.1402     66.5057
  1330.7500      0.0000    745.6268      8.0966     69.6626
  1331.0000      0.0000    740.3849      8.0706     71.0600
  1331.2500      0.0000    734.6475      8.0503     70.9406
  1331.5000      0.0000    729.4172      8.0243     70.3907
  1331.7500      0.0000    725.2153      7.9900     70.2747
  1332.0000      0.0000    723.4520      7.9528     70.5068
