~Version Information
VERS.                      2.0: CWLS Log ASCII Standard - VERSION 2.0
WRAP.                       NO: One line per depth step
~Well Information Block
STRT.FT               480.0000: 
STOP.FT              1629.0000: 
STEP.FT                 0.2500: 
NULL.                -999.2500: 
COMP.          Pioneer Natural Resources: COMPANY
WELL.          Dude Canyon 22-32 Tr: WELL
FLD.           Purgatoire River: FIELD
LOC.           1741' FNL & 2331' FWL: LOCATION
PROV.                 Colorado: PROVINCE
CNTY.               Las Animas: COUNTRY
SRVC.                Patterson: SERVICE COMPANY
DATE.          Sat Jul 09 01:36:28 2005: LOG DATE
UWI.           05 071 08421 00: UNIQUE WELL ID
~Curve Information Block
DEPT.FT            0 000 00 00: Depth
SN.Ohm-m                      : IEL Short Normal
SP.mV                         : IEL Spontaneous Potential
DIR.Ohm-m                     : IEL Induction Resistivity
GR.GAPI                       : Gamma Ray
~Parameter Information Block
~A  Depth        SN          SP         DIR          GR     
# ...
  1585.5000     11.6024     95.5394      9.7044    151.5117
  1585.7500     11.6241     95.8119      9.7378    148.9110
  1586.0000     11.4521     96.1049      9.7980    144.8883
  1586.2500     11.1233     96.3917      9.8741    142.7882
  1586.5000     10.6955     96.6415      9.9548    140.6586
  1586.7500     10.2100     96.8407     10.0293    139.6058
  1587.0000      9.7549     97.0064     10.0899    138.1498
  1587.2500      9.4457     97.1748     10.1344    137.2945
  1587.5000      9.3812     97.3744     10.1668    136.4625
  1587.7500      9.6246     97.6070     10.1941    136.3187
  1588.0000     10.1766     97.8491     10.2217    136.9926
  1588.2500     10.9328     98.0664     10.2526    138.3971
  1588.5000     11.6617     98.2260     10.2885    142.4695
  1588.7500     12.1149     98.2985     10.3318    146.3210
  1589.0000     12.1864     98.2600     10.3839    152.4888
  1589.2500     11.9236     98.1014     10.4416    155.8690
  1589.5000     11.4558     97.8347     10.4941    158.7004
  1589.7500     10.9469     97.4874     10.5240    159.0068
  1590.0000     10.5448     97.0927     10.5115    157.5243
  1590.2500     10.3238     96.6822     10.4411    155.4535
  1590.5000     10.2674     96.2811     10.3072    151.1251
  1590.7500     10.3199     95.9009     10.1181    147.9973
  1591.0000     10.4408     95.5381      9.8942    144.2668
  1591.2500     10.5899     95.1794      9.6644    142.8687
  1591.5000     10.7149     94.8074      9.4601    142.3033
  1591.7500     10.7915     94.4014      9.3094    142.7157
  1592.0000     10.8380     93.9409      9.2320    144.2767
  1592.2500     10.8641     93.4150      9.2373    145.7707
  1592.5000     10.8224     92.8384      9.3251    148.0141
  1592.7500     10.6673     92.2659      9.4892    149.0268
  1593.0000     10.4660     91.7881      9.7185    149.5447
  1593.2500     10.3560     91.4894      9.9959    149.5245
  1593.5000     10.4071     91.3813     10.2954    149.4369
  1593.7500     10.5904     91.3721     10.5851    148.9432
  1594.0000     10.8125     91.3204     10.8363    145.7131
  1594.2500     10.9583     91.1326     11.0359    141.0472
  1594.5000     10.9910     90.8115     11.1906    130.6978
  1594.7500     11.0313     90.4246     11.3206    122.7448
  1595.0000     11.3152     90.0419     11.4461    111.3396
  1595.2500     12.1014     89.6943     11.5801    104.7981
  1595.5000     13.5108     89.3657     11.7276     97.1566
  1595.7500     15.2651     89.0097     11.8906     93.9401
  1596.0000     16.7015     88.5772     12.0717     93.0869
  1596.2500     17.3269     88.0385     12.2740     95.5730
  1596.5000     17.2163     87.3890     12.4984    103.0447
  1596.7500     16.7084     86.6377     12.7408    109.2870
  1597.0000     16.0167     85.7890     12.9923    118.6939
  1597.2500     15.2430     84.8381     13.2411    124.6230
  1597.5000     14.5225     83.7859     13.4747    132.9339
  1597.7500     13.9993     82.6683     13.6781    137.6316
  1598.0000     13.7195     81.5928     13.8295    141.5674
  1598.2500     13.6462     80.7792     13.9017    141.0445
  1598.5000     13.7415     80.5542     13.8749    135.2082
  1598.7500     13.9740     81.2226     13.7554    128.8400
  1599.0000     14.2811     82.8298     13.5805    118.0581
  1599.2500     14.5581     85.0212     13.4050    111.4697
  1599.5000     14.7243     87.1949     13.2791    104.3674
  1599.7500     14.8027     88.8542     13.2351    102.2139
  1600.0000     14.8655     89.8400     13.2872    103.3246
  1600.2500     14.9638     90.2824     13.4375    106.6367
  1600.5000     15.1364     90.4052     13.6803    113.8283
  1600.7500     15.3419     90.3824     14.0016    118.8851
  1601.0000     15.4335     90.3036     14.3755    125.4289
  1601.2500     15.3146     90.2001     14.7639    128.8430
  1601.5000     15.0616     90.0776     15.1194    132.3980
  1601.7500     14.8373     89.9359     15.3945    133.4502
  1602.0000     14.7010     89.7726     15.5543    132.5239
  1602.2500     14.5799     89.5828     15.5875    130.2510
  1602.5000     14.4440     89.3641     15.5099    125.1585
  1602.7500     14.3775     89.1260     15.3554    121.3575
  1603.0000     14.4520     88.8918     15.1618    116.0279
  1603.2500     14.6664     88.6907     14.9591    112.9157
  1603.5000     14.9820     88.5423     14.7655    108.8046
  1603.7500     15.2686     88.4446     14.5881    106.4308
  1604.0000     15.3235     88.3731     14.4283    103.9137
  1604.2500     15.0684     88.2932     14.2838    103.5016
  1604.5000     14.6337     88.1763     14.1485    105.7211
  1604.7500     14.2341     88.0119     14.0086    109.1809
  1605.0000     13.9914     87.8073     13.8422    116.3712
  1605.2500     13.8542     87.5792     13.6224    121.5638
  1605.5000     13.6629     87.3402     13.3271    128.3987
  1605.7500     13.3017     87.0883     12.9503    131.6237
  1606.0000     12.8131     86.8051     12.5076    133.9694
  1606.2500     12.3349     86.4642     12.0324    134.2219
  1606.5000     11.9487     86.0456     11.5645    134.1173
  1606.7500     11.6721     85.5474     11.1378    134.5174
  1607.0000     11.5316     84.9848     10.7747    136.0874
  1607.2500     11.5293     84.3772     10.4868    137.3619
  1607.5000     11.5632     83.7344     10.2763    138.8677
  1607.7500     11.4926     83.0535     10.1387    139.5280
  1608.0000     11.2863     82.3244     10.0660    140.3639
  1608.2500     11.0306     81.5364     10.0509    140.9858
  1608.5000     10.8278     80.6822     10.0897    141.5437
  1608.7500     10.7369     79.7624     10.1816    140.5164
  1609.0000     10.7675     78.7963     10.3237    132.9430
  1609.2500     10.8674     77.8421     10.5057    121.2345
  1609.5000     10.9916     77.0100     10.7113     92.5406
  1609.7500     11.2027     76.4303     10.9247     68.9774
  1610.0000     11.5790     76.1646     11.1404     36.1256
  1610.2500     12.0912     76.1359     11.3673     20.1525
  1610.5000     12.6476     76.1662     11.6237      6.5556
  1610.7500     13.1679     76.0903     11.9278      2.6078
  1611.0000     13.6354     75.8225     12.2907      0.4983
  1611.2500     14.1220     75.3346     12.7170      0.1358
  1611.5000     14.6904     74.6208     13.2101      0.0120
  1611.7500     15.2785     73.7001     13.7749      0.0000
  1612.0000     15.7409     72.6222     14.4092   -999.2500
  1612.2500     16.0012     71.4469     15.0905   -999.2500
  1612.5000     16.1716     70.2171     15.7722   -999.2500
  1612.7500     16.4880     68.9485     16.4037   -999.2500
  1613.0000     17.1037     67.6361     16.9629   -999.2500
  1613.2500     17.9815     66.2660     17.4735   -999.2500
  1613.5000     18.9761     64.8238     17.9859   -999.2500
  1613.7500     20.0111     63.2925     18.5417   -999.2500
  1614.0000     21.1513     61.6431     19.1512   -999.2500
  1614.2500     22.5454     59.8309     19.7916   -999.2500
  1614.5000     24.3607     57.8018     20.4163   -999.2500
  1614.7500     26.6690     55.5059     20.9587   -999.2500
  1615.0000     29.3562     52.9060     21.3317   -999.2500
  1615.2500     32.1365     49.9773     21.4445   -999.2500
  1615.5000     34.5566     46.6970     21.2451   -999.2500
  1615.7500     36.0641     43.0283     20.7625   -999.2500
  1616.0000     36.2077     38.9064     19.8971   -999.2500
  1616.2500     34.8510     34.2538     19.1879   -999.2500
  1616.5000     32.2324     29.0565     18.4988   -999.2500
  1616.7500     28.8101     23.5048     17.8521   -999.2500
  1617.0000     25.0970     18.1051     17.2316   -999.2500
  1617.2500     21.5971     13.6167     16.6155   -999.2500
  1617.5000     18.7159     10.7654     16.0016   -999.2500
  1617.7500     16.5976      9.9197     15.4094   -999.2500
  1618.0000     15.0972     11.0021     14.8709   -999.2500
  1618.2500     14.0070     13.7043     14.4252   -999.2500
  1618.5000     13.2275     17.7914     14.1294   -999.2500
  1618.7500     12.7196     23.2480     14.0795   -999.2500
