~Version Information
VERS.                      2.0: CWLS Log ASCII Standard - VERSION 2.0
WRAP.                       NO: One line per depth step
~Well Information Block
STRT.FT               395.0000: 
STOP.FT              1998.0000: 
STEP.FT                 0.1000: 
NULL.                -999.2500: 
COMP.          Pioneer Natural Resources: COMPANY
WELL.          Easton 12-30 Tr: WELL
FLD.           Purgatoire River: FIELD
LOC.           549' FWL & 2416' FNL--: LOCATION
PROV.                 Colorado: PROVINCE
CNTY.               Las Animas: COUNTRY
SRVC.                Patterson: SERVICE COMPANY
DATE.          Thu Jun 02 09:14:44 2005: LOG DATE
UWI.           05 071 08379 00: UNIQUE WELL ID
~Curve Information Block
DEPT.FT            0 000 00 00: Depth
DCAL.in                       : CDL Caliper
RHOB.g/cc                     : CDL Bulk Density
RHOC.g/cc                     : CDL Density Correction
DPOR.pu                       : CDL Density Porosity
NPOR.pu                       : Neutron Porosity
GR.GAPI                       : Gamma Ray
~Parameter Information Block
~A  Depth       DCAL        RHOB        RHOC        DPOR        NPOR         GR     
# ...
  1230.2000      8.1238      2.5428      0.0728      6.4988     27.7450    117.7226
  1230.3000      8.1314      2.5105      0.0297      8.4530     27.6643    114.9500
  1230.4000      8.1314      2.4662      0.0402     11.1376     26.9203    116.2832
  1230.5000      8.1397      2.4154     -0.0269     14.2205     25.9219    122.2731
  1230.6000      8.1397      2.3458     -0.0017     18.4359     24.7575    125.2400
  1230.7000      8.1397      2.2467     -0.0395     24.4438     23.1898    121.9357
  1230.8000      8.1438      2.1307     -0.1009     31.4719     21.4597    117.0456
  1230.9000      8.1438      2.0087     -0.0664     38.8638     19.8223    113.1615
  1231.0000      8.1490      1.8885     -0.1506     46.1490     17.9320    105.9166
  1231.1000      8.1490      1.7974     -0.1676     51.6713     15.6509     96.5845
  1231.2000      8.1490      1.7453     -0.0868     54.8278     13.4498     92.9521
  1231.3000      8.1626      1.7143     -0.0495     56.7072     11.5928     94.1769
  1231.4000      8.1626      1.7059     -0.0558     57.2176     10.0445     94.3707
  1231.5000      8.1772      1.7333      0.0721     55.5556      8.9711     93.4607
  1231.6000      8.1772      1.7867      0.1434     52.3215      8.4635     95.3474
  1231.7000      8.1772      1.8540      0.1859     48.2407      8.2587     99.0521
  1231.8000      8.1779      1.9380      0.2593     43.1544      8.1810     98.0345
  1231.9000      8.1779      2.0378      0.3209     37.1017      8.3507     93.3269
  1232.0000      8.1682      2.1390      0.3253     30.9676      8.8892     92.4127
  1232.1000      8.1682      2.2224      0.2914     25.9147      9.8193     95.7891
  1232.2000      8.1682      2.2853      0.2090     22.1027     11.0211     99.8442
  1232.3000      8.1634      2.3369      0.1910     18.9745     12.1505    103.3836
  1232.4000      8.1634      2.3763      0.1401     16.5886     13.0207    105.9847
  1232.5000      8.1656      2.4004      0.0779     15.1272     13.7774    108.8863
  1232.6000      8.1656      2.4057      0.1414     14.8044     14.4027    114.2316
  1232.7000      8.1656      2.3884      0.1242     15.8572     14.8641    120.5562
  1232.8000      8.1684      2.3591      0.1400     17.6296     15.3773    124.0601
  1232.9000      8.1684      2.3295      0.0966     19.4225     16.0341    123.4528
  1233.0000      8.1678      2.2990      0.0570     21.2738     16.4610    123.7948
  1233.1000      8.1678      2.2623      0.0709     23.4992     16.3289    129.8318
  1233.2000      8.1678      2.2182      0.0491     26.1686     15.9090    135.7067
  1233.3000      8.1659      2.1681      0.0548     29.2054     15.6573    133.3194
  1233.4000      8.1659      2.1151      0.0295     32.4211     15.4843    125.0434
  1233.5000      8.1650      2.0690      0.0267     35.2094     15.0685    117.3184
  1233.6000      8.1650      2.0381      0.0345     37.0864     14.5371    112.0647
  1233.7000      8.1650      2.0263     -0.0077     37.8007     14.1173    109.9852
  1233.8000      8.1644      2.0401      0.0017     36.9661     13.8796    112.6288
  1233.9000      8.1644      2.0731      0.0682     34.9664     13.6311    115.7814
  1234.0000      8.1642      2.1076      0.0967     32.8737     12.9456    115.0702
  1234.1000      8.1642      2.1311      0.1572     31.4490     11.9626    113.8627
  1234.2000      8.1642      2.1387      0.1711     30.9887     11.5042    115.5681
  1234.3000      8.1664      2.1341      0.1908     31.2662     12.0679    118.2170
  1234.4000      8.1664      2.1252      0.1643     31.8046     13.2682    118.0392
  1234.5000      8.1675      2.1261      0.0757     31.7525     14.2730    115.0743
  1234.6000      8.1675      2.1577      0.0405     29.8351     14.7148    113.4377
  1234.7000      8.1675      2.2198      0.0969     26.0706     14.8569    114.0736
  1234.8000      8.1666      2.2784      0.1424     22.5234     15.2471    114.0786
  1234.9000      8.1666      2.3063      0.1242     20.8315     16.0115    113.4239
  1235.0000      8.1670      2.3125      0.0786     20.4534     16.6655    113.5900
  1235.1000      8.1670      2.3170      0.1179     20.1797     17.0549    112.9549
  1235.2000      8.1670      2.3268      0.1329     19.5904     17.5498    111.3308
  1235.3000      8.1682      2.3466      0.1035     18.3867     18.1730    112.4933
  1235.4000      8.1682      2.3798      0.0752     16.3746     18.5596    117.0229
  1235.5000      8.1688      2.4110      0.0721     14.4841     18.7630    122.5358
  1235.6000      8.1688      2.4181      0.0791     14.0529     18.8407    126.8852
  1235.7000      8.1688      2.4015      0.0256     15.0589     18.5184    127.4324
  1235.8000      8.1699      2.3771      0.0622     16.5382     17.9765    124.8093
  1235.9000      8.1699      2.3538      0.0566     17.9501     17.6599    124.1067
  1236.0000      8.1718      2.3375      0.0788     18.9399     17.6400    127.2123
  1236.1000      8.1718      2.3268      0.0949     19.5863     17.8515    130.4006
  1236.2000      8.1718      2.3081      0.0898     20.7196     17.8793    130.2805
  1236.3000      8.1741      2.2722      0.0676     22.8955     17.3655    127.7755
  1236.4000      8.1741      2.2271      0.0718     25.6278     16.7809    126.2608
  1236.5000      8.1765      2.1932      0.0192     27.6874     16.5230    125.8950
  1236.6000      8.1765      2.1858      0.0407     28.1348     16.3353    125.5306
  1236.7000      8.1765      2.1983      0.0838     27.3782     15.9979    125.9892
  1236.8000      8.1771      2.2128      0.1636     26.4959     15.6675    126.6637
  1236.9000      8.1771      2.2221      0.1662     25.9309     15.5930    127.6755
  1237.0000      8.1769      2.2328      0.1199     25.2853     15.7486    130.9838
  1237.1000      8.1769      2.2490      0.1166     24.3059     15.8191    132.8108
  1237.2000      8.1769      2.2540      0.1024     23.9974     15.9101    129.1891
  1237.3000      8.1796      2.2242      0.1254     25.8039     16.2387    123.6084
  1237.4000      8.1796      2.1581      0.0581     29.8110     16.4746    119.4687
  1237.5000      8.1846      2.0761      0.0220     34.7837     16.2153    116.0374
  1237.6000      8.1846      1.9908     -0.1075     39.9500     15.4437    112.2657
  1237.7000      8.1846      1.8999     -0.1022     45.4588     14.5812    108.3344
  1237.8000      8.1921      1.8053     -0.1338     51.1927     13.8634    105.3597
  1237.9000      8.1921      1.7232     -0.1440     56.1675     13.0052    102.1763
  1238.0000      8.2019      1.6614     -0.0417     59.9170     11.8018     95.5890
  1238.1000      8.2019      1.6134     -0.0545     62.8233     10.6323     85.4062
  1238.2000      8.2019      1.5826      0.0056     64.6883      9.8700     78.4322
  1238.3000      8.2089      1.5741      0.0942     65.2049      9.4568     80.7319
  1238.4000      8.2089      1.5856      0.0780     64.5092      9.2066     88.1326
  1238.5000      8.2120      1.6127      0.0859     62.8637      8.9488     93.6754
  1238.6000      8.2120      1.6423      0.1085     61.0741      8.5881     94.3608
  1238.7000      8.2120      1.6666      0.1065     59.6026      8.2182     90.8562
  1238.8000      8.2131      1.7049      0.0939     57.2787      8.0138     87.9636
  1238.9000      8.2131      1.7829      0.1081     52.5534      8.1388     89.7661
  1239.0000      8.2148      1.9039      0.1207     45.2185      8.6328     97.1662
  1239.1000      8.2148      2.0462      0.1751     36.5947      9.2413    107.5125
  1239.2000      8.2148      2.1775      0.1978     28.6343      9.8328    115.3150
  1239.3000      8.2188      2.2741      0.2103     22.7829     10.6689    119.0654
  1239.4000      8.2188      2.3269      0.2029     19.5810     11.9108    121.9437
  1239.5000      8.2245      2.3457      0.1744     18.4450     13.5396    125.0804
  1239.6000      8.2245      2.3540      0.1864     17.9422     15.3467    127.9218
  1239.7000      8.2245      2.3629      0.2027     17.4024     16.8965    129.3026
