~Version Information
VERS.                      2.0: CWLS Log ASCII Standard - VERSION 2.0
WRAP.                       NO: One line per depth step
~Well Information Block
STRT.FT               546.0000: 
STOP.FT              1771.5000: 
STEP.FT                 0.2500: 
NULL.                -999.2500: 
COMP.          Petrogulf Corporation: COMPANY
WELL.             McLeod 9-42R: WELL
FLD.           Purgatorie River: FIELD
LOC.           1748' FNL & 372' FEL: LOCATION
PROV.                 Colorado: PROVINCE
CNTY.               Las Animas: COUNTRY
SRVC.                Patterson: SERVICE COMPANY
DATE.          Tue Aug 16 11:11:38 2005: LOG DATE
UWI.           071 08092  : UNIQUE WELL ID
~Curve Information Block
DEPT.FT            0 000 00 00: Depth
SP.mV                         : DIL Spontaneous Potential
RILD.Ohm-m                    : DIL Deep Resistivity
RILM.Ohm-m                    : DIL Medium Resistivity
RLL3.Ohm-m                    : DIL Shallow Resistivity
GR.GAPI                       : Gamma Ray
~Parameter Information Block
~A  Depth        SP         RILD        RILM        RLL3         GR     
# ...
  1330.0000     72.9754     13.2767     13.3239     15.2702    123.3559
  1330.2500     72.4942     14.6654     13.0856     16.3641    120.3625
  1330.5000     69.7180     14.7982     12.7889     16.5080    123.6485
  1330.7500     66.9629     14.7911     13.0254     16.7557    127.5292
  1331.0000     68.2678     15.5160     13.1749     16.6480    134.6133
  1331.2500     69.6977     15.5389     14.5627     15.8615    125.8379
  1331.5000     66.1958     15.4752     14.9731     15.6342    117.3970
  1331.7500     64.7946     16.4029     16.7892     17.7723    113.8705
  1332.0000     57.6818     16.4657     18.2582     22.9886    102.4770
  1332.2500     50.4909     17.9222     20.1159     29.0025     92.5187
  1332.5000     46.8410     17.2599     22.7835     33.2667     83.3614
  1332.7500     44.3079     18.1666     27.4321     38.3659     81.4472
  1333.0000     42.7411     18.2328     31.9744     46.5353     82.0847
  1333.2500     42.2183     19.8524     33.3901     57.3477     83.3506
  1333.5000     42.5369     21.2778     32.9225     70.4300     78.1795
  1333.7500     42.6318     19.4691     38.8479     90.1355     82.2873
  1334.0000     42.2907     19.0068     36.5195     93.9117     81.9062
  1334.2500     42.4538     18.6801     34.8693     68.0276     84.9979
  1334.5000     41.4084     18.4692     35.0151     64.7343     83.8126
  1334.7500     41.0585     18.4418     32.1682     82.2488     85.2440
  1335.0000     41.7991     17.2748     29.0094     80.9517     98.9667
  1335.2500     42.0237     16.4815     25.0821     55.9752    106.2508
  1335.5000     44.0974     15.0157     21.7926     43.6818    105.8673
  1335.7500     44.2497     13.8094     19.1120     28.3453    116.0410
  1336.0000     45.2496     14.1221     16.4141     20.2487    119.8273
  1336.2500     46.3963     13.1053     15.5302     15.8279    129.8501
  1336.5000     47.2241     12.6374     14.1749     13.8222    137.6278
  1336.7500     47.7069     12.5752     13.1158     11.8801    133.3822
  1337.0000     47.8401     11.2559     12.1635     11.7183    142.0664
  1337.2500     48.1689     11.7998     11.4912     12.0413    142.3189
  1337.5000     48.7238     11.1647     11.2560     12.5085    128.1447
  1337.7500     49.9295     10.4150     10.7401     12.5554    128.6837
  1338.0000     50.0077     10.7883     10.2862     12.5101    125.6172
  1338.2500     49.9291     10.5488      9.8143     12.8125    134.0702
  1338.5000     49.8582     10.7753      9.5993     12.9163    143.4393
  1338.7500     50.0170     10.9894      9.6862     12.6965    138.7472
  1339.0000     49.8681     11.1643      9.9015     12.1416    136.6768
  1339.2500     48.7304     11.3949     10.3460     11.3316    132.5529
  1339.5000     48.6204     11.5602     11.3529     11.3250    124.1853
  1339.7500     47.5718     13.1308     11.8236     13.0913    105.9641
  1340.0000     49.2772     13.2505     13.3149     15.1124     99.4872
  1340.2500     48.5197     13.1763     13.9614     21.6011     94.8953
  1340.5000     48.5284     13.4257     14.6092     30.0120     92.4623
  1340.7500     48.7818     14.2990     15.3413     47.8306     94.2962
  1341.0000     50.1991     16.0038     15.1892     49.8095    103.5122
  1341.2500     50.3825     15.8533     15.0996     38.1210    108.2009
  1341.5000     50.3843     17.8034     16.4453     28.8461    109.2776
  1341.7500     51.0078     19.4229     16.3187     20.2102    113.3425
  1342.0000     52.6963     18.3136     18.4985     17.6421    111.5959
  1342.2500     54.5212     19.6519     20.0691     19.3750    103.6720
  1342.5000     58.1630     19.2476     23.3935     23.2394     99.3522
  1342.7500     60.4261     16.8961     23.4042     30.3039    100.1959
  1343.0000     63.7349     16.5642     23.5740     33.0593    100.2176
  1343.2500     67.7610     14.8913     22.2536     38.4752    103.2459
  1343.5000     71.9802     14.4932     19.9342     41.4882     92.9315
  1343.7500     74.6138     13.7745     18.6947     38.3976     98.1933
  1344.0000     77.4171     13.4973     15.8755     31.8541    109.4778
  1344.2500     77.5705     13.1972     15.0966     25.3392    115.0210
  1344.5000     78.7823     13.5539     13.7343     21.0689    127.1334
  1344.7500     79.7963     13.0093     12.7710     14.8080    126.6111
  1345.0000     81.7145     12.0150     11.6749     12.6431    131.0541
  1345.2500     80.5567     11.2495     11.0131     12.0416    139.5823
  1345.5000     81.6512     11.0540     10.5957     11.7081    140.2213
  1345.7500     81.1743     10.2785      9.8878     11.1566    133.5452
  1346.0000     81.5137      9.6780      9.7094     10.7291    135.3188
  1346.2500     82.1925      8.4784      9.3734     10.5993    138.2024
  1346.5000     84.3569      8.3835      9.0534     10.9156    134.4518
  1346.7500     85.1881      8.0245      8.7934     10.8935    137.2876
  1347.0000     86.8259      7.7557      8.5089     11.0056    139.0902
  1347.2500     86.2236      7.5050      8.1118     10.9506    134.7189
  1347.5000     87.1142      7.4811      7.8139     10.7053    135.8293
  1347.7500     86.2691      7.1961      7.6644     10.4623    136.5269
  1348.0000     86.5247      7.0800      7.4523     10.1480    133.8681
  1348.2500     86.9830      6.7316      7.2660     10.1408    136.7300
  1348.5000     87.9665      6.8001      6.9989      9.7694    150.0852
  1348.7500     87.8683      6.5243      6.7141      9.7834    148.6011
  1349.0000     89.4947      6.2731      6.5960      9.9559    153.1382
  1349.2500     89.9084      6.2722      6.4243      9.8775    154.5024
  1349.5000     90.2299      6.1556      6.3379      9.3577    163.0822
  1349.7500     89.3158      6.1846      6.2798      8.6884    161.5638
  1350.0000     88.7975      5.9723      6.4721      8.5515    154.0756
  1350.2500     87.2951      5.9862      6.2813      8.4532    152.8271
  1350.5000     88.5188      5.9491      6.2065      8.4040    152.6335
  1350.7500     86.8464      6.1147      6.2362      8.4063    161.2335
  1351.0000     87.2060      5.8849      6.2202      8.1413    161.9076
  1351.2500     85.9524      6.3247      6.2511      8.0609    147.3906
  1351.5000     85.9622      6.2198      6.4211      8.4101    149.3983
  1351.7500     85.8636      6.5764      6.4971      8.9064    141.4179
  1352.0000     87.3882      6.7377      6.9067      9.1437    140.3604
  1352.2500     87.7810      6.7765      7.0929      9.2285    131.3492
  1352.5000     90.0608      6.8408      7.7144      9.5777    116.5882
  1352.7500     92.6341      7.0060      8.0805     12.3926    112.7315
  1353.0000     97.8688      6.7532      8.2011     22.6789    103.3958
  1353.2500    104.3052      7.1018      8.2154     29.7540    100.7636
  1353.5000    109.2038      7.2306      7.9556     23.0835    100.0380
  1353.7500    112.6846      7.0972      7.8011     17.2189     96.2841
  1354.0000    113.7777      7.0864      7.7194     12.4862    113.0648
  1354.2500    112.9851      7.3546      7.8520     11.6816    119.3238
  1354.5000    113.7424      7.4240      7.5885     11.7081    125.2612
  1354.7500    111.8221      7.8634      7.8546     11.5469    124.5130
  1355.0000    110.6143      7.7843      7.5326     11.5116    130.5545
  1355.2500    109.9079      7.4353      7.5878     11.3198    141.1716
  1355.5000    108.8743      7.5241      7.5635     10.5186    142.7236
  1355.7500    107.6783      7.4194      7.8924     10.3036    139.2031
  1356.0000    107.6454      7.2142      7.9280     10.1485    140.9810
  1356.2500    108.2502      7.1015      8.0071     10.5117    138.3965
  1356.5000    110.2524      7.3330      8.0546     12.2146    140.7623
  1356.7500    110.2340      7.5032      8.1987     15.3660    141.8995
  1357.0000    113.2682      7.2679      7.9680     14.6087    150.4396
  1357.2500    112.2165      7.3620      8.0940     12.7552    155.4680
  1357.5000    112.0650      7.5960      8.1502     12.2539    145.8674
  1357.7500    111.2247      7.8696      8.0534     12.5512    142.1361
