~Version Information
VERS.                      2.0: CWLS Log ASCII Standard - VERSION 2.0
WRAP.                       NO: One line per depth step
~Well Information Block
STRT.FT              1727.9000: 
STOP.FT              1961.0000: 
STEP.FT                 0.1000: 
NULL.                -999.2500: 
COMP.          Petrogulf Corporation: COMPANY
WELL.              Royal 8-33R: WELL
FLD.           Purgatorie River: FIELD
LOC.           2401' FSL & 2270' FEL: LOCATION
CNTY.               Las Animas: COUNTY
SRVC.                         : SERVICE COMPANY
DATE.          Mon Apr 26 06:57:24 2004: LOG DATE
UWI.           05 071 08041 00: UNIQUE WELL ID
STAT.                 Colorado: STATE
~Curve Information Block
DEPT.FT            0 000 00 00: Depth
DCAL.in                       : CDL Caliper
RHOB.g/cc                     : CDL Bulk Density
RHOC.g/cc                     : CDL Density Correction
DPOR.pu                       : CDL Density Porosity
GR.GAPI                       : Gamma Ray
~Parameter Information Block
~A  Depth       DCAL        RHOB        RHOC        DPOR         GR     
# ...
  1739.1000      7.8659   -999.2500      0.0006   -999.2500    103.4051
  1739.2000      7.8659   -999.2500     -0.0076   -999.2500     83.3726
  1739.3000      7.8642   -999.2500      0.0684   -999.2500     71.0322
  1739.4000      7.8642      2.4050      0.0355     14.8500     75.3216
  1739.5000      7.8678      2.4035      0.0122     14.9407     87.4772
  1739.6000      7.8678      2.4133      0.0536     14.3474     94.7952
  1739.7000      7.8678      2.4260      0.0114     13.5777     92.9455
  1739.8000      7.8681      2.4535      0.0122     11.9076     88.3899
  1739.9000      7.8681      2.4976      0.0447      9.2361     89.8506
  1740.0000      7.8665      2.5223      0.0934      7.7395     94.1748
  1740.1000      7.8665      2.4985      0.0412      9.1809     90.8739
  1740.2000      7.8665      2.4574     -0.0347     11.6726     81.6965
  1740.3000      7.8683      2.4472      0.0566     12.2889     76.7011
  1740.4000      7.8683      2.4741     -0.0125     10.6621     81.1480
  1740.5000      7.8614      2.5105      0.1162      8.4567     89.2771
  1740.6000      7.8614      2.5222      0.0724      7.7477     89.5717
  1740.7000      7.8614      2.4982      0.0998      9.2030     85.4683
  1740.8000      7.8571      2.4607     -0.0222     11.4719     89.1457
  1740.9000      7.8571      2.4527     -0.0759     11.9549     96.1242
  1741.0000      7.8565      2.4850      0.1203      9.9981     96.2256
  1741.1000      7.8565      2.5124      0.0563      8.3403     90.6001
  1741.2000      7.8565      2.5040      0.1278      8.8473     82.5312
  1741.3000      7.8765      2.4789      0.0222     10.3695     76.7187
  1741.4000      7.8765      2.4573      0.1013     11.6783     77.7963
  1741.5000      7.8760      2.4434     -0.0027     12.5206     79.4113
  1741.6000      7.8760      2.4581      0.0114     11.6333     74.3877
  1741.7000      7.8760      2.5018      0.0593      8.9802     68.6387
  1741.8000      7.8737      2.5360      0.0609      6.9070     68.6236
  1741.9000      7.8737      2.5315      0.1890      7.1842     69.8295
  1742.0000      7.8745      2.4940      0.0710      9.4558     68.8745
  1742.1000      7.8745      2.4711     -0.0282     10.8421     68.8867
  1742.2000      7.8745      2.4922      0.1544      9.5666     70.0824
  1742.3000      7.8824      2.5208      0.1321      7.8291     69.4057
  1742.4000      7.8824      2.5117      0.1646      8.3848     67.3304
  1742.5000      7.8824      2.4649      0.0763     11.2170     64.6871
  1742.6000      7.8824      2.4265      0.0013     13.5483     59.9571
  1742.7000      7.8824      2.4251      0.0910     13.6299     54.9498
  1742.8000      7.8747      2.4413      0.0817     12.6473     54.5497
  1742.9000      7.8747      2.4593      0.1009     11.5604     56.2212
  1743.0000      7.8756      2.4904      0.0983      9.6705     54.8533
  1743.1000      7.8756      2.5373      0.1354      6.8291     56.4354
  1743.2000      7.8756      2.5686      0.1559      4.9355     63.8614
  1743.3000      7.8746      2.5621      0.0671      5.3299     66.8917
  1743.4000      7.8746      2.5334      0.1332      7.0650     61.8904
  1743.5000      7.8650      2.5061      0.0156      8.7193     58.9127
  1743.6000      7.8650      2.4996      0.0624      9.1129     66.1554
  1743.7000      7.8650      2.5153      0.0940      8.1611     79.2698
  1743.8000      7.8664      2.5398      0.1011      6.6762     86.8693
  1743.9000      7.8664      2.5574      0.1474      5.6133     85.1030
  1744.0000      7.8734      2.5535      0.1515      5.8471     78.4171
  1744.1000      7.8734      2.5491     -0.0504      6.1172     74.2881
  1744.2000      7.8734      2.5808      0.0791      4.1922     75.5278
  1744.3000      7.8785      2.6304      0.1040      1.1882     79.6387
  1744.4000      7.8785      2.6528      0.0859     -0.1710     83.4195
  1744.5000      7.8680      2.6433      0.0763      0.4064     84.8603
  1744.6000      7.8680      2.6316      0.1056      1.1137     85.1372
  1744.7000      7.8680      2.6270      0.1306      1.3942     88.3084
  1744.8000      7.8701      2.6053      0.0811      2.7084     99.8810
  1744.9000      7.8701      2.5553      0.0868      5.7389    113.9618
  1745.0000      7.8670      2.4963      0.0716      9.3157    120.3521
  1745.1000      7.8670      2.4575     -0.0272     11.6661    123.5702
  1745.2000      7.8670      2.4513      0.0069     12.0421    129.2733
  1745.3000      7.8552      2.4703     -0.0195     10.8901    136.4106
  1745.4000      7.8552      2.5036      0.0591      8.8720    144.1040
  1745.5000      7.8579      2.5270      0.1246      7.4522    153.1278
  1745.6000      7.8579      2.5123      0.0817      8.3433    169.1538
  1745.7000      7.8579      2.4713     -0.0131     10.8282    184.9769
  1745.8000      7.8763      2.4490      0.0781     12.1848    185.3681
  1745.9000      7.8763      2.4688      0.1399     10.9796    176.8255
  1746.0000      7.8879      2.5136      0.1536      8.2660    172.6315
  1746.1000      7.8879      2.5456      0.1705      6.3244    169.3322
  1746.2000      7.8879      2.5415      0.1581      6.5770    161.1763
  1746.3000      7.8764      2.5051      0.1717      8.7813    154.4719
  1746.4000      7.8764      2.4518      0.1035     12.0095    158.7235
  1746.5000      7.8660      2.3966      0.1561     15.3592    171.3479
  1746.6000      7.8660      2.3528      0.1393     18.0110    184.8363
  1746.7000      7.8660      2.3445     -0.0203     18.5148    199.7055
  1746.8000      7.8567      2.3760      0.1058     16.6048    207.7542
  1746.9000      7.8567      2.4110      0.2054     14.4867    202.4926
  1747.0000      7.8467      2.4348      0.1536     13.0407    199.4018
  1747.1000      7.8467      2.4467      0.3594     12.3221    197.5963
  1747.2000      7.8467      2.4006      0.3232     15.1136    181.9411
  1747.3000      7.8554      2.2789      0.1609     22.4890    170.3655
  1747.4000      7.8554      2.1425      0.0597     30.7546    177.2965
  1747.5000      7.8856      2.0520     -0.0048     36.2424    175.6462
  1747.6000      7.8856      2.0158      0.0266     38.4360    154.4659
  1747.7000      7.8856      2.0229     -0.0624     38.0072    135.1777
  1747.8000      7.8806      2.0721      0.0370     35.0247    124.5368
  1747.9000      7.8806      2.1537      0.1348     30.0810    117.0917
  1748.0000      7.8774      2.2459      0.2947     24.4901    118.3366
  1748.1000      7.8774      2.3301      0.3741     19.3883    133.6879
  1748.2000      7.8774      2.3882      0.4128     15.8641    148.3026
  1748.3000      7.8757      2.4092      0.3580     14.5968    146.2817
  1748.4000      7.8757      2.3983      0.2657     15.2554    134.5691
  1748.5000      7.8686      2.3719      0.2263     16.8518    130.3103
  1748.6000      7.8686      2.3477      0.1287     18.3225    143.5912
  1748.7000      7.8686      2.3378      0.1578     18.9237    166.1110
  1748.8000      7.9060      2.3525      0.1484     18.0328    179.8247
  1748.9000      7.9060      2.4071      0.1384     14.7238    175.3207
  1749.0000      8.0019      2.4920      0.3091      9.5787    153.0323
  1749.1000      8.0019      2.5689      0.3233      4.9174    128.0054
  1749.2000      8.0019      2.6154      0.3267      2.0948    116.2736
  1749.3000      8.0726      2.6293      0.3458      1.2551    118.7564
  1749.4000      8.0726      2.6167      0.3067      2.0176    127.9090
  1749.5000      8.0185      2.5827      0.2181      4.0762    136.9036
  1749.6000      8.0185      2.5321      0.1907      7.1425    145.2268
  1749.7000      8.0185      2.4910      0.0880      9.6339    154.4108
  1749.8000      8.0662      2.4771      0.1212     10.4796    159.3059
  1749.9000      8.0662      2.4665      0.1347     11.1214    156.6621
  1750.0000      8.0743      2.4382      0.0370     12.8355    151.1701
  1750.1000      8.0743      2.4128     -0.0144     14.3751    149.6643
  1750.2000      8.0743      2.4169      0.0203     14.1261    156.3363
