~Version Information
VERS.                      2.0: CWLS Log ASCII Standard - VERSION 2.0
WRAP.                       NO: One line per depth step
~Well Information Block
STRT.FT               -16.5000: 
STOP.FT              1244.7500: 
STEP.FT                 0.2500: 
NULL.                -999.2500: 
COMP.          Pioneer Natural Resources: COMPANY
WELL.          Bouncer41-27 Tr: WELL
FLD.           Purgatorie River: FIELD
LOC.           292' FNL & 222' FEL--------: LOCATION
PROV.                       CO: PROVINCE
CNTY.               Las Animas: COUNTRY
SRVC.                         : SERVICE COMPANY
DATE.          Fri Feb 11 15:34:51 2005: LOG DATE
UWI.                071-08291 : UNIQUE WELL ID
~Curve Information Block
DEPT.FT            0 000 00 00: Depth
CCL.                          : Casing Collar Locator
TT3.usec                      : CBL 3' Travel Time
AMP3.mV                       : CBL 3' Amplitude
GR.GAPI                       : Gamma Ray
~Parameter Information Block
~A  Depth       CCL         TT3         AMP3         GR     
# ...
  1055.5000      0.0000    734.0212      6.1346    174.7938
  1055.7500      0.0000    739.7054      5.9931    174.6329
  1056.0000      0.0000    742.1515      5.8943    173.8240
  1056.2500      0.0000    742.9213      5.8442    168.8266
  1056.5000      0.0000    743.0690      5.8224    159.3112
  1056.7500      0.0000    743.1382      5.7938    148.0485
  1057.0000      0.0000    743.3638      5.7319    138.2804
  1057.2500      0.0000    743.8546      5.6332    131.8774
  1057.5000      0.0000    744.7960      5.5019    129.3738
  1057.7500      0.0000    746.4224      5.3248    130.4749
  1058.0000      0.0000    748.5687      5.0734    134.0542
  1058.2500      0.0000    750.2281      4.7400    138.2232
  1058.5000      0.0000    750.0691      4.3715    141.2330
  1058.7500      0.0000    747.8325      4.0557    142.6359
  1059.0000      0.0000    745.0236      3.8611    143.2585
  1059.2500      0.0000    743.7562      3.7952    143.7598
  1059.5000      0.0000    744.8647      3.8312    143.6057
  1059.7500      0.0000    747.3015      3.9469    141.8534
  1060.0000      0.0000    749.4021      4.1188    138.6407
  1060.2500      0.0000    750.5924      4.3043    135.2869
  1060.5000      0.0000    751.6085      4.4525    132.8685
  1060.7500     -2.0000    753.0875      4.5258    131.2504
  1061.0000      0.0000    754.6086      4.5189    129.7046
  1061.2500      0.0000    755.4378      4.4746    127.9270
  1061.5000      0.0000    755.4608      4.4664    126.0112
  1061.7500      0.0000    754.7039      4.5371    124.0425
  1062.0000      0.0000    752.4465      4.6612    122.3119
  1062.2500      0.0000    747.5237      4.7924    121.3314
  1062.5000      0.0000    739.4598      4.9171    120.9256
  1062.7500      0.0000    729.1402      5.0379    119.9621
  1063.0000      0.0000    718.6204      5.1408    117.8566
  1063.2500      0.0000    710.2244      5.2102    115.7869
  1063.5000      0.0000    705.4916      5.2575    115.4295
  1063.7500      0.0000    704.7151      5.3131    116.9353
  1064.0000      0.0000    707.1882      5.3990    119.1044
  1064.2500      0.0000    711.5331      5.5134    121.2027
  1064.5000      0.0000    716.0111      5.6393    123.7101
  1064.7500      0.0000    719.0887      5.7590    127.4411
  1065.0000      0.0000    719.9406      5.8571    132.7294
  1065.2500      0.0000    718.4135      5.9259    139.5945
  1065.5000      0.0000    714.8141      5.9756    147.8838
  1065.7500      0.0000    709.9825      6.0237    156.7679
  1066.0000      0.0000    705.2706      6.0733    164.5470
  1066.2500      0.0000    702.0239      6.1164    169.4726
  1066.5000      0.0000    701.0986      6.1485    170.5031
  1066.7500      0.0000    702.9120      6.1650    167.3055
  1067.0000      0.0000    707.4866      6.1572    160.2845
  1067.2500      0.0000    713.8637      6.1244    150.9223
  1067.5000      0.0000    719.6263      6.0745    141.3537
  1067.7500      0.0000    721.8345      6.0098    132.9014
  1068.0000      0.0000    719.1310      5.9290    125.4109
  1068.2500      0.0000    712.9364      5.8438    118.5558
  1068.5000      0.0000    706.3922      5.7694    113.0526
  1068.7500      0.0000    702.1850      5.7003    109.7833
  1069.0000      0.0000    701.3248      5.6192    108.2867
  1069.2500      0.0000    703.3824      5.5268    107.0182
  1069.5000      0.0000    707.3320      5.4399    105.0925
  1069.7500      0.0000    712.2817      5.3676    103.4168
  1070.0000      0.0000    717.5753      5.3115    103.8516
  1070.2500      0.0000    722.0453      5.2788    107.1628
  1070.5000      0.0000    723.7366      5.2712    112.0001
  1070.7500      0.0000    721.6434      5.2732    116.0666
  1071.0000      0.0000    717.7623      5.2718    118.0545
  1071.2500      0.0000    716.0661      5.2765    118.3802
  1071.5000      0.0000    718.8873      5.3005    118.4163
  1071.7500      0.0000    724.8135      5.3373    119.1847
  1072.0000      0.0000    730.2657      5.3700    120.5196
  1072.2500      0.0000    732.7277      5.3911    121.3962
  1072.5000      0.0000    732.3845      5.4015    121.0905
  1072.7500      0.0000    730.9686      5.4015    119.7449
  1073.0000      0.0000    729.3965      5.3911    117.9319
  1073.2500      0.0000    726.9309      5.3753    116.4382
  1073.5000      0.0000    722.8473      5.3656    116.4104
  1073.7500      0.0000    718.4014      5.3734    118.7121
  1074.0000      0.0000    716.3991      5.3999    122.8742
  1074.2500      0.0000    718.6447      5.4315    127.2385
  1074.5000      0.0000    724.1100      5.4471    130.1624
  1074.7500      0.0000    729.6492      5.4422    130.6345
  1075.0000      0.0000    732.1856      5.4440    128.0077
  1075.2500      0.0000    730.3108      5.4860    122.1180
  1075.5000      0.0000    724.6202      5.5677    114.0453
  1075.7500      0.0000    717.1572      5.6593    106.0422
  1076.0000      0.0000    710.3031      5.7394     99.9434
  1076.2500      0.0000    705.6359      5.8036     95.7851
  1076.5000      0.0000    703.6181      5.8528     92.3557
  1076.7500      0.0000    704.1236      5.8949     88.8349
  1077.0000      0.0000    706.8897      5.9449     85.5014
  1077.2500      0.0000    711.4340      6.0049     83.0764
  1077.5000      0.0000    716.9657      6.0607     81.8940
  1077.7500      0.0000    722.6456      6.1019     81.6769
  1078.0000      0.0000    727.8019      6.1262     81.7825
  1078.2500      0.0000    731.8675      6.1254     81.6858
  1078.5000      0.0000    734.3839      6.0945     81.5084
  1078.7500      0.0000    735.0944      6.0464     82.0359
  1079.0000      0.0000    733.8734      5.9908     83.9759
  1079.2500      0.0000    730.6758      5.9157     87.1022
  1079.5000      0.0000    725.5839      5.8217     90.2062
  1079.7500      0.0000    718.6732      5.7536     92.1913
  1080.0000      0.0000    709.5272      5.7572     93.4983
  1080.2500      0.0000    697.3823      5.8156     96.1846
  1080.5000      0.0000    682.8824      5.8694    102.2157
  1080.7500      0.0000    670.0300      5.8919    111.7604
  1081.0000      0.0000    664.8239      5.9015    123.2273
  1081.2500      0.0000    670.3198      5.9045    134.6832
  1081.5000      0.0000    683.7965      5.8728    144.9973
  1081.7500      0.0000    699.7950      5.7942    153.6331
  1082.0000      0.0000    714.6041      5.7038    159.6953
  1082.2500      0.0000    727.0845      5.6377    162.0074
  1082.5000      0.0000    737.0852      5.5870    160.7334
  1082.7500      0.0000    744.4539      5.5283    158.1778
  1083.0000      0.0000    748.8537      5.4808    156.7691
  1083.2500      0.0000    749.8440      5.4927    156.4698
  1083.5000      0.0000    747.3196      5.5733    155.2493
  1083.7500      0.0000    741.8745      5.6724    151.9516
  1084.0000      0.0000    734.5648      5.7347    147.5076
  1084.2500      0.0000    726.6807      5.7508    143.3821
  1084.5000      0.0000    719.6073      5.7384    140.3751
  1084.7500      0.0000    714.1755      5.6922    139.5247
  1085.0000      0.0000    710.0571      5.5795    142.6674
  1085.2500      0.0000    706.4398      5.3909    150.6060
  1085.5000      0.0000    703.3042      5.1820    161.1528
  1085.7500      0.0000    701.6043      5.0415    170.2267
  1086.0000      0.0000    702.3154      5.0107    174.8315
  1086.2500      0.0000    705.4716      5.0418    174.1655
  1086.5000      0.0000    709.6832      5.0518    168.4317
  1086.7500      0.0000    712.6440      5.0124    158.2227
  1087.0000      0.0000    713.0806      4.9763    145.2053
  1087.2500      0.0000    712.5060      5.0112    131.9431
  1087.5000      0.0000    714.0295      5.1190    120.2102
  1087.7500      0.0000    718.8660      5.2286    109.9708
  1088.0000      0.0000    724.8778      5.2688    100.4083
  1088.2500      0.0000    729.0567      5.2386     91.6272
  1088.5000      0.0000    730.6709      5.2032     84.9569
  1088.7500      0.0000    731.3614      5.2300     81.6581
