~Version Information
VERS.                      2.0: CWLS Log ASCII Standard - VERSION 2.0
WRAP.                       NO: One line per depth step
~Well Information Block
STRT.FT              2983.0000: 
STOP.FT              3214.7500: 
STEP.FT                 0.0500: 
NULL.                -999.2500: 
COMP.          Pioner Natural Resources: COMPANY
WELL.              Vespar 43-7: WELL
FLD.           Purgatoire River: FIELD
LOC.           2338' FSL & 1141' FEL------: LOCATION
PROV.                 Colorado: PROVINCE
CNTY.               Las Animas: COUNTRY
SRVC.                         : SERVICE COMPANY
DATE.          Fri Apr 15 15:31:19 2005: LOG DATE
UWI.                          : UNIQUE WELL ID
~Curve Information Block
DEPT.FT            0 000 00 00: Depth
GR.GAPI                       : Gamma Ray
CCL.                          : Casing Collar Locator
TT3.usec                      : CBL 3' Travel Time
AMP3.mV                       : CBL 3' Amplitude
AMP5.mV                       : CBL 5' Amplitude
~Parameter Information Block
~A  Depth        GR         CCL         TT3         AMP3        AMP5    
# ...
  3201.4000     48.0253      0.0000    233.2452     72.9856     32.6760
  3201.4500     48.0253      0.0000    233.2452     72.9856     32.6760
  3201.5000     48.9540      0.0000    201.8002     63.2525     15.3068
  3201.5500     48.9540      0.0000    201.8002     63.2525     15.3068
  3201.6000     48.9540      0.0000    201.8002     63.2525     15.3068
  3201.6500     48.9540      0.0000    201.8002     63.2525     15.3068
  3201.7000     48.9540      0.0000    201.8002     63.2525     15.3068
  3201.7500     50.6373      0.0000    156.0213     49.0387      6.0073
  3201.8000     50.6373      0.0000    156.0213     49.0387      6.0073
  3201.8500     50.6373      0.0000    156.0213     49.0387      6.0073
  3201.9000     50.6373      0.0000    156.0213     49.0387      6.0073
  3201.9500     50.6373      0.0000    156.0213     49.0387      6.0073
  3202.0000     52.2101      0.0000    104.1329     32.8911      2.1302
  3202.0500     52.2101      0.0000    104.1329     32.8911      2.1302
  3202.1000     52.2101      0.0000    104.1329     32.8911      2.1302
  3202.1500     52.2101      0.0000    104.1329     32.8911      2.1302
  3202.2000     52.2101      0.0000    104.1329     32.8911      2.1302
  3202.2500     53.1501      0.0000     58.3363     18.6204      0.8714
  3202.3000     53.1501      0.0000     58.3363     18.6204      0.8714
  3202.3500     53.1501      0.0000     58.3363     18.6204      0.8714
  3202.4000     53.1501      0.0000     58.3363     18.6204      0.8714
  3202.4500     53.1501      0.0000     58.3363     18.6204      0.8714
  3202.5000     53.3245      0.0000     26.8595      8.8055      0.5531
  3202.5500     53.3245      0.0000     26.8595      8.8055      0.5531
  3202.6000     53.3245      0.0000     26.8595      8.8055      0.5531
  3202.6500     53.3245      0.0000     26.8595      8.8055      0.5531
  3202.7000     53.3245      0.0000     26.8595      8.8055      0.5531
  3202.7500     52.8118      0.0000     10.0111      3.5506      0.4904
  3202.8000     52.8118      0.0000     10.0111      3.5506      0.4904
  3202.8500     52.8118      0.0000     10.0111      3.5506      0.4904
  3202.9000     52.8118      0.0000     10.0111      3.5506      0.4904
  3202.9500     52.8118      0.0000     10.0111      3.5506      0.4904
  3203.0000     52.0469      0.0000      2.9876      1.3599   -999.2500
  3203.0500     52.0469      0.0000      2.9876      1.3599   -999.2500
  3203.1000     52.0469      0.0000      2.9876      1.3599   -999.2500
  3203.1500     52.0469      0.0000      2.9876      1.3599   -999.2500
  3203.2000     52.0469      0.0000      2.9876      1.3599   -999.2500
  3203.2500     51.9029      0.0000      0.7074      0.6487   -999.2500
  3203.3000     51.9029      0.0000      0.7074      0.6487   -999.2500
  3203.3500     51.9029      0.0000      0.7074      0.6487   -999.2500
  3203.4000     51.9029      0.0000      0.7074      0.6487   -999.2500
  3203.4500     51.9029      0.0000      0.7074      0.6487   -999.2500
  3203.5000     53.2196      0.0000      0.1309      0.4689   -999.2500
  3203.5500     53.2196      0.0000      0.1309      0.4689   -999.2500
  3203.6000     53.2196      0.0000      0.1309      0.4689   -999.2500
  3203.6500     53.2196      0.0000      0.1309      0.4689   -999.2500
  3203.7000     53.2196      0.0000      0.1309      0.4689   -999.2500
  3203.7500     56.0902      0.0000      0.0174      0.4335   -999.2500
  3203.8000     56.0902      0.0000      0.0174      0.4335   -999.2500
  3203.8500     56.0902      0.0000      0.0174      0.4335   -999.2500
  3203.9000     56.0902      0.0000      0.0174      0.4335   -999.2500
  3203.9500     56.0902      0.0000      0.0174      0.4335   -999.2500
  3204.0000     59.5416      0.0000   -999.2500   -999.2500   -999.2500
  3204.0500     59.5416      0.0000   -999.2500   -999.2500   -999.2500
  3204.1000     59.5416      0.0000   -999.2500   -999.2500   -999.2500
  3204.1500     59.5416      0.0000   -999.2500   -999.2500   -999.2500
  3204.2000     59.5416      0.0000   -999.2500   -999.2500   -999.2500
  3204.2500     61.9884      0.0000   -999.2500   -999.2500   -999.2500
  3204.3000     61.9884      0.0000   -999.2500   -999.2500   -999.2500
  3204.3500     61.9884      0.0000   -999.2500   -999.2500   -999.2500
  3204.4000     61.9884      0.0000   -999.2500   -999.2500   -999.2500
  3204.4500     61.9884      0.0000   -999.2500   -999.2500   -999.2500
  3204.5000     62.2519      0.0000   -999.2500   -999.2500   -999.2500
  3204.5500     62.2519      0.0000   -999.2500   -999.2500   -999.2500
  3204.6000     62.2519      0.0000   -999.2500   -999.2500   -999.2500
  3204.6500     62.2519      0.0000   -999.2500   -999.2500   -999.2500
  3204.7000     62.2519      0.0000   -999.2500   -999.2500   -999.2500
  3204.7500     60.3861      0.0000   -999.2500   -999.2500   -999.2500
  3204.8000     60.3861      0.0000   -999.2500   -999.2500   -999.2500
  3204.8500     60.3861      0.0000   -999.2500   -999.2500   -999.2500
  3204.9000     60.3861      0.0000   -999.2500   -999.2500   -999.2500
  3204.9500     60.3861      0.0000   -999.2500   -999.2500   -999.2500
  3205.0000     57.5274      0.0000   -999.2500   -999.2500   -999.2500
  3205.0500     57.5274      0.0000   -999.2500   -999.2500   -999.2500
  3205.1000     57.5274      0.0000   -999.2500   -999.2500   -999.2500
  3205.1500     57.5274      0.0000   -999.2500   -999.2500   -999.2500
  3205.2000     57.5274      0.0000   -999.2500   -999.2500   -999.2500
  3205.2500     54.9962      0.0000   -999.2500   -999.2500   -999.2500
  3205.3000     54.9962      0.0000   -999.2500   -999.2500   -999.2500
  3205.3500     54.9962      0.0000   -999.2500   -999.2500   -999.2500
  3205.4000     54.9962      0.0000   -999.2500   -999.2500   -999.2500
  3205.4500     54.9962      0.0000   -999.2500   -999.2500   -999.2500
  3205.5000     53.5676      0.0000   -999.2500   -999.2500   -999.2500
  3205.5500     53.5676      0.0000   -999.2500   -999.2500   -999.2500
  3205.6000     53.5676      0.0000   -999.2500   -999.2500   -999.2500
  3205.6500     53.5676      0.0000   -999.2500   -999.2500   -999.2500
  3205.7000     53.5676     -1.6650   -999.2500   -999.2500   -999.2500
  3205.7500     53.2611      0.0000   -999.2500   -999.2500   -999.2500
  3205.8000     53.2611      0.0000   -999.2500   -999.2500   -999.2500
  3205.8500     53.2611      0.0000   -999.2500   -999.2500   -999.2500
  3205.9000     53.2611      0.0000   -999.2500   -999.2500   -999.2500
  3205.9500     53.2611      0.0000   -999.2500   -999.2500   -999.2500
  3206.0000     53.3900      0.0000   -999.2500   -999.2500   -999.2500
  3206.0500     53.3900      0.0000   -999.2500   -999.2500   -999.2500
  3206.1000     53.3900      0.0000   -999.2500   -999.2500   -999.2500
  3206.1500     53.3900      0.0000   -999.2500   -999.2500   -999.2500
  3206.2000     53.3900      0.0000   -999.2500   -999.2500   -999.2500
  3206.2500     52.9607      0.0000   -999.2500   -999.2500   -999.2500
  3206.3000     52.9607      0.0000   -999.2500   -999.2500   -999.2500
  3206.3500     52.9607      0.0000   -999.2500   -999.2500   -999.2500
  3206.4000     52.9607      0.0000   -999.2500   -999.2500   -999.2500
  3206.4500     52.9607      0.0000   -999.2500   -999.2500   -999.2500
  3206.5000     51.4550      0.0000   -999.2500   -999.2500   -999.2500
  3206.5500     51.4550      0.0000   -999.2500   -999.2500   -999.2500
  3206.6000     51.4550      0.0000   -999.2500   -999.2500   -999.2500
  3206.6500     51.4550      0.0000   -999.2500   -999.2500   -999.2500
  3206.7000     51.4550      0.0000   -999.2500   -999.2500   -999.2500
  3206.7500     49.3004      0.0000   -999.2500   -999.2500   -999.2500
  3206.8000     49.3004      0.0000   -999.2500   -999.2500   -999.2500
  3206.8500     49.3004      0.0000   -999.2500   -999.2500   -999.2500
  3206.9000     49.3004      0.0000   -999.2500   -999.2500   -999.2500
  3206.9500     49.3004      0.0000   -999.2500   -999.2500   -999.2500
