~Version Information
VERS.                      2.0: CWLS Log ASCII Standard - VERSION 2.0
WRAP.                       NO: One line per depth step
~Well Information Block
STRT.FT                -7.2500: 
STOP.FT               765.5000: 
STEP.FT                 0.2500: 
NULL.                -999.2500: 
COMP.          Pioneer Natural Resources: COMPANY
WELL.          Barrelman 41-27: WELL
FLD.           Purgatorie River: FIELD
LOC.           371' FNL & 493' FEL--: LOCATION
PROV.                       CO: PROVINCE
CNTY.               Las Animas: COUNTRY
SRVC.          Patterson Wireline: SERVICE COMPANY
DATE.          Wed May 25 09:32:20 2005: LOG DATE
UWI.           05 071 08334 00: UNIQUE WELL ID
~Curve Information Block
DEPT.FT            0 000 00 00: Depth
CCL.                          : Casing Collar Locator
TT3.usec                      : CBL 3' Travel Time
AMP3.mV                       : CBL 3' Amplitude
GR.GAPI                       : Gamma Ray
~Parameter Information Block
~A  Depth       CCL         TT3         AMP3         GR     
# ...
   629.2500      0.0000    805.9075      7.5493     62.3268
   629.5000      0.0000    806.2092      7.4333     62.2731
   629.7500      0.0000    806.1453      7.3218     62.4186
   630.0000      0.0000    805.9279      7.2248     63.0002
   630.2500      0.0000    805.6625      7.1526     64.0295
   630.5000      0.0000    805.4092      7.1091     64.9358
   630.7500      0.0000    805.2115      7.0911     64.7312
   631.0000      0.0000    805.0892      7.0911     62.7389
   631.2500      0.0000    805.0266      7.0994     59.2310
   631.5000      0.0000    804.9836      7.1031     55.3664
   631.7500      0.0000    804.9193      7.0877     52.5205
   632.0000      0.0000    804.8174      7.0424     51.5682
   632.2500      0.0000    804.7061      6.9641     52.4525
   632.5000      0.0000    804.6395      6.8549     54.2106
   632.7500      0.0000    804.6490      6.7190     55.6291
   633.0000      0.0000    804.6854      6.5637     56.0939
   633.2500      0.0000    804.5939      6.4030     55.8903
   633.5000      0.0000    804.1318      6.2592     55.9115
   633.7500      0.0000    803.0920      6.1534     57.0757
   634.0000      0.0000    801.5770      6.0938     59.4773
   634.2500      0.0000    800.2460      6.0719     61.8065
   634.5000      0.0000    800.1116      6.0711     62.0986
   634.7500      0.0000    801.8749      6.0788     59.6169
   635.0000      0.0000    805.4160      6.0901     55.9402
   635.2500      0.0000    809.8588      6.1022     53.8832
   635.5000      0.0000    813.9566      6.1044     55.3520
   635.7500      0.0000    816.7250      6.0713     60.2407
   636.0000      0.0000    818.2463      5.9664     66.9973
   636.2500      0.0000    819.7419      5.7735     73.8330
   636.5000      0.0000    822.4075      5.5476     79.5509
   636.7500      0.0000    826.2454      5.4122     83.8068
   637.0000      0.0000    830.2366      5.4578     86.8827
   637.2500      0.0000    833.4870      5.6456     88.9221
   637.5000      0.0000    836.1077      5.8556     89.1799
   637.7500      0.0000    839.1166      6.0162     86.5199
   638.0000      0.0000    843.3431      6.1400     81.1061
   638.2500      0.0000    848.4080      6.2565     75.0639
   638.5000      0.0000    853.0366      6.3670     70.7603
   638.7500      2.0000    856.3477      6.4623     68.7492
   639.0000      0.0000    858.4508      6.5578     67.9383
   639.2500      0.0000    859.6070      6.7094     67.2213
   639.5000      0.0000    859.0966      6.9815     66.2916
   639.7500      0.0000    855.3367      7.3640     65.3165
   640.0000      0.0000    847.3622      7.7297     64.4865
   640.2500      0.0000    836.2968      7.9282     63.8513
   640.5000      0.0000    825.0935      7.9219     63.4663
   640.7500      0.0000    816.4982      7.7973     63.6449
   641.0000      0.0000    811.3572      7.6619     64.8845
   641.2500      0.0000    808.8306      7.5687     67.4459
   641.5000      0.0000    807.6657      7.5188     70.9551
   641.7500      0.0000    807.0435      7.4941     74.2766
   642.0000      0.0000    806.6276      7.4790     75.9670
   642.2500      0.0000    806.3262      7.4671     75.3688
   642.5000      0.0000    806.1053      7.4592     73.4344
   642.7500      0.0000    805.9152      7.4562     72.2111
   643.0000      0.0000    805.6149      7.4578     73.2808
   643.2500      0.0000    804.8192      7.4639     76.5300
   643.5000      0.0000    802.7439      7.4773     80.2614
   643.7500      0.0000    798.4905      7.5027     82.5153
   644.0000      0.0000    792.1627      7.5426     82.4607
   644.2500      0.0000    785.9734      7.5950     80.7622
   644.5000      0.0000    783.3760      7.6551     78.8651
   644.7500      0.0000    786.1241      7.7196     77.9415
   645.0000      0.0000    792.5148      7.7858     78.2479
   645.2500      0.0000    799.1103      7.8484     79.1367
   645.5000      0.0000    803.6692      7.8999     79.6235
   645.7500      0.0000    806.0390      7.9381     79.1574
   646.0000      0.0000    807.0765      7.9667     78.0978
   646.2500      0.0000    807.5093      7.9860     77.6088
   646.5000      0.0000    807.5638      7.9871     78.9421
   646.7500      0.0000    807.0085      7.9609     82.3738
   647.0000      0.0000    805.3184      7.9113     86.7155
   647.2500      0.0000    802.0934      7.8586     90.1540
   647.5000      0.0000    797.7188      7.8281     91.6058
   647.7500      0.0000    793.6987      7.8344     91.1155
   648.0000      0.0000    791.9497      7.8747     89.1106
   648.2500      0.0000    793.4011      7.9346     85.6868
   648.5000      0.0000    797.2596      7.9977     80.8268
   648.7500      0.0000    801.7047      8.0504     75.1005
   649.0000      0.0000    805.2230      8.0816     69.8302
   649.2500      0.0000    807.3055      8.0842     66.4939
   649.5000      0.0000    808.1891      8.0602     65.9557
   649.7500      0.0000    808.2678      8.0237     67.9952
   650.0000      0.0000    807.7329      7.9952     71.4050
   650.2500      0.0000    806.5547      7.9894     74.6815
   650.5000      0.0000    804.7394      8.0096     76.7640
   650.7500      0.0000    802.6223      8.0506     77.2116
   651.0000      0.0000    800.8064      8.1030     76.0380
   651.2500      0.0000    799.7540      8.1521     73.6897
   651.5000      0.0000    799.6053      8.1816     70.9823
   651.7500      0.0000    800.3583      8.1819     68.6755
   652.0000      0.0000    801.8740      8.1549     67.0396
   652.2500      0.0000    803.6882      8.1074     65.9028
   652.5000      0.0000    805.1630      8.0425     65.0034
   652.7500      0.0000    805.8043      7.9604     64.1940
   653.0000      0.0000    805.1219      7.8638     63.3664
   653.2500      0.0000    802.0047      7.7577     62.2352
   653.5000      0.0000    794.3962      7.6494     60.2299
   653.7500      0.0000    780.2444      7.5507     56.8506
   654.0000      0.0000    759.6570      7.4788     52.4277
   654.2500      0.0000    736.2219      7.4497     48.2612
   654.5000      0.0000    715.3481      7.4655     45.6213
   654.7500      0.0000    700.7676      7.5091     44.8164
   655.0000      0.0000    692.7181      7.5537     45.4904
   655.2500      0.0000    689.0790      7.5817     47.3350
   655.5000      0.0000    687.2709      7.5950     49.9578
   655.7500      0.0000    684.7523      7.6073     52.2928
   656.0000      0.0000    678.0569      7.6258     52.8170
   656.2500      0.0000    662.3190      7.6443     50.6433
   656.5000      0.0000    633.5598      7.6527     46.4208
   656.7500      0.0000    593.4998      7.6515     42.1421
   657.0000      0.0000    551.4698      7.6530     39.7996
   657.2500      0.0000    518.0938      7.6707     39.8756
   657.5000      0.0000    495.5608      7.7099     41.1336
   657.7500      0.0000    476.5818      7.7678     42.0120
   658.0000      0.0000    454.1348      7.8402     42.1016
   658.2500      0.0000    429.3505      7.9258     42.1880
   658.5000      0.0000    408.4799      8.0250     43.1753
   658.7500      0.0000    395.3753      8.1345     45.2246
   659.0000      0.0000    389.0971      8.2478     47.7648
   659.2500      0.0000    386.6717      8.3602     50.0115
   659.5000      0.0000    385.8407      8.4730     51.3583
   659.7500      0.0000    385.6761      8.5884     51.4438
   660.0000      0.0000    386.0833      8.7021     50.2476
   660.2500      0.0000    387.4094      8.8037     48.3507
   660.5000      0.0000    390.6180      8.8852     46.8636
   660.7500      0.0000    398.0857      8.9474     46.7270
   661.0000      0.0000    414.5135      8.9972     48.0269
   661.2500      0.0000    446.4890      9.0422     50.0909
   661.5000      0.0000    498.7840      9.0877     52.2011
   661.7500      0.0000    568.1531      9.1360     54.0849
   662.0000      0.0000    640.4144      9.1859     55.7531
   662.2500      0.0000    695.9540      9.2315     57.1508
   662.5000      0.0000    720.2656      9.2622     58.2475
