~Version Information
VERS.                      2.0: CWLS Log ASCII Standard - VERSION 2.0
WRAP.                       NO: One line per depth step
~Well Information Block
STRT.FT               425.0000: 
STOP.FT              2461.0000: 
STEP.FT                 0.2500: 
NULL.                -999.2500: 
COMP.          Evergreen Operating Corporation: COMPANY
WELL.              Nomad 32-10: WELL
FLD.           Purgatorie River: FIELD
LOC.           2281' FNL & 1585' FEL: LOCATION
PROV.                 Colorado: PROVINCE
CNTY.               Las Animas: COUNTRY
SRVC.                Patterson: SERVICE COMPANY
DATE.          Thu Aug 12 02:01:07 2004: LOG DATE
UWI.           05 071 08127 00: UNIQUE WELL ID
~Curve Information Block
DEPT.FT            0 000 00 00: Depth
SN.Ohm-m                      : IEL Short Normal
SP.mV                         : IEL Spontaneous Potential
DIR.Ohm-m                     : IEL Induction Resistivity
GR.GAPI                       : Gamma Ray
~Parameter Information Block
~A  Depth        SN          SP         DIR          GR     
# ...
  1095.0000     17.3407      0.7276     15.8351    130.5904
  1095.2500     18.0061      0.8039     16.1102    128.4991
  1095.5000     18.8642      0.8306     16.2625    124.0911
  1095.7500     19.7012      0.7937     16.2989    120.1274
  1096.0000     20.4172      0.7125     16.2606    112.7728
  1096.2500     21.0229      0.6228     16.2116    107.4550
  1096.5000     21.4954      0.5506     16.2116    100.2308
  1096.7500     21.7195      0.5050     16.2858     96.6746
  1097.0000     21.5877      0.4939     16.4130     94.1281
  1097.2500     21.1339      0.5400     16.5434     94.5497
  1097.5000     20.5258      0.6723     16.6300     98.1301
  1097.7500     19.9425      0.8988     16.6541    101.7262
  1098.0000     19.4730      1.1863     16.6249    106.7148
  1098.2500     19.0895      1.4749     16.5635    108.5295
  1098.5000     18.6935      1.7166     16.4876    108.3088
  1098.7500     18.2317      1.9023     16.4077    106.9111
  1099.0000     17.7703      2.0565     16.3305    105.1937
  1099.2500     17.4109      2.2125     16.2618    105.3965
  1099.5000     17.1982      2.3904     16.2015    108.1584
  1099.7500     17.1444      2.5917     16.1364    111.0573
  1100.0000     17.2417      2.8026     16.0414    115.2206
  1100.2500     17.4445      3.0026     15.8934    116.7545
  1100.5000     17.7215      3.1712     15.6863    115.8421
  1100.7500     18.0856      3.2935     15.4349    113.1164
  1101.0000     18.5048      3.3653     15.1634    107.6118
  1101.2500     18.8072      3.3989     14.8901    104.5463
  1101.5000     18.7503      3.4218     14.6210    103.0093
  1101.7500     18.2314      3.4654     14.3549    104.5354
  1102.0000     17.4042      3.5485     14.0923    110.0997
  1102.2500     16.5532      3.6695     13.8399    115.0418
  1102.5000     15.8515      3.8115     13.6067    122.3804
  1102.7500     15.2673      3.9559     13.3989    126.3706
  1103.0000     14.7268      4.0930     13.2186    130.3731
  1103.2500     14.2750      4.2232     13.0669    131.7563
  1103.5000     13.9888      4.3516     12.9469    132.3479
  1103.7500     13.8589      4.4794     12.8623    132.1395
  1104.0000     13.8274      4.6017     12.8135    131.7490
  1104.2500     13.8550      4.7077     12.7953    131.8709
  1104.5000     13.9463      4.7857     12.7996    132.8127
  1104.7500     14.1270      4.8295     12.8224    133.5967
  1105.0000     14.3992      4.8432     12.8688    133.8531
  1105.2500     14.7344      4.8373     12.9511    132.6367
  1105.5000     15.0820      4.8257     13.0804    127.7680
  1105.7500     15.3844      4.8299     13.2597    122.5794
  1106.0000     15.6188      4.8860     13.4832    113.6001
  1106.2500     15.8081      5.0326     13.7439    108.3479
  1106.5000     15.9985      5.2758     14.0405    103.6628
  1106.7500     16.2695      5.5646     14.3774    103.1285
  1107.0000     16.6866      5.8149     14.7582    105.7916
  1107.2500     17.1763      5.9727     15.1782    109.1549
  1107.5000     17.5469      6.0533     15.6234    114.8954
  1107.7500     17.6838      6.1198     16.0767    118.2024
  1108.0000     17.6517      6.2264     16.5252    121.3011
  1108.2500     17.5955      6.3833     16.9622    122.0746
  1108.5000     17.6120      6.5592     17.3848    121.9986
  1108.7500     17.7614      6.7115     17.7916    121.5132
  1109.0000     18.1090      6.8170     18.1820    119.9802
  1109.2500     18.6701      6.8857     18.5538    117.8960
  1109.5000     19.3793      6.9505     18.8977    112.3665
  1109.7500     20.1577      7.0440     19.1966    107.0969
  1110.0000     20.9981      7.1781     19.4409     97.9675
  1110.2500     21.9663      7.3398     19.6517     92.1810
  1110.5000     23.0766      7.5027     19.8875     85.9148
  1110.7500     24.1659      7.6471     20.2139     84.1663
  1111.0000     24.9502      7.7713     20.6530     85.6244
  1111.2500     25.2148      7.8833     21.1510     88.8235
  1111.5000     24.9343      7.9863     21.5912     94.9404
  1111.7500     24.2560      8.0724     21.8502     98.5565
  1112.0000     23.4109      8.1293     21.8593    101.9877
  1112.2500     22.5844      8.1498     21.6234    102.9471
  1112.5000     21.8260      8.1345     21.1965    103.0201
  1112.7500     21.0973      8.0889     20.6451    102.5996
  1113.0000     20.3663      8.0197     20.0307    102.1057
  1113.2500     19.6253      7.9342     19.4111    102.3393
  1113.5000     18.9119      7.8425     18.8434    104.0176
  1113.7500     18.3314      7.7562     18.3767    106.0371
  1114.0000     17.9494      7.6852     18.0376    109.8720
  1114.2500     17.7160      7.6357     17.8205    112.3336
  1114.5000     17.5881      7.6071     17.6910    114.8555
  1114.7500     17.6025      7.5903     17.6010    115.6101
  1115.0000     17.7947      7.5707     17.5077    115.8847
  1115.2500     18.1280      7.5400     17.3876    115.8714
  1115.5000     18.5065      7.5019     17.2410    115.7334
  1115.7500     18.8351      7.4655     17.0881    115.4131
  1116.0000     19.0657      7.4352     16.9595    114.2646
  1116.2500     19.1866      7.4119     16.8887    112.9858
  1116.5000     19.1827      7.4019     16.9083    110.4444
  1116.7500     19.0519      7.4180     17.0504    108.5088
  1117.0000     18.8724      7.4680     17.3429    105.8090
  1117.2500     18.8013      7.5432     17.7984    104.7714
  1117.5000     18.9703      7.6208     18.3990    105.6643
  1117.7500     19.3972      7.6831     19.0831    108.1832
  1118.0000     20.0066      7.7332     19.7460    113.4937
  1118.2500     20.7211      7.7902     20.2589    116.2610
  1118.5000     21.5298      7.8712     20.5083    115.9237
  1118.7500     22.5410      7.9807     20.4437    111.5891
  1119.0000     24.0018      8.1134     20.1084     99.3386
  1119.2500     26.1482      8.2608     19.6325     88.7350
  1119.5000     28.8701      8.4173     19.1827     72.4097
  1119.7500     31.4587      8.5820     18.8979     63.0658
  1120.0000     32.8229      8.7551     18.8391     53.8609
  1120.2500     32.2408      8.9290     18.9683     51.9632
  1120.5000     29.9863      9.0838     19.1594     56.3425
  1120.7500     27.0483      9.1961     19.2468     63.8709
  1121.0000     24.2569      9.2554     19.0987     80.0794
  1121.2500     21.9043      9.2751     18.6703     92.0516
  1121.5000     20.0207      9.2889     17.9964    107.4490
  1121.7500     18.5907      9.3319     17.1431    114.0480
  1122.0000     17.5514      9.4213     16.1785    117.6895
  1122.2500     16.8018      9.5525     15.1774    117.2212
  1122.5000     16.2266      9.7120     14.2315    115.8207
  1122.7500     15.7139      9.8917     13.4347    116.0656
  1123.0000     15.2083     10.0882     12.8508    118.7313
  1123.2500     14.7323     10.2971     12.4927    121.4083
  1123.5000     14.3314     10.5139     12.3246    125.7286
  1123.7500     14.0234     10.7420     12.2830    128.5484
  1124.0000     13.7977     10.9908     12.3051    132.2279
  1124.2500     13.6440     11.2654     12.3511    133.8104
  1124.5000     13.5650     11.5571     12.4084    134.1487
  1124.7500     13.5512     11.8447     12.4817    133.0572
  1125.0000     13.5922     12.1045     12.5799    130.3010
  1125.2500     13.7163     12.3198     12.7089    128.2651
  1125.5000     13.9531     12.4839     12.8728    125.3808
  1125.7500     14.2509     12.5985     13.0789    123.6730
  1126.0000     14.5253     12.6724     13.3407    121.6976
  1126.2500     14.8185     12.7208     13.6774    120.8124
  1126.5000     15.2495     12.7582     14.1081    119.4113
  1126.7500     15.8170     12.7894     14.6468    117.6891
  1127.0000     16.4599     12.8101     15.3002    113.3843
  1127.2500     17.2121     12.8192     16.0678    109.8902
  1127.5000     18.1620     12.8294     16.9425    105.1934
  1127.7500     19.3503     12.8627     17.9063    102.8731
  1128.0000     20.7343     12.9338     18.9235    100.4654
  1128.2500     22.2175     13.0366     19.9446     99.3408
