~Version Information
VERS.                      2.0: CWLS Log ASCII Standard - VERSION 2.0
WRAP.                       NO: One line per depth step
~Well Information Block
STRT.FT               825.0000: 
STOP.FT              2446.5000: 
STEP.FT                 0.2500: 
NULL.                -999.2500: 
COMP.          Petrogulf Corporation: COMPANY
WELL.            Kraft 17-23 V: WELL
FLD.           Purgatorie River: FIELD
LOC.           1500' FSL & 1773' FWL: LOCATION
CNTY.               Las Animas: COUNTY
SRVC.                         : SERVICE COMPANY
DATE.          Thu Nov 20 06:35:41 2003: LOG DATE
UWI.                          : UNIQUE WELL ID
STAT.                 Colorado: STATE
~Curve Information Block
DEPT.FT            0 000 00 00: Depth
SN.Ohm-m                      : IEL Short Normal
SP.mV                         : IEL Spontaneous Potential
DIR.Ohm-m                     : IEL Induction Resistivity
GR.GAPI                       : Gamma Ray
~Parameter Information Block
~A  Depth        SN          SP         DIR          GR     
# ...
  1026.0000   2000.0000   2000.0000     19.1120    142.4022
  1026.2500   2000.0000   2000.0000     19.0330    144.8204
  1026.5000   2000.0000   2000.0000     18.5569    143.3324
  1026.7500   2000.0000   2000.0000     17.7853    138.5155
  1027.0000   2000.0000   2000.0000     16.8651    127.0915
  1027.2500   2000.0000   2000.0000     15.9395    118.5681
  1027.5000   2000.0000   2000.0000     15.1153    107.9221
  1027.7500   2000.0000   2000.0000     14.4511    103.6518
  1028.0000   2000.0000   2000.0000     13.9624    102.0178
  1028.2500   2000.0000   2000.0000     13.6381    103.5086
  1028.5000   2000.0000   2000.0000     13.4543    108.1570
  1028.7500   2000.0000   2000.0000     13.3836    112.2948
  1029.0000   2000.0000   2000.0000     13.3965    119.4673
  1029.2500   2000.0000   2000.0000     13.4566    124.4099
  1029.5000   2000.0000   2000.0000     13.5190    130.9612
  1029.7500   2000.0000   2000.0000     13.5334    134.3784
  1030.0000   2000.0000   2000.0000     13.4606    138.3975
  1030.2500   2000.0000   2000.0000     13.2895    140.7983
  1030.5000   2000.0000   2000.0000     13.0431    144.1355
  1030.7500   2000.0000   2000.0000     12.7660    145.6803
  1031.0000   2000.0000   2000.0000     12.5029    145.7818
  1031.2500   2000.0000   2000.0000     12.2849    143.9365
  1031.5000   2000.0000   2000.0000     12.1243    138.0496
  1031.7500   2000.0000   2000.0000     12.0241    132.0082
  1032.0000   2000.0000   2000.0000     11.9885    120.0820
  1032.2500   2000.0000   2000.0000     12.0340    111.0210
  1032.5000   2000.0000   2000.0000     12.1949     98.5748
  1032.7500   2000.0000   2000.0000     12.5145     93.0954
  1033.0000   2000.0000   2000.0000     13.0235     91.5483
  1033.2500   2000.0000   2000.0000     13.7010     95.0053
  1033.5000   2000.0000   2000.0000     14.4314    104.7641
  1033.7500   2000.0000   2000.0000     14.9922    112.4923
  1034.0000   2000.0000   2000.0000     15.1459    123.4060
  1034.2500   2000.0000   2000.0000     14.8112    129.6278
  1034.5000   2000.0000   2000.0000     14.1330    137.3602
  1034.7500   2000.0000   2000.0000     13.3547    141.2266
  1035.0000   2000.0000   2000.0000     12.6563    143.8298
  1035.2500   2000.0000   2000.0000     12.1020    142.9167
  1035.5000   2000.0000   2000.0000     11.6736    138.5541
  1035.7500   2000.0000   2000.0000     11.3210    135.1413
  1036.0000   2000.0000   2000.0000     10.9992    131.7946
  1036.2500   2000.0000   2000.0000     10.6828    131.5499
  1036.5000   2000.0000   2000.0000     10.3671    134.3125
  1036.7500   2000.0000   2000.0000     10.0614    137.8451
  1037.0000   2000.0000   2000.0000      9.7830    144.4370
  1037.2500   2000.0000   2000.0000      9.5506    148.7365
  1037.5000   2000.0000   2000.0000      9.3746    153.6357
  1037.7500   2000.0000   2000.0000      9.2516    155.6169
  1038.0000   2000.0000   2000.0000      9.1607    157.1054
  1038.2500   2000.0000   2000.0000      9.0728    157.3524
  1038.5000   2000.0000   2000.0000      8.9635    156.5815
  1038.7500   2000.0000   2000.0000      8.8291    155.3246
  1039.0000   2000.0000   2000.0000      8.6905    152.7501
  1039.2500   2000.0000   2000.0000      8.5818    150.9276
  1039.5000   2000.0000   2000.0000      8.5333    148.7857
  1039.7500   2000.0000   2000.0000      8.5577    148.2659
  1040.0000   2000.0000   2000.0000      8.6468    149.0919
  1040.2500   2000.0000   2000.0000      8.7765    150.0982
  1040.5000   2000.0000   2000.0000      8.9182    150.7180
  1040.7500   2000.0000   2000.0000      9.0501    150.2125
  1041.0000   2000.0000   2000.0000      9.1635    148.9886
  1041.2500   2000.0000   2000.0000      9.2618    148.6482
  1041.5000   2000.0000   2000.0000      9.3555    149.4832
  1041.7500   2000.0000   2000.0000      9.4568    150.8011
  1042.0000   2000.0000   2000.0000      9.5772    153.2152
  1042.2500   2000.0000   2000.0000      9.7267    154.6877
  1042.5000   2000.0000   2000.0000      9.9148    156.4130
  1042.7500   2000.0000   2000.0000     10.1480    157.4106
  1043.0000   2000.0000   2000.0000     10.4276    158.9028
  1043.2500   2000.0000   2000.0000     10.7463    159.6598
  1043.5000   2000.0000   2000.0000     11.0844    159.9107
  1043.7500   2000.0000   2000.0000     11.4109    159.6414
  1044.0000   2000.0000   2000.0000     11.6891    159.4699
  1044.2500   2000.0000   2000.0000     11.8888    159.7120
  1044.5000   2000.0000   2000.0000     12.0005    159.9801
  1044.7500   2000.0000   2000.0000     12.0424    159.7251
  1045.0000   2000.0000   2000.0000     12.0538    158.9464
  1045.2500   2000.0000   2000.0000     12.0792    158.5360
  1045.5000   2000.0000   2000.0000     12.1508    158.1139
  1045.7500   2000.0000   2000.0000     12.2786    157.6058
  1046.0000   2000.0000   2000.0000     12.4498    156.0411
  1046.2500   2000.0000   2000.0000     12.6378    154.5214
  1046.5000   2000.0000   2000.0000     12.8143    151.9374
  1046.7500   2000.0000   2000.0000     12.9598    150.1296
  1047.0000   2000.0000   2000.0000     13.0668    147.0325
  1047.2500   2000.0000   2000.0000     13.1363    144.5160
  1047.5000   2000.0000   2000.0000     13.1757    140.3700
  1047.7500   2000.0000   2000.0000     13.2008    137.9187
  1048.0000   2000.0000   2000.0000     13.2377    135.5125
  1048.2500   2000.0000   2000.0000     13.3212    134.8017
  1048.5000   2000.0000   2000.0000     13.4843    134.5383
  1048.7500   2000.0000   2000.0000     13.7448    134.4144
  1049.0000   2000.0000   2000.0000     14.0986    133.5031
  1049.2500   2000.0000   2000.0000     14.5219    132.1987
  1049.5000   2000.0000   2000.0000     14.9854    129.6597
  1049.7500   2000.0000   2000.0000     15.4739    128.2325
  1050.0000   2000.0000   2000.0000     15.9982    127.3560
  1050.2500   2000.0000   2000.0000     16.5879    127.4591
  1050.5000   2000.0000   2000.0000     17.2670    127.3446
  1050.7500   2000.0000   2000.0000     18.0252    126.4376
  1051.0000   2000.0000   2000.0000     18.8026    124.1485
  1051.2500   2000.0000   2000.0000     19.5051    122.9595
  1051.5000   2000.0000   2000.0000     20.0530    123.2590
  1051.7500   2000.0000   2000.0000     20.4307    125.0082
  1052.0000   2000.0000   2000.0000     20.6934    128.7069
  1052.2500   2000.0000   2000.0000     20.9270    130.7011
  1052.5000   2000.0000   2000.0000     21.1990    131.2632
  1052.7500   2000.0000   2000.0000     21.5362    129.6476
  1053.0000   2000.0000   2000.0000     21.9326    124.9105
  1053.2500   2000.0000   2000.0000     22.3578    120.9951
  1053.5000   2000.0000   2000.0000     22.7449    114.9600
  1053.7500   2000.0000   2000.0000     22.9699    111.0437
  1054.0000   2000.0000   2000.0000     22.8724    105.7279
  1054.2500   2000.0000   2000.0000     22.3515    102.9833
  1054.5000   2000.0000   2000.0000     21.4707    100.7537
  1054.7500   2000.0000   2000.0000     20.4602    100.7002
  1055.0000   2000.0000   2000.0000     19.5964    102.6002
  1055.2500   2000.0000   2000.0000     19.0819    104.8214
  1055.5000   2000.0000   2000.0000     19.0107    108.8159
  1055.7500   2000.0000   2000.0000     19.3880    111.6495
  1056.0000   2000.0000   2000.0000     20.1600    115.8363
  1056.2500   2000.0000   2000.0000     21.2271    118.1312
  1056.5000   2000.0000   2000.0000     22.4381    119.6050
  1056.7500   2000.0000   2000.0000     23.5761    118.7903
  1057.0000   2000.0000   2000.0000     24.3715    115.2347
  1057.2500   2000.0000   2000.0000     24.5991    112.1935
  1057.5000   2000.0000   2000.0000     24.2026    108.5391
  1057.7500   2000.0000   2000.0000     23.3187    107.5263
  1058.0000   2000.0000   2000.0000     22.1639    108.4607
  1058.2500   2000.0000   2000.0000     20.9057    110.3698
  1058.5000   2000.0000   2000.0000     19.6314    114.2469
  1058.7500   2000.0000   2000.0000     18.3918    117.1423
  1059.0000   2000.0000   2000.0000     17.2511    122.0257
  1059.2500   2000.0000   2000.0000     16.2866    125.9590
