~Version Information
VERS.                      2.0: CWLS Log ASCII Standard - VERSION 2.0
WRAP.                       NO: One line per depth step
~Well Information Block
STRT.FT               580.0000: 
STOP.FT              2729.7000: 
STEP.FT                 0.1000: 
NULL.                -999.2500: 
COMP.          Pioneer Natural Resources: COMPANY
WELL.          Sand Pebbles 13-33: WELL
FLD.           Purgatoire River: FIELD
LOC.           1883' FSL & 63' FWL----: LOCATION
PROV.                 Colorado: PROVINCE
CNTY.               Las Animas: COUNTRY
SRVC.                Patterson: SERVICE COMPANY
DATE.          Mon Mar 14 07:33:33 2005: LOG DATE
UWI.           05 071 08224 00: UNIQUE WELL ID
~Curve Information Block
DEPT.FT            0 000 00 00: Depth
DCAL.in                       : CDL Caliper
RHOB.g/cc                     : CDL Bulk Density
RHOC.g/cc                     : CDL Density Correction
DPOR.pu                       : CDL Density Porosity
NPOR.pu                       : Neutron Porosity
GR.GAPI                       : Gamma Ray
~Parameter Information Block
~A  Depth       DCAL        RHOB        RHOC        DPOR        NPOR         GR     
# ...
  1146.4000      8.1361      2.6389      0.0885      0.6718     22.7682     92.1794
  1146.5000      8.1353      2.6365      0.0643      0.8178     22.6336     81.8599
  1146.6000      8.1353      2.6439      0.0834      0.3688     22.8648     76.9976
  1146.7000      8.1353      2.6451      0.1094      0.2973     23.0588     78.3756
  1146.8000      8.1374      2.6211      0.0698      1.7507     23.1080     84.3962
  1146.9000      8.1374      2.5863      0.0222      3.8601     23.3171     89.6753
  1147.0000      8.1383      2.5697     -0.0198      4.8676     23.8868     93.2814
  1147.1000      8.1383      2.5865      0.0180      3.8474     24.6996     96.4968
  1147.2000      8.1383      2.6242      0.0595      1.5641     25.5538     96.9325
  1147.3000      8.1358      2.6528      0.0823     -0.1726     26.2954     95.3208
  1147.4000      8.1358      2.6526      0.0947     -0.1558     26.8375     96.0293
  1147.5000      8.1340      2.6266      0.0265      1.4161     27.0217     99.9815
  1147.6000      8.1340      2.5898      0.0603      3.6510     26.7049    106.1891
  1147.7000      8.1340      2.5554     -0.0134      5.7333     26.1899    112.1934
  1147.8000      8.1351      2.5414     -0.0046      6.5803     26.1388    116.1776
  1147.9000      8.1351      2.5560      0.0336      5.6948     26.6979    117.7534
  1148.0000      8.1349      2.5866      0.0434      3.8394     27.2901    115.6328
  1148.1000      8.1349      2.6088      0.1077      2.4979     27.7186    113.8731
  1148.2000      8.1349      2.6098      0.0586      2.4346     28.1312    116.2925
  1148.3000      8.1326      2.6018      0.0722      2.9230     28.1946    119.3913
  1148.4000      8.1326      2.5943      0.0820      3.3732     27.7170    122.3027
  1148.5000      8.1322      2.5908      0.0168      3.5852     27.1391    126.4061
  1148.6000      8.1322      2.5959      0.0648      3.2795     26.7200    130.6745
  1148.7000      8.1322      2.6018      0.0838      2.9205     26.4338    132.8123
  1148.8000      8.1324      2.6042      0.0644      2.7768     26.4703    131.5800
  1148.9000      8.1324      2.6006      0.1014      2.9924     26.9271    127.5818
  1149.0000      8.1326      2.5801      0.0454      4.2352     27.4527    121.1774
  1149.1000      8.1326      2.5515      0.0251      5.9713     27.7570    114.8941
  1149.2000      8.1326      2.5403      0.0241      6.6500     27.8271    114.7643
  1149.3000      8.1346      2.5561      0.0140      5.6904     27.6961    118.1123
  1149.4000      8.1346      2.5812      0.0886      4.1670     27.5033    117.7059
  1149.5000      8.1383      2.5971      0.0405      3.2063     27.2200    114.0184
  1149.6000      8.1383      2.6162      0.0865      2.0509     26.7313    112.3597
  1149.7000      8.1383      2.6634      0.0752     -0.8097     26.0764    112.8020
  1149.8000      8.1402      2.7428      0.1043     -5.6219     25.3585    111.5255
  1149.9000      8.1402      2.8232      0.1524    -10.4948     24.6658    107.9882
  1150.0000      8.1386      2.8708      0.1498    -13.3808     24.0816    104.0610
  1150.1000      8.1386      2.8891      0.1218    -14.4885     23.9534     99.4030
  1150.2000      8.1386      2.8972      0.1485    -14.9827     24.3757     93.0598
  1150.3000      8.1360      2.8968      0.1022    -14.9597     24.8247     86.5985
  1150.4000      8.1360      2.8719      0.0740    -13.4463     24.8951     79.4816
  1150.5000      8.1347      2.8149     -0.0267     -9.9941     24.4460     71.1926
  1150.6000      8.1347      2.7444     -0.0402     -5.7202     23.5275     67.5510
  1150.7000      8.1347      2.6823     -0.0595     -1.9595     22.6828     72.5225
  1150.8000      8.1354      2.6381     -0.0318      0.7190     22.2838     82.2678
  1150.9000      8.1354      2.6097     -0.0841      2.4448     22.3185     92.5205
  1151.0000      8.1373      2.6004     -0.0940      3.0034     22.8872    100.1535
  1151.1000      8.1373      2.6142     -0.0032      2.1694     23.9188    102.3327
  1151.2000      8.1373      2.6275      0.0697      1.3610     24.9869    100.9132
  1151.3000      8.1385      2.6183      0.0171      1.9222     25.6601    101.4422
  1151.4000      8.1385      2.5948      0.0661      3.3472     25.8914    104.5992
  1151.5000      8.1401      2.5816     -0.0232      4.1435     26.2360    107.5871
  1151.6000      8.1401      2.5963      0.0479      3.2541     27.2096    111.5507
  1151.7000      8.1401      2.6262      0.0530      1.4414     28.6519    114.6755
  1151.8000      8.1473      2.6520      0.0510     -0.1231     29.8026    113.1601
  1151.9000      8.1473      2.6694      0.0519     -1.1783     29.9113    111.4580
  1152.0000      8.1574      2.6758      0.1022     -1.5660     29.1819    114.4313
  1152.1000      8.1574      2.6684      0.0794     -1.1130     28.5020    118.7688
  1152.2000      8.1574      2.6578      0.0423     -0.4699     28.3129    121.8973
  1152.3000      8.1622      2.6606      0.0803     -0.6415     28.6538    126.5908
  1152.4000      8.1622      2.6697      0.1001     -1.1920     29.3326    134.0195
  1152.5000      8.1626      2.6565      0.1375     -0.3912     29.7776    138.6878
  1152.6000      8.1626      2.6087      0.1069      2.5043     29.9400    136.2756
  1152.7000      8.1626      2.5512     -0.0078      5.9858     30.3581    132.7921
  1152.8000      8.1620      2.5246     -0.0540      7.6017     30.9186    133.7748
  1152.9000      8.1620      2.5354     -0.0022      6.9466     30.8937    135.6586
  1153.0000      8.1630      2.5440      0.0526      6.4231     30.2436    136.7334
  1153.1000      8.1630      2.5211      0.0117      7.8141     29.6314    137.6045
  1153.2000      8.1630      2.4849     -0.0235     10.0090     29.4066    134.6423
  1153.3000      8.1639      2.4649      0.0284     11.2169     29.5873    126.9888
  1153.4000      8.1639      2.4626      0.0728     11.3600     30.0860    123.7173
  1153.5000      8.1631      2.4684      0.0394     11.0074     30.4203    127.5936
  1153.6000      8.1631      2.4851      0.0683      9.9937     30.1019    129.9550
  1153.7000      8.1631      2.5112      0.0764      8.4139     29.3283    127.3296
  1153.8000      8.1612      2.5376      0.0645      6.8096     28.6548    120.6997
  1153.9000      8.1612      2.5650      0.0363      5.1529     28.5332    112.7319
  1154.0000      8.1604      2.5934      0.0884      3.4312     28.6944    108.3542
  1154.1000      8.1604      2.6137      0.0866      2.2001     28.6748    109.6663
  1154.2000      8.1604      2.6240      0.0670      1.5749     28.4882    115.8843
  1154.3000      8.1629      2.6360      0.0562      0.8464     28.3858    122.6887
  1154.4000      8.1629      2.6508      0.1081     -0.0501     28.6498    128.0943
  1154.5000      8.1652      2.6486      0.0878      0.0871     28.9796    136.4986
  1154.6000      8.1652      2.6238      0.0497      1.5857     28.7857    147.3403
  1154.7000      8.1652      2.5968      0.0048      3.2223     28.4319    152.7193
  1154.8000      8.1662      2.5905     -0.0122      3.6034     28.5710    151.5544
  1154.9000      8.1662      2.6087      0.0715      2.5039     29.3146    148.3488
  1155.0000      8.1644      2.6341      0.0863      0.9653     30.0870    142.8632
  1155.1000      8.1644      2.6611      0.0594     -0.6752     30.1077    134.4542
  1155.2000      8.1644      2.6919      0.1280     -2.5414     29.5220    128.8279
  1155.3000      8.1608      2.7058      0.1469     -3.3789     29.2742    129.2839
  1155.4000      8.1608      2.6819      0.1251     -1.9303     29.4427    127.3078
  1155.5000      8.1597      2.6424      0.0264      0.4597     29.1262    118.0671
  1155.6000      8.1597      2.6308      0.0336      1.1624     28.2382    112.8611
  1155.7000      8.1597      2.6516      0.0810     -0.0964     27.9161    118.3452
  1155.8000      8.1609      2.6668      0.0709     -1.0186     28.4792    126.0942
  1155.9000      8.1609      2.6465      0.0791      0.2100     29.1154    127.8833
