~Version Information
VERS.                      2.0: CWLS Log ASCII Standard - VERSION 2.0
WRAP.                       NO: One line per depth step
~Well Information Block
STRT.FT               698.9000: 
STOP.FT              2460.4000: 
STEP.FT                 0.1000: 
NULL.                -999.2500: 
COMP.          Petrogulf Corporation: COMPANY
WELL.             State 16-23V: WELL
FLD.           Purgatorie River: FIELD
LOC.           2414' FSL & 2215' FWL: LOCATION
PROV.                 Colorado: PROVINCE
CNTY.               Las Animas: COUNTRY
SRVC.                         : SERVICE COMPANY
DATE.          Mon Jun 09 14:24:56 2003: LOG DATE
UWI.           05 071 07865 00: UNIQUE WELL ID
~Curve Information Block
DEPT.FT            0 000 00 00: Depth
DCAL.in                       : CDL Caliper
RHOB.g/cc                     : CDL Bulk Density
RHOC.g/cc                     : CDL Density Correction
DPOR.pu                       : CDL Density Porosity
GR.GAPI                       : Gamma Ray
NPOR.pu                       : Neutron Porosity
~Parameter Information Block
~A  Depth       DCAL        RHOB        RHOC        DPOR         GR         NPOR    
# ...
  2455.7000      7.7780      2.6324      0.0980      1.0679   -999.2500   -999.2500
  2455.8000      7.7688      2.6698      0.1072     -1.1996   -999.2500   -999.2500
  2455.9000      7.7688      2.7142      0.1179     -3.8881   -999.2500   -999.2500
  2456.0000      7.7265      2.7659      0.1298     -7.0227   -999.2500   -999.2500
  2456.1000      7.7265      2.8254      0.1424    -10.6294   -999.2500   -999.2500
  2456.2000      7.7265      2.8929      0.1551    -14.7189   -999.2500   -999.2500
  2456.3000      7.5511      2.9682      0.1666    -19.2846   -999.2500   -999.2500
  2456.4000      7.5511      3.0509      0.1756    -24.2962   -999.2500   -999.2500
  2456.5000      6.9550      3.1399      0.1807    -29.6907   -999.2500   -999.2500
  2456.6000      6.9550      3.2335      0.1802    -35.3609   -999.2500   -999.2500
  2456.7000      6.9550      3.3288      0.1724    -41.1416   -999.2500   -999.2500
  2456.8000      5.6094      3.4221      0.1556    -46.7954   -999.2500   -999.2500
  2456.9000      5.6094      3.5080      0.1284    -52.0017   -999.2500   -999.2500
  2457.0000      3.9317      3.5798      0.0892    -56.3523   -999.2500   -999.2500
  2457.1000      3.9317      3.6295      0.0368    -59.3611   -999.2500   -999.2500
  2457.2000      3.9317      3.6481     -0.0300    -60.4905   -999.2500   -999.2500
  2457.3000      3.0124      3.6268     -0.1122    -59.1992   -999.2500   -999.2500
  2457.4000      3.0124      3.5576     -0.2105    -55.0081   -999.2500   -999.2500
  2457.5000      2.8147      3.4350     -0.3259    -47.5763   -999.2500   -999.2500
  2457.6000      2.8147      3.2568     -0.4587    -36.7748   -999.2500   -999.2500
  2457.7000      2.8147      3.0252     -0.6096    -22.7414   -999.2500   -999.2500
  2457.8000      2.7987      2.7474     -0.7789     -5.9009   -999.2500   -999.2500
  2457.9000      2.7987      2.4345     -0.9664     13.0588   -999.2500   -999.2500
  2458.0000   -999.2500      2.1013      0.0000     33.2542   -999.2500   -999.2500
  2458.1000   -999.2500      1.7638      0.0000     53.7080   -999.2500   -999.2500
  2458.2000   -999.2500      1.4378      0.0000     73.4663   -999.2500   -999.2500
  2458.3000   -999.2500      1.1368      0.0000     91.7076   -999.2500   -999.2500
  2458.4000   -999.2500      0.8709      0.0000    107.8251   -999.2500   -999.2500
  2458.5000   -999.2500      0.6458   -999.2500    121.4671   -999.2500   -999.2500
  2458.6000   -999.2500      0.4632   -999.2500    132.5361   -999.2500   -999.2500
  2458.7000   -999.2500      0.3210   -999.2500    141.1497   -999.2500   -999.2500
  2458.8000   -999.2500      0.2149   -999.2500    147.5809   -999.2500   -999.2500
  2458.9000   -999.2500      0.1389   -999.2500    152.1890   -999.2500   -999.2500
  2459.0000   -999.2500      0.0866   -999.2500    155.3586   -999.2500   -999.2500
  2459.1000   -999.2500      0.0520   -999.2500    157.4516   -999.2500   -999.2500
  2459.2000   -999.2500      0.0301   -999.2500    158.7788   -999.2500   -999.2500
  2459.3000   -999.2500      0.0168   -999.2500    159.5870   -999.2500   -999.2500
  2459.4000   -999.2500      0.0090   -999.2500    160.0596   -999.2500   -999.2500
  2459.5000   -999.2500      0.0046   -999.2500    160.3251   -999.2500   -999.2500
  2459.6000   -999.2500      0.0023   -999.2500    160.4684   -999.2500   -999.2500
  2459.7000   -999.2500      0.0010   -999.2500    160.5428   -999.2500   -999.2500
  2459.8000   -999.2500      0.0004   -999.2500    160.5799   -999.2500   -999.2500
  2459.9000   -999.2500      0.0001   -999.2500    160.5977   -999.2500   -999.2500
  2460.0000   -999.2500      0.0000   -999.2500    160.6061   -999.2500   -999.2500
  2460.1000   -999.2500      0.0000   -999.2500    160.6061   -999.2500   -999.2500
  2460.2000   -999.2500      0.0000   -999.2500    160.6061   -999.2500   -999.2500
  2460.3000   -999.2500      0.0000   -999.2500    160.6061   -999.2500   -999.2500
  2460.4000   -999.2500      0.0000   -999.2500    160.6061   -999.2500   -999.2500
