~Version Information
VERS.                      2.0: CWLS Log ASCII Standard - VERSION 2.0
WRAP.                       NO: One line per depth step
~Well Information Block
STRT.FT                -8.2500: 
STOP.FT              2725.7500: 
STEP.FT                 0.2500: 
NULL.                -999.2500: 
COMP.          Pioneer Natural Resources: COMPANY
WELL.          Rabbit Bush Federal 44-19: WELL
FLD.           Purgatoire River: FIELD
LOC.           826' FSL & 1127' FEL: LOCATION
CNTY.               Las Animas: COUNTY
SRVC.                Patterson: SERVICE COMPANY
DATE.          Thu Sep 14 10:51:19 2006: LOG DATE
UWI.           05 071 08149 00: UNIQUE WELL ID
STAT.                       CO: STATE
~Curve Information Block
DEPT.FT            0 000 00 00: Depth
GR.GAPI                       : Gamma Ray
CCL.                          : Casing Collar Locator
TT3.usec                      : CBL 3' Travel Time
AMP3.mV                       : CBL 3' Amplitude
~Parameter Information Block
~A  Depth        GR         CCL         TT3         AMP3    
# ...
  2705.2500     76.1891      0.0000    723.0558      6.6648
  2705.5000     75.7155      0.0000    706.3947      6.7621
  2705.7500     72.0630      0.0000    676.9196      6.8154
  2706.0000     66.2194      0.0000    635.9818      6.7997
  2706.2500     59.8914      0.0000    591.2471      6.7359
  2706.5000     54.8948      0.0000    552.3624      6.6665
  2706.7500     52.5335      0.0000    524.4677      6.6240
  2707.0000     53.0124      0.0000    506.1994      6.6163
  2707.2500     55.4534      0.0000    493.3343      6.6307
  2707.5000     58.7518      0.0000    483.0973      6.6463
  2707.7500     62.3017      0.0000    475.1138      6.6493
  2708.0000     65.6836      0.0000    469.7855      6.6429
  2708.2500     68.0113      0.0000    466.9120      6.6435
  2708.5000     68.2956      0.0000    465.8853      6.6606
  2708.7500     66.6946      0.0000    466.8484      6.6814
  2709.0000     64.8973      0.0000    471.8854      6.6806
  2709.2500     64.6384      0.0000    485.2982      6.6470
  2709.5000     65.8242      0.0000    511.6099      6.5955
  2709.7500     66.6522      0.0000    550.9994      6.5522
  2710.0000     65.7918      0.0000    595.3445      6.5335
  2710.2500     63.9393      0.0000    630.0520      6.5390
  2710.5000     62.9071      0.0000    642.7015      6.5556
  2710.7500     63.6422      0.0000    632.7552      6.5646
  2711.0000     65.6952      0.0000    613.3970      6.5443
  2711.2500     68.5308      0.0000    600.9395      6.4644
  2711.5000     72.7757      0.0000    597.6843      6.2621
  2711.7500     79.7399      0.0000    583.8098      5.8246
  2712.0000     89.7791      0.0000    530.3746      5.0328
  2712.2500    101.3066      0.0000    425.9517      3.8821
  2712.5000    111.2975      0.0000    291.3558      2.5671
  2712.7500    116.8361      0.0000    165.4882      1.3948
  2713.0000    116.8696      0.0000     76.7140      0.5817
  2713.2500    112.9639      0.0000     28.6730      0.1433
  2713.5000    108.0643      0.0000      8.5636     -0.0406
  2713.7500    104.2546      0.0000      2.0286     -0.1006
  2714.0000    101.7550      0.0000      0.3750     -0.1158
  2714.2500     99.6235      0.0000   -999.2500   -999.2500
  2714.5000     96.9357      0.0000   -999.2500   -999.2500
  2714.7500     93.5791      0.0000   -999.2500   -999.2500
  2715.0000     90.4814      0.0000   -999.2500   -999.2500
  2715.2500     89.0410      0.0000   -999.2500   -999.2500
  2715.5000     89.9043      0.0000   -999.2500   -999.2500
  2715.7500     92.3540      0.0000   -999.2500   -999.2500
  2716.0000     95.2625      0.0000   -999.2500   -999.2500
  2716.2500     98.2646      0.0000   -999.2500   -999.2500
  2716.5000    101.2668      0.0000   -999.2500   -999.2500
  2716.7500    103.1678      0.0000   -999.2500   -999.2500
  2717.0000    102.1799      0.0000   -999.2500   -999.2500
  2717.2500     97.8196      0.0000   -999.2500   -999.2500
  2717.5000     92.1260      0.0000   -999.2500   -999.2500
  2717.7500     88.3650      0.0000   -999.2500   -999.2500
  2718.0000     88.3937      0.0000   -999.2500   -999.2500
  2718.2500     91.4165      0.0000   -999.2500   -999.2500
  2718.5000     95.0989      0.0000   -999.2500   -999.2500
  2718.7500     97.3093      0.0000   -999.2500   -999.2500
  2719.0000     96.9821      0.0000   -999.2500   -999.2500
  2719.2500     94.3792      0.0000   -999.2500   -999.2500
  2719.5000     91.2116      0.0000   -999.2500   -999.2500
  2719.7500     90.1317      0.0000   -999.2500   -999.2500
  2720.0000     93.1896   -999.2500   -999.2500   -999.2500
  2720.2500    100.1149   -999.2500   -999.2500   -999.2500
  2720.5000    107.8990   -999.2500   -999.2500   -999.2500
  2720.7500    112.2464   -999.2500   -999.2500   -999.2500
  2721.0000    109.9861   -999.2500   -999.2500   -999.2500
  2721.2500    100.8280   -999.2500   -999.2500   -999.2500
  2721.5000     87.1372   -999.2500   -999.2500   -999.2500
  2721.7500     71.8153   -999.2500   -999.2500   -999.2500
  2722.0000     56.3472   -999.2500   -999.2500   -999.2500
  2722.2500     41.0327   -999.2500   -999.2500   -999.2500
  2722.5000     26.6252   -999.2500   -999.2500   -999.2500
  2722.7500     14.7890   -999.2500   -999.2500   -999.2500
  2723.0000      6.8192   -999.2500   -999.2500   -999.2500
  2723.2500      2.5558   -999.2500   -999.2500   -999.2500
  2723.5000      0.7677   -999.2500   -999.2500   -999.2500
  2723.7500      0.1832   -999.2500   -999.2500   -999.2500
  2724.0000      0.0341   -999.2500   -999.2500   -999.2500
  2724.2500      0.0047   -999.2500   -999.2500   -999.2500
  2724.5000   -999.2500   -999.2500   -999.2500   -999.2500
  2724.7500   -999.2500   -999.2500   -999.2500   -999.2500
  2725.0000   -999.2500   -999.2500   -999.2500   -999.2500
  2725.2500   -999.2500   -999.2500   -999.2500   -999.2500
  2725.5000   -999.2500   -999.2500   -999.2500   -999.2500
  2725.7500   -999.2500   -999.2500   -999.2500   -999.2500
