~Version Information
VERS.                      2.0: CWLS Log ASCII Standard - VERSION 2.0
WRAP.                       NO: One line per depth step
~Well Information Block
STRT.FT                15.0000: 
STOP.FT              2565.5000: 
STEP.FT                 0.2500: 
NULL.                -999.2500: 
COMP.          Pioneer Natural Resources: COMPANY
WELL.           Costello 44-24: WELL
FLD.           Purgatoire River: FIELD
LOC.           327' FSL & 378' FEL: LOCATION
PROV.                 Colorado: PROVINCE
CNTY.               Las Animas: COUNTRY
SRVC.                Patterson: SERVICE COMPANY
DATE.          Mon Jul 25 10:15:19 2005: LOG DATE
UWI.           05 071 08413 00: UNIQUE WELL ID
~Curve Information Block
DEPT.FT            0 000 00 00: Depth
GR.GAPI                       : Gamma Ray
CCL.                          : Casing Collar Locator
TT3.usec                      : CBL 3' Travel Time
AMP3.mV                       : CBL 3' Amplitude
~Parameter Information Block
~A  Depth        GR         CCL         TT3         AMP3    
# ...
  2192.5000    106.5691      0.0000    664.9978      4.7753
  2192.7500    106.3811      0.0000    665.9927      4.8459
  2193.0000    104.1046      0.0000    668.8598      4.8744
  2193.2500    101.1356      0.0000    671.7886      4.8868
  2193.5000     98.4056      0.0000    671.1881      4.8875
  2193.7500     96.2226      0.0000    663.0258      4.8556
  2194.0000     94.7519      0.0000    644.3655      4.7788
  2194.2500     93.9758      0.0000    614.9167      4.6755
  2194.5000     93.3500      0.0000    577.8826      4.5792
  2194.7500     92.1762      0.0000    538.5831      4.5074
  2195.0000     90.3669      0.0000    501.6132      4.4530
  2195.2500     88.5439      0.0000    469.7292      4.4046
  2195.5000     87.5716      0.0000    444.8281      4.3685
  2195.7500     88.1438      0.0000    428.1024      4.3635
  2196.0000     90.3128      0.0000    419.1194      4.3995
  2196.2500     92.9971      0.0000    416.3244      4.4659
  2196.5000     94.3514      0.0000    419.2055      4.5395
  2196.7500     93.1943      0.0000    429.6898      4.5989
  2197.0000     90.1549      0.0000    450.6762      4.6335
  2197.2500     87.2419      0.0000    482.1160      4.6430
  2197.5000     86.2200      0.0000    518.1639      4.6317
  2197.7500     87.2899      0.0000    549.3596      4.6095
  2198.0000     89.1446      0.0000    569.0709      4.5957
  2198.2500     90.2107      0.0000    578.0027      4.6116
  2198.5000     89.7759      0.0000    582.2610      4.6630
  2198.7500     88.0445      0.0000    587.4220      4.7350
  2199.0000     85.6083      0.0000    594.8307      4.8072
  2199.2500     83.2322      0.0000    602.7133      4.8725
  2199.5000     81.8455      0.0000    608.7261      4.9350
  2199.7500     82.0954      0.0000    610.8613      4.9925
  2200.0000     83.6120      0.0000    608.0419      5.0269
  2200.2500     84.9174      0.0000    602.0338      5.0205
  2200.5000     84.4151      0.0000    598.1088      4.9780
  2200.7500     81.6229      0.0000    601.8694      4.9283
  2201.0000     77.4674      0.0000    614.9086      4.8994
  2201.2500     73.4525      0.0000    633.6155      4.8939
  2201.5000     70.6038      0.0000    651.5388      4.8893
  2201.7500     69.1358      0.0000    663.0275      4.8634
  2202.0000     68.7963      0.0000    665.8067      4.8158
  2202.2500     69.1692      0.0000    660.7380      4.7681
  2202.5000     69.8561      0.0000    649.7122      4.7446
  2202.7500     70.7744      0.0000    635.1021      4.7541
  2203.0000     72.0963      0.0000    621.4011      4.7845
  2203.2500     73.6949      0.0000    614.8436      4.8142
  2203.5000     74.9976      0.0000    618.8434      4.8290
  2203.7500     75.5350      0.0000    630.5008      4.8316
  2204.0000     75.2899      0.0000    643.0285      4.8335
  2204.2500     74.4614      0.0000    650.9150      4.8370
  2204.5000     73.1918      0.0000    651.8375      4.8267
  2204.7500     71.4692      0.0000    645.5709      4.7796
  2205.0000     69.0881      0.0000    633.8838      4.6865
  2205.2500     65.9909      0.0000    621.6693      4.5663
  2205.5000     62.8260      0.0000    615.4330      4.4538
  2205.7500     60.7793      0.0000    618.3481      4.3720
  2206.0000     60.5550      0.0000    627.3561      4.3197
  2206.2500     61.7369      0.0000    636.1646      4.2895
  2206.5000     63.2566      0.0000    640.3780      4.2841
  2206.7500     64.2701      0.0000    639.4922      4.3031
  2207.0000     64.5163      0.0000    635.8254      4.3260
  2207.2500     64.1862      0.0000    632.7429      4.3256
  2207.5000     63.8160      0.0000    632.8096      4.2981
  2207.7500     64.2713      0.0000    636.3160      4.2678
  2208.0000     66.4547      0.0000    641.4337      4.2627
  2208.2500     70.7619      0.0000    645.9523      4.2902
  2208.5000     76.8174      0.0000    648.7144      4.3369
  2208.7500     83.6827      0.0000    649.8692      4.3849
  2209.0000     90.2560      0.0000    650.5964      4.4257
  2209.2500     95.6621      0.0000    652.6458      4.4591
  2209.5000     99.4735      0.0000    657.1208      4.4865
  2209.7500    101.6602      0.0000    662.9697      4.5061
  2210.0000    102.4776      0.0000    667.1190      4.5119
  2210.2500    102.5576      0.0000    666.7322      4.4956
  2210.5000    102.8201      0.0000    661.3059      4.4518
  2210.7500    103.8964      0.0000    652.7615      4.3818
  2211.0000    105.6239      0.0000    644.3413      4.2931
  2211.2500    107.2276      0.0000    639.5071      4.1970
  2211.5000    107.9135      0.0000    640.5940      4.1048
  2211.7500    107.3275      0.0000    647.2886      4.0248
  2212.0000    105.7836      0.0000    656.4163      3.9600
  2212.2500    104.2451      0.0000    663.8104      3.9091
  2212.5000    103.8036      0.0000    666.9048      3.8701
  2212.7500    104.7597      0.0000    665.8859      3.8435
  2213.0000    106.1267      0.0000    662.5823      3.8287
  2213.2500    106.3004      0.0000    658.5910      3.8172
  2213.5000    104.5641      0.0000    654.7289      3.7887
  2213.7500    101.9624      0.0000    651.6966      3.7208
  2214.0000    100.4791      0.0000    650.1612      3.6152
  2214.2500    101.3635      0.0000    650.0441      3.5160
  2214.5000    104.3743      0.0000    650.4366      3.4889
  2214.7500    108.3498      0.0000    650.3837      3.5649
  2215.0000    112.2123      0.0000    649.3552      3.7115
  2215.2500    115.6026      0.0000    647.1050      3.8653
  2215.5000    118.7407      0.0000    643.6578      3.9850
  2215.7500    121.6081      0.0000    639.7183      4.0656
  2216.0000    123.4286      0.0000    636.8694      4.1172
  2216.2500    123.2069      0.0000    636.9854      4.1462
  2216.5000    120.6093      0.0000    641.1747      4.1529
  2216.7500    116.0364      0.0000    648.9036      4.1390
  2217.0000    110.0726      0.0000    657.8461      4.1128
  2217.2500    103.3323      0.0000    664.8456      4.0876
  2217.5000     96.8683      0.0000    667.7347      4.0750
  2217.7500     92.2985      0.0000    666.6091      4.0803
  2218.0000     91.0779      0.0000    663.2229      4.0989
  2218.2500     93.4071      0.0000    659.1142      4.1131
  2218.5000     97.9711      0.0000    654.5424      4.0899
  2218.7500    102.8158      0.0000    649.4595      3.9961
  2219.0000    106.3332      0.0000    645.3362      3.8303
  2219.2500    107.6056      0.0000    645.3785      3.6403
  2219.5000    106.5579      0.0000    651.8761      3.4959
  2219.7500    104.0683      0.0000    663.0341      3.4363
  2220.0000    101.4220      0.0000    673.1673      3.4492
  2220.2500     99.3566      0.0000    676.8652      3.4966
  2220.5000     97.8662      0.0000    673.3387      3.5470
  2220.7500     96.8250     -3.0000    666.9403      3.5836
  2221.0000     96.3677     -3.0000    663.3974      3.6012
  2221.2500     96.7276      0.0000    665.0412      3.6019
  2221.5000     98.1941      0.0000    669.4639      3.5978
  2221.7500    101.2325      0.0000    672.6441      3.6177
  2222.0000    106.1500      0.0000    672.7473      3.7001
  2222.2500    112.2941      0.0000    670.7825      3.8578
  2222.5000    117.7235      0.0000    668.7275      4.0458
  2222.7500    120.1600      0.0000    668.0391      4.1860
  2223.0000    118.8038      0.0000    669.4023      4.2305
  2223.2500    115.2870      0.0000    672.6346      4.1889
  2223.5000    112.4499      0.0000    676.3888      4.0996
  2223.7500    111.9027      0.0000    678.5427      3.9933
  2224.0000    112.7470      0.0000    677.4351      3.8849
  2224.2500    112.6470      0.0000    673.0214      3.7816
  2224.5000    110.1030      0.0000    666.9443      3.6896
  2224.7500    105.8731      0.0000    661.4197      3.6159
  2225.0000    102.3593      0.0000    657.8416      3.5678
  2225.2500    101.5275      0.0000    656.2369      3.5497
  2225.5000    103.3893      0.0000    655.8017      3.5636
  2225.7500    106.5396      0.0000    655.7122      3.6076
