~Version Information
VERS.                      2.0: CWLS Log ASCII Standard - VERSION 2.0
WRAP.                       NO: One line per depth step
~Well Information Block
STRT.FT                -5.7500: 
STOP.FT              1965.7500: 
STEP.FT                 0.2500: 
NULL.                -999.2500: 
COMP.          Pioneer Natural Resources: COMPANY
WELL.          Easton 12-30 Tr: WELL
FLD.           Purgatorie River: FIELD
LOC.           549' FWL & 2416' FNL--: LOCATION
PROV.                       CO: PROVINCE
CNTY.               Las Animas: COUNTRY
SRVC.          Patterson Wireline: SERVICE COMPANY
DATE.          Mon Jun 06 16:13:03 2005: LOG DATE
UWI.           05 071 08379 00: UNIQUE WELL ID
~Curve Information Block
DEPT.FT            0 000 00 00: Depth
CCL.                          : Casing Collar Locator
TT3.usec                      : CBL 3' Travel Time
AMP3.mV                       : CBL 3' Amplitude
GR.GAPI                       : Gamma Ray
~Parameter Information Block
~A  Depth       CCL         TT3         AMP3         GR     
# ...
  1300.7500      0.0000    679.0538      6.2397    115.4680
  1301.0000      0.0000    666.1868      6.2302    112.0884
  1301.2500      0.0000    665.0244      6.1626    109.9772
  1301.5000      0.0000    674.3421      6.0136    109.9603
  1301.7500      0.0000    685.7238      5.8201    112.4813
  1302.0000      0.0000    691.5219      5.6607    116.7696
  1302.2500      0.0000    691.5699      5.6138    120.4931
  1302.5000      0.0000    691.6528      5.7140    121.0152
  1302.7500      0.0000    696.4308      5.9344    117.3274
  1303.0000      0.0000    705.0959      6.2070    110.6850
  1303.2500      0.0000    713.4860      6.4498    103.5418
  1303.5000      0.0000    718.3889      6.5964     97.9715
  1303.7500      0.0000    718.9105      6.6345     94.8019
  1304.0000      0.0000    715.1220      6.6142     93.8708
  1304.2500      0.0000    707.1392      6.5935     94.7627
  1304.5000      0.0000    695.1272      6.5847     97.1716
  1304.7500      0.0000    678.7654      6.5624    100.6353
  1305.0000      0.0000    656.5013      6.5019    103.9316
  1305.2500      0.0000    626.5739      6.3992    105.0674
  1305.5000      0.0000    588.9973      6.2807    102.6360
  1305.7500      0.0000    546.0877      6.2045     97.4143
  1306.0000      0.0000    501.9128      6.2262     92.0729
  1306.2500      0.0000    461.6234      6.3489     89.0693
  1306.5000      0.0000    429.6716      6.5175     88.9943
  1306.7500      0.0000    407.7077      6.6694     90.7895
  1307.0000      0.0000    394.5091      6.7801     93.0627
  1307.2500      0.0000    387.5941      6.8620     95.1123
  1307.5000      0.0000    384.5642      6.9385     97.0298
  1307.7500      0.0000    383.5892      7.0223     99.0080
  1308.0000      0.0000    383.4846      7.1028    100.6887
  1308.2500      0.0000    383.6553      7.1542    101.4395
  1308.5000      0.0000    383.8531      7.1694    101.1758
  1308.7500      0.0000    383.9401      7.1773    100.3756
  1309.0000      0.0000    383.6632      7.2088     99.1145
  1309.2500      0.0000    382.6812      7.2544     96.6486
  1309.5000      0.0000    380.9702      7.2739     92.2591
  1309.7500      0.0000    379.2805      7.2413     86.1780
  1310.0000      0.0000    378.8900      7.1615     79.5857
  1310.2500      0.0000    380.7837      7.0504     74.0880
  1310.5000      0.0000    385.4511      6.9287     71.1637
  1310.7500      0.0000    394.0738      6.8388     71.4407
  1311.0000      0.0000    409.4257      6.8392     74.0566
  1311.2500      0.0000    434.3822      6.9723     77.0114
  1311.5000      0.0000    469.3476      7.2357     78.5764
  1311.7500      0.0000    512.3143      7.5624     78.4084
  1312.0000      0.0000    561.3026      7.8221     77.2820
  1312.2500      0.0000    614.2186      7.8930     75.8829
  1312.5000      0.0000    665.8328      7.7725     73.9823
  1312.7500      0.0000    707.9238      7.5873     70.8798
  1313.0000      0.0000    734.3286      7.4701     66.7719
  1313.2500      0.0000    745.1686      7.4587     63.5537
  1313.5000      0.0000    745.7020      7.5253     63.6948
  1313.7500     -2.0000    740.6396      7.6427     68.0575
  1314.0000      0.0000    729.1013      7.7969     74.9352
  1314.2500      0.0000    706.6803      7.9806     81.3186
  1314.5000      0.0000    674.1115      8.1995     85.1659
  1314.7500      0.0000    640.4515      8.4619     86.5774
  1315.0000      0.0000    612.7333      8.7562     86.7488
  1315.2500      0.0000    585.5862      9.0658     86.0633
  1315.5000      0.0000    548.0955      9.3813     83.8971
  1315.7500      0.0000    499.6540      9.6647     80.1498
  1316.0000      0.0000    452.8871      9.8343     75.8728
  1316.2500      0.0000    422.0993      9.8257     72.1118
  1316.5000      0.0000    415.0215      9.6474     68.9677
  1316.7500      0.0000    435.1858      9.3660     66.0669
  1317.0000      0.0000    484.6410      9.0602     63.3273
  1317.2500      0.0000    559.1214      8.7896     61.0940
  1317.5000      0.0000    642.9899      8.5805     60.0276
  1317.7500      0.0000    714.7855      8.4176     60.9783
  1318.0000      0.0000    760.6093      8.2507     64.4309
  1318.2500      0.0000    781.5596      8.0277     69.8556
  1318.5000      0.0000    788.8063      7.7407     75.8761
  1318.7500      0.0000    793.2021      7.4434     81.2640
  1319.0000      0.0000    799.1382      7.2084     85.7632
  1319.2500      0.0000    805.4601      7.0602     89.9638
  1319.5000      0.0000    809.6258      6.9540     94.4408
  1319.7500      0.0000    810.5042      6.8322     99.2571
  1320.0000      0.0000    808.7956      6.6917    104.5245
  1320.2500      0.0000    806.3797      6.5748    111.0622
  1320.5000      0.0000    805.3259      6.5029    119.7541
  1320.7500      0.0000    806.5890      6.4462    130.1589
  1321.0000      0.0000    809.3848      6.3611    140.3475
  1321.2500      0.0000    811.9845      6.2475    148.1294
  1321.5000      0.0000    812.8633      6.1563    151.9253
  1321.7500      0.0000    810.7709      6.1366    150.7843
  1322.0000      0.0000    804.1987      6.1827    144.6096
  1322.2500      0.0000    792.0129      6.2499    134.7006
  1322.5000      0.0000    775.5142      6.3080    123.4855
  1322.7500      0.0000    759.5659      6.3571    113.2271
  1323.0000      0.0000    750.5690      6.3997    104.8391
  1323.2500      0.0000    752.5937      6.4204     97.7133
  1323.5000      0.0000    765.1347      6.3973     90.7064
  1323.7500      0.0000    784.0604      6.3333     83.6723
  1324.0000      0.0000    804.3519      6.2698     77.9052
  1324.2500      0.0000    822.2152      6.2598     74.6664
  1324.5000      0.0000    835.3142      6.3212     73.7070
  1324.7500      0.0000    842.0068      6.4229     73.9214
  1325.0000      0.0000    841.2783      6.5162     75.0430
  1325.2500      0.0000    833.6497      6.5827     77.7099
  1325.5000      0.0000    821.7602      6.6496     81.8945
  1325.7500      0.0000    809.3890      6.7577     86.0393
  1326.0000      0.0000    799.3984      6.9163     88.0691
  1326.2500      0.0000    792.3218      7.0948     87.1048
  1326.5000      0.0000    786.6648      7.2466     84.1873
  1326.7500      0.0000    780.7136      7.3302     81.5792
  1327.0000      0.0000    774.6882      7.3170     81.4318
  1327.2500      0.0000    771.0008      7.1983     84.6647
  1327.5000      0.0000    771.5677      6.9928     90.3787
  1327.7500      0.0000    775.0774      6.7414     96.1049
  1328.0000      0.0000    777.6629      6.4869     99.2936
  1328.2500      0.0000    775.6173      6.2546     99.1584
  1328.5000      0.0000    766.8020      6.0643     96.9985
  1328.7500      0.0000    750.8185      5.9608     94.7207
  1329.0000      0.0000    729.0482      6.0104     93.4857
  1329.2500      0.0000    702.8971      6.2427     93.6757
  1329.5000      0.0000    670.6025      6.5980     95.2371
  1329.7500      0.0000    627.9235      6.9529     97.4961
  1330.0000      0.0000    575.1950      7.2081     99.2771
  1330.2500      0.0000    523.9454      7.3485    100.0320
  1330.5000      0.0000    494.0903      7.4205    100.7326
  1330.7500      0.0000    501.8143      7.4712    103.1091
  1331.0000      0.0000    547.6964      7.5222    107.8693
  1331.2500      0.0000    614.7142      7.5752    113.7798
  1331.5000      0.0000    678.3498      7.6136    118.3639
  1331.7500      0.0000    720.9736      7.6116    119.4911
  1332.0000      0.0000    738.7460      7.5609    116.6790
  1332.2500      0.0000    737.8839      7.4732    111.2109
  1332.5000      0.0000    727.5607      7.3481    105.0345
  1332.7500      0.0000    715.8383      7.1591     99.4361
  1333.0000      0.0000    708.7769      6.8880     94.6809
  1333.2500      0.0000    710.5822      6.5626     90.7425
  1333.5000      0.0000    723.4153      6.2572     88.1482
  1333.7500      0.0000    746.2865      6.0588     87.8498
  1334.0000      0.0000    774.1839      6.0197     90.0415
