~Version Information
VERS.                      2.0: CWLS Log ASCII Standard - VERSION 2.0
WRAP.                       NO: One line per depth step
~Well Information Block
STRT.FT               -14.0000: 
STOP.FT              2565.5000: 
STEP.FT                 0.5000: 
NULL.                -999.2500: 
COMP.          Pioneer Natural Resources: COMPANY
WELL.             Carbon 34-21: WELL
FLD.           Purgatorie River: FIELD
LOC.           56' FSL & 2304' FEL: LOCATION
PROV.                 Colorado: PROVINCE
CNTY.               Las Animas: COUNTRY
SRVC.          Patterson Wireline: SERVICE COMPANY
DATE.          Mon Nov 08 08:55:10 2004: LOG DATE
UWI.           05-071-08117-00: UNIQUE WELL ID
~Curve Information Block
DEPT.FT            0 000 00 00: Depth
TT3.usec                      : CBL 3' Travel Time
AMP3.mV                       : CBL 3' Amplitude
GR.GAPI                       : Gamma Ray
CCL.                          : Casing Collar Locator
~Parameter Information Block
~A  Depth       TT3         AMP3         GR         CCL     
# ...
   857.0000    282.7354     84.7475    146.4069      0.0000
   857.5000    282.7520     84.2532    159.3431      0.0000
   858.0000    282.7336     83.9665    161.9832      0.0000
   858.5000    282.7316     83.6973    159.2696      0.0000
   859.0000    282.7477     83.3571    159.8293      0.0000
   859.5000    282.7475     83.0606    154.1077      0.0000
   860.0000    282.7504     82.7169    138.0760      0.0000
   860.5000    282.7494     82.6436    126.0295      0.0000
   861.0000    282.7484     82.6070    121.9212      0.0000
   861.5000    282.7419     82.4925    116.1732      0.0000
   862.0000    282.7347     82.4489    109.8125      0.0000
   862.5000    282.7484     82.3827    110.7270      0.0000
   863.0000    282.7366     82.3440    119.0667      0.0000
   863.5000    282.6968     82.5276    129.0193      0.0000
   864.0000    282.6985     82.4366    137.9435      0.0000
   864.5000    282.7076     81.9783    149.1137      0.0000
   865.0000    282.6903     81.7146    155.3403      0.0000
   865.5000    282.6981     81.2227    153.5315      0.0000
   866.0000    282.7099     80.5323    149.0570      0.0000
   866.5000    282.6739     80.1521    145.1299      0.0000
   867.0000    282.6051     79.8932    143.1737      0.0000
   867.5000    282.5664     79.5828    141.0599      0.0000
   868.0000    282.5893     79.3513    144.7572      0.0000
   868.5000    282.6117     79.1071    154.1417      0.0000
   869.0000    282.5939     78.7095    154.2267      0.0000
   869.5000    282.5415     78.3495    145.3882      0.0000
   870.0000    282.5058     78.2651    132.2312      0.0000
   870.5000    282.5066     78.0319    113.3468      0.0000
   871.0000    282.5130     77.3857     97.8080      0.0000
   871.5000    282.5004     76.9216     86.4736      0.0000
   872.0000    282.4930     76.7016     80.2894      0.0000
   872.5000    282.5156     76.3045     81.2715      0.0000
   873.0000    282.5038     76.2209     84.2939      0.0000
   873.5000    282.4318     76.4919     87.0645      0.0000
   874.0000    282.3771     76.5440     91.0310      0.0000
   874.5000    282.3578     76.5561    102.9141      0.0000
   875.0000    282.3537     76.5877    127.2051      0.0000
   875.5000    282.3806     76.2640    149.6078      0.0000
   876.0000    282.3916     76.0762    162.1635      0.0000
   876.5000    282.3606     76.3682    164.4106      0.0000
   877.0000    282.3509     76.5017    158.6578      0.0000
   877.5000    282.3529     76.5406    154.1326      0.0000
   878.0000    282.3165     76.7104    160.1219      0.0000
   878.5000    282.2728     76.7833    173.1660      0.0000
   879.0000    282.2904     76.8283    178.4390      0.0000
   879.5000    282.3498     76.7347    179.6034      0.0000
   880.0000    282.4009     76.5485    178.7388      0.0000
   880.5000    282.5115     75.9419    170.4850      0.0000
   881.0000    283.3346     72.5674    165.4380      0.0000
   881.5000    286.0883     65.1390    172.0046      0.0000
   882.0000    289.5181     57.3337    176.7775      0.0000
   882.5000    290.7250     54.3008    167.2412      0.0000
   883.0000    290.5744     54.2302    152.8027     -5.0000
   883.5000    290.3619     54.3631    139.2395      0.0000
   884.0000    289.6940     56.2777    124.6167      0.0000
   884.5000    287.8914     60.8627    119.1247      0.0000
   885.0000    285.1235     66.8586    121.9641      0.0000
   885.5000    282.8703     72.3718    125.3766      0.0000
   886.0000    281.9866     74.6391    128.9335      0.0000
   886.5000    281.8275     74.8477    133.6133      0.0000
   887.0000    281.8265     74.8133    134.3125      0.0000
   887.5000    281.8401     74.8187    138.3140      0.0000
   888.0000    281.8314     74.4350    152.1933      0.0000
   888.5000    281.7936     74.0055    162.2299      0.0000
   889.0000    281.7519     74.0777    170.0651      0.0000
   889.5000    281.7249     73.9705    173.8616      0.0000
   890.0000    281.6998     73.6686    172.4661      0.0000
   890.5000    281.6846     73.6043    168.8530      0.0000
   891.0000    281.6917     73.3880    157.5754      0.0000
   891.5000    281.6689     73.0500    146.0657      0.0000
   892.0000    281.6219     73.1025    143.0922      0.0000
   892.5000    281.6114     73.4752    142.7649      0.0000
   893.0000    281.6521     73.5245    134.8898      0.0000
   893.5000    281.6802     73.2147    125.4618      0.0000
   894.0000    281.6237     73.1140    127.0222      0.0000
   894.5000    281.5422     73.4608    134.8702      0.0000
   895.0000    281.5496     73.6201    137.3568      0.0000
   895.5000    281.6155     73.2478    144.4849      0.0000
   896.0000    281.6401     72.9697    159.7176      0.0000
   896.5000    281.6164     73.1341    170.5680      0.0000
   897.0000    281.6227     73.0782    173.7747      0.0000
   897.5000    281.6456     72.6567    177.5931      0.0000
   898.0000    281.6298     72.3927    187.9758      0.0000
   898.5000    281.5714     72.5823    201.3602      0.0000
   899.0000    281.5095     72.9347    209.2861      0.0000
   899.5000    281.4998     72.8918    210.3967      0.0000
   900.0000    281.5013     72.7269    212.2880      0.0000
   900.5000    281.4747     72.7676    206.8546      0.0000
   901.0000    281.4832     72.5415    189.3044      0.0000
   901.5000    281.5007     72.0247    166.3775      0.0000
   902.0000    281.4738     71.7033    142.0675      0.0000
   902.5000    281.4290     71.5912    116.8424      0.0000
   903.0000    281.4227     71.3716     94.4978      0.0000
   903.5000    281.4513     71.1006     80.3318      0.0000
   904.0000    281.4460     71.1322     72.4080      0.0000
   904.5000    281.4104     71.3943     69.3329      0.0000
   905.0000    281.4013     71.5345     73.6699      0.0000
   905.5000    281.4003     71.5352     81.9257      0.0000
   906.0000    281.3798     71.6361     88.9772      0.0000
   906.5000    281.3468     71.7974     93.7346      0.0000
   907.0000    281.3172     71.8724    105.7459      0.0000
   907.5000    281.3053     71.7396    125.5656      0.0000
   908.0000    281.2784     71.4907    135.6863      0.0000
   908.5000    281.2734     71.2111    128.1226      0.0000
   909.0000    281.3018     70.9108    110.1140      0.0000
   909.5000    281.3287     70.7857     97.9432      0.0000
   910.0000    281.3369     71.0338    101.2439      0.0000
   910.5000    281.3169     71.1834    116.8782      0.0000
   911.0000    281.2989     70.9341    131.0176      0.0000
   911.5000    281.3081     70.7460    137.6382      0.0000
   912.0000    281.3159     70.7899    141.6824      0.0000
   912.5000    281.3161     71.0235    152.0150      0.0000
   913.0000    281.3598     70.8967    170.2688      0.0000
   913.5000    281.4011     70.4799    187.6223      0.0000
   914.0000    281.3772     70.6530    193.3410      0.0000
   914.5000    281.3563     71.1881    192.5764      0.0000
   915.0000    281.3575     71.4366    192.6267      0.0000
   915.5000    281.3403     71.6008    191.4077      0.0000
   916.0000    281.3252     71.9043    185.6737      0.0000
   916.5000    281.3575     72.1700    175.7825      0.0000
   917.0000    281.4119     72.4014    161.6119      0.0000
   917.5000    281.4301     72.5335    150.4914      0.0000
   918.0000    281.4562     72.7024    149.7397      0.0000
   918.5000    281.4951     73.1225    150.6876      0.0000
   919.0000    281.5194     73.4465    152.3201      0.0000
   919.5000    281.5219     73.8219    157.8037      0.0000
   920.0000    281.5046     74.3004    161.6360      0.0000
   920.5000    281.5284     74.4999    163.5467      0.0000
   921.0000    281.6236     74.1791    174.1762      0.0000
   921.5000    281.7408     73.4853    185.0224      0.0000
   922.0000    281.7912     73.3295    182.7696      0.0000
   922.5000    281.7679     73.7644    170.2748      0.0000
   923.0000    281.7603     73.9205    161.8495      0.0000
   923.5000    281.9159     72.8102    163.5031      0.0000
