~Version Information
VERS.                      2.0: CWLS Log ASCII Standard - VERSION 2.0
WRAP.                       NO: One line per depth step
~Well Information Block
STRT.FT               423.0000: 
STOP.FT              2308.2500: 
STEP.FT                 0.2500: 
NULL.                -999.2500: 
COMP.          Pioneer Natural Resources: COMPANY
WELL.             Culver 14-12: WELL
FLD.           Purgatoire River: FIELD
LOC.           913' FSL & 1140' FWL: LOCATION
PROV.                 Colorado: PROVINCE
CNTY.               Las Animas: COUNTRY
SRVC.                Patterson: SERVICE COMPANY
DATE.          Tue Jun 07 00:21:41 2005: LOG DATE
UWI.           05 071 08386 00: UNIQUE WELL ID
~Curve Information Block
DEPT.FT            0 000 00 00: Depth
SN.Ohm-m                      : IEL Short Normal
SP.mV                         : IEL Spontaneous Potential
DIR.Ohm-m                     : IEL Induction Resistivity
GR.GAPI                       : Gamma Ray
~Parameter Information Block
~A  Depth        SN          SP         DIR          GR     
# ...
  2131.5000     16.9447     20.2849     16.5545     89.5021
  2131.7500     17.0684     20.1330     17.0365     87.9927
  2132.0000     17.4184     19.9780     17.5655     84.6859
  2132.2500     18.0625     19.8244     18.1478     82.2251
  2132.5000     19.0014     19.6711     18.7931     78.9002
  2132.7500     20.2300     19.5120     19.5163     77.1225
  2133.0000     21.7463     19.3408     20.3277     74.9385
  2133.2500     23.5054     19.1522     21.2160     73.5485
  2133.5000     25.3867     18.9397     22.1427     71.0962
  2133.7500     27.2349     18.6955     23.0652     68.9339
  2134.0000     28.9373     18.4151     23.9760     64.5736
  2134.2500     30.4454     18.1021     24.9185     61.0028
  2134.5000     31.7500     17.7670     25.9552     55.1831
  2134.7500     32.8835     17.4172     27.1139     51.3282
  2135.0000     33.9128     17.0467     28.3606     46.0990
  2135.2500     34.8618     16.6324     29.6242     43.3259
  2135.5000     35.6437     16.1377     30.8519     40.7259
  2135.7500     36.1180     15.5198     32.0419     40.0731
  2136.0000     36.2103     14.7362     33.2217     40.3970
  2136.2500     35.9573     13.7489     34.3975     41.2149
  2136.5000     35.4616     12.5283     35.5216     42.7674
  2136.7500     34.8160     11.0582     36.5021     43.5651
  2137.0000     34.0632      9.3376     37.2352     43.7287
  2137.2500     33.1999      7.3760     37.6184     43.1185
  2137.5000     32.2074      5.1901     37.5393     41.8301
  2137.7500     31.0775      2.8177     36.8903     41.3270
  2138.0000     29.7812      0.3379     35.6477     41.9854
  2138.2500     28.2627     -2.1227     33.9471     43.7209
  2138.5000     26.5560     -4.4182     32.0444     48.5551
  2138.7500     24.8418     -6.4296     30.1859     53.1030
  2139.0000     23.3205     -8.1016     28.5129     60.8217
  2139.2500     22.0865     -9.4467     27.0667     65.5492
  2139.5000     21.1361    -10.5210     25.8409     70.3968
  2139.7500     20.4356    -11.3949     24.8212     71.8473
  2140.0000     19.9507    -12.1363     23.9887     72.3468
  2140.2500     19.6422    -12.8053     23.3045     72.4677
  2140.5000     19.4641    -13.4463     22.6984     73.1478
  2140.7500     19.3631    -14.0739     22.0824     73.8915
  2141.0000     19.2835    -14.6634     21.3871     75.1164
  2141.2500     19.1926    -15.1605     20.6016     75.8158
  2141.5000     19.0922    -15.5063     19.7773     76.2853
  2141.7500     19.0050    -15.6651     18.9928     76.0910
  2142.0000     18.9410    -15.6364     18.3096     75.5383
  2142.2500     18.8724    -15.4446     17.7537     75.6200
  2142.5000     18.7676    -15.1190     17.3240     77.1753
  2142.7500     18.6539    -14.6819     17.0091     79.0692
  2143.0000     18.6076    -14.1504     16.7953     82.2691
  2143.2500     18.6587    -13.5489     16.6637     84.0008
  2143.5000     18.7360    -12.9174     16.5835     85.3356
  2143.7500     18.7151    -12.3087     16.5157     85.4619
  2144.0000     18.5066    -11.7719     16.4300     85.2353
  2144.2500     18.1143    -11.3337     16.3233     85.1549
  2144.5000     17.6182    -10.9880     16.2213     85.0257
  2144.7500     17.1327    -10.7029     16.1599     84.5817
  2145.0000     16.7811    -10.4366     16.1614     82.9206
  2145.2500     16.6400    -10.1518     16.2231     81.1021
  2145.5000     16.6964     -9.8204     16.3255     77.4135
  2145.7500     16.8668     -9.4200     16.4477     74.4927
  2146.0000     17.0252     -8.9281     16.5770     70.2701
  2146.2500     17.0629     -8.3232     16.7034     68.3853
  2146.5000     16.9996     -7.5914     16.8056     68.0777
  2146.7500     17.0060     -6.7353     16.8490     69.4862
  2147.0000     17.2486     -5.7743     16.8006     72.7295
  2147.2500     17.7124     -4.7366     16.6532     74.8911
  2147.5000     18.2315     -3.6481     16.4314     77.8760
  2147.7500     18.6344     -2.5278     16.1734     79.9449
  2148.0000     18.7748     -1.3879     15.9062     83.1515
  2148.2500     18.5524     -0.2369     15.6366     84.8951
  2148.5000     18.0158      0.9167     15.3624     86.1217
  2148.7500     17.3810      2.0628     15.0904     85.9765
  2149.0000     16.8924      3.1913     14.8454     84.9357
  2149.2500     16.6909      4.2926     14.6644     84.1673
  2149.5000     16.8029      5.3505     14.5832     83.5112
  2149.7500     17.1736      6.3379     14.6259     83.4522
  2150.0000     17.6913      7.2281     14.8047     83.1042
  2150.2500     18.2536      8.0100     15.1239     81.7839
  2150.5000     18.8729      8.6883     15.5850     76.9298
  2150.7500     19.7691      9.2697     16.1890     71.7933
  2151.0000     21.4076      9.7504     16.9346     62.4012
  2151.2500     24.4164     10.1159     17.8165     55.8994
  2151.5000     29.3472     10.3487     18.8281     47.2038
  2151.7500     36.4014     10.4355     19.9724     42.8332
  2152.0000     45.3487     10.3711     21.2813     39.1446
  2152.2500     55.6507     10.1578     22.8322     38.4464
  2152.5000     66.4529      9.8034     24.7461     38.6672
  2152.7500     76.5638      9.3217     27.1699     38.5464
  2153.0000     84.9943      8.7370     30.2522     36.6612
  2153.2500     91.5755      8.0887     34.1201     34.2962
  2153.5000     96.6959      7.4276     38.8410     30.2536
  2153.7500    100.6131      6.8061     44.3346     28.0598
  2154.0000    103.2430      6.2664     50.2129     26.5182
  2154.2500    104.3890      5.8361     55.6357     26.9633
  2154.5000    103.9888      5.5311     59.4385     30.0982
  2154.7500    102.1286      5.3644     60.7114     33.8513
  2155.0000     98.8279      5.3585     59.4101     41.8064
  2155.2500     93.9227      5.5561     56.3121     48.6208
  2155.5000     87.3614      6.0272     52.4084     61.3876
  2155.7500     79.5883      6.8631     48.4126     71.6991
  2156.0000     71.4254      8.1485     44.6567     89.0548
  2156.2500     63.6278      9.9108     41.2167    100.6726
  2156.5000     56.6788     12.0726     38.0774    115.5620
  2156.7500     50.8442     14.4489     35.2426    122.6369
  2157.0000     46.2101     16.8080     32.7489    128.4548
  2157.2500     42.6532     18.9598     30.6149    129.5873
  2157.5000     39.8815     20.8118     28.7970    128.0996
  2157.7500     37.5740     22.3638     27.1984    125.0900
  2158.0000     35.4906     23.6647     25.7170    117.0871
  2158.2500     33.5145     24.7727     24.2869    109.3279
  2158.5000     31.6802     25.7425     22.8794     95.0688
  2158.7500     30.1315     26.6294     21.4797     85.0820
  2159.0000     28.9405     27.4911     20.0786     71.8379
  2159.2500     27.9375     28.3784     18.6848     65.3059
  2159.5000     26.7638     29.3238     17.3358     60.1358
  2159.7500     25.0938     30.3339     16.0876     60.0444
  2160.0000     22.8466     31.3882     14.9890     64.6817
  2160.2500     20.2778     32.4405     14.0633     70.4073
  2160.5000     17.8569     33.4267     13.3033     81.5576
  2160.7500     15.9780     34.2843     12.6794     89.7097
  2161.0000     14.7514     34.9731     12.1531    100.9976
  2161.2500     14.0294     35.4857     11.6874    106.7126
  2161.5000     13.5813     35.8412     11.2538    111.4337
  2161.7500     13.2399     36.0745     10.8342    112.1813
  2162.0000     12.9289     36.2264     10.4216    110.9415
  2162.2500     12.6206     36.3359     10.0213    109.3713
  2162.5000     12.3102     36.4325      9.6491    107.1716
  2162.7500     12.0240     36.5328      9.3261    106.3317
  2163.0000     11.7995     36.6416      9.0708    106.0583
  2163.2500     11.6465     36.7536      8.8916    106.0683
  2163.5000     11.5618     36.8559      8.7841    105.6308
  2163.7500     11.5551     36.9340      8.7333    105.0950
  2164.0000     11.6281     36.9811      8.7203    104.6987
  2164.2500     11.7394     37.0045      8.7296    105.1649
  2164.5000     11.8169     37.0233      8.7522    107.3051
  2164.7500     11.8265     37.0583      8.7844    109.5082
