~Version Information
VERS.                      2.0: CWLS Log ASCII Standard - VERSION 2.0
WRAP.                       NO: One line per depth step
~Well Information Block
STRT.FT               819.0000: 
STOP.FT              2497.0000: 
STEP.FT                 0.2500: 
NULL.                -999.2500: 
COMP.          Petrogulf Corporation: COMPANY
WELL.             State 16-21V: WELL
FLD.           Purgatorie River: FIELD
LOC.           1738' FWL & 332' FNL: LOCATION
PROV.                 Colorado: PROVINCE
CNTY.               Las Animas: COUNTRY
SRVC.          Patterson Wireline: SERVICE COMPANY
DATE.          Sun Jul 13 13:45:48 2003: LOG DATE
UWI.              05-071-07884: UNIQUE WELL ID 05 071 08829 00
~Curve Information Block
DEPT.FT            0 000 00 00: Depth
DCAL.in                       : CDL Caliper
RHOB.g/cc                     : CDL Bulk Density
RHOC.g/cc                     : CDL Density Correction
DPOR.pu                       : CDL Density Porosity
GR.GAPI                       : Gamma Ray
NPOR.pu                       : Neutron Porosity
~Parameter Information Block
~A  Depth       DCAL        RHOB        RHOC        DPOR         GR         NPOR    
# ...
  2043.0000      7.9473      2.5369      0.0700      6.8562    132.7846     26.1610
  2043.2500      7.9464      2.5437      0.0629      6.4418    137.3738     25.8692
  2043.5000      7.9500      2.5471      0.0556      6.2381    144.8945     25.5204
  2043.7500      7.9544      2.5457      0.0523      6.3241    148.7118     25.4088
  2044.0000      7.9619      2.5400      0.0491      6.6679    150.9817     25.4050
  2044.2500      7.9729      2.5350      0.0489      6.9691    150.5518     25.4468
  2044.5000      7.9760      2.5275      0.0535      7.4224    148.8674     25.4974
  2044.7500      7.9679      2.5233      0.0601      7.6815    147.7806     25.5465
  2045.0000      7.9567      2.5186      0.0739      7.9644    146.2169     25.7602
  2045.2500      7.9501      2.5168      0.0842      8.0743    144.9616     26.0333
  2045.5000      7.9494      2.5159      0.0992      8.1257    142.5176     26.5324
  2045.7500      7.9588      2.5164      0.1080      8.0948    140.4859     26.7675
  2046.0000      7.9900      2.5183      0.1188      7.9798    136.8981     26.7019
  2046.2500      8.0428      2.5201      0.1236      7.8753    134.2024     26.3222
  2046.5000      8.0653      2.5231      0.1262      7.6914    129.6504     25.3799
  2046.7500      8.0209      2.5255      0.1249      7.5430    126.1710     24.6572
  2047.0000      7.9519      2.5304      0.1212      7.2459    120.3574     23.6908
  2047.2500      7.9065      2.5349      0.1193      6.9778    116.4602     23.2316
  2047.5000      7.8911      2.5434      0.1184      6.4595    111.6766     22.9153
  2047.7500      7.8889      2.5502      0.1184      6.0463    109.8394     22.9516
  2048.0000      7.8880      2.5616      0.1182      5.3568    109.6297     23.2503
  2048.2500      7.8874      2.5696      0.1176      4.8718    110.9124     23.4848
  2048.5000      7.8877      2.5816      0.1155      4.1482    113.5965     23.6918
  2048.7500      7.8884      2.5889      0.1122      3.7014    114.9717     23.6797
  2049.0000      7.8893      2.5979      0.1035      3.1557    115.5344     23.4555
  2049.2500      7.8898      2.6019      0.0949      2.9172    114.9984     23.2338
  2049.5000      7.8898      2.6039      0.0788      2.7929    113.6668     22.9668
  2049.7500      7.8902      2.6027      0.0671      2.8646    112.9770     22.9290
  2050.0000      7.8961      2.5981      0.0516      3.1466    112.8315     23.1470
  2050.2500      7.9093      2.5940      0.0448      3.3951    113.4459     23.4413
  2050.5000      7.9218      2.5880      0.0423      3.7562    115.6052     24.0007
  2050.7500      7.9263      2.5849      0.0461      3.9450    118.1683     24.4185
  2051.0000      7.9179      2.5820      0.0589      4.1185    124.3898     25.1138
  2051.2500      7.8985      2.5813      0.0705      4.1654    130.1516     25.6136
  2051.5000      7.8777      2.5814      0.0883      4.1584    139.8136     26.3147
  2051.7500      7.8580      2.5821      0.0977      4.1175    145.4079     26.6553
  2052.0000      7.8533      2.5835      0.1058      4.0274    150.1593     26.8732
  2052.2500      7.8690      2.5844      0.1076      3.9728    150.5411     26.8504
  2052.5000      7.8981      2.5844      0.1068      3.9782    148.4404     26.7400
  2052.7500      7.9335      2.5823      0.1042      4.1006    146.6539     26.7282
  2053.0000      7.9595      2.5751      0.0970      4.5413    144.8144     26.9047
  2053.2500      7.9722      2.5675      0.0901      5.0020    143.9983     27.1478
  2053.5000      7.9722      2.5540      0.0807      5.8199    142.4309     27.6198
  2053.7500      7.9641      2.5456      0.0779      6.3292    140.9716     27.9289
  2054.0000      7.9616      2.5371      0.0809      6.8413    138.6929     28.2003
  2054.2500      7.9697      2.5352      0.0858      6.9559    137.3935     28.1434
  2054.5000      7.9809      2.5373      0.0923      6.8284    135.7693     27.6489
  2054.7500      7.9901      2.5405      0.0939      6.6338    135.0369     27.1511
  2055.0000      7.9959      2.5451      0.0919      6.3583    135.3069     26.4975
  2055.2500      7.9928      2.5468      0.0897      6.2570    136.6413     26.3125
  2055.5000      7.9855      2.5470      0.0905      6.2442    139.1553     26.5268
  2055.7500      7.9805      2.5463      0.0954      6.2831    139.9759     26.9226
  2056.0000      7.9752      2.5461      0.1066      6.2963    139.4884     27.6580
  2056.2500      7.9693      2.5474      0.1130      6.2186    139.2315     28.1366
  2056.5000      7.9685      2.5521      0.1169      5.9362    141.3338     28.7583
  2056.7500      7.9764      2.5566      0.1159      5.6602    144.4065     29.0900
  2057.0000      7.9825      2.5639      0.1118      5.2188    149.1523     29.4406
  2057.2500      7.9839      2.5677      0.1081      4.9860    151.0352     29.5682
  2057.5000      7.9859      2.5700      0.1008      4.8472    151.6768     29.5907
  2057.7500      7.9916      2.5687      0.0942      4.9281    151.6331     29.4955
  2058.0000      7.9981      2.5627      0.0833      5.2896    152.7791     29.2393
  2058.2500      8.0016      2.5569      0.0772      5.6445    154.5606     29.0594
  2058.5000      8.0063      2.5469      0.0721      6.2479    157.0497     28.8982
  2058.7500      8.0147      2.5404      0.0715      6.6418    157.2562     28.8924
  2059.0000      8.0234      2.5323      0.0729      7.1352    154.6410     28.9797
  2059.2500      8.0292      2.5288      0.0743      7.3458    151.6177     29.0361
  2059.5000      8.0315      2.5284      0.0768      7.3668    147.0505     29.0296
  2059.7500      8.0331      2.5329      0.0798      7.0992    144.8386     28.9629
  2060.0000      8.0361      2.5488      0.0891      6.1359    142.8320     28.8755
  2060.2500      8.0359      2.5662      0.0988      5.0775    141.3038     28.9130
  2060.5000      8.0245      2.6014      0.1160      2.9446    136.2928     29.1422
  2060.7500      8.0042      2.6282      0.1252      1.3205    130.8797     29.3100
  2061.0000      7.9885      2.6660      0.1286     -0.9683    122.5602     29.3534
  2061.2500      7.9820      2.6846      0.1223     -2.0959    119.4648     29.1975
  2061.5000      7.9810      2.6960      0.1062     -2.7860    121.0386     28.8093
  2061.7500      7.9840      2.6910      0.0984     -2.4878    125.7656     28.5635
  2062.0000      7.9940      2.6670      0.0996     -1.0331    135.3727     28.3688
  2062.2500      8.0028      2.6432      0.1064      0.4143    141.5348     28.4087
  2062.5000      7.9981      2.6019      0.1147      2.9170    148.1060     28.7520
  2062.7500      7.9968      2.5738      0.1153      4.6173    150.1811     29.1289
  2063.0000      8.0116      2.5346      0.1113      6.9965    150.2766     29.7281
  2063.2500      8.0372      2.5115      0.1089      8.3963    148.9967     30.0109
  2063.5000      8.0502      2.4824      0.1090     10.1582    146.2070     30.1008
  2063.7500      8.0326      2.4669      0.1107     11.0973    144.3766     29.9315
  2064.0000      7.9999      2.4495      0.1123     12.1500    142.6101     29.4312
  2064.2500      7.9810      2.4419      0.1126     12.6102    142.3067     29.0177
  2064.5000      7.9796      2.4369      0.1141     12.9176    142.7456     28.4577
  2064.7500      7.9808      2.4379      0.1166     12.8570    143.2616     28.2521
  2065.0000      7.9825      2.4457      0.1218     12.3848    144.1735     28.3590
  2065.2500      7.9893      2.4543      0.1248     11.8600    144.8792     28.6918
  2065.5000      8.0008      2.4704      0.1257     10.8864    145.7805     29.3294
  2065.7500      8.0134      2.4817      0.1226     10.2007    145.9958     29.6379
  2066.0000      8.0253      2.4975      0.1130      9.2448    145.6189     29.6630
  2066.2500      8.0348      2.5063      0.1049      8.7099    145.1789     29.3611
  2066.5000      8.0373      2.5155      0.0934      8.1485    145.1686     28.6122
  2066.7500      8.0349      2.5177      0.0872      8.0167    146.2154     28.0979
