~Version Information
VERS.                      2.0: CWLS Log ASCII Standard - VERSION 2.0
WRAP.                       NO: One line per depth step
~Well Information Block
STRT.FT                -7.2500: 
STOP.FT              2610.0000: 
STEP.FT                 0.2500: 
NULL.                -999.2500: 
COMP.          Pioneer Natural Resources: COMPANY
WELL.              Wagner 13-9: WELL
FLD.           Purgatorie River: FIELD
LOC.           1819' FSL & 1111' FWL--: LOCATION
PROV.                       CO: PROVINCE
CNTY.               Las Animas: COUNTRY
SRVC.          Patterson Wireline: SERVICE COMPANY
DATE.          Wed May 18 09:08:26 2005: LOG DATE
UWI.           05 071 08302 00: UNIQUE WELL ID
~Curve Information Block
DEPT.FT            0 000 00 00: Depth
CCL.                          : Casing Collar Locator
TT3.usec                      : CBL 3' Travel Time
AMP3.mV                       : CBL 3' Amplitude
GR.GAPI                       : Gamma Ray
~Parameter Information Block
~A  Depth       CCL         TT3         AMP3         GR     
# ...
  1868.7500      0.0000    709.0317      4.3347     99.5547
  1869.0000      0.0000    701.0984      4.6215     97.2750
  1869.2500      0.0000    682.7429      5.0226     95.1385
  1869.5000      0.0000    646.8160      5.3236     92.9254
  1869.7500      0.0000    592.0056      5.3876     90.2235
  1870.0000      0.0000    527.4354      5.2240     86.7595
  1870.2500      0.0000    468.6093      4.9198     83.0870
  1870.5000      0.0000    427.0559      4.5434     80.6513
  1870.7500      0.0000    404.2945      4.1371     80.6108
  1871.0000      0.0000    395.0390      3.7563     82.7585
  1871.2500      0.0000    394.1859      3.4584     85.9736
  1871.5000      0.0000    401.0352      3.2618     89.3728
  1871.7500      0.0000    418.7588      3.1458     92.6516
  1872.0000      0.0000    449.2516      3.0919     95.7098
  1872.2500      0.0000    486.2600      3.1092     98.3807
  1872.5000      0.0000    514.8039      3.2198    100.5216
  1872.7500      0.0000    522.3677      3.4285    102.4211
  1873.0000      0.0000    512.2473      3.7133    105.1631
  1873.2500      0.0000    502.5811      4.0376    110.0698
  1873.5000      0.0000    510.7565      4.3593    117.2983
  1873.7500      0.0000    540.3604      4.6347    125.3149
  1874.0000      0.0000    581.9145      4.8412    132.2839
  1874.2500      0.0000    621.7619      4.9954    137.7050
  1874.5000      0.0000    649.3708      5.1290    142.1076
  1874.7500      0.0000    660.7579      5.2424    145.3048
  1875.0000      0.0000    659.7963      5.2949    145.7615
  1875.2500      0.0000    656.2555      5.2427    142.0782
  1875.5000      0.0000    659.0403      5.0865    134.6492
  1875.7500      0.0000    669.5014      4.8887    125.2446
  1876.0000      0.0000    682.4797      4.7445    115.2918
  1876.2500      0.0000    693.7755      4.7205    105.3619
  1876.5000      0.0000    704.0519      4.8138     96.0229
  1876.7500      0.0000    714.8535      4.9713     88.1096
  1877.0000      0.0000    723.3141      5.1407     82.0893
  1877.2500      0.0000    722.0813      5.2933     77.9891
  1877.5000      0.0000    703.2388      5.4136     76.0053
  1877.7500      2.0000    662.8102      5.4844     76.3841
  1878.0000      2.0000    605.2722      5.4874     78.6717
  1878.2500      0.0000    546.1948      5.4270     81.9714
  1878.5000      0.0000    507.6499      5.3537     86.2167
  1878.7500      0.0000    505.9524      5.3469     92.5105
  1879.0000      0.0000    540.7791      5.4575    101.8002
  1879.2500      0.0000    595.3446      5.6727    113.3148
  1879.5000      0.0000    647.7632      5.9313    124.4164
  1879.7500      0.0000    683.8822      6.1499    132.2818
  1880.0000      0.0000    701.4671      6.2367    136.1915
  1880.2500      0.0000    705.3128      6.1234    138.1221
  1880.5000      0.0000    700.9296      5.8143    140.8058
  1880.7500      0.0000    692.3019      5.3903    145.3384
  1881.0000      0.0000    682.6892      4.9632    150.8218
  1881.2500      0.0000    675.1846      4.6256    155.8993
  1881.5000      0.0000    672.0249      4.4143    160.0496
  1881.7500      0.0000    673.5350      4.2944    163.3082
  1882.0000      0.0000    677.2231      4.1887    165.2094
  1882.2500      0.0000    677.5917      4.0505    164.5435
  1882.5000      0.0000    668.1190      3.8988    160.3750
  1882.7500      0.0000    645.7438      3.7780    153.2559
  1883.0000      0.0000    614.1558      3.7119    145.4281
  1883.2500      0.0000    581.5321      3.7042    139.6942
  1883.5000      0.0000    554.5110      3.7488    137.8154
  1883.7500      0.0000    534.9835      3.8277    139.7432
  1884.0000      0.0000    522.0184      3.9277    143.9657
  1884.2500      0.0000    514.8782      4.0621    148.3657
  1884.5000      0.0000    513.6402      4.2509    151.3492
  1884.7500      0.0000    518.1287      4.4784    152.8723
  1885.0000      0.0000    527.0054      4.6890    154.2246
  1885.2500      0.0000    537.7582      4.8225    156.4669
  1885.5000      0.0000    547.6136      4.8503    159.2222
  1885.7500      0.0000    554.8245      4.7893    161.0660
  1886.0000      0.0000    559.2112      4.6963    160.9076
  1886.2500      0.0000    561.6885      4.6463    158.9533
  1886.5000      0.0000    563.6207      4.6900    156.6136
  1886.7500      0.0000    566.6998      4.8107    155.6079
  1887.0000      0.0000    572.9158      4.9252    156.9851
  1887.2500      0.0000    583.6485      4.9377    160.5453
  1887.5000      0.0000    598.1512      4.7969    164.8743
  1887.7500      0.0000    613.6089      4.5096    168.0797
  1888.0000      0.0000    627.7599      4.1269    169.0049
  1888.2500      0.0000    641.0301      3.7337    168.2117
  1888.5000      0.0000    655.0327      3.4242    167.8788
  1888.7500      0.0000    669.8430      3.2518    170.1340
  1889.0000      0.0000    684.1030      3.1974    174.8853
  1889.2500      0.0000    697.1167      3.2013    179.5479
  1889.5000      0.0000    709.3552      3.2207    181.2198
  1889.7500      0.0000    720.6827      3.2512    178.7836
  1890.0000      0.0000    728.7441      3.3137    172.9322
  1890.2500      0.0000    730.4416      3.4257    165.2745
  1890.5000      0.0000    725.9391      3.5635    158.0447
  1890.7500      0.0000    719.8835      3.6543    153.6833
  1891.0000      0.0000    716.9482      3.6291    153.5002
  1891.2500      0.0000    717.2857      3.4795    156.6225
  1891.5000      0.0000    718.1265      3.2542    160.7662
  1891.7500      0.0000    718.6758      3.0163    164.1770
  1892.0000      0.0000    721.5055      2.8173    166.5467
  1892.2500      0.0000    729.5555      2.6999    168.0086
  1892.5000      0.0000    742.8317      2.7116    167.8391
  1892.7500      0.0000    758.0051      2.9064    164.4465
  1893.0000      0.0000    771.1845      3.3203    156.3745
  1893.2500      0.0000    781.5911      3.9509    143.5462
  1893.5000      0.0000    793.0363      4.7780    128.0853
  1893.7500      0.0000    810.9831      5.8097    113.7122
  1894.0000      0.0000    835.3984      7.1029    103.7957
  1894.2500      0.0000    854.8535      8.7236     99.8509
  1894.5000      0.0000    849.7582     10.6789    101.6207
  1894.7500      0.0000    804.7646     12.9071    107.9941
  1895.0000      0.0000    719.6086     15.3676    117.5930
  1895.2500      0.0000    609.9323     18.1224    128.7758
  1895.5000      0.0000    499.7764     21.2597    139.5589
  1895.7500      0.0000    410.7393     24.6967    148.0725
  1896.0000      0.0000    352.7935     28.0759    153.4958
  1896.2500      0.0000    322.6517     30.8901    156.3272
  1896.5000      0.0000    310.1966     32.7302    157.3035
  1896.7500      0.0000    306.1117     33.4577    156.3880
  1897.0000      0.0000    305.0391     33.2174    153.3337
  1897.2500      0.0000    304.7942     32.3387    148.6293
  1897.5000      0.0000    304.7308     31.2074    143.0906
  1897.7500      0.0000    304.7097     30.1658    136.8672
  1898.0000      0.0000    304.6920     29.4565    129.3814
  1898.2500      0.0000    304.6543     29.1997    120.1912
  1898.5000      0.0000    304.5739     29.3956    109.7113
  1898.7500      0.0000    304.4457     29.9538     99.0445
  1899.0000      0.0000    304.2810     30.7464     89.2807
  1899.2500      0.0000    304.0934     31.6651     81.2425
  1899.5000      0.0000    303.8615     32.6546     75.8879
  1899.7500      0.0000    303.4375     33.7038     74.4777
  1900.0000      0.0000    302.3980     34.8036     77.8232
  1900.2500      0.0000    299.9931     35.9321     85.1439
  1900.5000      0.0000    295.4767     37.0968     93.8143
  1900.7500      0.0000    288.8180     38.3758    100.5334
  1901.0000      0.0000    281.1379     39.8880    103.0341
  1901.2500      0.0000    274.1766     41.7066    101.1587
  1901.5000      0.0000    269.1631     43.7910     96.7026
  1901.7500      0.0000    266.2238     46.0016     92.0530
  1902.0000      0.0000    264.7394     48.1870     88.6486
