~Version Information
VERS.                      2.0: CWLS Log ASCII Standard - VERSION 2.0
WRAP.                       NO: One line per depth step
~Well Information Block
STRT.FT               550.0000: 
STOP.FT              2042.5000: 
STEP.FT                 0.2500: 
NULL.                -999.2500: 
COMP.          Petrogulf Corporation: COMPANY
WELL.          Robinson 15-12V: WELL
FLD.           Purgatorie River: FIELD
LOC.           1788' FNL & 466' FWL: LOCATION
PROV.                 Colorado: PROVINCE
CNTY.               Las Animas: COUNTRY
SRVC.                Patterson: SERVICE COMPANY
DATE.          Mon Sep 12 10:04:59 2005: LOG DATE
UWI.                          : UNIQUE WELL ID
~Curve Information Block
DEPT.FT            0 000 00 00: Depth
SP.mV                         : DIL Spontaneous Potential
RILD.Ohm-m                    : DIL Deep Resistivity
RILM.Ohm-m                    : DIL Medium Resistivity
RLL3.Ohm-m                    : DIL Shallow Resistivity
GR.GAPI                       : Gamma Ray
~Parameter Information Block
~A  Depth        SP         RILD        RILM        RLL3         GR     
# ...
   634.0000   2000.0000     12.1685     11.5429   2000.0000    129.7162
   634.2500   2000.0000     12.6343     11.6187   2000.0000    129.0217
   634.5000   2000.0000     12.7927     11.6943   2000.0000    140.8709
   634.7500   2000.0000     13.0365     11.9387   2000.0000    137.5692
   635.0000   2000.0000     12.6647     12.0146   2000.0000    130.7364
   635.2500   2000.0000     12.7895     12.0932   2000.0000    124.0080
   635.5000   2000.0000     12.2423     12.2348   2000.0000    130.6948
   635.7500   2000.0000     12.4869     12.1467   2000.0000    124.4381
   636.0000   2000.0000     12.1709     12.3075   2000.0000    129.8367
   636.2500   2000.0000     12.0114     12.0500   2000.0000    134.4034
   636.5000   2000.0000     12.2850     11.7129   2000.0000    142.0954
   636.7500   2000.0000     12.0311     11.5826   2000.0000    141.0506
   637.0000   2000.0000     12.2051     11.2476   2000.0000    144.4612
   637.2500   2000.0000     11.9074     10.9714   2000.0000    142.2183
   637.5000   2000.0000     12.3086     11.0803   2000.0000    140.8805
   637.7500   2000.0000     12.3184     11.2199   2000.0000    144.2295
   638.0000   2000.0000     12.3083     11.0843   2000.0000    135.7917
   638.2500   2000.0000     12.5228     11.0638   2000.0000    126.2451
   638.5000   2000.0000     12.8673     11.0050   2000.0000    140.6194
   638.7500   2000.0000     12.9025     11.3370   2000.0000    140.6694
   639.0000   2000.0000     13.3882     11.2596   2000.0000    142.4860
   639.2500   2000.0000     13.5890     11.6548   2000.0000    145.0783
   639.5000   2000.0000     13.9919     11.9489   2000.0000    129.5807
   639.7500   2000.0000     14.3695     12.6881   2000.0000    120.5096
   640.0000   2000.0000     15.2548     13.3936   2000.0000    108.0742
   640.2500   2000.0000     16.0983     14.3363   2000.0000    106.9087
   640.5000   2000.0000     16.4572     15.6802   2000.0000    105.4274
   640.7500   2000.0000     16.7410     16.4491   2000.0000    106.3192
   641.0000   2000.0000     17.4355     18.0936   2000.0000    106.2400
   641.2500   2000.0000     17.2621     18.6252   2000.0000    102.6934
   641.5000   2000.0000     18.1561     19.9035   2000.0000     98.1050
   641.7500   2000.0000     18.4242     20.4199   2000.0000     97.7596
   642.0000   2000.0000     18.7751     20.0234   2000.0000    103.9432
   642.2500   2000.0000     19.0510     19.7253   2000.0000    109.7609
   642.5000   2000.0000     19.2785     19.7436   2000.0000    111.0379
   642.7500   2000.0000     19.2406     18.6304   2000.0000    120.2962
   643.0000   2000.0000     18.7029     18.2005   2000.0000    126.1516
   643.2500   2000.0000     18.4029     17.6126   2000.0000    133.5209
   643.5000   2000.0000     18.5780     17.0547   2000.0000    125.6460
   643.7500   2000.0000     17.4411     16.2360   2000.0000    124.3142
   644.0000   2000.0000     17.1194     15.8500   2000.0000    120.5215
   644.2500   2000.0000     16.2319     15.7360   2000.0000    118.2087
   644.5000   2000.0000     15.9785     15.0796   2000.0000    122.7413
   644.7500   2000.0000     15.7798     14.8366   2000.0000    128.6403
   645.0000   2000.0000     14.6421     14.8999   2000.0000    115.0266
   645.2500   2000.0000     14.4714     13.9694   2000.0000    117.4851
   645.5000   2000.0000     13.9594     13.6840   2000.0000    133.7512
   645.7500   2000.0000     13.8310     13.3051   2000.0000    162.7908
   646.0000   2000.0000     13.7664     12.8572   2000.0000    170.7768
   646.2500   2000.0000     13.5784     12.5304   2000.0000    171.2224
   646.5000   2000.0000     13.2744     12.2907   2000.0000    168.3885
   646.7500   2000.0000     12.9802     12.2961   2000.0000    172.1060
   647.0000   2000.0000     12.3862     12.3335   2000.0000    162.7232
   647.2500   2000.0000     12.4027     12.2544   2000.0000    157.1996
   647.5000   2000.0000     12.3059     12.1561   2000.0000    152.8748
   647.7500   2000.0000     12.0139     11.9899   2000.0000    150.3940
   648.0000   2000.0000     11.6976     11.8486   2000.0000    145.7931
   648.2500   2000.0000     11.3629     11.2642   2000.0000    142.8960
   648.5000   2000.0000     11.3176     10.6144   2000.0000    138.8444
   648.7500   2000.0000     11.3742     10.6637   2000.0000    144.7487
   649.0000   2000.0000     11.4156     10.5167   2000.0000    141.1672
   649.2500   2000.0000     11.7633     10.4497   2000.0000    141.1775
   649.5000   2000.0000     11.7005     10.3516   2000.0000    142.2378
   649.7500   2000.0000     11.6583     10.3548   2000.0000    146.1826
   650.0000   2000.0000     11.7013     10.4755   2000.0000    154.6395
   650.2500   2000.0000     11.9201     10.4841   2000.0000    155.4263
   650.5000   2000.0000     12.1823     10.6818   2000.0000    155.2192
   650.7500   2000.0000     12.4220     11.2002   2000.0000    146.8560
   651.0000   2000.0000     12.8708     11.2110   2000.0000    150.5471
   651.2500   2000.0000     13.0644     11.3067   2000.0000    153.7620
   651.5000   2000.0000     13.3816     12.0824   2000.0000    155.3791
   651.7500   2000.0000     13.6892     12.9377   2000.0000    149.7584
   652.0000   2000.0000     14.3402     13.5556   2000.0000    138.0069
   652.2500   2000.0000     15.1409     14.4330   2000.0000    137.0285
   652.5000   2000.0000     15.9639     15.1757   2000.0000    146.4102
   652.7500   2000.0000     16.6936     15.6161   2000.0000    149.9099
   653.0000   2000.0000     18.3523     15.9042   2000.0000    138.3085
   653.2500   2000.0000     19.5249     17.0983   2000.0000    128.8877
   653.5000   2000.0000     20.4257     19.2861   2000.0000    112.3231
   653.7500   2000.0000     20.9122     21.5648   2000.0000     89.2257
   654.0000   2000.0000     20.9733     23.7730   2000.0000     67.2685
   654.2500   2000.0000     20.9289     26.1118   2000.0000     62.2102
   654.5000   2000.0000     20.8436     27.4942   2000.0000     65.0232
   654.7500   2000.0000     20.8095     27.3547   2000.0000     66.8268
   655.0000   2000.0000     19.8924     26.7665   2000.0000     79.9984
   655.2500   2000.0000     18.4974     25.7560   2000.0000     87.2089
   655.5000   2000.0000     18.0242     23.3258   2000.0000     99.5554
   655.7500   2000.0000     18.0325     20.5950   2000.0000    113.8763
   656.0000   2000.0000     17.2412     18.0564   2000.0000    136.9812
   656.2500   2000.0000     16.1455     16.2421   2000.0000    144.5075
   656.5000   2000.0000     15.7637     14.8873   2000.0000    156.9565
   656.7500   2000.0000     14.8279     13.3113   2000.0000    161.3869
   657.0000   2000.0000     14.4891     12.4161   2000.0000    158.1874
   657.2500   2000.0000     13.9691     11.8071   2000.0000    157.8172
   657.5000   2000.0000     13.5914     11.2628   2000.0000    161.7538
   657.7500   2000.0000     13.6717     11.0657   2000.0000    155.6755
   658.0000   2000.0000     14.0340     10.7863   2000.0000    150.4503
   658.2500   2000.0000     13.3199     10.8918   2000.0000    148.7403
   658.5000   2000.0000     13.2177     11.1418   2000.0000    155.0249
   658.7500   2000.0000     13.2418     11.7669   2000.0000    147.2449
   659.0000   2000.0000     13.4143     12.4441   2000.0000    140.7312
   659.2500   2000.0000     13.1026     13.1998   2000.0000    133.1762
   659.5000   2000.0000     13.3377     13.6650   2000.0000    138.9696
   659.7500   2000.0000     13.3511     13.9362   2000.0000    148.4258
   660.0000   2000.0000     14.0081     14.5583   2000.0000    143.7929
   660.2500   2000.0000     14.3233     14.5471   2000.0000    136.6295
   660.5000   2000.0000     14.6956     14.6743   2000.0000    140.5517
   660.7500   2000.0000     15.4678     14.8066   2000.0000    140.8549
   661.0000   2000.0000     15.6034     14.9107   2000.0000    147.7498
   661.2500   2000.0000     15.9486     15.4150   2000.0000    137.7777
   661.5000   2000.0000     16.7344     15.0887   2000.0000    144.7859
   661.7500   2000.0000     16.6074     14.9746   2000.0000    147.6754
