~Version Information
VERS.                      2.0: CWLS Log ASCII Standard - VERSION 2.0
WRAP.                       NO: One line per depth step
~Well Information Block
STRT.FT                15.0000: 
STOP.FT              1869.0000: 
STEP.FT                 0.2500: 
NULL.                -999.2500: 
COMP.          Pioneer Natural Resources: COMPANY
WELL.          Victory 12-14 Tr: WELL
FLD.           Purgatoire River: FIELD
LOC.           2522' FNL & 276' FWL: LOCATION
PROV.                 Colorado: PROVINCE
CNTY.               Las Animas: COUNTRY
SRVC.                Patterson: SERVICE COMPANY
DATE.          Fri Jul 22 14:39:41 2005: LOG DATE
UWI.           05 071 08433 00: UNIQUE WELL ID
~Curve Information Block
DEPT.FT            0 000 00 00: Depth
GR.GAPI                       : Gamma Ray
CCL.                          : Casing Collar Locator
TT3.usec                      : CBL 3' Travel Time
AMP3.mV                       : CBL 3' Amplitude
~Parameter Information Block
~A  Depth        GR         CCL         TT3         AMP3    
    15.0000   -999.2500      0.0000    255.2190     65.8369
    15.2500   -999.2500      0.0000    255.3011     65.6174
    15.5000   -999.2500      0.0000    255.3857     65.3868
    15.7500   -999.2500      0.0000    255.4539     65.2335
    16.0000   -999.2500      0.0000    255.4972     65.2123
    16.2500     81.5931      0.0000    255.5189     65.3277
    16.5000     80.7018      0.0000    255.5269     65.5529
    16.7500     79.9793      0.0000    255.5258     65.8657
    17.0000     79.6737      0.0000    255.5165     66.2605
    17.2500     79.8910      0.0000    255.5011     66.7270
    17.5000     80.3559      0.0000    255.4842     67.2328
    17.7500     80.5102      0.0000    255.4690     67.7326
    18.0000     79.8532      0.0000    255.4552     68.1745
    18.2500     78.3860      0.0000    255.4417     68.4880
    18.5000     76.7910      0.0000    255.4296     68.6014
    18.7500     75.9080      0.0000    255.4187     68.5086
    19.0000     75.9555      0.0000    255.4043     68.3149
    19.2500     76.4842      0.0000    255.3821     68.1778
    19.5000     77.1197      0.0000    255.3547     68.1867
    19.7500     78.0116      0.0000    255.3313     68.3137
    20.0000     79.3959      0.0000    255.3174     68.4788
    20.2500     80.9987      0.0000    255.3100     68.6387
    20.5000     82.1763      0.0000    255.3044     68.8145
    20.7500     82.5228      0.0000    255.3030     69.0534
    21.0000     82.1422      0.0000    255.3184     69.3522
    21.2500     81.4417      0.0000    255.4037     69.5798
    21.5000     80.8177      0.0000    255.7451     69.4344
    21.7500     80.3895      0.0000    256.8039     68.4706
    22.0000     79.7819      0.0000    259.3543     66.2349
    22.2500     78.2022      0.0000    264.1522     62.5036
    22.5000     75.0275      0.0000    271.3209     57.4785
    22.7500     70.6151      0.0000    280.1776     51.7263
    23.0000     66.5916      0.0000    290.1874     45.8702
    23.2500     64.9580      0.0000    302.3008     40.3138
    23.5000     66.4242      0.0000    319.0690     35.2153
    23.7500     69.5312      0.0000    343.2616     30.6247
    24.0000     71.6647      0.0000    376.9915     26.5777
    24.2500     71.1052      0.0000    422.4186     23.0865
    24.5000     68.0939      0.0000    481.4455     20.1187
    24.7500     64.0366      0.0000    551.9685     17.6283
    25.0000     60.0503      0.0000    624.4826     15.5963
    25.2500     56.4736      0.0000    685.4088     14.0299
    25.5000     53.5166      0.0000    725.6549     12.9268
    25.7500     51.9111      0.0000    745.6034     12.2451
    26.0000     52.5478      0.0000    752.2280     11.8979
    26.2500     55.4059      0.0000    752.9589     11.7731
    26.5000     59.1138      0.0000    752.2069     11.7652
    26.7500     61.8475      0.0000    751.5350     11.7990
    27.0000     62.6514      0.0000    751.1721     11.8329
    27.2500     61.8802      0.0000    751.0224     11.8514
    27.5000     60.6416      0.0000    750.9925     11.8565
    27.7500     59.9611      0.0000    751.0351     11.8575
    28.0000     60.1501      0.0000    751.1740     11.8620
    28.2500     60.6542      0.0000    751.4461     11.8718
    28.5000     60.6221      0.0000    751.8154     11.8875
    28.7500     59.7901      0.0000    752.1541     11.9108
    29.0000     58.7519      0.0000    752.3320     11.9429
    29.2500     58.2958      0.0000    752.3231     11.9824
    29.5000     58.5410      0.0000    752.2204     12.0269
    29.7500     58.8394      0.0000    752.1359     12.0748
    30.0000     58.5414      0.0000    752.0976     12.1206
    30.2500     57.7124      0.0000    752.0604     12.1526
    30.5000     57.0156      0.0000    752.0029     12.1599
    30.7500     57.0622      0.0000    751.9681     12.1449
    31.0000     57.9867      0.0000    751.9875     12.1256
    31.2500     59.4551      0.0000    752.0083     12.1192
    31.5000     60.8841      0.0000    751.9471     12.1246
    31.7500     61.7240      0.0000    751.7957     12.1234
    32.0000     61.6948      0.0000    751.6266     12.0992
    32.2500     60.8765      0.0000    751.5328     12.0528
    32.5000     59.7569      0.0000    751.6658     11.9987
    32.7500     59.1732      0.0000    752.4151     11.9537
    33.0000     59.7972      0.0000    754.4603     11.9295
    33.2500     61.3661      0.0000    758.3354     11.9285
    33.5000     62.6605      0.0000    763.6109     11.9444
    33.7500     62.5815      0.0000    768.5539     11.9688
    34.0000     61.2704      0.0000    771.0873     11.9986
    34.2500     60.0101      0.0000    770.4357     12.0366
    34.5000     59.9973      0.0000    767.6616     12.0853
    34.7500     61.3210      0.0000    764.4352     12.1449
    35.0000     63.1615      0.0000    761.6619     12.2155
    35.2500     64.7230      0.0000    759.6548     12.2973
    35.5000     65.6505      0.0000    759.1077     12.3844
    35.7500     65.7200      0.0000    761.0356     12.4629
    36.0000     64.7208      0.0000    765.6440     12.5176
    36.2500     62.8592      0.0000    771.7233     12.5396
    36.5000     60.8765      0.0000    777.4079     12.5284
    36.7500     59.4129      0.0000    781.4428     12.4917
    37.0000     58.4048      0.0000    783.6652     12.4455
    37.2500     57.3874      0.0000    784.5107     12.4102
    37.5000     56.3302      0.0000    784.2924     12.4005
    37.7500     55.9145      0.0000    782.9294     12.4132
    38.0000     56.9293      0.0000    780.2102     12.4294
    38.2500     59.5194      0.0000    776.1982     12.4275
    38.5000     63.0747      0.0000    771.3818     12.3908
    38.7500     66.7924      0.0000    766.6064     12.2932
    39.0000     70.1906      0.0000    763.1755     12.0844
    39.2500     73.0517      0.0000    762.8808     11.6949
    39.5000     75.1875      0.0000    767.6761     11.0696
    39.7500     76.6222      0.0000    780.0253     10.2288
    40.0000     77.8858      0.0000    805.5626      9.3073
    40.2500     79.6499      0.0000    855.5594      8.5001
    40.5000     81.8636      0.0000    941.7865      7.9421
    40.7500     83.4730      0.0000   1062.5602      7.6542
    41.0000     83.2721      0.0000   1193.8574      7.5839
    41.2500     81.1091      0.0000   1300.7841      7.6457
    41.5000     78.3602      0.0000   1362.3750      7.7368
    41.7500     77.2555      3.0000   1384.5717      7.7766
    42.0000     79.4177      0.0000   1387.9762      7.7512
    42.2500     84.7161      0.0000   1383.2488      7.7321
    42.5000     91.5105      0.0000   1359.0935      7.8632
    42.7500     97.9831      0.0000   1294.9838      8.2891
    43.0000    103.1603      0.0000   1186.0334      9.0266
    43.2500    106.9307      0.0000   1054.5635      9.9013
    43.5000    109.4094      0.0000    936.1040     10.6692
    43.7500    110.4128      0.0000    854.5574     11.2025
    44.0000    109.5795      0.0000    811.2441     11.5313
    44.2500    106.8770      0.0000    793.4204     11.7398
    44.5000    102.8567      0.0000    787.7240     11.8822
    44.7500     98.5779      0.0000    786.3168     11.9818
    45.0000     95.3405      0.0000    786.0438     12.0542
    45.2500     94.0867      0.0000    785.9675     12.1113
    45.5000     94.7714      0.0000    785.8815     12.1557
    45.7500     96.4197      0.0000    785.7567     12.1827
    46.0000     97.8586      0.0000    785.6235     12.1898
    46.2500     98.3494      0.0000    785.5010     12.1832
    46.5000     97.7838      0.0000    785.3934     12.1740
    46.7500     96.6606      0.0000    785.3024     12.1716
    47.0000     95.8326      0.0000    785.2278     12.1798
    47.2500     95.9036      0.0000    785.1517     12.2019
    47.5000     96.7348      0.0000    785.0428     12.2442
    47.7500     97.6630      0.0000    784.8903     12.3079
    48.0000     98.0969      0.0000    784.7248     12.3809
    48.2500     97.7803      0.0000    784.5955     12.4431
