~Version Information
VERS.                      2.0: CWLS Log ASCII Standard - VERSION 2.0
WRAP.                       NO: One line per depth step
~Well Information Block
STRT.FT               743.8000: 
STOP.FT              1975.8000: 
STEP.FT                 0.1000: 
NULL.                -999.2500: 
COMP.          Petrogulf Corporation: COMPANY
WELL.            Montoya 6-14V: WELL
FLD.           Purgatorie River: FIELD
LOC.           318' FSL & 882' FWL: LOCATION
CNTY.               Las Animas: COUNTY
SRVC.                         : SERVICE COMPANY
DATE.          Sat Aug 14 09:19:43 2004: LOG DATE
UWI.           05 071 08020 00: UNIQUE WELL ID
STAT.                 Colorado: STATE
~Curve Information Block
DEPT.FT            0 000 00 00: Depth
DCAL.in                       : CDL Caliper
RHOB.g/cc                     : CDL Bulk Density
RHOC.g/cc                     : CDL Density Correction
DPOR.pu                       : CDL Density Porosity
GR.GAPI                       : Gamma Ray
NPOR.pu                       : Neutron Porosity
~Parameter Information Block
~A  Depth       DCAL        RHOB        RHOC        DPOR         GR         NPOR    
# ...
   839.8000      8.4565      2.2143      0.0317     26.4087    154.9668     26.4197
   839.9000      8.4565      2.2187      0.0752     26.1366    157.9390     25.9872
   840.0000      8.4383      2.2243      0.0761     25.7998    158.4999     25.7385
   840.1000      8.4383      2.2347      0.0851     25.1706    159.9548     25.8094
   840.2000      8.4383      2.2437      0.0688     24.6245    166.3577     25.7215
   840.3000      8.4624      2.2410      0.0096     24.7861    172.5914     25.2934
   840.4000      8.4624      2.2287      0.0110     25.5362    171.0759     24.8654
   840.5000      8.5089      2.2161     -0.0073     26.2976    164.2135     24.4414
   840.6000      8.5089      2.2109     -0.0228     26.6094    156.8578     23.9093
   840.7000      8.5089      2.2186      0.0315     26.1480    153.1753     23.5325
   840.8000      8.4835      2.2367      0.0418     25.0480    155.6011     23.5692
   840.9000      8.4835      2.2576      0.1055     23.7799    159.7888     23.8061
   841.0000      8.4615      2.2833      0.1205     22.2250    156.9783     23.7774
   841.1000      8.4615      2.3189      0.1223     20.0644    148.3034     23.2952
   841.2000      8.4615      2.3483      0.1591     18.2840    145.3024     22.7160
   841.3000      8.4722      2.3522      0.1041     18.0509    151.8640     22.4842
   841.4000      8.4722      2.3345      0.0793     19.1236    156.2187     22.4158
   841.5000      8.5882      2.3021      0.0605     21.0866    154.2336     22.1890
   841.6000      8.5882      2.2530      0.0659     24.0583    154.3179     21.7509
   841.7000      8.5882      2.1902     -0.0039     27.8646    155.5313     21.3457
   841.8000      8.6093      2.1259     -0.0476     31.7656    151.1836     21.5259
   841.9000      8.6093      2.0704     -0.0192     35.1246    141.8029     22.3274
   842.0000      8.6500      2.0244      0.0005     37.9167    134.8442     23.1068
   842.1000      8.6500      1.9908     -0.0401     39.9525    137.3136     23.4508
   842.2000      8.6500      1.9836     -0.0448     40.3870    147.0001     23.8168
   842.3000      8.6529      2.0072      0.0414     38.9563    155.7364     24.9394
   842.4000      8.6529      2.0469      0.0922     36.5498    156.8262     26.8752
   842.5000      8.6028      2.0906      0.0866     33.9043    150.3016     28.8758
   842.6000      8.6028      2.1344      0.1376     31.2497    144.9619     30.3793
   842.7000      8.6028      2.1669      0.1145     29.2794    142.5959     31.5904
   842.8000      8.6900      2.1683      0.1235     29.1939    139.0478     32.8274
   842.9000      8.6900      2.1225      0.1184     31.9671    139.4872     33.9202
   843.0000      8.6447      2.0356     -0.0341     37.2366    146.9337     34.2629
   843.1000      8.6447      1.9289     -0.0004     43.7024    154.3192     33.5027
   843.2000      8.6447      1.8129     -0.0363     50.7323    159.9285     31.7392
   843.3000      8.7634      1.6954     -0.0893     57.8568    166.1200     29.3753
   843.4000      8.7634      1.5845     -0.1396     64.5746    171.3567     26.7761
   843.5000      8.8184      1.4690     -0.1118     71.5728    176.6907     23.8338
   843.6000      8.8184      1.3132     -0.1012     81.0173    182.1671     20.3530
   843.7000      8.8184      1.1051     -0.1911     93.6305    181.3026     16.6381
   843.8000      8.8728      0.9081     -0.2950    105.5675    173.2053     13.1523
   843.9000      8.8728      0.8010     -0.3432    112.0577    165.1660     10.1084
   844.0000      9.2208      0.7777     -0.4659    113.4725    160.3639      7.7251
   844.1000      9.2208      0.7765     -0.6361    113.5437    157.2205      6.1847
   844.2000      9.2208      0.7634     -0.6188    114.3387    154.7477      5.6702
   844.3000      9.8668      0.7396     -0.5707    115.7809    154.3225      6.5046
   844.4000      9.8668      0.7369     -0.5085    115.9458    158.8893      8.7113
   844.5000     10.8243      0.8199     -0.4410    110.9171    163.9245     11.9496
   844.6000     10.8243      1.0284     -0.2581     98.2776    160.1604     15.8483
   844.7000     10.8243      1.3176      0.0152     80.7520    148.3212     19.8727
   844.8000     12.2493      1.6084      0.2090     63.1293    136.6448     23.5167
   844.9000     12.2493      1.8749      0.3191     46.9746    128.4980     26.8881
   845.0000     11.9780      2.1277      0.4284     31.6561    123.7327     30.2099
   845.1000     11.9780      2.3401      0.5287     18.7803    123.1605     33.0613
   845.2000     11.9780      2.4664      0.5090     11.1254    124.5219     34.8840
   845.3000      8.8087      2.5104      0.3879      8.4599    125.3331     35.6308
   845.4000      8.8087      2.5112      0.2771      8.4125    127.0252     35.5115
   845.5000      8.3878      2.4965      0.1610      9.3045    129.6023     34.7414
   845.6000      8.3878      2.4755      0.1758     10.5727    131.0327     33.6359
   845.7000      8.3878      2.4561      0.0760     11.7492    130.0873     32.4628
   845.8000      8.4018      2.4577      0.0801     11.6518    127.5380     31.3185
   845.9000      8.4018      2.4848      0.1252     10.0140    123.3226     30.2338
   846.0000      8.3861      2.5156      0.1050      8.1452    118.2189     29.1754
   846.1000      8.3861      2.5370      0.0234      6.8461    116.9469     28.1443
   846.2000      8.3861      2.5522      0.0226      5.9244    119.8978     27.3427
   846.3000      8.3751      2.5612      0.0736      5.3807    122.3925     26.8754
   846.4000      8.3751      2.5620      0.0141      5.3348    123.1269     26.4952
   846.5000      8.3664      2.5537      0.0128      5.8388    122.4356     26.0035
   846.6000      8.3664      2.5331      0.0081      7.0871    122.0705     25.5100
   846.7000      8.3664      2.5058      0.0022      8.7381    121.9273     25.1219
   846.8000      8.3779      2.4854     -0.0394      9.9735    119.6927     24.8891
   846.9000      8.3779      2.4796     -0.0572     10.3302    117.5071     24.7985
   847.0000      8.3714      2.4794     -0.0483     10.3389    119.0685     24.8303
   847.1000      8.3714      2.4745     -0.0713     10.6391    124.5522     25.0202
   847.2000      8.3714      2.4664     -0.0408     11.1254    133.9307     25.1225
   847.3000      8.3772      2.4608     -0.0353     11.4646    146.9996     25.0366
   847.4000      8.3772      2.4599      0.0083     11.5222    160.7394     24.9411
   847.5000      8.3802      2.4631     -0.0100     11.3262    168.2776     24.7764
   847.6000      8.3802      2.4696     -0.0017     10.9361    164.1263     24.6725
   847.7000      8.3802      2.4673      0.0074     11.0735    150.4503     24.7910
   847.8000      8.3775      2.4430      0.0276     12.5428    133.4247     24.8134
   847.9000      8.3775      2.4098     -0.0504     14.5598    122.6687     24.5362
   848.0000      8.4032      2.3877     -0.0322     15.8993    123.8079     24.1862
   848.1000      8.4032      2.3735     -0.0034     16.7589    130.6475     24.0424
   848.2000      8.4032      2.3677     -0.0315     17.1071    137.6492     24.0749
   848.3000      8.4093      2.3847      0.0112     16.0777    143.7725     23.9847
   848.4000      8.4093      2.4159      0.0303     14.1904    144.9568     23.8307
   848.5000      8.3823      2.4397      0.0235     12.7462    139.9637     24.0388
   848.6000      8.3823      2.4574     -0.0063     11.6751    135.5242     24.4906
   848.7000      8.3823      2.4815      0.0801     10.2147    136.6258     24.6759
   848.8000      8.3780      2.5102      0.0871      8.4718    139.7878     24.5887
   848.9000      8.3780      2.5362      0.1224      6.8967    140.7904     24.7223
   849.0000      8.3889      2.5530      0.1557      5.8805    141.0950     25.2246
   849.1000      8.3889      2.5525      0.1748      5.9081    142.4296     25.6054
   849.2000      8.3889      2.5407      0.0777      6.6263    141.6187     25.8226
   849.3000      8.2631      2.5379      0.0634      6.7926    135.7960     26.3553
