~Version Information
VERS.                      2.0: CWLS Log ASCII Standard - VERSION 2.0
WRAP.                       NO: One line per depth step
~Well Information Block
STRT.FT               630.0000: 
STOP.FT              1156.0000: 
STEP.FT                 0.2500: 
NULL.                -999.2500: 
COMP.          Pioneer Natural Resources: COMPANY
WELL.          Drewmeister 34-34: WELL
FLD.           Purgatoire River: FIELD
LOC.           958' FSL & 1857' FEL: LOCATION
STAT.                 Colorado: State
CNTY.               Las Animas: COUNTY
CTRY. USA : Country
SECT. 34 : Section
TOWN. 32S : Township
RANG. 65W : Range
SRVC.                Patterson: SERVICE COMPANY
DATE.          Mon Oct 03 23:24:37 2005: LOG DATE
API.           05 071 08131 00: UNIQUE WELL ID
~Curve Information Block
DEPT.FT            0 000 00 00: Depth
SN.Ohm-m                      : IEL Short Normal
SP.mV                         : IEL Spontaneous Potential
DIR.Ohm-m                     : IEL Induction Resistivity
GR.GAPI                       : Gamma Ray
~Parameter Information Block
~A  Depth        SN          SP         DIR          GR     
# ...
   663.5000    191.9891    605.8766      8.9419    144.1966
   663.7500    270.4955    577.3535      9.0392    145.9308
   664.0000    409.2336    557.0730      9.1425    145.8808
   664.2500    575.6459    547.5523      9.2651    144.1108
   664.5000    718.1180    547.2335      9.4190    140.7699
   664.7500    803.6771    552.5023      9.6139    139.3271
   665.0000    838.7943    560.9600      9.8576    138.7085
   665.2500    845.6066    573.2870     10.1566    138.3425
   665.5000    831.2923    592.3138     10.5139    135.7279
   665.7500    778.3353    620.1120     10.9221    132.1530
   666.0000    663.7512    655.3118     11.3574    125.0927
   666.2500    501.2750    692.6938     11.7823    120.3412
   666.5000    348.2805    725.4747     12.1629    114.5351
   666.7500    244.9797    748.6793     12.4883    111.8361
   667.0000    176.9956    761.1855     12.7755    109.2279
   667.2500    118.5384    765.2606     13.0532    107.8605
   667.5000     70.2597    764.5139     13.3406    105.3107
   667.7500     41.4304    762.1669     13.6359    103.2930
   668.0000     28.9791    760.5911     13.9181    101.4528
   668.2500     23.6212    761.4681     14.1596    102.3520
   668.5000     20.6185    765.5074     14.3381    107.7437
   668.7500     19.4780    771.8088     14.4450    112.9969
   669.0000     19.6647    777.9552     14.4835    119.8325
   669.2500     19.7038    781.1952     14.4613    122.0266
   669.5000     18.7200    779.6612     14.3837    121.5891
   669.7500     17.2209    772.5158     14.2522    119.9824
   670.0000     16.1367    759.1400     14.0692    117.8206
   670.2500     15.8380    738.3544     13.8431    117.3722
   670.5000     16.5593    708.5568     13.5876    118.8880
   670.7500     20.1334    669.0082     13.3160    121.3173
   671.0000     33.9979    621.6002     13.0361    126.0024
   671.2500     78.3598    571.6846     12.7492    128.8207
   671.5000    185.5742    526.8387     12.4539    131.1625
   671.7500    368.1753    494.0912     12.1491    131.1593
   672.0000    577.9240    477.6358     11.8343    129.4273
   672.2500    732.6382    478.5138     11.5099    127.9608
   672.5000    785.9929    495.7817     11.1774    126.5776
   672.7500    732.4588    527.5654     10.8402    126.3629
   673.0000    582.2087    571.0580     10.5027    126.4590
   673.2500    381.0226    621.8481     10.1701    126.3932
   673.5000    204.9198    673.7413      9.8481    126.1293
   673.7500     97.3041    719.9663      9.5417    126.2996
   674.0000     47.0529    755.4426      9.2542    127.9856
   674.2500     26.3100    778.5836      8.9866    130.3328
   674.5000     17.7124    791.2466      8.7386    135.4954
   674.7500     14.1178    796.9921      8.5114    139.6374
   675.0000     12.7357    799.1324      8.3078    145.9845
   675.2500     12.2241    799.7816      8.1315    149.6591
   675.5000     11.9090    799.9406      7.9854    153.2843
   675.7500     11.6331    799.9714      7.8718    154.2662
   676.0000     11.4735    799.9759      7.7922    154.3971
   676.2500     11.5409    799.9761      7.7463    154.1932
   676.5000     11.9075    799.9761      7.7305    153.4354
   676.7500     12.5190    799.9761      7.7373    152.1448
   677.0000     13.2626    799.9761      7.7576    148.8190
   677.2500     14.0082    799.9761      7.7851    146.2809
   677.5000     14.5414    799.9761      7.8189    143.5336
   677.7500     14.6313    799.9761      7.8640    142.9331
   678.0000     14.1391    799.9761      7.9273    143.3549
   678.2500     13.1449    799.9761      8.0135    143.5416
   678.5000     12.0297    799.9761      8.1208    142.4290
   678.7500     11.2256    799.9761      8.2398    141.0709
   679.0000     10.8724    799.9761      8.3587    139.9186
   679.2500     10.8428    799.9761      8.4692    140.3802
   679.5000     10.9126    799.9761      8.5711    141.9846
   679.7500     10.9008    799.9761      8.6695    142.4487
   680.0000     10.8578    799.9761      8.7691    141.1530
   680.2500     10.9821    799.9761      8.8678    139.4913
   680.5000     11.2977    799.9761      8.9553    137.6214
   680.7500     11.6107    799.9761      9.0185    137.3376
   681.0000     11.7497    799.9761      9.0499    137.6671
   681.2500     11.7244    799.9761      9.0519    137.5602
   681.5000     11.7084    799.9761      9.0338    136.1264
   681.7500     11.8987    799.9761      9.0056    134.4603
   682.0000     12.3268    799.9761      8.9741    131.6554
   682.2500     12.8749    799.9761      8.9436    130.0687
   682.5000     13.6101    799.9756      8.9191    128.9482
   682.7500     14.8232    799.9729      8.9077    129.4325
   683.0000     16.3548    799.9617      8.9166    132.0557
   683.2500     17.3549    799.9243      8.9500    134.6782
   683.5000     17.3035    799.8238      9.0070    138.9759
   683.7500     16.6383    799.6035      9.0830    141.6002
   684.0000     15.9626    799.2017      9.1731    144.3950
   684.2500     15.4338    798.5825      9.2729    144.9874
   684.5000     14.9100    797.7746      9.3764    143.1925
   684.7500     14.2508    796.9093      9.4746    140.1625
   685.0000     13.6789    796.2178      9.5587    134.0549
   685.2500     13.5957    795.9215      9.6262    130.0846
   685.5000     13.9187    796.0093      9.6829    125.5383
   685.7500     14.1149    796.0684      9.7387    123.3622
   686.0000     13.8922    795.3954      9.8011    120.6715
   686.2500     13.4447    793.3744      9.8706    119.1177
   686.5000     13.0832    789.8076      9.9416    117.2815
   686.7500     12.9460    784.9646     10.0048    116.3573
   687.0000     13.0361    779.4537     10.0507    115.3340
   687.2500     13.4312    774.1129     10.0715    115.1791
   687.5000     14.4307    769.8718     10.0616    116.6754
   687.7500     16.2548    767.4177     10.0183    119.0900
   688.0000     18.4672    766.7492      9.9421    124.2025
   688.2500     19.8848    766.9899      9.8366    127.8056
   688.5000     19.3871    766.7122      9.7090    132.2594
   688.7500     17.1553    764.5920      9.5681    134.3011
   689.0000     14.6776    759.9904      9.4230    136.2725
   689.2500     13.1746    753.2762      9.2813    137.1585
   689.5000     12.7552    745.8757      9.1479    137.9205
   689.7500     12.9157    739.9393      9.0252    137.8999
   690.0000     13.0925    737.4658      8.9132    136.9894
   690.2500     12.9384    739.1643      8.8102    135.8304
   690.5000     12.4537    743.9307      8.7151    133.1220
   690.7500     11.8613    749.5935      8.6291    130.5802
   691.0000     11.3148    754.4002      8.5569    126.1831
   691.2500     10.8725    757.9116      8.5052    123.6046
   691.5000     10.6564    760.6560      8.4795    121.4578
   691.7500     10.7445    763.2081      8.4814    121.3161
   692.0000     10.9857    765.6516      8.5070    122.2235
   692.2500     11.1196    767.5920      8.5476    122.8587
   692.5000     11.0951    768.3507      8.5939    122.9397
   692.7500     11.1080    767.2487      8.6401    122.1653
   693.0000     11.2736    764.2164      8.6863    119.4749
   693.2500     11.5188    760.5031      8.7377    116.4191
   693.5000     11.8245    758.5497      8.8000    109.9115
   693.7500     12.3494    760.5099      8.8755    104.9774
   694.0000     13.1149    766.5220      8.9617     98.8390
   694.2500     13.6498    774.5662      9.0552     96.5811
   694.5000     13.4557    782.1055      9.1554     96.0013
   694.7500     12.7415    787.7047      9.2667     96.7137
   695.0000     12.1136    791.2009      9.3979     97.9099
   695.2500     11.8313    792.9138      9.5582     98.3074
   695.5000     11.7720    793.0877      9.7547     98.4213
   695.7500     11.7957    791.9031      9.9889     98.7041
   696.0000     11.8701    789.6332     10.2585    100.7461
   696.2500     11.9680    786.6217     10.5611    103.7331
   696.5000     12.0446    783.1551     10.8999    110.0852
   696.7500     12.1403    779.4022     11.2859    114.2399
