~Version Information
VERS.                      2.0: CWLS Log ASCII Standard - VERSION 2.0
WRAP.                       NO: One line per depth step
~Well Information Block
STRT.FT               650.0000: 
STOP.FT              2085.0000: 
STEP.FT                 0.1000: 
NULL.                -999.2500: 
COMP.          Pioneer Natural Resources: COMPANY
WELL.           Galloway 32-13: WELL
FLD.           Purgatoire River: FIELD
LOC.           1809' FNL & 2004' FEL: LOCATION
PROV.                 Colorado: PROVINCE
CNTY.               Las Animas: COUNTRY
SRVC.                Patterson: SERVICE COMPANY
DATE.          Sat Jul 09 02:17:51 2005: LOG DATE
UWI.           05 071 08423 00: UNIQUE WELL ID
~Curve Information Block
DEPT.FT            0 000 00 00: Depth
DCAL.in                       : CDL Caliper
RHOB.g/cc                     : CDL Bulk Density
RHOC.g/cc                     : CDL Density Correction
DPOR.pu                       : CDL Density Porosity
GR.GAPI                       : Gamma Ray
NPOR.pu                       : Neutron Porosity
~Parameter Information Block
~A  Depth       DCAL        RHOB        RHOC        DPOR         GR         NPOR    
# ...
  1504.4000     10.3431      1.9045      0.0816     45.1796    141.9475     31.4485
  1504.5000      9.9599      1.9185      0.0127     44.3350    147.0823     31.6091
  1504.6000      9.9599      2.0251      0.1224     37.8697    145.0742     31.9444
  1504.7000      9.9599      2.1786      0.3330     28.5673    138.9464     31.8752
  1504.8000      9.5138      2.3054      0.3569     20.8845    136.8841     31.8560
  1504.9000      9.5138      2.3884      0.3760     15.8557    137.1490     32.4799
  1505.0000      9.0776      2.4529      0.3634     11.9435    137.0178     32.6548
  1505.1000      9.0776      2.5114      0.3444      8.4013    138.6582     31.7791
  1505.2000      9.0776      2.5411      0.2858      6.6024    142.5132     30.8932
  1505.3000      8.7975      2.5245      0.1270      7.6088    144.7211     30.4514
  1505.4000      8.7975      2.4929      0.0092      9.5203    144.9541     30.3341
  1505.5000      8.5413      2.4857      0.0257      9.9560    147.6201     30.7097
  1505.6000      8.5413      2.4937      0.0820      9.4717    150.1900     30.8758
  1505.7000      8.5413      2.4874      0.0645      9.8531    149.7811     30.0135
  1505.8000      8.3414      2.4709      0.0650     10.8523    150.1374     28.5186
  1505.9000      8.3414      2.4666      0.0551     11.1138    151.8634     27.1378
  1506.0000      8.2748      2.4741      0.0440     10.6630    151.7825     26.4860
  1506.1000      8.2748      2.4722      0.0802     10.7776    150.9861     27.1752
  1506.2000      8.2748      2.4615      0.0342     11.4253    155.3243     29.2113
  1506.3000      8.2758      2.4613      0.0079     11.4388    166.7799     31.1199
  1506.4000      8.2758      2.4601      0.0711     11.5104    178.7960     31.6642
  1506.5000      8.2916      2.4379     -0.0094     12.8560    183.8194     31.0086
  1506.6000      8.2916      2.4159     -0.0399     14.1854    179.4326     29.6025
  1506.7000      8.2916      2.4238      0.0198     13.7078    167.9334     28.1936
  1506.8000      8.3131      2.4550      0.1076     11.8165    155.7185     27.5826
  1506.9000      8.3131      2.4762      0.1472     10.5313    147.6565     28.0871
  1507.0000      8.3346      2.4732      0.0547     10.7146    145.0014     29.3988
  1507.1000      8.3346      2.4670      0.0302     11.0931    149.5675     30.6083
  1507.2000      8.3346      2.4710      0.0582     10.8484    157.1872     30.7567
  1507.3000      8.3543      2.4751      0.1142     10.6014    158.2629     29.8536
  1507.4000      8.3543      2.4838      0.0532     10.0720    154.5800     28.7284
  1507.5000      8.3831      2.5183      0.0639      7.9844    156.0421     27.8219
  1507.6000      8.3831      2.5605      0.1993      5.4271    162.7467     26.6724
  1507.7000      8.3831      2.5654      0.1853      5.1247    170.7110     25.5014
  1507.8000      8.4183      2.5340      0.0923      7.0303    178.6541     24.9986
  1507.9000      8.4183      2.5046      0.0065      8.8138    181.9832     24.8910
  1508.0000      8.4013      2.4970      0.0380      9.2714    176.0584     24.6119
  1508.1000      8.4013      2.5018      0.0290      8.9841    165.1596     24.2540
  1508.2000      8.4013      2.5010      0.0237      9.0295    157.4957     24.3320
  1508.3000      8.3182      2.4850      0.0661      9.9977    153.5189     25.0720
  1508.4000      8.3182      2.4626      0.0480     11.3548    149.5529     26.2281
  1508.5000      8.2577      2.4502      0.0535     12.1086    148.3007     27.1139
  1508.6000      8.2577      2.4376      0.0634     12.8701    154.0188     27.2725
  1508.7000      8.2577      2.3994      0.0062     15.1885    162.0817     27.4289
  1508.8000      8.2392      2.3447     -0.0584     18.5026    163.6290     27.9696
  1508.9000      8.2392      2.2998     -0.0042     21.2270    157.3568     27.8430
  1509.0000      8.2355      2.2808     -0.0479     22.3778    150.9303     26.7100
  1509.1000      8.2355      2.3044     -0.0388     20.9474    150.4630     25.8759
  1509.2000      8.2355      2.3596      0.0694     17.6001    153.8439     26.4736
  1509.3000      8.2501      2.4119      0.0571     14.4332    155.2106     28.1436
  1509.4000      8.2501      2.4565      0.0783     11.7278    152.6036     29.5401
  1509.5000      8.3122      2.5005      0.2102      9.0623    149.7092     30.0739
  1509.6000      8.3122      2.5223      0.2801      7.7393    149.9150     29.6724
  1509.7000      8.3122      2.5037      0.2945      8.8638    151.9563     28.6152
  1509.8000      8.4512      2.4583      0.2391     11.6182    152.3356     27.9297
  1509.9000      8.4512      2.4131      0.2203     14.3551    151.6609     27.6582
  1510.0000      8.5752      2.3880      0.1026     15.8798    153.7596     27.5586
  1510.1000      8.5752      2.3865      0.0664     15.9726    161.0114     28.0592
  1510.2000      8.5752      2.3933      0.1465     15.5588    170.0029     28.9757
  1510.3000      8.5316      2.3983      0.0639     15.2553    172.4902     29.7715
  1510.4000      8.5316      2.4203      0.0782     13.9239    168.7538     30.0518
  1510.5000      8.4185      2.4672      0.1384     11.0783    166.4454     29.6406
  1510.6000      8.4185      2.5004      0.2680      9.0664    166.8755     28.6653
  1510.7000      8.4185      2.4855      0.3163      9.9701    167.4753     27.6801
  1510.8000      8.3733      2.4417      0.2252     12.6215    164.1290     27.3591
  1510.9000      8.3733      2.4054      0.1941     14.8229    156.8185     28.0347
  1511.0000      8.3872      2.4004      0.0872     15.1278    152.4406     28.8106
  1511.1000      8.3872      2.4323      0.1260     13.1945    154.2602     28.6309
  1511.2000      8.3872      2.4742      0.1685     10.6573    157.4912     28.2946
  1511.3000      8.4133      2.5069      0.1618      8.6734    156.9505     28.7020
  1511.4000      8.4133      2.5414      0.2690      6.5834    153.8917     29.0494
  1511.5000      8.3859      2.5739      0.3366      4.6109    154.4395     28.2006
  1511.6000      8.3859      2.5785      0.3398      4.3351    158.7596     26.5498
  1511.7000      8.3859      2.5501      0.2472      6.0548    160.0140     25.7939
  1511.8000      8.2991      2.5219      0.1235      7.7650    155.3764     26.2761
  1511.9000      8.2991      2.5222      0.1004      7.7439    150.1533     27.0739
  1512.0000      8.2403      2.5337      0.1548      7.0514    150.9340     27.9462
  1512.1000      8.2403      2.5269      0.1115      7.4599    156.7421     29.0492
  1512.2000      8.2403      2.5044      0.1207      8.8237    160.4336     30.0305
  1512.3000      8.2407      2.4840      0.0934     10.0603    161.2693     30.1255
  1512.4000      8.2407      2.4710      0.1126     10.8455    164.1409     29.6323
  1512.5000      8.2606      2.4609      0.1121     11.4591    165.6198     29.1839
  1512.6000      8.2606      2.4645      0.0541     11.2442    163.6618     28.7887
  1512.7000      8.2606      2.4884      0.0810      9.7915    163.9973     28.7120
  1512.8000      8.2549      2.5115      0.0881      8.3916    166.5920     28.9188
  1512.9000      8.2549      2.5096      0.0764      8.5070    167.3504     29.4788
  1513.0000      8.2235      2.4785      0.0235     10.3965    164.1407     30.0747
  1513.1000      8.2235      2.4287      0.0267     13.4136    158.5889     29.9529
  1513.2000      8.2235      2.3778      0.0202     16.4961    155.3938     29.4656
  1513.3000      8.1989      2.3557     -0.0360     17.8343    155.6280     29.2595
  1513.4000      8.1989      2.3758      0.0202     16.6166    157.1136     29.1505
  1513.5000      8.1843      2.4158      0.0689     14.1917    159.5109     28.8998
  1513.6000      8.1843      2.4551      0.0554     11.8114    159.6567     28.4310
  1513.7000      8.1843      2.4840      0.1612     10.0618    154.8715     27.5806
  1513.8000      8.1755      2.4917      0.1235      9.5910    153.0973     26.6798
  1513.9000      8.1755      2.4819      0.1394     10.1852    159.4991     26.3583
