~Version Information
VERS.                      2.0: CWLS Log ASCII Standard - VERSION 2.0
WRAP.                       NO: One line per depth step
~Well Information Block
STRT.FT               430.0000: 
STOP.FT              2827.0000: 
STEP.FT                 0.1000: 
NULL.                -999.2500: 
COMP.          Pioneer Natural Resources: COMPANY
WELL.           Ei-ei-oh 31-24: WELL
FLD.           Purgatoire River: FIELD
LOC.           235' FNL & 2001' FEL--: LOCATION
PROV.                 Colorado: PROVINCE
CNTY.               Las Animas: COUNTRY
SRVC.                Patterson: SERVICE COMPANY
DATE.          Thu Jun 16 07:14:41 2005: LOG DATE
UWI.           05 071 08403 00: UNIQUE WELL ID
~Curve Information Block
DEPT.FT            0 000 00 00: Depth
DCAL.in                       : CDL Caliper
DPOR.pu                       : CDL Density Porosity
NPOR.pu                       : Neutron Porosity
RHOB.g/cc                     : CDL Bulk Density
RHOC.g/cc                     : CDL Density Correction
GR.GAPI                       : Gamma Ray
~Parameter Information Block
~A  Depth       DCAL        DPOR        NPOR        RHOB        RHOC         GR     
# ...
   583.6000      8.0240     13.2327     14.5609      2.4317      0.0473     64.2949
   583.7000      8.0240     15.1523     14.5517      2.4000      0.0483     62.8026
   583.8000      8.0249     15.8741     14.7896      2.3881      0.0057     60.9124
   583.9000      8.0249     15.1010     15.1147      2.4008      0.0406     58.2049
   584.0000      8.0279     14.4164     15.1376      2.4121      0.0898     56.9085
   584.1000      8.0279     14.9366     14.8433      2.4035      0.0358     58.7526
   584.2000      8.0279     15.6345     14.7207      2.3920      0.0320     62.8526
   584.3000      8.0337     15.8020     15.0650      2.3893      0.0644     67.6534
   584.4000      8.0337     16.0387     15.6212      2.3854      0.0268     71.6003
   584.5000      8.0386     16.2816     15.8623      2.3814      0.0324     73.2382
   584.6000      8.0386     16.2359     15.6489      2.3821      0.0678     70.8933
   584.7000      8.0386     15.9194     15.4012      2.3873      0.0209     66.0635
   584.8000      8.0410     14.8894     15.4267      2.4043      0.0412     63.8945
   584.9000      8.0410     13.3283     15.7350      2.4301      0.0526     65.8571
   585.0000      8.0406     12.3288     16.0682      2.4466      0.0821     67.1457
   585.1000      8.0406     12.3539     16.2089      2.4462      0.0877     65.1860
   585.2000      8.0406     12.7022     16.4345      2.4404      0.0908     63.2164
   585.3000      8.0373     12.3390     17.0675      2.4464      0.0920     63.8606
   585.4000      8.0373     11.1822     17.9246      2.4655      0.1125     66.2308
   585.5000      8.0325     10.2579     18.6608      2.4807      0.0937     68.2232
   585.6000      8.0325     10.2965     19.1707      2.4801      0.1071     69.8055
   585.7000      8.0325     11.0194     19.4664      2.4682      0.1032     70.5980
   585.8000      8.0286     11.6321     19.7730      2.4581      0.0981     70.2653
   585.9000      8.0286     11.5214     20.0855      2.4599      0.0732     71.3388
   586.0000      8.0261     10.6039     20.0892      2.4750      0.0950     73.3521
   586.1000      8.0261      9.2374     19.8639      2.4976      0.1113     75.9210
   586.2000      8.0261      7.5937     19.7073      2.5247      0.0900     81.5297
   586.3000      8.0252      5.4826     19.9604      2.5595      0.0850     87.8570
   586.4000      8.0252      3.6925     20.6348      2.5891      0.1255     87.3195
   586.5000      8.0244      3.7670     21.1468      2.5878      0.1347     79.6071
   586.6000      8.0244      5.3898     21.2375      2.5611      0.0549     73.8291
   586.7000      8.0244      6.7765     21.0924      2.5382      0.0965     74.1653
   586.8000      8.0228      7.7130     20.9223      2.5227      0.1461     77.8246
   586.9000      8.0228      8.7829     20.8540      2.5051      0.0909     80.3003
   587.0000      8.0224      9.5167     20.6620      2.4930      0.0809     79.1557
   587.1000      8.0224      9.7916     20.0012      2.4884      0.0833     75.5313
   587.2000      8.0224     10.2241     19.2019      2.4813      0.0542     71.4380
   587.3000      8.0222     10.9047     18.7111      2.4701      0.0571     69.1785
   587.4000      8.0222     11.4650     18.1223      2.4608      0.0586     67.9331
   587.5000      8.0222     11.6571     17.3289      2.4577      0.0417     64.3645
   587.6000      8.0222     11.7282     16.8329      2.4565      0.0567     60.6296
   587.7000      8.0222     12.1004     16.4795      2.4503      0.0712     59.1811
   587.8000      8.0240     12.4883     15.8812      2.4439      0.0439     57.2203
   587.9000      8.0240     12.5918     15.1563      2.4422      0.0699     55.4005
   588.0000      8.0263     12.9418     14.3623      2.4365      0.0502     55.9678
   588.1000      8.0263     14.0205     13.7432      2.4187      0.0461     56.5279
   588.2000      8.0263     14.9473     13.5909      2.4034     -0.0204     55.1735
   588.3000      8.0265     14.3882     13.6756      2.4126      0.0104     52.5944
   588.4000      8.0265     13.0574     13.7190      2.4346      0.0548     50.4747
   588.5000      8.0253     12.5462     13.5854      2.4430      0.0419     50.6890
   588.6000      8.0253     12.8169     13.3741      2.4385      0.0377     52.1669
   588.7000      8.0253     12.9852     13.2738      2.4357      0.0790     52.2457
   588.8000      8.0249     12.9963     13.1893      2.4356      0.0895     52.0239
   588.9000      8.0249     13.1895     12.8145      2.4324      0.0688     53.1301
   589.0000      8.0255     13.0662     12.1842      2.4344      0.0532     52.9677
   589.1000      8.0255     12.0327     11.7565      2.4515      0.0773     51.7781
   589.2000      8.0255     10.8695     11.8117      2.4707      0.1445     53.0495
   589.3000      8.0260     10.5455     12.2160      2.4760      0.0725     56.2570
   589.4000      8.0260     11.0016     12.6903      2.4685      0.1024     58.6372
   589.5000      8.0277     12.3035     13.0168      2.4470      0.0748     58.4532
   589.6000      8.0277     14.1973     13.0953      2.4157      0.0349     58.0253
   589.7000      8.0277     15.2261     13.1900      2.3988     -0.0383     60.6792
   589.8000      8.0286     14.4647     13.6043      2.4113      0.0411     64.3362
   589.9000      8.0286     12.8662     14.2568      2.4377      0.0551     64.7333
   590.0000      8.0282     11.4922     14.9133      2.4604      0.0562     62.1945
   590.1000      8.0282     10.6639     15.5950      2.4740      0.0759     60.5350
   590.2000      8.0282     10.5004     16.5048      2.4767      0.0452     60.6237
   590.3000      8.0315     10.9763     17.6519      2.4689      0.0614     62.4004
   590.4000      8.0315     11.6495     18.6634      2.4578      0.0228     66.0527
   590.5000      8.0402     11.4604     19.4017      2.4609      0.0060     69.5670
   590.6000      8.0402     10.2462     20.0444      2.4809      0.0847     72.7393
   590.7000      8.0402      9.1864     20.4865      2.4984      0.1076     76.1992
   590.8000      8.0485      8.8333     20.7466      2.5043      0.0621     77.0918
   590.9000      8.0485      8.6935     21.0330      2.5066      0.0681     75.1730
   591.0000      8.0535      8.4713     21.5182      2.5102      0.0813     75.8384
   591.1000      8.0535      8.1300     22.1543      2.5159      0.0769     82.9293
   591.2000      8.0535      7.6245     22.7507      2.5242      0.0690     91.7988
   591.3000      8.0552      7.6498     23.1341      2.5238      0.1024     95.2791
   591.4000      8.0552      9.3440     23.2944      2.4958      0.0864     93.3739
   591.5000      8.0552     12.4371     23.3213      2.4448      0.0287     93.3384
   591.6000      8.0552     15.1124     23.3652      2.4006     -0.0086     99.9114
   591.7000      8.0552     16.1951     23.4974      2.3828      0.0095    108.5597
   591.8000      8.0540     15.8473     23.4779      2.3885      0.0153    113.2976
   591.9000      8.0540     14.5726     23.1590      2.4096      0.0428    114.6989
   592.0000      8.0528     13.0996     22.7440      2.4339      0.1119    115.2412
   592.1000      8.0528     11.7667     22.3869      2.4558      0.0638    113.1329
   592.2000      8.0528     10.3832     22.0340      2.4787      0.0949    107.6440
   592.3000      8.0523     10.0345     21.6899      2.4844      0.1035    104.8175
   592.4000      8.0523     12.0622     21.5079      2.4510      0.0990    106.4569
   592.5000      8.0512     15.8505     21.6195      2.3885      0.0383    106.2697
   592.6000      8.0512     19.7596     21.7324      2.3240      0.0436    102.8754
   592.7000      8.0512     22.4315     21.4627      2.2799      0.0184     99.6247
   592.8000      8.0497     22.9164     20.8477      2.2719      0.0212     96.5582
   592.9000      8.0497     21.2104     20.0215      2.3000      0.0591     91.5700
   593.0000      8.0492     18.3691     19.1969      2.3469      0.0709     85.7106
   593.1000      8.0492     15.4702     18.6954      2.3947      0.1003     80.8799
