~Version Information
VERS.                      2.0: CWLS Log ASCII Standard - VERSION 2.0
WRAP.                       NO: One line per depth step
~Well Information Block
STRT.FT                39.7500: 
STOP.FT              1484.0000: 
STEP.FT                 0.2500: 
NULL.                -999.2500: 
COMP.          Evergreen Operating Corporation: COMPANY
WELL.              Chase 21-10: WELL
FLD.           Purgatoire River: FIELD
LOC.           1122' FNL & 1544' FWL: LOCATION
PROV.                       CO: PROVINCE
CNTY.               Las Animas: COUNTRY
SRVC.                         : SERVICE COMPANY
DATE.          Fri May 28 15:54:16 2004: LOG DATE
UWI.           05 071 08006 00: UNIQUE WELL ID
~Curve Information Block
DEPT.FT            0 000 00 00: Depth
TT3.usec                      : CBL 3' Travel Time
AMP3.mV                       : CBL 3' Amplitude
GR.GAPI                       : Gamma Ray
CCL.                          : Casing Collar Locator
~Parameter Information Block
~A  Depth       TT3         AMP3         GR         CCL     
# ...
   140.2500    748.4696     13.4567     86.9179      0.0000
   140.5000    754.7587     13.4753     90.4969      0.0000
   140.7500    760.9877     13.4869     91.9883      0.0000
   141.0000    765.0942     13.4974     90.0955      0.0000
   141.2500    767.0193     13.5106     85.4326      0.0000
   141.5000    767.5323     13.5309     80.3618      0.0000
   141.7500    767.0345     13.5659     77.4976      0.0000
   142.0000    765.1611     13.6209     77.8779      0.0000
   142.2500    761.2067     13.6896     80.2723      0.0000
   142.5000    755.3084     13.7526     82.4194      0.0000
   142.7500    749.5339     13.7910     83.0703      0.0000
   143.0000    747.0751     13.8023     82.6570      0.0000
   143.2500    749.5339     13.8008     82.1094      0.0000
   143.5000    755.3084     13.8017     81.8567      0.0000
   143.7500    761.1996     13.8073     82.1600      0.0000
   144.0000    765.1222     13.8097     83.3798      0.0000
   144.2500    766.8474     13.8019     85.3080      0.0000
   144.5000    766.8383     13.7831     86.8478      0.0000
   144.7500    765.0677     13.7521     86.8664      0.0000
   145.0000    760.9463     13.7016     85.2405      0.0000
   145.2500    754.3516     13.6214     82.9971      0.0000
   145.5000    746.6524     13.5091     81.5424      0.0000
   145.7500    740.2374     13.3754     81.5551      0.0000
   146.0000    736.8250     13.2405     82.5102      0.0000
   146.2500    736.8624     13.1259     83.3988      0.0000
   146.5000    740.3289     13.0483     83.7921      0.0000
   146.7500    746.7536     13.0166     84.0098      0.0000
   147.0000    754.4278     13.0330     84.4776      0.0000
   147.2500    760.9958     13.0965     85.2197      0.0000
   147.5000    765.1315     13.2050     85.9071      0.0000
   147.7500    767.0766     13.3528     86.2160      0.0000
   148.0000    767.7683     13.5241     86.0106      0.0000
   148.2500    767.9544     13.6924     85.1304      0.0000
   148.5000    767.9930     13.8280     83.2972      0.0000
   148.7500    768.0000     13.9074     80.6514      0.0000
   149.0000    768.0000     13.9181     78.1814      0.0000
   149.2500    768.0000     13.8636     76.9947      0.0000
   149.5000    768.0000     13.7698     77.0997      0.0000
   149.7500    768.0000     13.6777     77.3397      0.0000
   150.0000    768.0000     13.6198     76.6735      0.0000
   150.2500    768.0000     13.6018     75.2475      0.0000
   150.5000    768.0000     13.6071     74.2168      0.0000
   150.7500    768.0000     13.6118     74.7309      0.0000
   151.0000    768.0000     13.5941     77.0596      0.0000
   151.2500    768.0000     13.5405     80.3762      0.0000
   151.5000    768.0000     13.4558     83.2740      0.0000
   151.7500    768.0000     13.3596     84.6181      0.0000
   152.0000    767.9995     13.2654     84.2074      0.0000
   152.2500    767.9963     13.1701     82.9818      0.0000
   152.5000    767.9803     13.0640     82.5180      0.0000
   152.7500    767.9187     12.9477     83.7831      0.0000
   153.0000    767.7353     12.8336     86.1155      0.0000
   153.2500    767.3190     12.7342     87.6716      0.0000
   153.5000    766.6082     12.6514     86.9922      0.0000
   153.7500    765.7236     12.5738     83.9167      0.0000
   154.0000    764.9870     12.4856     79.0586      0.0000
   154.2500    764.7212     12.3814     73.0753      0.0000
   154.5000    765.0003     12.2729     66.8244      0.0000
   154.7500    765.6043     12.1788     61.5991      0.0000
   155.0000    766.1514     12.1046     58.4872      0.0000
   155.2500    766.2322     12.0337     57.4773      0.0000
   155.5000    765.4670     11.9420     57.5157      0.0000
   155.7500    763.5168     11.8205     57.5362      0.0000
   156.0000    760.0203     11.6815     57.4764      0.0000
   156.2500    754.6916     11.5429     58.3622      0.0000
   156.5000    747.9722     11.4099     61.4467      0.0000
   156.7500    741.6946     11.2759     67.1382      0.0000
   157.0000    738.1736     11.1382     74.5601      0.0000
   157.2500    737.5855     11.0103     82.0398      0.0000
   157.5000    736.6458     10.9180     88.0418      0.0000
   157.7500    731.1570     10.8875     91.7501      0.0000
   158.0000    720.5247     10.9348     93.0235      0.0000
   158.2500    709.5738     11.0549     92.0947      0.0000
   158.5000    705.3560     11.2118     89.4617      0.0000
   158.7500    711.5329     11.3486     85.9929      0.0000
   159.0000    725.5524     11.4201     82.8446      0.0000
   159.2500    741.0907     11.4195     80.9105      0.0000
   159.5000    752.8789     11.3734     80.3038      0.0000
   159.7500    759.3813     11.3168     80.6333      0.0000
   160.0000    762.0068     11.2760     81.7664      0.0000
   160.2500    762.8998     11.2681     83.9273      0.0000
   160.5000    763.4446     11.3025     86.9792      0.0000
   160.7500    764.0217     11.3775     90.1081      0.0000
   161.0000    764.4841     11.4735     92.5344      0.0000
   161.2500    764.6968     11.5565     94.3215      0.0000
   161.5000    764.8004     11.5932     96.2944      0.0000
   161.7500    765.0587     11.5677     99.1387      0.0000
   162.0000    765.4957     11.4861    102.6232      0.0000
   162.2500    765.7567     11.3673    105.8196      0.0000
   162.5000    765.3955     11.2315    108.0290      0.0000
   162.7500    764.2788     11.0935    109.2153      0.0000
   163.0000    762.7008     10.9617    109.4883      0.0000
   163.2500    761.1382     10.8388    108.4990      0.0000
   163.5000    759.9244     10.7238    105.6421      0.0000
   163.7500    759.1321     10.6150    100.8008      0.0000
   164.0000    758.6877     10.5125     94.7338      0.0000
   164.2500    758.5286     10.4182     88.6969      0.0000
   164.5000    758.6807     10.3329     83.6977      0.0000
   164.7500    759.2525     10.2558     80.0269      0.0000
   165.0000    760.3359     10.1859     77.4719      0.0000
   165.2500    761.8113     10.1243     76.0628      0.0000
   165.5000    763.2329     10.0751     76.4636      0.0000
   165.7500    764.0462     10.0404     79.2242      0.0000
   166.0000    764.0328     10.0117     83.6671      0.0000
   166.2500    763.5010      9.9711     87.8820      0.0000
   166.5000    762.9740      9.9033     89.9233      0.0000
   166.7500    762.7343      9.8043     88.9891      0.0000
   167.0000    762.6855      9.6817     85.6840      0.0000
   167.2500    762.5308      9.5503     81.4205      0.0000
   167.5000    762.0282      9.4284     77.4852      0.0000
   167.7500    761.1839      9.3314     74.3148      0.0000
   168.0000    760.2668      9.2657     71.4366      0.0000
   168.2500    759.6061      9.2256     68.1421      0.0000
   168.5000    759.3829      9.1948     64.3340      0.0000
   168.7500    759.5983      9.1540     60.8061      0.0000
   169.0000    760.1189      9.0914     58.8654      0.0000
   169.2500    760.6818      9.0125     59.6956      0.0000
   169.5000    760.9775      8.9404     63.8402      0.0000
   169.7500    760.8642      8.9018     70.9019      0.0000
   170.0000    760.5016      8.9082     79.3854      0.0000
   170.2500    760.0951      8.9502     86.8409      0.0000
   170.5000    759.3640      9.0075     90.8694      0.0000
   170.7500    757.1425      9.0633     90.6803      0.0000
   171.0000    751.8900      9.1112     87.6100      0.0000
   171.2500    743.5539      9.1520     83.8211      0.0000
   171.5000    735.3163      9.1869     80.5850      0.0000
   171.7500    732.2267      9.2099     77.9242      0.0000
   172.0000    736.7024      9.2082     75.5900      0.0000
   172.2500    745.8957      9.1738     73.9045      0.0000
   172.5000    754.2844      9.1150     73.5576      0.0000
   172.7500    757.9937      9.0550     74.8921      0.0000
   173.0000    755.9614      9.0077     77.6482      0.0000
   173.2500    748.3997      8.9537     81.2864      0.0000
   173.5000    735.8958      8.8440     85.2018      0.0000
