~Version Information
VERS.                      2.0: CWLS Log ASCII Standard - VERSION 2.0
WRAP.                       NO: One line per depth step
~Well Information Block
STRT.FT               784.0000: 
STOP.FT              1033.0000: 
STEP.FT                 0.1000: 
NULL.                -999.2500: 
COMP.          Pioneer Natural Resources: COMPANY
WELL.          Run-Away-Train 43-26: WELL
FLD.           Purgatoire River: FIELD
LOC.           1693' FSL & 1195' FEL: LOCATION
PROV.                 Colorado: PROVINCE
CNTY.               Las Animas: COUNTRY
SRVC.                Patterson: SERVICE COMPANY
DATE.          Wed Apr 06 07:23:28 2005: LOG DATE
UWI.           05 071 08188 00: UNIQUE WELL ID
~Curve Information Block
DEPT.FT            0 000 00 00: Depth
DCAL.in                       : CDL Caliper
RHOB.g/cc                     : CDL Bulk Density
RHOC.g/cc                     : CDL Density Correction
DPOR.pu                       : CDL Density Porosity
GR.GAPI                       : Gamma Ray
NPOR.pu                       : Neutron Porosity
~Parameter Information Block
~A  Depth       DCAL        RHOB        RHOC        DPOR         GR         NPOR    
# ...
   812.8000      9.0265      2.2347      0.1791     25.1676     92.8754     21.8391
   812.9000      9.0265      2.2529      0.1901     24.0660     89.3909     22.4431
   813.0000      9.0702      2.2780      0.1658     22.5473     86.2588     22.9341
   813.1000      9.0702      2.3162      0.2189     20.2298     85.8005     22.6971
   813.2000      9.0702      2.3501      0.2444     18.1755     85.6112     22.0276
   813.3000      9.1415      2.3644      0.2418     17.3077     86.4071     21.3020
   813.4000      9.1415      2.3637      0.2374     17.3506     87.0916     20.7558
   813.5000      9.1711      2.3636      0.1983     17.3546     84.1383     20.7163
   813.6000      9.1711      2.3774      0.2287     16.5182     80.4194     21.0826
   813.7000      9.1711      2.3999      0.2586     15.1589     78.3530     21.2158
   813.8000      9.2058      2.4170      0.2112     14.1213     74.3663     20.8076
   813.9000      9.2058      2.4233      0.2671     13.7400     69.4152     20.1837
   814.0000      9.2357      2.4222      0.2537     13.8046     67.3823     19.4118
   814.1000      9.2357      2.4204      0.3040     13.9123     67.5301     18.5182
   814.2000      9.2357      2.4187      0.2963     14.0199     69.1898     18.0292
   814.3000      9.2484      2.4172      0.2872     14.1098     72.4244     18.2677
   814.4000      9.2484      2.4159      0.3106     14.1879     75.9154     18.9604
   814.5000      9.1970      2.4138      0.2911     14.3174     77.6666     19.5014
   814.6000      9.1970      2.4122      0.2759     14.4111     76.3994     19.6945
   814.7000      9.1970      2.4099      0.3039     14.5531     74.4461     19.7651
   814.8000      9.0941      2.4039      0.2980     14.9176     74.3317     19.7561
   814.9000      9.0941      2.3924      0.3087     15.6122     76.3784     19.6041
   815.0000      9.0332      2.3746      0.2443     16.6890     79.4485     19.2739
   815.1000      9.0332      2.3567      0.2560     17.7777     83.0485     19.0135
   815.2000      9.0332      2.3509      0.2153     18.1257     85.8130     19.3855
   815.3000      8.6893      2.3649      0.2435     17.2780     85.2195     20.3241
   815.4000      8.6893      2.3877      0.2686     15.8972     81.7688     21.1550
   815.5000      8.6296      2.4027      0.2564     14.9874     79.5062     21.6945
   815.6000      8.6296      2.4081      0.2415     14.6581     82.3749     21.9481
   815.7000      8.6296      2.4050      0.2872     14.8483     87.3370     21.7829
   815.8000      8.6177      2.3947      0.2664     15.4744     88.7450     21.4926
   815.9000      8.6177      2.3872      0.2686     15.9278     89.7558     21.3370
   816.0000      8.6070      2.3895      0.2688     15.7890     95.7057     21.2957
   816.1000      8.6070      2.3889      0.3078     15.8218    102.2108     21.3792
   816.2000      8.6070      2.3641      0.2764     17.3299    102.3110     21.3606
   816.3000      8.5635      2.3184      0.2174     20.0956     97.1374     21.0932
   816.4000      8.5635      2.2817      0.1950     22.3237     93.8028     20.9319
   816.5000      8.4752      2.2684      0.2747     23.1280     96.0244     21.0514
   816.6000      8.4752      2.2688      0.2627     23.1001     95.8817     21.2307
   816.7000      8.4752      2.2812      0.2933     22.3515     88.4963     21.2437
   816.8000      8.4578      2.3143      0.2828     20.3451     83.2040     20.9141
   816.9000      8.4578      2.3634      0.3826     17.3715     85.5676     20.5179
   817.0000      8.4425      2.4033      0.4145     14.9521     87.5979     20.5046
   817.1000      8.4425      2.4173      0.3729     14.1021     85.2539     20.7883
   817.2000      8.4425      2.4140      0.3585     14.3046     85.0112     21.1254
   817.3000      8.4686      2.4061      0.3438     14.7842     89.8871     21.2566
   817.4000      8.4686      2.3913      0.3464     15.6784     95.7234     21.1228
   817.5000      8.5251      2.3658      0.2546     17.2249     97.1672     21.1020
   817.6000      8.5251      2.3376      0.2141     18.9357     91.3050     21.3403
   817.7000      8.5251      2.3080      0.1924     20.7285     81.2678     21.4240
   817.8000      8.6062      2.2740      0.1646     22.7866     73.4493     21.1941
   817.9000      8.6062      2.2477      0.1565     24.3848     69.8660     20.9208
   818.0000      8.6630      2.2416      0.1839     24.7490     69.7228     20.6774
   818.1000      8.6630      2.2503      0.1721     24.2249     72.5133     20.3919
   818.2000      8.6630      2.2620      0.1887     23.5130     73.8262     20.0813
   818.3000      8.6997      2.2736      0.2133     22.8102     70.5913     19.7595
   818.4000      8.6997      2.2848      0.2126     22.1307     66.7741     19.5323
   818.5000      8.8444      2.2976      0.2016     21.3580     65.0330     19.6626
   818.6000      8.8444      2.3166      0.2242     20.2035     65.1240     20.1917
   818.7000      8.8444      2.3394      0.2492     18.8246     66.8940     20.6942
   818.8000      9.0317      2.3592      0.2243     17.6220     68.6156     20.7416
   818.9000      9.0317      2.3796      0.2204     16.3849     67.6068     20.5423
   819.0000      9.1686      2.4083      0.2803     14.6481     65.6929     20.6650
   819.1000      9.1686      2.4461      0.2806     12.3585     67.3902     21.1425
   819.2000      9.1686      2.4884      0.3352      9.7965     70.6999     21.7552
   819.3000      9.2358      2.5170      0.3461      8.0623     68.9062     22.6094
   819.4000      9.2358      2.5115      0.2884      8.3968     62.2295     23.5287
   819.5000      8.9696      2.4682      0.2811     11.0195     56.3566     23.9107
   819.6000      8.9696      2.3933      0.2618     15.5556     54.7014     23.7949
   819.7000      8.9696      2.2996      0.2157     21.2345     57.9238     23.6042
   819.8000      8.8685      2.2110      0.1550     26.6037     63.7416     23.2366
   819.9000      8.8685      2.1533      0.1209     30.1003     67.3147     22.4536
   820.0000      8.8401      2.1396      0.0961     30.9305     67.2759     21.4319
   820.1000      8.8401      2.1616      0.1673     29.6003     66.5426     20.5609
   820.2000      8.8401      2.1975      0.2091     27.4235     64.8989     19.7424
   820.3000      8.7174      2.2417      0.2652     24.7463     62.8246     18.5093
   820.4000      8.7174      2.3078      0.3081     20.7400     65.9796     16.9366
   820.5000      8.3736      2.3810      0.5304     16.3060     74.7640     15.2772
   820.6000      8.3736      2.4016      0.6141     15.0531     81.1617     13.4743
   820.7000      8.3736      2.3346      0.5506     19.1147     81.9736     11.8204
   820.8000      8.1719      2.2015      0.4719     27.1844     81.3070     10.8597
   820.9000      8.1719      2.0426      0.3281     36.8124     82.1318     10.6385
   821.0000      8.1810      1.9005      0.2601     45.4269     84.2846     10.8145
   821.1000      8.1810      1.8106      0.2018     50.8740     85.2994     11.0385
   821.2000      8.1810      1.7770      0.2421     52.9116     83.6754     11.1589
   821.3000      8.4812      1.7726      0.3015     53.1763     82.2864     11.3245
   821.4000      8.4812      1.7796      0.3297     52.7500     81.7500     11.9441
   821.5000      8.8489      1.8126      0.3043     50.7508     78.4977     13.2234
   821.6000      8.8489      1.8942      0.3523     45.8078     73.8664     14.6992
   821.7000      8.8489      2.0227      0.3873     38.0209     73.3050     15.7490
   821.8000      8.9692      2.1766      0.4122     28.6920     78.3630     16.3727
   821.9000      8.9692      2.3368      0.4205     18.9795     87.3718     16.8220
   822.0000      8.6071      2.4888      0.4358      9.7707     98.5407     17.1274
   822.1000      8.6071      2.6163      0.4705      2.0453    107.6443     17.3228
   822.2000      8.6071      2.7083      0.4693     -3.5355    111.5556     17.5426
   822.3000      8.4794      2.7631      0.4765     -6.8522    114.0482     17.8293
