
~Version Information
 VERS.                                  2.0 : CWLS LAS VERSION
 WRAP.                                   NO : WRAPING MODE
 SWARE .                 MController 2.5.0N : SOFTWARE VERSION
~Well Information
 WELL.                          Whinny 42-4 : WELL
 COMP.                                  N/A : COMPANY
 FLD.                      Purgatoire River : FIELD
 LOC.                SE/NE Sec 2 T33S  R67W : LOCATION
 DATE.                           8/19-20/05 : DATE(S) LOGGED
 SRVC.       BLANCO Geological Services LLC : SERVICE COMPANY
 STAT.                                   CO : STATE
 CNTY.                           Las Animas : COUNTY
 CTRY.                                  USA : COUNTRY
 API.                       05-071-08406-00 : API NUMBER
 STRT.FT                             574.00 : START DEPTH
 STOP.FT                            2360.00 : STOP DEPTH
 STEP.FT                               1.00 : DEPTH INCREMENT
 NULL.                                -9999 : NULL VALUE
~Curve information
 DEPTH.FT                                   :
 ROP.MIN/FT                                 :
 GAS.UNITS                                  :
~ASCII Log data
# ...
       974.0         0.10        155.2 
       975.0         0.20        155.9 
       976.0         0.40        158.9 
       977.0         0.10        159.5 
       978.0         0.40        160.4 
       979.0         0.40        166.9 
       980.0         0.20        166.9 
       981.0         0.20        164.7 
       982.0         0.42        162.0 
       983.0         0.40        161.7 
       984.0         0.20        164.2 
       985.0         0.30        167.4 
       986.0         0.40        168.7 
       987.0         0.10        176.6 
       988.0         0.27        227.9 
       989.0         0.37        179.5 
       990.0         0.10        163.1 
       991.0         0.17        143.6 
       992.0         0.30        126.5 
       993.0         0.30        120.5 
       994.0         0.10        119.6 
       995.0         0.32        121.9 
       996.0         0.30        125.5 
       997.0         0.03        126.2 
       998.0         0.30        135.2 
       999.0         0.27        145.6 
      1000.0         0.10        148.1 
      1001.0         0.30        150.4 
      1002.0         0.10        151.8 
      1003.0         0.10        154.1 
      1004.0         0.30        157.3 
      1005.0         0.10        154.8 
      1006.0         0.10        151.4 
      1007.0         0.30        143.3 
      1008.0         0.10        142.1 
      1009.0         0.30        143.1 
      1010.0         0.10        144.0 
      1011.0         0.30        145.1 
      1012.0         0.12        145.6 
      1013.0         0.30        148.5 
      1014.0         0.10        148.3 
      1015.0         0.10        147.4 
      1016.0         0.40        155.6 
      1017.0         0.27        168.5 
      1018.0         0.30        160.5 
      1019.0         0.20        152.5 
      1020.0         0.30        146.5 
      1021.0         0.20        144.0 
      1022.0         0.30        142.9 
      1023.0         0.20        144.5 
      1024.0         0.30        145.5 
      1025.0         0.32        145.5 
      1026.0         0.20        145.3 
      1027.0         0.30        148.6 
      1028.0         0.30        157.0 
      1029.0         0.27        164.2 
      1030.0         0.20        167.1 
      1031.0         0.40        169.8 
      1032.0         0.40        163.8 
      1033.0         0.20        166.6 
      1034.0         0.27        187.8 
      1035.0         0.17        211.5 
      1036.0         0.57        265.3 
      1037.0         0.32        256.4 
      1038.0         0.30        246.2 
      1039.0         0.30        233.6 
      1040.0         0.10        229.4 
      1041.0         0.33        221.0 
      1042.0         0.30        215.3 
      1043.0         0.20        210.4 
      1044.0         0.20        206.9 
      1045.0         0.30        204.2 
      1046.0         0.27        203.1 
      1047.0         0.30        202.2 
      1048.0         0.43        203.8 
      1049.0         0.42        207.4 
      1050.0         0.60        200.8 
      1051.0         0.10        200.4 
      1052.0         0.40        196.6 
      1053.0         0.30        196.2 
      1054.0         0.30        201.5 
      1055.0         0.30        197.1 
      1056.0         0.20        192.6 
      1057.0         0.47        173.9 
      1058.0         0.32        180.5 
      1059.0         0.27        201.6 
      1060.0         0.27        224.6 
      1061.0         0.40        228.0 
      1062.0         0.40        213.3 
      1063.0         0.30        206.9 
      1064.0         0.20        207.1 
      1065.0         0.30        212.8 
      1066.0         0.30        213.0 
      1067.0         0.40        207.0 
      1068.0         0.17        207.7 
      1069.0         0.32        215.2 
      1070.0         0.30        220.9 
      1071.0         0.30        215.9 
      1072.0         0.40        205.6 
      1073.0         0.50        217.3 
      1074.0         0.17        228.7 
      1075.0         0.30        231.9 
      1076.0         0.40        230.0 
      1077.0         0.30        228.7 
      1078.0         0.27        217.7 
      1079.0         0.20        208.6 
      1080.0         0.22        201.8 
      1081.0         0.40        197.1 
      1082.0         0.30        206.9 
      1083.0         0.20        212.8 
      1084.0         0.20        213.2 
      1085.0         0.20        218.2 
      1086.0         0.13        222.9 
      1087.0         0.30        220.9 
      1088.0         0.17        212.7 
      1089.0         0.40        204.2 
      1090.0         0.30        203.7 
      1091.0         0.20        197.1 
      1092.0         0.20        193.5 
      1093.0         0.20        195.3 
      1094.0         0.22        199.7 
      1095.0         0.30        203.6 
      1096.0         0.10        204.2 
      1097.0         0.30        205.4 
      1098.0         0.20        204.5 
      1099.0         0.20        207.1 
      1100.0         0.20        217.9 
      1101.0         0.17        230.0 
      1102.0         0.30        221.8 
      1103.0         0.30        212.8 
      1104.0         0.20        220.9 
      1105.0         0.30        228.5 
      1106.0         0.30        216.8 
      1107.0         0.20        209.7 
      1108.0         0.32        205.4 
      1109.0         0.30        204.4 
      1110.0         0.30        202.9 
      1111.0         0.30        202.0 
      1112.0         0.40        202.0 
      1113.0         0.30        202.0 
      1114.0         0.20        202.4 
      1115.0         0.30        203.6 
      1116.0         0.20        204.2 
      1117.0         0.30        203.1 
      1118.0         0.30        210.6 
      1119.0         0.22        217.7 
      1120.0         0.40        199.6 
      1121.0         0.30        190.3 
      1122.0         0.20        198.4 
      1123.0         0.40        185.8 
      1124.0         0.40        190.5 
      1125.0         0.40        192.8 
      1126.0         0.17        195.2 
      1127.0         0.10        196.5 
      1128.0         0.10        197.6 
      1129.0         0.17        197.2 
      1130.0         0.20        194.8 
      1131.0         0.20        194.3 
      1132.0         0.22        195.0 
      1133.0         0.20        193.0 
      1134.0         0.20        191.6 
      1135.0         0.27        195.1 
      1136.0         0.20        197.6 
      1137.0         0.50        190.8 
      1138.0         0.20        192.6 
      1139.0         0.30        198.0 
      1140.0         0.40        194.5 
      1141.0         0.40        190.3 
      1142.0         0.40        202.2 
      1143.0         0.42        195.4 
      1144.0         0.30        194.5 
      1145.0         0.50        192.5 
      1146.0         0.40        182.4 
      1147.0         0.20        184.0 
      1148.0         0.30        198.6 
      1149.0         0.43        219.9 
      1150.0         0.30        227.6 
      1151.0         0.50        233.8 
      1152.0         0.52        223.1 
      1153.0         0.30        220.8 
      1154.0         0.50        220.8 
      1155.0         0.30        214.5 
      1156.0         0.50        205.5 
      1157.0         0.40        204.9 
      1158.0         0.30        203.6 
      1159.0         0.30        203.8 
      1160.0         0.62        222.4 
      1161.0         0.30        204.9 
      1162.0         0.63        220.1 
      1163.0         0.50        226.2 
      1164.0         0.50        212.2 
      1165.0         0.30        197.2 
      1166.0         0.30        183.5 
      1167.0         0.30        179.2 
      1168.0         0.45        174.1 
      1169.0         0.27        173.1 
      1170.0         0.40        180.6 
      1171.0         0.43        195.5 
      1172.0         0.30        199.3 
      1173.0         0.50        201.3 
