~Version Information
VERS.                      2.0: CWLS Log ASCII Standard - VERSION 2.0
WRAP.                       NO: One line per depth step
~Well Information Block
STRT.FT               430.0000: 
STOP.FT              2417.0000: 
STEP.FT                 0.2500: 
NULL.                -999.2500: 
COMP.          Evergreen Operating Corporation: COMPANY
WELL.          McCullough 34-32: WELL
FLD.           Purgatorie River: FIELD
LOC.           261' FSL & 2098' FEL: LOCATION
PROV.                 Colorado: PROVINCE
CNTY.               Las Animas: COUNTRY
SRVC.                Patterson: SERVICE COMPANY
DATE.          Sun May 16 02:33:07 2004: LOG DATE
UWI.           05 071 07953 00: UNIQUE WELL ID
~Curve Information Block
DEPT.FT            0 000 00 00: Depth
SN.Ohm-m                      : IEL Short Normal
SP.mV                         : IEL Spontaneous Potential
DIR.Ohm-m                     : IEL Induction Resistivity
GR.GAPI                       : Gamma Ray
~Parameter Information Block
~A  Depth        SN          SP         DIR          GR     
# ...
   932.5000     36.6413    104.3926     22.0134    120.3967
   932.7500     32.3652    105.4828     20.4457    129.5029
   933.0000     29.4180    106.3801     19.0660    137.3934
   933.2500     27.3241    107.0884     17.8666    139.1528
   933.5000     25.7520    107.6509     16.8322    138.8547
   933.7500     24.4877    108.1137     15.9463    138.1622
   934.0000     23.4942    108.5003     15.1977    137.9639
   934.2500     22.8257    108.8100     14.5807    138.7082
   934.5000     22.4505    109.0333     14.0914    140.8675
   934.7500     22.1984    109.1704     13.7253    142.5716
   935.0000     21.9062    109.2424     13.4788    145.0175
   935.2500     21.5655    109.2906     13.3514    146.6400
   935.5000     21.2597    109.3614     13.3447    149.2278
   935.7500     21.0145    109.4830     13.4584    150.7556
   936.0000     20.7735    109.6476     13.6872    151.7031
   936.2500     20.4936    109.8164     14.0204    150.9907
   936.5000     20.2077    109.9466     14.4432    147.9201
   936.7500     20.0092    110.0314     14.9387    144.8169
   937.0000     20.0770    110.1274     15.4890    138.8039
   937.2500     20.7136    110.3475     16.0757    133.8481
   937.5000     22.2063    110.8067     16.6803    125.3330
   937.7500     24.5981    111.5476     17.2872    119.4876
   938.0000     27.6982    112.5063     17.8850    111.1588
   938.2500     31.3308    113.5543     18.4691    105.8718
   938.5000     35.4858    114.5722     19.0392     98.1788
   938.7500     40.1179    115.4893     19.5961     93.4524
   939.0000     44.6240    116.2767     20.1355     87.9108
   939.2500     47.6430    116.9330     20.6463     85.8929
   939.5000     47.9402    117.4853     21.1101     86.2856
   939.7500     45.5517    117.9883     21.5007     88.9469
   940.0000     41.6172    118.5033     21.7831     95.4392
   940.2500     37.3142    119.0666     21.9171    100.0374
   940.5000     33.2858    119.6727     21.8708    104.6946
   940.7500     29.7506    120.2854     21.6417    105.4585
   941.0000     26.8400    120.8618     21.2709    103.8108
   941.2500     24.8072    121.3720     20.8372    102.3388
   941.5000     23.9534    121.8113     20.4298    102.3098
   941.7500     24.4255    122.1961     20.1158    104.4564
   942.0000     26.0798    122.5432     19.9219    110.0045
   942.2500     28.4133    122.8469     19.8401    113.8978
   942.5000     30.6533    123.0713     19.8464    117.5881
   942.7500     32.1363    123.1637     19.9163    117.6404
   943.0000     32.6924    123.0825     20.0285    113.6837
   943.2500     32.6188    122.8316     20.1628    108.8462
   943.5000     32.3340    122.4834     20.3044    100.0974
   943.7500     32.1388    122.1642     20.4519     94.6016
   944.0000     32.1885    122.0034     20.6177     89.0112
   944.2500     32.4746    122.0809     20.8148     87.8515
   944.5000     32.7711    122.3974     21.0425     89.9730
   944.7500     32.7311    122.8718     21.2834     93.1612
   945.0000     32.1716    123.3712     21.5143     98.5607
   945.2500     31.2544    123.7739     21.7183    101.5072
   945.5000     30.3515    124.0291     21.8919    103.9236
   945.7500     29.7936    124.1611     22.0430    104.1389
   946.0000     29.7433    124.2194     22.1839    103.0995
   946.2500     30.1596    124.2314     22.3263    102.3050
   946.5000     30.8262    124.1949     22.4801    102.2893
   946.7500     31.4748    124.0895     22.6570    103.2047
   947.0000     31.9291    123.8801     22.8713    104.7099
   947.2500     32.1744    123.5288     23.1310    104.8071
   947.5000     32.3229    123.0331     23.4269    102.9559
   947.7500     32.5238    122.4605     23.7309    100.7957
   948.0000     32.9022    121.9265     24.0102     97.2243
   948.2500     33.5230    121.5212     24.2409     95.0011
   948.5000     34.3568    121.2540     24.4045     92.1486
   948.7500     35.3009    121.0777     24.4678     90.7326
   949.0000     36.2745    120.9604     24.3737     89.8789
   949.2500     37.2775    120.9131     24.0640     90.3705
   949.5000     38.2568    120.9396     23.5243     92.0473
   949.7500     38.8767    120.9782     22.8080     92.7708
   950.0000     38.5943    120.9243     22.0102     91.7983
   950.2500     37.1120    120.7258     21.2158     90.0353
   950.5000     34.6934    120.4489     20.4684     88.2230
   950.7500     31.9420    120.2428     19.7747     89.2396
   951.0000     29.3164    120.2387     19.1253     95.1494
   951.2500     26.9404    120.4683     18.5101    101.2073
   951.5000     24.7856    120.8565     17.9213    110.9196
   951.7500     22.8247    121.2775     17.3522    116.5026
   952.0000     21.0526    121.6276     16.8000    122.0703
   952.2500     19.5692    121.8661     16.2694    123.4021
   952.5000     18.5763    122.0033     15.7712    122.0309
   952.7500     18.2005    122.0562     15.3171    119.9367
   953.0000     18.4003    122.0135     14.9149    117.6771
   953.2500     18.9855    121.8357     14.5699    117.7739
   953.5000     19.6767    121.4874     14.2882    120.1445
   953.7500     20.2346    120.9681     14.0791    122.3690
   954.0000     20.5296    120.3121     13.9531    125.4078
   954.2500     20.5218    119.5623     13.9172    127.0408
   954.5000     20.2929    118.7543     13.9719    129.2780
   954.7500     20.0306    117.9226     14.1118    130.8008
   955.0000     19.9077    117.1066     14.3288    132.6461
   955.2500     20.0015    116.3384     14.6150    132.9619
   955.5000     20.2974    115.6259     14.9617    131.4551
   955.7500     20.7330    114.9512     15.3532    129.4282
   956.0000     21.2521    114.2905     15.7633    126.0249
   956.2500     21.8536    113.6373     16.1595    124.0882
   956.5000     22.5993    113.0107     16.5198    122.1350
   956.7500     23.5491    112.4405     16.8461    121.3998
   957.0000     24.6705    111.9412     17.1606    120.2815
   957.2500     25.8288    111.5005     17.4818    118.7028
   957.5000     26.8695    111.0995     17.8036    114.1223
   957.7500     27.6899    110.7470     18.0932    109.7892
   958.0000     28.2533    110.4884     18.3093    102.8598
   958.2500     28.5623    110.3742     18.4244     98.9699
   958.5000     28.5920    110.4181     18.4314     95.5337
   958.7500     28.2704    110.5881     18.3358     95.3838
   959.0000     27.5851    110.8337     18.1424     98.7779
   959.2500     26.6531    111.1192     17.8492    102.9593
   959.5000     25.6116    111.4284     17.4542    109.9232
   959.7500     24.5026    111.7395     16.9649    113.7349
   960.0000     23.3214    112.0004     16.4053    117.4095
   960.2500     22.1230    112.1421     15.8094    118.8813
   960.5000     20.9972    112.1241     15.2060    120.7960
   960.7500     19.9662    111.9636     14.6080    122.3371
   961.0000     19.0167    111.7201     14.0156    124.9289
   961.2500     18.2124    111.4597     13.4330    126.3727
   961.5000     17.6518    111.2271     12.8828    127.3219
   961.7500     17.3291    111.0326     12.4042    126.9093
   962.0000     17.1480    110.8524     12.0360    124.5717
   962.2500     17.0368    110.6456     11.8000    121.8355
   962.5000     16.9273    110.3848     11.6937    116.1738
   962.7500     16.6777    110.0806     11.6945    111.7779
   963.0000     16.1722    109.7785     11.7689    105.5413
   963.2500     15.4703    109.5335     11.8843    102.5626
   963.5000     14.7646    109.3835     12.0175    101.1890
   963.7500     14.2623    109.3375     12.1577    102.5255
   964.0000     14.1241    109.3784     12.3039    106.8607
   964.2500     14.4071    109.4715     12.4587    110.1007
   964.5000     15.0405    109.5732     12.6248    113.4049
   964.7500     15.8796    109.6417     12.8037    113.8937
   965.0000     16.7974    109.6522     12.9976    112.2984
   965.2500     17.7533    109.6011     13.2100    110.4838
   965.5000     18.7483    109.4962     13.4469    108.2975
   965.7500     19.6802    109.3441     13.7153    107.8655
