~Version Information
VERS.                      2.0: CWLS Log ASCII Standard - VERSION 2.0
WRAP.                       NO: One line per depth step
~Well Information Block
STRT.FT               898.0000: 
STOP.FT              2360.0000: 
STEP.FT                 0.2500: 
NULL.                -999.2500: 
COMP.          Pioneer Natural Resources: COMPANY
WELL.             Trimax 44-23: WELL
FLD.           Purgatoire River: FIELD
LOC.           527' FSL & 1064' FEL: LOCATION
PROV.                 Colorado: PROVINCE
CNTY.               Las Animas: COUNTRY
SRVC.                Patterson: SERVICE COMPANY
DATE.          Sun Mar 13 04:57:04 2005: LOG DATE
UWI.           05 071 08326 00: UNIQUE WELL ID
~Curve Information Block
DEPT.FT            0 000 00 00: Depth
SN.Ohm-m                      : IEL Short Normal
SP.mV                         : IEL Spontaneous Potential
DIR.Ohm-m                     : IEL Induction Resistivity
GR.GAPI                       : Gamma Ray
~Parameter Information Block
~A  Depth        SN          SP         DIR          GR     
   898.0000   2000.0000   2000.0000     69.8670    132.3050
   898.2500   2000.0000   2000.0000     70.0012    134.1440
   898.5000   2000.0000   2000.0000     70.5881    135.5105
   898.7500   2000.0000   2000.0000     71.3754    134.8775
   899.0000   2000.0000   2000.0000     72.0840    131.4081
   899.2500   2000.0000   2000.0000     72.5669    127.8703
   899.5000   2000.0000   2000.0000     72.8623    122.0082
   899.7500   2000.0000   2000.0000     73.0954    118.3134
   900.0000   2000.0000   2000.0000     73.3275    113.4005
   900.2500   2000.0000   2000.0000     73.4893    110.4591
   900.5000   2000.0000   2000.0000     73.4430    106.3939
   900.7500   2000.0000   2000.0000     73.1024    103.8602
   901.0000   2000.0000   2000.0000     72.4988    100.0150
   901.2500   2000.0000   2000.0000     71.7449     97.1197
   901.5000   2000.0000   2000.0000     70.9651     92.2161
   901.7500   2000.0000   2000.0000     70.2656     89.1092
   902.0000   2000.0000   2000.0000     69.7578     86.0989
   902.2500   2000.0000   2000.0000     69.5836     85.6800
   902.5000   2000.0000   2000.0000     69.8893     87.2031
   902.7500   2000.0000   2000.0000     70.7468     89.1437
   903.0000   2000.0000   2000.0000     72.0746     92.5648
   903.2500   2000.0000   2000.0000     73.6162     94.8155
   903.5000   2000.0000   2000.0000     75.0132     97.7454
   903.7500   2000.0000   2000.0000     75.9411     99.2993
   904.0000   2000.0000   2000.0000     76.2417    101.1188
   904.2500   2000.0000   2000.0000     75.9742    102.1282
   904.5000   2000.0000   2000.0000     75.3600    103.3085
   904.7500   2000.0000   2000.0000     74.6600    103.6513
   905.0000   2000.0000   2000.0000     74.0636    103.5260
   905.2500   2000.0000   2000.0000     73.6572    103.6296
   905.5000   2000.0000   2000.0000     73.4766    105.1773
   905.7500   2000.0000   2000.0000     73.5428    106.9005
   906.0000   2000.0000   2000.0000     73.8198    108.6930
   906.2500   2000.0000   2000.0000     74.1179    108.5287
   906.5000   2000.0000   2000.0000     74.0831    106.5430
   906.7500   2000.0000   2000.0000     73.3683    104.9685
   907.0000   2000.0000   2000.0000     71.9140    103.7132
   907.2500   2000.0000   2000.0000     70.0858    103.8349
   907.5000   2000.0000   2000.0000     68.5015    104.5758
   907.7500   2000.0000   2000.0000     67.7066    104.7772
   908.0000   2000.0000   2000.0000     67.9385    104.3687
   908.2500   2000.0000   2000.0000     69.0435    103.8920
   908.5000   2000.0000   2000.0000     70.4993    103.2481
   908.7500   2000.0000   2000.0000     71.4382    102.9222
   909.0000   2000.0000   2000.0000     70.7498    102.5806
   909.2500   2000.0000   2000.0000     67.5283    102.2495
   909.5000   2000.0000   2000.0000     61.9035    100.7925
   909.7500   2000.0000   2000.0000     55.3122     98.8371
   910.0000   2000.0000   2000.0000     49.5348     94.7511
   910.2500   2000.0000   2000.0000     45.6769     91.8452
   910.5000   2000.0000   2000.0000     44.0229     88.2743
   910.7500   2000.0000   2000.0000     44.2971     86.9410
   911.0000   2000.0000   2000.0000     45.7805     86.9686
   911.2500   2000.0000   2000.0000     47.3371     88.0821
   911.5000   2000.0000   2000.0000     47.8045     90.1051
   911.7500   2000.0000   2000.0000     46.8339     90.9346
   912.0000   2000.0000   2000.0000     45.3068     91.0363
   912.2500   2000.0000   2000.0000     44.8735     90.6791
   912.5000   2000.0000   2000.0000     47.6147     90.2670
   912.7500   2000.0000   2000.0000     57.0937     90.2608
   913.0000   2000.0000   2000.0000     83.6557     90.4827
   913.2500   2000.0000   2000.0000    182.0392     90.6189
   913.5000   2000.0000   2000.0000 100000.0000     90.6477
   913.7500   2000.0000   2000.0000 100000.0000     90.4319
   914.0000   2000.0000   2000.0000 100000.0000     89.4979
   914.2500   2000.0000   2000.0000 100000.0000     88.5574
   914.5000   2000.0000   2000.0000   6423.6250     87.4663
   914.7500   2000.0000   2000.0000    400.4211     87.4395
   915.0000   2000.0000   2000.0000    281.8031     88.6855
   915.2500   2000.0000   2000.0000    453.8078     90.2498
   915.5000   2000.0000   2000.0000 100000.0000     93.3885
   915.7500   2000.0000   2000.0000 100000.0000     95.7499
   916.0000   2000.0000   2000.0000 100000.0000     99.1896
   916.2500   2000.0000   2000.0000 100000.0000    101.2999
   916.5000   2000.0000   2000.0000 100000.0000    104.1972
   916.7500   2000.0000   2000.0000 100000.0000    105.7365
   917.0000   2000.0000   2000.0000 100000.0000    106.7623
   917.2500   2000.0000   2000.0000 100000.0000    106.5893
   917.5000   2000.0000   2000.0000 100000.0000    106.4745
   917.7500   2000.0000   2000.0000 100000.0000    107.6885
   918.0000   2000.0000   2000.0000 100000.0000    112.3297
   918.2500   2000.0000   2000.0000 100000.0000    116.7408
   918.5000   2000.0000   2000.0000 100000.0000    123.4631
   918.7500   2000.0000   2000.0000 100000.0000    127.0812
   919.0000   2000.0000   2000.0000 100000.0000    130.0258
   919.2500   2000.0000   2000.0000 100000.0000    129.6855
   919.5000   2000.0000   2000.0000    117.1115    125.0551
   919.7500   2000.0000   2000.0000      8.6502    119.5344
   920.0000   2000.0000   2000.0000      4.5784    109.4511
   920.2500   2000.0000   2000.0000      3.5653    102.8977
   920.5000   2000.0000   2000.0000      3.4849     95.0985
   920.7500   2000.0000   2000.0000      4.0150     91.5690
   921.0000   2000.0000   2000.0000      5.2688     87.8838
   921.2500   2000.0000   2000.0000      7.8470     85.4510
   921.5000   2000.0000   2000.0000     14.2502     80.4678
   921.7500   2000.0000   2000.0000     49.1375     76.2359
   922.0000   2000.0000   2000.0000 100000.0000     69.4977
   922.2500   2000.0000   2000.0000 100000.0000     65.4054
   922.5000   2000.0000   2000.0000 100000.0000     60.7583
   922.7500   2000.0000   2000.0000 100000.0000     58.9928
   923.0000   2000.0000   2000.0000 100000.0000     58.3226
   923.2500   2000.0000   2000.0000 100000.0000     58.7289
   923.5000   2000.0000   2000.0000    139.5590     59.4698
   923.7500   2000.0000   2000.0000     46.4015     59.6672
   924.0000   2000.0000   2000.0000     33.7081     59.9884
   924.2500   2000.0000   2000.0000     29.8883     61.0219
   924.5000   2000.0000   2000.0000     28.4874     65.1559
   924.7500   2000.0000   2000.0000     27.8026     65.4358
   925.0000   2000.0000   2000.0000     27.3575     75.9334
   925.2500   2000.0000   2000.0000     27.2037     85.5307
   925.5000   2000.0000   2000.0000     27.6625    103.3004
   925.7500   2000.0000   2000.0000     29.1390    103.5586
   926.0000   2000.0000   2000.0000     31.9065    118.1203
   926.2500   2000.0000   2000.0000     35.6260    124.2577
   926.5000   2000.0000   2000.0000     38.6617    126.7995
   926.7500   2000.0000   2000.0000     38.6333    114.9144
   927.0000   2000.0000   2000.0000     35.1735    110.6789
   927.2500   2000.0000   2000.0000     30.4270    108.9054
   927.5000   2000.0000   2000.0000     26.2595    109.8498
   927.7500   2000.0000   2000.0000     23.1798    102.8826
   928.0000   2000.0000   2000.0000     20.9855    107.9572
   928.2500   2000.0000   2000.0000     19.3426    110.9984
   928.5000   2000.0000   2000.0000     18.0239    114.2813
   928.7500   2000.0000   2000.0000     16.9563    116.0438
   929.0000   2000.0000   2000.0000     16.1588    119.3864
   929.2500   2000.0000   2000.0000     15.6475    122.5137
   929.5000   2000.0000   2000.0000     15.3792    128.1775
   929.7500   2000.0000   2000.0000     15.2527    132.0143
   930.0000   2000.0000   2000.0000     15.1528    136.9957
   930.2500   2000.0000   2000.0000     15.0037    139.5307
   930.5000   2000.0000   2000.0000     14.7958    141.9337
   930.7500   2000.0000   2000.0000     14.5709    142.5636
   931.0000   2000.0000   2000.0000     14.3814    142.2857
   931.2500   2000.0000   2000.0000     14.2553    141.6903
