~Version Information
VERS.                      2.0: CWLS Log ASCII Standard - VERSION 2.0
WRAP.                       NO: One line per depth step
~Well Information Block
STRT.FT               770.0000: 
STOP.FT              1718.7000: 
STEP.FT                 0.1000: 
NULL.                -999.2500: 
COMP.          Pioneer Natural Resources: COMPANY
WELL.            Salty 42-6 Tr: WELL
FLD.           Purgatoire River: FIELD
LOC.           2409' FNL & 599' FEL: LOCATION
PROV.                 Colorado: PROVINCE
CNTY.               Las Animas: COUNTRY
SRVC.                Patterson: SERVICE COMPANY
DATE.          Thu Dec 16 09:30:36 2004: LOG DATE
UWI.           05 071 08238 00: UNIQUE WELL ID
~Curve Information Block
DEPT.FT            0 000 00 00: Depth
DCAL.in                       : CDL Caliper
RHOB.g/cc                     : CDL Bulk Density
RHOC.g/cc                     : CDL Density Correction
DPOR.pu                       : CDL Density Porosity
NPOR.pu                       : Neutron Porosity
GR.GAPI                       : Gamma Ray
~Parameter Information Block
~A  Depth       DCAL        RHOB        RHOC        DPOR        NPOR         GR     
# ...
  1326.8000      7.9124      2.3433      0.1077     18.5862     18.7898    134.8674
  1326.9000      7.9124      2.3518      0.1308     18.0712     18.5884    133.7394
  1327.0000      7.9101      2.3615      0.1279     17.4836     18.3230    133.7700
  1327.1000      7.9101      2.3975      0.1317     15.3003     18.0889    131.8446
  1327.2000      7.9101      2.4636      0.2277     11.2943     18.2284    124.7738
  1327.3000      7.9102      2.5248      0.2492      7.5858     18.6374    116.7799
  1327.4000      7.9102      2.5493      0.2043      6.1045     18.8240    115.4023
  1327.5000      7.9120      2.5482      0.0961      6.1726     18.7713    120.2782
  1327.6000      7.9120      2.5499      0.1066      6.0674     18.6416    124.5695
  1327.7000      7.9120      2.5532      0.1097      5.8693     18.4077    122.7469
  1327.8000      7.9129      2.5356      0.1215      6.9331     18.3580    116.9203
  1327.9000      7.9129      2.4905      0.0875      9.6659     18.8674    114.4560
  1328.0000      7.9081      2.4358      0.0637     12.9843     19.7174    114.0717
  1328.1000      7.9081      2.3953      0.0143     15.4366     20.4870    109.9068
  1328.2000      7.9081      2.3867     -0.0159     15.9591     21.0296    105.0446
  1328.3000      7.8976      2.4155     -0.0030     14.2129     21.7265    106.0821
  1328.4000      7.8976      2.4699      0.0595     10.9170     22.9346    113.1830
  1328.5000      7.8901      2.5297      0.0818      7.2911     24.1926    121.6819
  1328.6000      7.8901      2.5767      0.1595      4.4401     24.9199    126.9322
  1328.7000      7.8901      2.5984      0.1735      3.1294     25.1677    128.6264
  1328.8000      7.8904      2.5993      0.1542      3.0756     25.3312    129.4074
  1328.9000      7.8904      2.5934      0.1363      3.4276     25.5888    129.2405
  1329.0000      7.9018      2.5896      0.1251      3.6588     25.9218    128.2741
  1329.1000      7.9018      2.5932      0.1213      3.4406     26.3243    128.9185
  1329.2000      7.9018      2.5963      0.1005      3.2523     26.7383    130.1889
  1329.3000      7.9290      2.5775      0.0798      4.3918     26.9461    131.6191
  1329.4000      7.9290      2.5415      0.0136      6.5758     26.5563    135.1108
  1329.5000      7.9588      2.5191      0.0212      7.9310     25.7540    138.4159
  1329.6000      7.9588      2.5158      0.0415      8.1314     25.2371    137.2645
  1329.7000      7.9588      2.5162      0.0394      8.1084     25.1347    134.0516
  1329.8000      7.9731      2.5208      0.0667      7.8330     25.2300    135.7820
  1329.9000      7.9731      2.5298      0.1048      7.2856     25.4391    144.7908
  1330.0000      7.9750      2.5207      0.0977      7.8384     25.7567    154.4657
  1330.1000      7.9750      2.4746      0.0558     10.6326     26.2046    158.9849
  1330.2000      7.9750      2.4100      0.0056     14.5432     26.7589    159.1667
  1330.3000      7.9724      2.3680      0.0012     17.0913     27.1429    155.6331
  1330.4000      7.9724      2.3596      0.0361     17.6026     27.0078    150.6940
  1330.5000      7.9700      2.3609      0.0476     17.5186     26.5550    150.0779
  1330.6000      7.9700      2.3609      0.0281     17.5233     26.3186    153.4236
  1330.7000      7.9700      2.3634      0.0552     17.3721     26.2678    156.5837
  1330.8000      7.9645      2.3653      0.0702     17.2562     25.9250    159.0139
  1330.9000      7.9645      2.3694      0.0613     17.0058     25.0291    160.0603
  1331.0000      7.9541      2.3877      0.0916     15.8955     24.0045    157.5847
  1331.1000      7.9541      2.4219      0.1339     13.8244     23.6021    152.7225
  1331.2000      7.9541      2.4602      0.1540     11.5037     23.7608    150.3680
  1331.3000      7.9467      2.4804      0.2003     10.2776     23.7398    151.8095
  1331.4000      7.9467      2.4603      0.1511     11.4997     23.4193    152.7090
  1331.5000      7.9445      2.4092      0.0727     14.5932     23.0827    152.2390
  1331.6000      7.9445      2.3739      0.0410     16.7321     22.7894    154.9453
  1331.7000      7.9445      2.3879      0.0929     15.8831     22.5104    159.9888
  1331.8000      7.9480      2.4313      0.1566     13.2562     22.0876    159.9552
  1331.9000      7.9480      2.4718      0.1378     10.8015     21.5182    154.1433
  1332.0000      7.9564      2.5018      0.1636      8.9804     21.0941    148.3858
  1332.1000      7.9564      2.5136      0.2065      8.2688     20.9494    145.0547
  1332.2000      7.9564      2.4996      0.1635      9.1174     21.0385    140.6836
  1332.3000      7.9648      2.4721      0.1335     10.7832     21.3509    133.3764
  1332.4000      7.9648      2.4494      0.0988     12.1581     21.7569    128.9785
  1332.5000      7.9701      2.4400      0.0686     12.7280     22.0327    131.3200
  1332.6000      7.9701      2.4353      0.1435     13.0117     22.2197    135.9761
  1332.7000      7.9701      2.4199      0.0895     13.9437     22.4951    137.4972
  1332.8000      7.9748      2.4007      0.0852     15.1079     22.7443    133.2176
  1332.9000      7.9748      2.3918      0.0484     15.6512     22.7771    125.7341
  1333.0000      7.9767      2.3867      0.0595     15.9583     22.6006    121.8625
  1333.1000      7.9767      2.3809      0.0127     16.3107     22.5113    127.8764
  1333.2000      7.9767      2.3824      0.0815     16.2161     22.7983    140.7807
  1333.3000      7.9783      2.3811      0.1016     16.2990     23.2918    148.6681
  1333.4000      7.9783      2.3558      0.1013     17.8314     23.5001    147.6936
  1333.5000      7.9806      2.3170      0.0262     20.1810     23.4160    146.3144
  1333.6000      7.9806      2.3028      0.0159     21.0449     23.5625    149.4303
  1333.7000      7.9806      2.3182      0.1108     20.1118     23.8673    152.4228
  1333.8000      7.9800      2.3191      0.1636     20.0517     23.7330    152.1239
  1333.9000      7.9800      2.2811      0.1297     22.3593     23.1623    152.0930
  1334.0000      7.9713      2.2369      0.1113     25.0359     22.6988    153.7224
  1334.1000      7.9713      2.2280      0.1383     25.5777     22.4091    151.7934
  1334.2000      7.9713      2.2557      0.1586     23.9000     21.8325    146.4435
  1334.3000      7.9546      2.2982      0.1530     21.3195     21.0019    142.1057
  1334.4000      7.9546      2.3391      0.1781     18.8448     20.3672    135.5916
  1334.5000      7.9377      2.3687      0.1665     17.0457     19.9289    126.9877
  1334.6000      7.9377      2.3799      0.2374     16.3667     19.3573    121.0558
  1334.7000      7.9377      2.3704      0.1782     16.9439     18.5298    117.1608
  1334.8000      7.9244      2.3517      0.1585     18.0767     17.8817    114.5281
  1334.9000      7.9244      2.3385      0.1535     18.8777     17.9946    115.0292
  1335.0000      7.9167      2.3385      0.1073     18.8772     18.8681    118.6774
  1335.1000      7.9167      2.3494      0.0815     18.2182     20.0111    121.1886
  1335.2000      7.9167      2.3553      0.0480     17.8582     20.8461    118.2503
  1335.3000      7.9135      2.3423      0.0437     18.6464     21.1568    114.5238
  1335.4000      7.9135      2.3186      0.0242     20.0841     21.2390    116.3949
  1335.5000      7.9118      2.3053      0.0542     20.8913     21.2499    123.1863
  1335.6000      7.9118      2.3133      0.1122     20.4070     21.0717    132.8227
  1335.7000      7.9118      2.3459      0.1533     18.4318     20.7439    143.8158
  1335.8000      7.9077      2.4062      0.1517     14.7733     20.2641    153.0596
  1335.9000      7.9077      2.4866      0.2449      9.9051     19.8293    154.9278
  1336.0000      7.9045      2.5632      0.3051      5.2595     19.7247    149.1891
  1336.1000      7.9045      2.6131      0.3036      2.2387     19.8398    144.0719
  1336.2000      7.9045      2.6264      0.2769      1.4293     20.1074    143.7618
  1336.3000      7.9101      2.6168      0.2224      2.0095     20.4727    142.3177
