~Version Information
VERS.                      2.0: CWLS Log ASCII Standard - VERSION 2.0
WRAP.                       NO: One line per depth step
~Well Information Block
STRT.FT                15.0000: 
STOP.FT              2556.5000: 
STEP.FT                 0.2500: 
NULL.                -999.2500: 
COMP.          Pioneer Natural Resources: COMPANY
WELL.              Quack 22-24: WELL
FLD.           Purgatoire River: FIELD
LOC.           2492' FNL & 2459' FWL: LOCATION
PROV.                 Colorado: PROVINCE
CNTY.               Las Animas: COUNTRY
SRVC.                Patterson: SERVICE COMPANY
DATE.          Tue Jul 26 07:02:30 2005: LOG DATE
UWI.           05 071 08402 00: UNIQUE WELL ID
~Curve Information Block
DEPT.FT            0 000 00 00: Depth
GR.GAPI                       : Gamma Ray
CCL.                          : Casing Collar Locator
TT3.usec                      : CBL 3' Travel Time
AMP3.mV                       : CBL 3' Amplitude
~Parameter Information Block
~A  Depth        GR         CCL         TT3         AMP3    
# ...
  1690.0000    119.7084      0.0000    634.0294      5.8667
  1690.2500    116.5214      0.0000    626.9297      5.9824
  1690.5000    114.7962      0.0000    621.2593      6.1067
  1690.7500    113.3558      0.0000    617.5012      6.2213
  1691.0000    111.4619      0.0000    615.6065      6.3027
  1691.2500    108.9677      0.0000    614.9476      6.3291
  1691.5000    106.1444      0.0000    614.9216      6.2953
  1691.7500    103.0242      0.0000    615.2998      6.2202
  1692.0000     98.8635      0.0000    616.2240      6.1372
  1692.2500     93.0335      0.0000    618.1069      6.0766
  1692.5000     86.6073      0.0000    621.3455      6.0545
  1692.7500     82.0212      0.0000    625.7980      6.0726
  1693.0000     80.6695      0.0000    630.4838      6.1228
  1693.2500     81.4386      0.0000    634.0257      6.1938
  1693.5000     81.9049      0.0000    635.6437      6.2717
  1693.7500     80.6467      0.0000    635.6833      6.3407
  1694.0000     78.3396      0.0000    634.9379      6.3879
  1694.2500     76.9002      0.0000    633.2520      6.4129
  1694.5000     77.5984      0.0000    629.0038      6.4276
  1694.7500     79.8794      0.0000    620.7101      6.4443
  1695.0000     81.9369      0.0000    609.7435      6.4653
  1695.2500     82.3173      0.0000    600.9615      6.4878
  1695.5000     80.8864      0.0000    599.2941      6.5134
  1695.7500     78.5047      0.0000    605.0120      6.5477
  1696.0000     76.2856      0.0000    612.6372      6.5888
  1696.2500     75.3112      0.0000    614.0723      6.6200
  1696.5000     76.4408      0.0000    602.3779      6.6166
  1696.7500     79.5462      0.0000    574.8030      6.5630
  1697.0000     82.9335      0.0000    536.3409      6.4673
  1697.2500     84.3197      0.0000    501.1282      6.3654
  1697.5000     82.8327      0.0000    486.1140      6.3201
  1697.7500     79.7272      0.0000    499.0844      6.4158
  1698.0000     76.9818      0.0000    532.4712      6.7335
  1698.2500     75.6135      0.0000    569.9089      7.3019
  1698.5000     75.6289      0.0000    598.6777      8.0602
  1698.7500     77.2145      0.0000    615.9697      8.8832
  1699.0000     81.2778      0.0000    625.5458      9.6607
  1699.2500     88.5635      0.0000    631.2355     10.3644
  1699.5000     98.4702      0.0000    634.3734     11.0434
  1699.7500    108.9725      0.0000    635.7549     11.7567
  1700.0000    117.8093      0.0000    637.5348     12.4923
  1700.2500    123.8798      0.0000    641.9853     13.1353
  1700.5000    127.7266      0.0000    649.3026     13.5119
  1700.7500    130.8978      0.0000    657.6608     13.4796
  1701.0000    134.8614      0.0000    665.1187     12.9997
  1701.2500    140.2333      0.0000    670.8343     12.1544
  1701.5000    146.6026      0.0000    674.9617     11.1179
  1701.7500    152.8971      0.0000    678.3225     10.0921
  1702.0000    158.0222      0.0000    682.1196      9.2270
  1702.2500    161.2469      0.0000    686.9860      8.5719
  1702.5000    162.0018      0.0000    691.7025      8.0880
  1702.7500    159.7806      0.0000    693.1824      7.6974
  1703.0000    154.8470      0.0000    688.3561      7.3295
  1703.2500    148.9330      0.0000    676.5656      6.9535
  1703.5000    144.5266      0.0000    660.8970      6.5896
  1703.7500    143.2177      0.0000    647.7534      6.2797
  1704.0000    144.9081      0.0000    644.1577      6.0318
  1704.2500    148.3873      0.0000    653.5554      5.8112
  1704.5000    152.1634      0.0000    673.4130      5.5992
  1704.7500    154.9239      0.0000    697.0803      5.4295
  1705.0000    156.1108      0.0000    717.9247      5.3441
  1705.2500    156.4519      0.0000    731.7863      5.3383
  1705.5000    157.3686     -1.8297    736.7413      5.3737
  1705.7500    159.5002     -1.6969    732.6257      5.4323
  1706.0000    161.9706      0.0000    721.5333      5.5466
  1706.2500    163.1754      0.0000    707.7250      5.7777
  1706.5000    162.2043      0.0000    695.9930      6.1563
  1706.7500    159.6898      0.0000    689.5320      6.6361
  1707.0000    157.3565      0.0000    688.8124      7.1125
  1707.2500    156.4889      0.0000    692.0676      7.4998
  1707.5000    156.7537      0.0000    696.6143      7.7745
  1707.7500    156.8352      0.0000    699.7917      7.9443
  1708.0000    156.2100      0.0000    699.2806      8.0058
  1708.2500    155.8919      0.0000    693.8810      7.9537
  1708.5000    157.2863      0.0000    684.8731      7.8152
  1708.7500    160.6637      0.0000    675.8405      7.6566
  1709.0000    164.7952      0.0000    670.1355      7.5512
  1709.2500    167.6620      0.0000    668.7491      7.5363
  1709.5000    167.5946      0.0000    670.8895      7.5992
  1709.7500    164.5490      0.0000    675.5034      7.6963
  1710.0000    160.6254      0.0000    680.8599      7.7799
  1710.2500    158.6126      0.0000    683.6649      7.8163
  1710.5000    159.3505      0.0000    681.2324      7.7994
  1710.7500    160.7362      0.0000    674.7802      7.7547
  1711.0000    159.5272      0.0000    668.2673      7.7189
  1711.2500    153.9377      0.0000    663.4981      7.7085
  1711.5000    144.5812      0.0000    658.5751      7.7053
  1711.7500    133.4805      0.0000    652.0387      7.6727
  1712.0000    122.5957      0.0000    646.4143      7.5880
  1712.2500    113.0859      0.0000    646.1583      7.4600
  1712.5000    105.3896      0.0000    652.8575      7.3231
  1712.7500     99.6784      0.0000    663.1703      7.2154
  1713.0000     96.1626      0.0000    671.0674      7.1597
  1713.2500     95.0270      0.0000    672.1876      7.1568
  1713.5000     96.2090      0.0000    666.8776      7.1900
  1713.7500     99.4144      0.0000    659.3727      7.2319
  1714.0000    104.3698      0.0000    653.9627      7.2518
  1714.2500    110.8672      0.0000    651.8307      7.2263
  1714.5000    118.4943      0.0000    651.0565      7.1485
  1714.7500    126.5417      0.0000    648.7161      7.0292
  1715.0000    134.3105      0.0000    642.5221      6.8888
  1715.2500    141.3184      0.0000    631.1111      6.7478
  1715.5000    147.1142      0.0000    614.5958      6.6204
  1715.7500    151.2163      0.0000    596.4152      6.5095
  1716.0000    153.4693      0.0000    583.6250      6.4077
  1716.2500    154.1319      0.0000    582.5147      6.3075
  1716.5000    153.2892      0.0000    593.0909      6.2155
  1716.7500    150.4959      0.0000    609.5330      6.1562
  1717.0000    145.4308      0.0000    626.2281      6.1617
  1717.2500    138.8267      0.0000    641.5045      6.2519
  1717.5000    132.4513      0.0000    655.5886      6.4180
  1717.7500    128.0791      0.0000    667.5482      6.6234
  1718.0000    126.4368      0.0000    675.3909      6.8276
  1718.2500    126.9935      0.0000    677.8058      7.0110
  1718.5000    128.6785      0.0000    675.0273      7.1776
  1718.7500    130.9150      0.0000    668.9679      7.3351
  1719.0000    134.1308      0.0000    663.2307      7.4797
  1719.2500    139.3283      0.0000    662.1807      7.5996
  1719.5000    146.9759      0.0000    668.5398      7.6851
  1719.7500    156.0204      0.0000    680.7849      7.7313
  1720.0000    163.9947      0.0000    692.9381      7.7325
  1720.2500    168.4547      0.0000    698.2172      7.6785
  1720.5000    168.5947      0.0000    694.1010      7.5606
  1720.7500    165.6314      0.0000    683.4248      7.3826
  1721.0000    161.8735      0.0000    670.1473      7.1656
  1721.2500    159.4090      0.0000    655.5573      6.9404
  1721.5000    159.0751      0.0000    639.8009      6.7345
  1721.7500    160.0660      0.0000    625.1196      6.5648
  1722.0000    160.5368      0.0000    615.3555      6.4359
  1722.2500    158.9758      0.0000    612.9523      6.3420
  1722.5000    155.2954      0.0000    617.1888      6.2718
  1722.7500    150.8328      0.0000    624.0574      6.2166
  1723.0000    147.3344      0.0000    627.8483      6.1755
  1723.2500    145.6918      0.0000    624.8627      6.1516
