~Version Information
VERS.                      2.0: CWLS Log ASCII Standard - VERSION 2.0
WRAP.                       NO: One line per depth step
~Well Information Block
STRT.FT                -6.5000: 
STOP.FT              2698.5000: 
STEP.FT                 0.2500: 
NULL.                -999.2500: 
COMP.          Pioneer Natural Resources: COMPANY
WELL.              Cluck 21-25: WELL
FLD.           Purgatorie River: FIELD
LOC.           91' FNL & 1834' FWL--: LOCATION
PROV.                       CO: PROVINCE
CNTY.               Las Animas: COUNTRY
SRVC.          Patterson Wireline: SERVICE COMPANY
DATE.          Mon Jun 13 14:54:35 2005: LOG DATE
UWI.           05 071 08397 00: UNIQUE WELL ID
~Curve Information Block
DEPT.FT            0 000 00 00: Depth
CCL.                          : Casing Collar Locator
TT3.usec                      : CBL 3' Travel Time
AMP3.mV                       : CBL 3' Amplitude
GR.GAPI                       : Gamma Ray
~Parameter Information Block
~A  Depth       CCL         TT3         AMP3         GR     
# ...
  1769.0000      0.0000    730.7425      4.2992    100.8535
  1769.2500      0.0000    734.1707      4.2697    114.0866
  1769.5000      0.0000    734.3546      4.2008    125.0166
  1769.7500      0.0000    731.2988      4.1241    132.8156
  1770.0000      0.0000    726.9939      4.0786    137.4332
  1770.2500      0.0000    723.7977      4.0783    138.4971
  1770.5000      0.0000    722.9659      4.1140    135.4435
  1770.7500      0.0000    724.2554      4.1723    128.4011
  1771.0000      0.0000    726.2092      4.2332    118.6471
  1771.2500      0.0000    726.9742      4.2571    108.3737
  1771.5000      0.0000    725.7114      4.2056    100.1016
  1771.7500      0.0000    723.7715      4.0923     95.8876
  1772.0000      0.0000    724.4147      3.9950     96.6504
  1772.2500      0.0000    730.7277      3.9841    102.0847
  1772.5000      0.0000    742.9691      4.0457    110.9292
  1772.7500      0.0000    757.8865      4.1032    121.0911
  1773.0000      0.0000    771.2595      4.1106    130.0055
  1773.2500      0.0000    781.0696      4.0896    135.7966
  1773.5000      0.0000    787.8293      4.0759    138.3551
  1773.7500      0.0000    792.5950      4.0705    138.7482
  1774.0000      0.0000    795.7697      4.0577    137.2788
  1774.2500      0.0000    797.5793      4.0432    132.6995
  1774.5000      0.0000    798.6578      4.0479    123.9249
  1774.7500      0.0000    799.6622      4.0745    112.0562
  1775.0000      0.0000    800.4100      4.1040     99.8578
  1775.2500      0.0000    799.7346      4.1310     89.3872
  1775.5000      0.0000    796.7585      4.1771     80.9475
  1775.7500      0.0000    792.4271      4.2515     74.4270
  1776.0000      0.0000    789.1552      4.3331     70.9059
  1776.2500      0.0000    788.6871      4.4150     72.3288
  1776.5000      0.0000    790.7581      4.5220     79.4896
  1776.7500      0.0000    793.6855      4.6488     90.3943
  1777.0000      0.0000    795.6689      4.7267    100.7473
  1777.2500      0.0000    795.7158      4.6992    106.4591
  1777.5000      0.0000    793.7024      4.5896    106.1602
  1777.7500      0.0000    789.9016      4.4623    101.5194
  1778.0000      0.0000    785.4701      4.3616     95.2867
  1778.2500      0.0000    783.5187      4.3188     89.2251
  1778.5000      0.0000    787.7466      4.3627     83.6287
  1778.7500      0.0000    798.8651      4.4818     78.0984
  1779.0000      0.0000    813.4882      4.6195     72.4100
  1779.2500      0.0000    826.9188      4.7305     67.0288
  1779.5000      0.0000    836.0460      4.8031     63.2432
  1779.7500      0.0000    839.6857      4.8257     62.5805
  1780.0000      0.0000    837.8135      4.7845     65.5464
  1780.2500      0.0000    831.7532      4.7027     70.9509
  1780.5000      0.0000    824.8106      4.6318     76.9112
  1780.7500      0.0000    820.8989      4.5949     82.3795
  1781.0000      0.0000    820.9161      4.5835     87.2106
  1781.2500      0.0000    821.0191      4.6085     91.1477
  1781.5000      0.0000    816.2982      4.6936     93.6539
  1781.7500      0.0000    806.6591      4.8047     94.5087
  1782.0000      0.0000    797.9582      4.8481     93.7640
  1782.2500      0.0000    796.2534      4.7797     91.4660
  1782.5000      0.0000    801.4679      4.6732     88.0997
  1782.7500      0.0000    808.0875      4.6320     84.8150
  1783.0000      0.0000    811.5830      4.6589     82.7732
  1783.2500      0.0000    811.8523      4.6652     82.7549
  1783.5000      0.0000    810.4803      4.6016     85.2079
  1783.7500      0.0000    807.7854      4.5217     89.6520
  1784.0000      0.0000    803.7933      4.4946     94.2250
  1784.2500      0.0000    799.1332      4.5068     97.0108
  1784.5000      0.0000    792.8811      4.5004     97.8400
  1784.7500      0.0000    781.6382      4.4837     97.9698
  1785.0000      0.0000    763.1699      4.5413     98.1642
  1785.2500      0.0000    740.3182      4.7225     97.8641
  1785.5000      0.0000    719.7193      4.9612     96.1741
  1785.7500      0.0000    706.6096      5.1315     93.0729
  1786.0000      0.0000    701.6360      5.1645     89.5548
  1786.2500      0.0000    702.3503      5.0925     86.7778
  1786.5000      0.0000    706.4054      4.9866     84.9246
  1786.7500      0.0000    712.5936      4.8732     82.6789
  1787.0000      0.0000    719.8871      4.7361     78.1622
  1787.2500      0.0000    726.7945      4.5907     70.8963
  1787.5000      0.0000    731.7685      4.5040     62.7576
  1787.7500      0.0000    733.8158      4.5195     56.5619
  1788.0000      0.0000    732.8415      4.6007     53.7764
  1788.2500      0.0000    729.7112      4.6688     53.8322
  1788.5000      0.0000    725.8962      4.6731     55.2193
  1788.7500      0.0000    722.7155      4.6245     56.7322
  1789.0000      0.0000    720.7232      4.5901     57.9405
  1789.2500      0.0000    719.7450      4.6380     59.1510
  1789.5000      0.0000    719.3361      4.7542     61.1093
  1789.7500      0.0000    719.1536      4.8311     64.5747
  1790.0000      0.0000    719.0622      4.7759     70.0823
  1790.2500      0.0000    719.1326      4.6257     77.8769
  1790.5000      0.0000    719.5883      4.5230     87.6767
  1790.7500      0.0000    720.6416      4.5630     98.4814
  1791.0000      0.0000    722.2158      4.6802    108.9397
  1791.2500      0.0000    723.8069      4.7054    118.0756
  1791.5000      0.0000    724.9590      4.5367    125.5557
  1791.7500      0.0000    726.1855      4.2476    131.2621
  1792.0000      0.0000    728.8224      4.0218    134.8366
  1792.2500      0.0000    733.1893      3.9953    135.7317
  1792.5000      0.0000    737.4300      4.1665    133.7368
  1792.7500      0.0000    739.1724      4.4238    129.4959
  1793.0000      0.0000    738.0767      4.6262    124.3694
  1793.2500      0.0000    736.4020      4.6704    119.6261
  1793.5000     -2.0000    737.3683      4.5260    115.9464
  1793.7500      0.0000    742.5897      4.2330    113.8910
  1794.0000      0.0000    750.5199      3.8829    114.3480
  1794.2500      0.0000    757.5891      3.5957    117.9304
  1794.5000      0.0000    760.1351      3.4775    124.0587
  1794.7500      0.0000    754.6855      3.5690    131.2297
  1795.0000      0.0000    738.3908      3.8337    138.4138
  1795.2500      0.0000    711.6403      4.2013    145.8292
  1795.5000      0.0000    679.7036      4.5994    154.0136
  1795.7500      0.0000    650.6547      4.9453    162.4171
  1796.0000      0.0000    632.1484      5.1476    169.4702
  1796.2500      0.0000    629.3682      5.1428    173.8018
  1796.5000      0.0000    642.9563      4.9311    174.7569
  1796.7500      0.0000    667.9219      4.5819    172.1775
  1797.0000      0.0000    696.5087      4.2196    166.6355
  1797.2500      0.0000    723.0496      3.9814    159.6197
  1797.5000      0.0000    745.4427      3.9516    152.8503
  1797.7500      0.0000    762.9012      4.1182    147.6960
  1798.0000      0.0000    774.4475      4.3939    145.2313
  1798.2500      0.0000    779.9156      4.6806    145.8680
  1798.5000      0.0000    780.8384      4.9159    148.6512
  1798.7500      0.0000    779.5855      5.0780    151.7468
  1799.0000      0.0000    777.9119      5.1657    153.7610
  1799.2500      0.0000    776.6453      5.1797    154.1016
  1799.5000      0.0000    776.6097      5.1173    152.3830
  1799.7500      0.0000    779.3618      4.9839    148.1577
  1800.0000      0.0000    786.4741      4.8009    141.1959
  1800.2500      0.0000    798.0478      4.5966    131.5972
  1800.5000      0.0000    812.0969      4.3927    119.6556
  1800.7500      0.0000    825.3704      4.2025    106.1592
  1801.0000      0.0000    834.8195      4.0333     93.0333
  1801.2500      0.0000    838.7092      3.8819     83.1230
  1801.5000      0.0000    837.0173      3.7341     78.6527
  1801.7500      0.0000    831.3762      3.5761     79.6329
  1802.0000      0.0000    824.5359      3.4026     83.6570
  1802.2500      0.0000    819.0005      3.2167     87.3824
