~Version Information
 VERS.                                  2.0 : CWLS LAS VERSION
 WRAP.                                   NO : WRAPING MODE
 SWARE .                 MController 2.5.0J : SOFTWARE VERSION
~Well Information
 WELL.                        McLeod 09-42R : WELL
 COMP.                Petrogulf Corporation : COMPANY
 FLD.                      Purgatoire River : FIELD
 LOC.                SE/NE Sec 09 T33S R67W : LOCATION
 DATE.                          08/13-14/05 : DATE(S) LOGGED
 SRVC.       BLANCO Geological Services LLC : SERVICE COMPANY
 STAT.                                   CO : STATE
 CNTY.                           Las Animas : COUNTY
 CTRY.                                  USA : COUNTRY
 API.                       05 071 08092 00 : API NUMBER
 STRT.FT                               6.00 : START DEPTH
 STOP.FT                            1775.00 : STOP DEPTH
 STEP.FT                               1.00 : DEPTH INCREMENT
 NULL.                                -9999 : NULL VALUE
~Curve information
 DEPTH.FT                                   :
 ROP.MIN/FT                                 :
 GAS.UNITS                                  :
~ASCII Log data
# ...
      1006.0         0.18         73.9 
      1007.0         0.17         73.4 
      1008.0         0.17         71.6 
      1009.0         0.13         69.0 
      1010.0         0.13         65.2 
      1011.0         0.10         60.4 
      1012.0         0.10         57.0 
      1013.0         0.10         54.8 
      1014.0         0.10         55.5 
      1015.0         0.13         59.2 
      1016.0         0.27         79.6 
      1017.0         0.17         96.4 
      1018.0         1.47        210.7 
      1019.0         0.18         99.1 
      1020.0         0.20         80.0 
      1021.0         0.27         66.9 
      1022.0         0.20         56.0 
      1023.0         0.13         52.1 
      1024.0         0.30         50.8 
      1025.0         0.27         47.8 
      1026.0         0.20         44.5 
      1027.0         0.13         43.0 
      1028.0         0.13         41.8 
      1029.0         0.20         41.2 
      1030.0         0.17         40.4 
      1031.0         0.17         39.5 
      1032.0         0.17         38.9 
      1033.0         0.20         38.5 
      1034.0         0.20         38.0 
      1035.0         0.20         37.5 
      1036.0         0.22         36.9 
      1037.0         0.17         36.2 
      1038.0         0.23         35.8 
      1039.0         0.20         35.4 
      1040.0         0.20         35.0 
      1041.0         0.23         34.2 
      1042.0         0.20         32.8 
      1043.0         0.20         31.6 
      1044.0         0.20         29.5 
      1045.0         0.17         28.5 
      1046.0         0.23         25.5 
      1047.0         0.23         31.0 
      1048.0         3.08        225.6 
      1049.0         0.30         55.2 
      1050.0         0.28         41.1 
      1051.0         0.17         33.4 
      1052.0         0.13         30.6 
      1053.0         0.20         28.8 
      1054.0         0.27         27.1 
      1055.0         0.23         25.9 
      1056.0         0.17         24.5 
      1057.0         0.17         24.1 
      1058.0         0.13         23.7 
      1059.0         0.20         23.2 
      1060.0         0.17         23.2 
      1061.0         0.17         23.0 
      1062.0         0.40         22.9 
      1063.0         0.33         20.7 
      1064.0         0.20         18.0 
      1065.0         0.17         19.7 
      1066.0         0.42         22.7 
      1067.0         0.47         24.7 
      1068.0         0.23         25.7 
      1069.0         0.23         25.5 
      1070.0         0.20         24.9 
      1071.0         0.20         23.9 
      1072.0         0.13         22.0 
      1073.0         0.13         21.6 
      1074.0         0.13         20.9 
      1075.0         0.17         23.8 
      1076.0         0.13         28.6 
      1077.0         0.17         36.3 
      1078.0         1.95        157.7 
      1079.0         0.37         65.2 
      1080.0         0.30         41.3 
      1081.0         0.27         31.5 
      1082.0         0.27         27.7 
      1083.0         0.23         27.2 
      1084.0         0.23         25.4 
      1085.0         0.23         24.4 
      1086.0         0.17         22.7 
      1087.0         0.12         22.8 
      1088.0         0.10         22.2 
      1089.0         0.13         22.3 
      1090.0         0.17         22.2 
      1091.0         0.13         21.5 
      1092.0         0.13         21.0 
      1093.0         0.13         21.1 
      1094.0         0.13         20.9 
      1095.0         0.13         20.9 
      1096.0         0.17         20.8 
      1097.0         0.13         20.8 
      1098.0         0.17         20.5 
      1099.0         0.23         20.4 
      1100.0         0.17         19.9 
      1101.0         0.10         20.0 
      1102.0         0.17         19.5 
      1103.0         0.20         17.5 
      1104.0         0.17         17.0 
      1105.0         0.17         18.1 
      1106.0         0.17         22.9 
      1107.0         0.23         34.9 
      1108.0         1.92        106.4 
      1109.0         0.23         34.0 
      1110.0         0.23         28.7 
      1111.0         0.27         25.5 
      1112.0         0.23         23.3 
      1113.0         0.27         22.6 
      1114.0         0.25         22.2 
      1115.0         0.27         21.3 
      1116.0         0.20         21.0 
      1117.0         0.20         20.0 
      1118.0         0.23         20.3 
      1119.0         0.20         19.1 
      1120.0         0.17         19.4 
      1121.0         0.20         19.4 
      1122.0         0.17         18.6 
      1123.0         0.20         19.2 
      1124.0         0.17         19.4 
      1125.0         0.23         19.0 
      1126.0         0.33         19.2 
      1127.0         0.23         19.0 
      1128.0         0.27         19.0 
      1129.0         0.28         18.8 
      1130.0         0.33         18.7 
      1131.0         0.30         18.9 
      1132.0         0.33         19.3 
      1133.0         0.27         18.8 
      1134.0         0.30         17.0 
      1135.0         0.23         15.9 
      1136.0         0.33         28.6 
      1137.0         0.30         46.8 
      1138.0         1.58        132.6 
      1139.0         0.43         49.0 
      1140.0         0.40         30.0 
      1141.0         0.30         22.9 
      1142.0         0.30         20.6 
      1143.0         0.30         22.4 
      1144.0         0.27         22.7 
      1145.0         0.30         20.9 
      1146.0         0.28         18.8 
      1147.0         0.13         18.3 
      1148.0         0.17         17.9 
      1149.0         0.23         17.7 
      1150.0         0.20         17.0 
      1151.0         0.23         17.1 
      1152.0         0.23         16.8 
      1153.0         0.20         16.6 
      1154.0         0.20         16.1 
      1155.0         0.27         16.0 
      1156.0         0.27         16.1 
      1157.0         0.33         16.4 
      1158.0         0.47         16.3 
      1159.0         0.48         16.0 
      1160.0         0.30         15.9 
      1161.0         0.30         15.8 
      1162.0         0.33         16.2 
      1163.0         0.30         16.4 
      1164.0         0.30         15.5 
      1165.0         0.27         14.4 
      1166.0         0.23         14.3 
      1167.0         0.37         27.3 
      1168.0         1.52        105.7 
      1169.0         0.27         80.7 
      1170.0         0.20         60.4 
      1171.0         0.23         46.3 
      1172.0         0.27         34.9 
      1173.0         0.20         28.2 
      1174.0         0.43         23.9 
      1175.0         0.33         20.1 
      1176.0         0.30         18.4 
      1177.0         0.32         17.1 
      1178.0         0.27         16.2 
      1179.0         0.30         15.3 
      1180.0         0.27         16.1 
      1181.0         0.30         20.2 
      1182.0         0.20         22.6 
      1183.0         0.20         22.8 
      1184.0         0.20         21.7 
      1185.0         0.20         21.0 
      1186.0         0.13         20.0 
      1187.0         0.17         19.6 
      1188.0         0.23         19.2 
      1189.0         0.27         18.7 
      1190.0         0.23         18.0 
      1191.0         0.35         17.7 
      1192.0         0.30         17.6 
      1193.0         0.30         17.4 
      1194.0         0.20         16.3 
      1195.0         0.23         16.2 
      1196.0         0.27         15.1 
      1197.0         0.33         14.1 
      1198.0         2.92        124.4 
      1199.0         0.37         26.2 
      1200.0         0.38         20.5 
      1201.0         0.23         16.3 
      1202.0         0.27         15.9 
      1203.0         0.27         15.7 
      1204.0         0.23         15.5 
      1205.0         0.30         15.4 
