~Version Information
 VERS.                      2.0: CWLS Log ASCII Standard - VERSION 2.0
 WRAP.                       NO: One line per depth step
 ~Well Information Block
 STRT.FT                -8.0000: 
 STOP.FT              2581.0000: 
 STEP.FT                 0.2500: 
 NULL.                -999.2500: 
 COMP.          Petrogulf Corporation: COMPANY
 WELL.               YWAM 7-23V: WELL
 FLD.           Purgatorie River: FIELD
 LOC.           230' FSL & 225' FWL: LOCATION
 CNTY.               Las Animas: COUNTY
 SRVC.                         : SERVICE COMPANY
 DATE.          Mon Nov 22 10:51:24 2004: LOG DATE
 UWI.           05-071-08227-00: UNIQUE WELL ID
 STAT.                 Colorado: STATE
 PROV.                         :Province
 ~Curve Information Block
 DEPT.FT            0 000 00 00: Depth
 TT3.usec                      : CBL 3' Travel Time
 AMP3.mV                       : CBL 3' Amplitude
 GR.GAPI                       : Gamma Ray
 CCL.                          : Casing Collar Locator
 ~Parameter Information Block
 ~A  Depth       TT3         AMP3         GR         CCL     
# ...
  2035.5000    596.9938      1.2938    103.1003      0.0000
  2035.7500    597.4592      1.3036    104.8837      0.0000
  2036.0000    600.1828      1.3045    107.7911      0.0000
  2036.2500    601.8959      1.2887    110.6823      0.0000
  2036.5000    600.8843      1.2595    112.4596      0.0000
  2036.7500    597.8277      1.2228    112.6640      0.0000
  2037.0000    595.1769      1.1791    111.2729      0.0000
  2037.2500    595.6661      1.1274    108.0726      0.0000
  2037.5000    601.0621      1.0753    102.6728      0.0000
  2037.7500    611.5038      1.0406     95.3316      0.0000
  2038.0000    625.6535      1.0403     87.5756      0.0000
  2038.2500    641.4948      1.0759     81.7834      0.0000
  2038.5000    656.8802      1.1276     79.9637      0.0000
  2038.7500    669.7169      1.1632     82.6486      0.0000
  2039.0000    678.5997      1.1563     88.6863      0.0000
  2039.2500    683.5545      1.1026     95.8996      0.0000
  2039.5000    685.7863      1.0254    102.0118      0.0000
  2039.7500    686.6859      0.9663    105.5285      0.0000
  2040.0000    687.1680      0.9640    106.4051      0.0000
  2040.2500    687.6331      1.0328    105.9504      0.0000
  2040.5000    688.1853      1.1556    105.6298      0.0000
  2040.7500    688.7941      1.2959    105.7200      0.0000
  2041.0000    689.3552      1.4190    105.1457      0.0000
  2041.2500    689.6034      1.5036    102.5031      0.0000
  2041.5000    688.9390      1.5406     97.1062      0.0000
  2041.7500    686.3190      1.5293     89.2677      0.0000
  2042.0000    680.5873      1.4778     80.0471      0.0000
  2042.2500    671.3329      1.4045     70.9126      0.0000
  2042.5000    659.6558      1.3316     63.3521      0.0000
  2042.7500    648.0364      1.2759     58.3326      0.0000
  2043.0000    639.3149      1.2423     55.9153      0.0000
  2043.2500    635.4064      1.2306     55.3856      0.0000
  2043.5000    636.3674      1.2442     55.7646      0.0000
  2043.7500    640.4549      1.2862     56.2749      0.0000
  2044.0000    645.3006      1.3436     56.5223      0.0000
  2044.2500    649.1870      1.3865     56.3076      0.0000
  2044.5000    651.4327      1.3912     55.3152      0.0000
  2044.7500    652.0917      1.3624     53.2448      0.0000
  2045.0000    651.5955      1.3253     50.2543      0.0000
  2045.2500    650.4881      1.3013     47.0349      0.0000
  2045.5000    649.1781      1.2956     44.4881      0.0000
  2045.7500    647.8179      1.3025     43.5151      0.0000
  2046.0000    646.3933      1.3138     44.7266      0.0000
  2046.2500    644.8898      1.3203     47.9064      0.0000
  2046.5000    643.3931      1.3133     52.0653      0.0000
  2046.7500    642.0754      1.2887     56.3491      0.0000
  2047.0000    641.1136      1.2511     60.4774      0.0000
  2047.2500    640.5930      1.2123     64.1113      0.0000
  2047.5000    640.4749      1.1842     66.4720      0.0000
  2047.7500    640.6738      1.1726     66.9031      0.0000
  2048.0000    641.1812      1.1773     65.3586      0.0000
  2048.2500    642.1496      1.1943     62.3197      0.0000
  2048.5000    643.9917      1.2173     58.8095      0.0000
  2048.7500    647.4614      1.2385     56.5555      0.0000
  2049.0000    653.3600      1.2536     57.4978      0.0000
  2049.2500    661.6937      1.2666     62.4926      0.0000
  2049.5000    671.0310      1.2858     70.3830      0.0000
  2049.7500    679.0321      1.3153     78.6971      0.0000
  2050.0000    683.9156      1.3480     85.5270      0.0000
  2050.2500    685.5890      1.3692     90.7394      0.0000
  2050.5000    685.6163      1.3690     95.4255      0.0000
  2050.7500    686.0990      1.3527    100.4881      0.0000
  2051.0000    688.1924      1.3392    105.8341      0.0000
  2051.2500    691.4444      1.3447    110.6656      0.0000
  2051.5000    694.5531      1.3679    114.3772      0.0000
  2051.7500    696.6152      1.3918    117.2200      0.0000
  2052.0000    697.6120      1.4025    120.0755      0.0000
  2052.2500    698.1264      1.4031    123.5538      0.0000
  2052.5000    699.0089      1.4076    127.3041      0.0000
  2052.7500    701.2681      1.4245    130.1871      0.0000
  2053.0000    705.7516      1.4507    131.1153      0.0000
  2053.2500    712.3370      1.4783    129.8538      0.0000
  2053.5000    719.3597      1.4994    127.1936      0.0000
  2053.7500    724.5953      1.5059    124.3645      0.0000
  2054.0000    727.3364      1.4904    122.2768      0.0000
  2054.2500    728.7949      1.4521    121.3309      0.0000
  2054.5000    729.8961      1.3980    121.8047      0.0000
  2054.7500    729.7325      1.3380    124.1162      0.0000
  2055.0000    727.1274      1.2815    128.4024      0.0000
  2055.2500    722.7716      1.2357    133.7833      0.0000
  2055.5000    718.7469      1.2043    138.4368      0.0000
  2055.7500    716.4803      1.1871    140.8195      0.0000
  2056.0000    715.9412      1.1824    140.7404      0.0000
  2056.2500    716.4913      1.1895    139.1218      0.0000
  2056.5000    717.9207      1.2059    136.9752      0.0000
  2056.7500    720.6531      1.2248    134.7745      0.0000
  2057.0000    725.0742      1.2378    132.4944      0.0000
  2057.2500    730.7630      1.2409    130.0259      0.0000
  2057.5000    736.7072      1.2370    127.5852      0.0000
  2057.7500    742.4504      1.2341    125.6311      0.0000
  2058.0000    748.4437      1.2418    124.3281      0.0000
  2058.2500    754.9311      1.2674    123.2115      0.0000
  2058.5000    761.1031      1.3143    121.5498      0.0000
  2058.7500    765.7371      1.3815    119.0420      0.0000
  2059.0000    767.9362      1.4668    115.9955      0.0000
  2059.2500    766.7537      1.5687    112.8346      0.0000
  2059.5000    760.9781      1.6858    109.7901      0.0000
  2059.7500    750.7842      1.8129    107.2523      0.0000
  2060.0000    739.8629      1.9400    106.0284      0.0000
  2060.2500    734.3974      2.0541    106.8299      0.0000
  2060.5000    738.4778      2.1442    109.6234      0.0000
  2060.7500    750.5355      2.2045    113.6748      0.0000
  2061.0000    764.5142      2.2352    118.1061      0.0000
  2061.2500    773.9828      2.2405    122.2214      0.0000
  2061.5000    775.3428      2.2270    125.3216      0.0000
  2061.7500    768.8647      2.2055    126.5294      0.0000
  2062.0000    757.9966      2.1889    125.2425      0.0000
  2062.2500    747.3013      2.1838    121.8612      0.0000
  2062.5000    740.1841      2.1875    117.7870      0.0000
  2062.7500    738.0261      2.1919    114.4640      0.0000
  2063.0000    740.6030      2.1915    112.4006      0.0000
  2063.2500    746.4631      2.1868    111.0245      0.0000
  2063.5000    753.0165      2.1819    109.3278      0.0000
  2063.7500    757.1291      2.1796    106.7543      0.0000
  2064.0000    756.2773      2.1809    103.6940      0.0000
  2064.2500    749.6364      2.1883    101.2356      0.0000
  2064.5000    738.8322      2.2083    100.2849      0.0000
  2064.7500    727.7955      2.2489    100.6323      0.0000
  2065.0000    720.7823      2.3142    100.9052      0.0000
  2065.2500    719.6041      2.4056     99.8176      0.0000
  2065.5000    722.8696      2.5277     97.5774      0.0000
  2065.7500    727.6122      2.6859     95.7024      0.0000
  2066.0000    730.8582      2.8712     95.3288      0.0000
  2066.2500    730.4357      3.0588     95.9768      0.0000
  2066.5000    726.0869      3.2359     96.1290      0.0000
  2066.7500    719.9157      3.4175     94.8199      0.0000
  2067.0000    714.9951      3.6148     92.5786      2.3743
  2067.2500    713.9412      3.7934     91.0760      2.4857
  2067.5000    718.5653      3.8844     92.0045     -3.0731
  2067.7500    729.3583      3.8407     95.9484      0.0000
  2068.0000    744.9183      3.6785    102.0079      0.0000
  2068.2500    762.4459      3.4730    108.5594      0.0000
  2068.5000    778.7751      3.3107    114.3792      0.0000
  2068.7500    790.9595      3.2258    119.0528      0.0000
