~Version Information
VERS.                      2.0: CWLS Log ASCII Standard - VERSION 2.0
WRAP.                       NO: One line per depth step
~Well Information Block
STRT.FT               360.0000: 
STOP.FT              1622.7000: 
STEP.FT                 0.1000: 
NULL.                -999.2500: 
COMP.          Pioneer Natural Resources: COMPANY
WELL.                Eric 42-9: WELL
FLD.           Purgatoire River: FIELD
LOC.           2050' FNL & 850' FEL: LOCATION
PROV.                 Colorado: PROVINCE
CNTY.               Las Animas: COUNTRY
SRVC.                Patterson: SERVICE COMPANY
DATE.          Mon Nov 01 08:19:51 2004: LOG DATE
UWI.           05 071 07999 00: UNIQUE WELL ID
~Curve Information Block
DEPT.FT            0 000 00 00: Depth
DCAL.in                       : CDL Caliper
RHOB.g/cc                     : CDL Bulk Density
RHOC.g/cc                     : CDL Density Correction
DPOR.pu                       : CDL Density Porosity
NPOR.pu                       : Neutron Porosity
GR.GAPI                       : Gamma Ray
~Parameter Information Block
~A  Depth       DCAL        RHOB        RHOC        DPOR        NPOR         GR     
# ...
   686.4000      8.2388      2.4634      0.0466     11.3108     26.6545    116.3581
   686.5000      8.2364      2.3907     -0.0140     15.7168     25.2508    118.7700
   686.6000      8.2364      2.3117     -0.0621     20.5054     23.5900    119.5395
   686.7000      8.2364      2.2495     -0.0455     24.2734     22.0921    117.3338
   686.8000      8.2339      2.1872      0.0409     28.0483     20.8810    113.8652
   686.9000      8.2339      2.0855      0.0132     34.2112     19.7712    111.5457
   687.0000      8.2352      1.9397     -0.0636     43.0504     18.5521    114.2951
   687.1000      8.2352      1.7723     -0.0594     53.1958     17.3742    122.5854
   687.2000      8.2352      1.5891      0.0390     64.2976     16.5389    130.8690
   687.3000      8.2505      1.4105     -0.0642     75.1230     16.0624    133.0454
   687.4000      8.2505      1.3085     -0.0280     81.3031     15.9843    128.4839
   687.5000      8.3408      1.3448      0.0712     79.1021     16.3401    123.2475
   687.6000      8.3408      1.5164      0.1953     68.7059     17.0304    121.2954
   687.7000      8.3408      1.7693      0.3804     53.3753     17.9797    122.9474
   687.8000      8.5625      2.0358      0.5519     37.2251     18.9782    125.7674
   687.9000      8.5625      2.2618      0.7371     23.5294     19.5149    125.4222
   688.0000      8.7751      2.4171      0.7730     14.1136     19.4144    122.6553
   688.1000      8.7751      2.5024      0.7349      8.9432     19.2692    121.0016
   688.2000      8.7751      2.5403      0.6343      6.6504     19.4310    119.9558
   688.3000      8.7558      2.5578      0.5565      5.5905     19.6071    118.3038
   688.4000      8.7558      2.5614      0.5605      5.3724     19.6693    119.3591
   688.5000      8.5805      2.5274      0.4694      7.4331     19.7379    125.6776
   688.6000      8.5805      2.4590      0.2747     11.5735     20.0515    132.8704
   688.7000      8.5805      2.4137      0.1365     14.3217     20.7422    134.5098
   688.8000      8.4726      2.4266      0.1907     13.5415     21.4347    128.9235
   688.9000      8.4726      2.4614      0.3031     11.4297     21.6873    120.5489
   689.0000      8.4553      2.4757      0.2766     10.5653     21.4888    115.0462
   689.1000      8.4553      2.4816      0.2545     10.2050     21.1106    113.0493
   689.2000      8.4553      2.5070      0.2780      8.6695     20.9291    112.4029
   689.3000      8.4621      2.5427      0.3224      6.5023     21.1298    113.0111
   689.4000      8.4621      2.5614      0.2753      5.3699     21.5265    114.1516
   689.5000      8.4652      2.5570      0.2437      5.6346     21.9607    112.8686
   689.6000      8.4652      2.5416      0.1855      6.5696     22.1917    109.4869
   689.7000      8.4652      2.5165      0.1712      8.0927     22.0384    107.1626
   689.8000      8.4654      2.4794      0.1617     10.3418     21.6425    105.1879
   689.9000      8.4654      2.4609      0.0841     11.4635     21.2437    103.8400
   690.0000      8.4649      2.4859      0.2132      9.9471     20.8731    106.9365
   690.1000      8.4649      2.5085      0.2765      8.5731     20.5276    113.1226
   690.2000      8.4649      2.4760      0.1882     10.5442     20.3126    116.5282
   690.3000      8.4708      2.4169      0.0652     14.1268     20.1962    118.2187
   690.4000      8.4708      2.3934      0.0678     15.5532     19.9553    123.7515
   690.5000      8.4850      2.4163      0.1107     14.1655     19.5481    129.8572
   690.6000      8.4850      2.4487      0.1638     12.2006     19.2162    129.9308
   690.7000      8.4850      2.4698      0.1088     10.9207     19.1475    127.7448
   690.8000      8.4940      2.4995      0.0971      9.1237     19.3871    128.3884
   690.9000      8.4940      2.5438      0.2213      6.4378     19.6273    129.3909
   691.0000      8.4695      2.5795      0.2390      4.2729     19.6362    126.4682
   691.1000      8.4695      2.5939      0.2304      3.3981     19.8251    118.0166
   691.2000      8.4695      2.5982      0.1752      3.1385     20.2285    108.5196
   691.3000      8.4118      2.6131      0.1861      2.2387     20.3356    105.8703
   691.4000      8.4118      2.6371      0.2529      0.7800     20.4094    109.7592
   691.5000      8.3650      2.6476      0.2194      0.1477     20.9247    111.1595
   691.6000      8.3650      2.6403      0.1138      0.5870     21.8068    108.8222
   691.7000      8.3650      2.6354      0.0909      0.8865     22.7318    109.1459
   691.8000      8.3481      2.6442      0.0654      0.3489     23.5670    112.5404
   691.9000      8.3481      2.6607      0.0969     -0.6509     24.4175    113.6125
   692.0000      8.3468      2.6680      0.1130     -1.0893     25.2785    109.4040
   692.1000      8.3468      2.6592      0.0455     -0.5547     26.0979    102.9330
   692.2000      8.3468      2.6543      0.0272     -0.2625     26.8672     99.6670
   692.3000      8.3530      2.6670      0.0371     -1.0328     27.5348    101.6823
   692.4000      8.3530      2.6751      0.1014     -1.5221     27.9095    107.0478
   692.5000      8.3614      2.6510      0.0925     -0.0599     27.9361    111.6953
   692.6000      8.3614      2.6009      0.0326      2.9784     27.6250    111.3961
   692.7000      8.3614      2.5571     -0.0094      5.6294     26.9360    107.3973
   692.8000      8.3650      2.5343      0.0351      7.0139     25.9952    106.0177
   692.9000      8.3650      2.5197      0.0148      7.8995     25.0247    111.1946
   693.0000      8.3661      2.5091      0.0202      8.5392     24.3091    119.8672
   693.1000      8.3661      2.5032      0.0504      8.8946     23.9147    126.9867
   693.2000      8.3661      2.4891      0.0361      9.7533     23.7795    130.2921
   693.3000      8.3672      2.4617     -0.0015     11.4110     23.8149    130.3410
   693.4000      8.3672      2.4427     -0.0144     12.5649     23.7502    129.4854
   693.5000      8.3675      2.4563     -0.0008     11.7424     23.5491    128.9488
   693.6000      8.3675      2.4925      0.0462      9.5461     23.4241    128.8114
   693.7000      8.3675      2.5155      0.0671      8.1545     23.4842    127.0257
   693.8000      8.3657      2.5096      0.0399      8.5094     23.6594    120.7641
   693.9000      8.3657      2.4889      0.0246      9.7663     23.7412    115.6030
   694.0000      8.3537      2.4707      0.0068     10.8683     23.6897    121.4020
   694.1000      8.3537      2.4637      0.0241     11.2920     23.7832    133.0097
   694.2000      8.3537      2.4714     -0.0092     10.8267     24.0286    139.2758
   694.3000      8.3327      2.4888      0.0380      9.7677     24.0793    140.8953
   694.4000      8.3327      2.4964      0.0645      9.3074     23.9194    142.2410
   694.5000      8.3189      2.4863      0.0403      9.9224     23.8807    140.6926
   694.6000      8.3189      2.4812      0.0102     10.2310     23.8980    133.1482
   694.7000      8.3189      2.4917      0.0660      9.5913     23.7520    126.8646
   694.8000      8.3141      2.4997      0.0290      9.1097     23.6330    126.8470
   694.9000      8.3141      2.5010      0.0550      9.0293     23.6554    127.4269
   695.0000      8.3122      2.5119      0.0689      8.3668     23.6264    126.6270
   695.1000      8.3122      2.5386      0.0683      6.7486     23.4683    125.5013
   695.2000      8.3122      2.5586      0.1300      5.5395     23.3439    124.6480
   695.3000      8.3126      2.5519      0.0756      5.9463     23.3170    126.7006
   695.4000      8.3126      2.5359      0.0591      6.9154     23.3130    128.2744
   695.5000      8.3136      2.5308      0.0443      7.2229     23.5136    125.1126
   695.6000      8.3136      2.5324      0.0566      7.1282     24.0855    122.3016
   695.7000      8.3136      2.5354      0.0026      6.9459     24.6638    123.8551
   695.8000      8.3133      2.5451      0.0429      6.3581     24.9021    124.3672
   695.9000      8.3133      2.5519      0.0568      5.9445     24.6016    122.2062
