~Version Information
VERS.                      2.0: CWLS Log ASCII Standard - VERSION 2.0
WRAP.                       NO: One line per depth step
~Well Information Block
STRT.FT               620.0000: 
STOP.FT              2663.2500: 
STEP.FT                 0.2500: 
NULL.                -999.2500: 
COMP.          Evergreen Operating Corporation: COMPANY
WELL.             Carbon 34-21: WELL
FLD.           Purgatoire River: FIELD
LOC.           56' FSL & 2304' FEL: LOCATION
PROV.                 Colorado: PROVINCE
CNTY.               Las Animas: COUNTRY
SRVC.                Patterson: SERVICE COMPANY
DATE.          Mon Sep 13 11:41:04 2004: LOG DATE
UWI.           05 071 08117 00: UNIQUE WELL ID
~Curve Information Block
DEPT.FT            0 000 00 00: Depth
DIR.Ohm-m                     : IEL Induction Resistivity
SN.Ohm-m                      : IEL Short Normal
SP.mV                         : IEL Spontaneous Potential
GR.GAPI                       : Gamma Ray
~Parameter Information Block
~A  Depth       DIR          SN          SP          GR     
# ...
  1424.0000     11.3905     11.8642    120.7089    134.9202
  1424.2500     11.2627     11.0849    120.8510    132.7529
  1424.5000     11.1473     10.4910    120.8482    126.8186
  1424.7500     11.0659     10.2546    120.7077    122.7418
  1425.0000     11.0374     10.5235    120.4536    119.4701
  1425.2500     11.0790     11.3751    120.1195    119.8247
  1425.5000     11.2079     12.7711    119.7392    122.5959
  1425.7500     11.4429     14.5530    119.3404    124.3504
  1426.0000     11.8037     16.4904    118.9409    125.3429
  1426.2500     12.3055     18.3564    118.5496    124.9783
  1426.5000     12.9490     19.9922    118.1707    122.9021
  1426.7500     13.7122     21.3466    117.8071    119.8350
  1427.0000     14.5506     22.4863    117.4617    111.6353
  1427.2500     15.4089     23.5652    117.1357    104.1861
  1427.5000     16.2371     24.7519    116.8268     92.7500
  1427.7500     17.0020     26.1489    116.5289     86.8488
  1428.0000     17.6885     27.7474    116.2347     82.4277
  1428.2500     18.2952     29.4357    115.9413     82.1410
  1428.5000     18.8262     31.0396    115.6533     83.6417
  1428.7500     19.2807     32.3645    115.3833     84.8554
  1429.0000     19.6423     33.2232    115.1477     86.5714
  1429.2500     19.8749     33.4574    114.9610     87.8807
  1429.5000     19.9357     32.9745    114.8324     89.7401
  1429.7500     19.8026     31.8091    114.7655     90.0040
  1430.0000     19.4983     30.1760    114.7617     87.6693
  1430.2500     19.0895     28.4450    114.8239     84.6984
  1430.5000     18.6581     26.9980    114.9578     80.6549
  1430.7500     18.2646     26.0308    115.1685     79.7814
  1431.0000     17.9253     25.4432    115.4551     82.5448
  1431.2500     17.6115     24.9128    115.8052     87.0989
  1431.5000     17.2682     24.1065    116.1936     96.9172
  1431.7500     16.8437     22.8709    116.5867    104.1566
  1432.0000     16.3156     21.2867    116.9501    113.3057
  1432.2500     15.6984     19.5896    117.2574    117.3245
  1432.5000     15.0322     18.0358    117.4956    120.7854
  1432.7500     14.3629     16.7884    117.6654    122.3717
  1433.0000     13.7278     15.8739    117.7777    124.7790
  1433.2500     13.1501     15.2187    117.8479    126.5141
  1433.5000     12.6414     14.7266    117.8908    129.1206
  1433.7500     12.2064     14.3390    117.9181    130.5802
  1434.0000     11.8474     14.0441    117.9376    131.4480
  1434.2500     11.5652     13.8466    117.9543    130.7352
  1434.5000     11.3583     13.7338    117.9710    128.1569
  1434.7500     11.2217     13.6670    117.9888    126.1545
  1435.0000     11.1473     13.6006    118.0066    123.5001
  1435.2500     11.1241     13.5081    118.0201    121.9376
  1435.5000     11.1393     13.3959    118.0224    119.6681
  1435.7500     11.1793     13.3008    118.0055    118.1359
  1436.0000     11.2322     13.2768    117.9630    115.8302
  1436.2500     11.2913     13.3730    117.8925    114.5449
  1436.5000     11.3578     13.6164    117.7966    113.8489
  1436.7500     11.4396     14.0078    117.6806    114.4500
  1437.0000     11.5503     14.5305    117.5491    116.2679
  1437.2500     11.7070     15.1598    117.4025    117.4397
  1437.5000     11.9271     15.8673    117.2364    118.8945
  1437.7500     12.2236     16.6187    117.0443    120.1426
  1438.0000     12.5993     17.3714    116.8229    123.0601
  1438.2500     13.0436     18.0792    116.5776    125.1383
  1438.5000     13.5335     18.7014    116.3254    125.8988
  1438.7500     14.0373     19.2144    116.0934    123.5307
  1439.0000     14.5198     19.6245    115.9134    116.1158
  1439.2500     14.9465     19.9714    115.8143    110.5102
  1439.5000     15.2873     20.3118    115.8150    104.6985
  1439.7500     15.5197     20.6832    115.9198    103.4435
  1440.0000     15.6324     21.0685    116.1179    104.7175
  1440.2500     15.6270     21.3891    116.3864    106.8058
  1440.5000     15.5162     21.5366    116.6952    111.0091
  1440.7500     15.3180     21.4254    117.0125    114.4481
  1441.0000     15.0502     21.0360    117.3089    120.4286
  1441.2500     14.7307     20.4304    117.5605    124.8071
  1441.5000     14.3838     19.7351    117.7503    131.7928
  1441.7500     14.0454     19.1029    117.8686    136.4980
  1442.0000     13.7604     18.6703    117.9120    142.2507
  1442.2500     13.5727     18.5262    117.8819    143.8811
  1442.5000     13.5150     18.7025    117.7817    141.4639
  1442.7500     13.6045     19.1834    117.6134    137.1223
  1443.0000     13.8438     19.9242    117.3759    129.5697
  1443.2500     14.2244     20.8649    117.0635    125.5604
  1443.5000     14.7275     21.9330    116.6682    122.0587
  1443.7500     15.3248     23.0491    116.1832    121.0297
  1444.0000     15.9820     24.1459    115.6085    120.5354
  1444.2500     16.6673     25.1995    114.9546    120.3989
  1444.5000     17.3614     26.2565    114.2452    119.1763
  1444.7500     18.0607     27.4319    113.5153    116.7401
  1445.0000     18.7693     28.8615    112.8061    109.8221
  1445.2500     19.4837     30.6207    112.1560    103.5126
  1445.5000     20.1817     32.6490    111.5926     93.6258
  1445.7500     20.8205     34.7284    111.1258     87.9870
  1446.0000     21.3474     36.5519    110.7477     81.9006
  1446.2500     21.7176     37.8587    110.4379     79.3725
  1446.5000     21.9112     38.5477    110.1723     77.6273
  1446.7500     21.9355     38.6837    109.9323     77.8703
  1447.0000     21.8131     38.3934    109.7080     80.5024
  1447.2500     21.5633     37.7404    109.4965     83.5405
  1447.5000     21.1950     36.6797    109.2961     88.5892
  1447.7500     20.7116     35.1243    109.1029     91.1949
  1448.0000     20.1216     33.0651    108.9115     93.1918
  1448.2500     19.4466     30.6483    108.7215     93.7811
  1448.5000     18.7208     28.1447    108.5458     95.0656
  1448.7500     17.9835     25.8370    108.4144     96.6264
  1449.0000     17.2679     23.9017    108.3721     99.5296
  1449.2500     16.5927     22.3593    108.4685    101.1769
  1449.5000     15.9604     21.1139    108.7450    102.5736
  1449.7500     15.3624     20.0493    109.2206    103.0050
  1450.0000     14.7870     19.1168    109.8825    103.8287
  1450.2500     14.2270     18.3481    110.6830    104.8685
  1450.5000     13.6851     17.7910    111.5459    107.0136
  1450.7500     13.1734     17.4365    112.3812    108.4515
  1451.0000     12.7078     17.2071    113.1044    110.3789
  1451.2500     12.3025     17.0059    113.6543    111.8784
  1451.5000     11.9658     16.7711    114.0031    115.1549
  1451.7500     11.6994     16.4980    114.1579    117.8597
  1452.0000     11.5005     16.2286    114.1527    121.5332
  1452.2500     11.3636     16.0202    114.0381    123.0979
  1452.5000     11.2815     15.9086    113.8705    123.8077
  1452.7500     11.2457     15.8897    113.7046    123.3084
  1453.0000     11.2457     15.9279    113.5887    121.1942
  1453.2500     11.2688     15.9792    113.5607    118.7564
  1453.5000     11.3013     16.0127    113.6439    113.5675
  1453.7500     11.3316     16.0253    113.8430    109.6208
  1454.0000     11.3514     16.0486    114.1435    104.8958
  1454.2500     11.3550     16.1331    114.5146    103.6836
  1454.5000     11.3370     16.3140    114.9183    105.1269
  1454.7500     11.2908     16.5830    115.3213    107.2095
  1455.0000     11.2090     16.8873    115.7042    109.5600
  1455.2500     11.0846     17.1489    116.0642    109.9522
  1455.5000     10.9106     17.2879    116.4096    109.4561
  1455.7500     10.6810     17.2424    116.7495    109.2661
  1456.0000     10.3936     16.9798    117.0854    110.3270
  1456.2500     10.0528     16.4962    117.4070    112.0477
  1456.5000      9.6699     15.8093    117.6966    115.2824
  1456.7500      9.2596     14.9551    117.9357    117.1263
  1457.0000      8.8357     13.9906    118.1124    118.8224
  1457.2500      8.4098     12.9950    118.2242    119.5455
