~Version Information
VERS.                      2.0: CWLS Log ASCII Standard - VERSION 2.0
WRAP.                       NO: One line per depth step
~Well Information Block
STRT.FT               523.0000: 
STOP.FT              1709.0000: 
STEP.FT                 0.1000: 
NULL.                -999.2500: 
COMP.          Evergreen Operating Corporation: COMPANY
WELL.            Rimrock 14-29: WELL
FLD.           Purgatorie River: FIELD
LOC.           945' FSL & 604' FWL: LOCATION
PROV.                 Colorado: PROVINCE
CNTY.               Las Animas: COUNTRY
SRVC.                         : SERVICE COMPANY
DATE.          Tue Sep 21 04:15:40 2004: LOG DATE
UWI.           05 071 08136 00: UNIQUE WELL ID
~Curve Information Block
DEPT.FT            0 000 00 00: Depth
DCAL.in                       : CDL Caliper
RHOB.g/cc                     : CDL Bulk Density
RHOC.g/cc                     : CDL Density Correction
DPOR.pu                       : CDL Density Porosity
GR.GAPI                       : Gamma Ray
NPOR.pu                       : Neutron Porosity
~Parameter Information Block
~A  Depth       DCAL        RHOB        RHOC        DPOR         GR         NPOR    
# ...
  1377.4000      7.8606      2.3529      0.1630     18.0085    128.7744     21.2214
  1377.5000      7.8656      2.3673      0.1459     17.1328    126.9866     21.9718
  1377.6000      7.8656      2.3721      0.0551     16.8442    132.0887     22.3651
  1377.7000      7.8656      2.3906      0.0432     15.7240    143.6295     22.1558
  1377.8000      7.8572      2.4250      0.0808     13.6371    150.5081     21.8595
  1377.9000      7.8572      2.4521      0.0941     11.9953    146.2092     21.9906
  1378.0000      7.8806      2.4586      0.0798     11.5979    141.4460     22.4332
  1378.1000      7.8806      2.4562      0.1205     11.7457    141.4213     22.6450
  1378.2000      7.8806      2.4577      0.1203     11.6530    136.3899     22.4584
  1378.3000      7.8824      2.4663      0.1003     11.1346    127.6584     22.1425
  1378.4000      7.8824      2.4826      0.1204     10.1474    123.6968     22.0638
  1378.5000      7.8398      2.5040      0.1259      8.8506    123.9016     22.2918
  1378.6000      7.8398      2.5158      0.1675      8.1331    124.8651     22.5649
  1378.7000      7.8398      2.5003      0.1507      9.0743    124.2406     22.7602
  1378.8000      7.8471      2.4628      0.0741     11.3444    122.2612     22.7590
  1378.9000      7.8471      2.4316      0.0542     13.2359    121.6814     22.2542
  1379.0000      7.8648      2.4218      0.1050     13.8284    122.8774     21.4216
  1379.1000      7.8648      2.4233      0.1240     13.7396    125.0623     20.8926
  1379.2000      7.8648      2.4270      0.1208     13.5159    126.1349     20.7614
  1379.3000      7.8871      2.4368      0.1170     12.9185    123.5652     20.4996
  1379.4000      7.8871      2.4545      0.1533     11.8459    119.0289     19.6727
  1379.5000      7.8636      2.4659      0.1618     11.1564    114.2274     18.3959
  1379.6000      7.8636      2.4521      0.1480     11.9925    109.4302     17.0830
  1379.7000      7.8636      2.4102      0.1126     14.5359    107.7908     16.1948
  1379.8000      7.8494      2.3464      0.0994     18.3973    110.8602     15.8574
  1379.9000      7.8494      2.2608      0.0751     23.5879    116.2771     15.9024
  1380.0000      7.8389      2.1613      0.0495     29.6174    120.7365     16.3441
  1380.1000      7.8389      2.0687     -0.0067     35.2325    121.5491     17.0075
  1380.2000      7.8389      1.9961     -0.0063     39.6287    116.3578     17.3553
  1380.3000      7.8635      1.9484     -0.0150     42.5230    107.4053     17.2982
  1380.4000      7.8635      1.9324      0.0047     43.4907    100.4270     17.3401
  1380.5000      7.8854      1.9541      0.0329     42.1777    100.1490     17.6986
  1380.6000      7.8854      2.0085      0.1032     38.8776    103.5020     18.0604
  1380.7000      7.8854      2.0811      0.2038     34.4800    103.5399     18.1290
  1380.8000      7.8684      2.1529      0.2753     30.1252    103.5001     18.0922
  1380.9000      7.8684      2.2039      0.3225     27.0362    108.8870     18.2963
  1381.0000      7.8684      2.2203      0.2619     26.0398    115.5539     18.5454
  1381.1000      7.8684      2.2061      0.1920     26.9028    116.6913     18.4327
  1381.2000      7.8684      2.1816      0.1118     28.3874    113.3171     18.1117
  1381.3000      7.8790      2.1648      0.0857     29.4059    107.3601     18.0305
  1381.4000      7.8790      2.1541      0.1128     30.0554     97.8209     18.3397
  1381.5000      7.8568      2.1455      0.0672     30.5744     91.6215     18.8040
  1381.6000      7.8568      2.1490      0.0883     30.3646     97.3186     19.2092
  1381.7000      7.8568      2.1701      0.1537     29.0861    111.3765     19.7860
  1381.8000      7.8589      2.2024      0.1793     27.1280    121.2768     20.7506
  1381.9000      7.8589      2.2353      0.2150     25.1314    122.3843     21.6210
  1382.0000      7.8444      2.2600      0.1913     23.6385    122.0360     22.1203
  1382.1000      7.8444      2.2818      0.1361     22.3136    122.9637     22.3616
  1382.2000      7.8444      2.3149      0.1347     20.3082    120.9524     22.3868
  1382.3000      7.8743      2.3565      0.1664     17.7874    117.3150     22.5359
  1382.4000      7.8743      2.3958      0.1433     15.4052    117.2906     23.1672
  1382.5000      7.8827      2.4334      0.1470     13.1290    118.9827     24.0099
  1382.6000      7.8827      2.4689      0.1726     10.9768    119.0308     24.5251
  1382.7000      7.8827      2.4986      0.1414      9.1748    122.1682     24.5413
  1382.8000      7.8568      2.5240      0.1570      7.6334    129.2181     24.3515
  1382.9000      7.8568      2.5482      0.1831      6.1696    133.9008     24.2791
  1383.0000      7.8457      2.5719      0.1821      4.7359    133.2295     24.3193
  1383.1000      7.8457      2.5943      0.1904      3.3750    130.5481     24.3808
  1383.2000      7.8457      2.6137      0.1835      2.1987    128.1064     24.1794
  1383.3000      7.8757      2.6237      0.1902      1.5959    123.5941     23.7572
  1383.4000      7.8757      2.6179      0.1496      1.9450    116.1788     23.6246
  1383.5000      7.8593      2.5962      0.1618      3.2578    109.6371     23.9306
  1383.6000      7.8593      2.5642      0.0961      5.2020    109.4249     24.4431
  1383.7000      7.8593      2.5352      0.0176      6.9547    116.1189     24.8011
  1383.8000      7.8585      2.5212     -0.0010      7.8062    122.7688     24.7837
  1383.9000      7.8585      2.5208      0.0240      7.8312    125.0909     24.5504
  1384.0000      7.8546      2.5247      0.0521      7.5911    125.8626     24.4796
  1384.1000      7.8546      2.5309      0.0150      7.2152    127.2959     24.7350
  1384.2000      7.8546      2.5384      0.0240      6.7640    127.0282     25.0123
  1384.3000      7.8526      2.5380      0.0388      6.7883    125.3168     24.9605
  1384.4000      7.8526      2.5362     -0.0151      6.8972    123.5381     24.5684
  1384.5000      7.8478      2.5460      0.0306      6.3059    123.7427     24.0889
  1384.6000      7.8478      2.5545      0.0544      5.7879    127.0225     23.8420
  1384.7000      7.8478      2.5482      0.0433      6.1667    126.5308     23.8439
  1384.8000      7.8549      2.5348      0.0475      6.9815    120.0152     23.7090
  1384.9000      7.8549      2.5166      0.0878      8.0874    111.3440     23.2346
  1385.0000      7.8829      2.4843      0.0590     10.0415    105.3739     22.6842
  1385.1000      7.8829      2.4503     -0.0376     12.1009    106.7866     22.4586
  1385.2000      7.8829      2.4424      0.0148     12.5811    111.3898     22.7982
  1385.3000      7.8827      2.4572      0.0494     11.6850    110.2385     23.4781
  1385.4000      7.8827      2.4682      0.0409     11.0209    102.3942     23.9520
  1385.5000      7.8563      2.4745      0.0334     10.6334     94.1886     24.0632
  1385.6000      7.8563      2.4988      0.0783      9.1627     89.3235     24.0259
  1385.7000      7.8563      2.5449      0.1109      6.3711     87.1258     23.7850
  1385.8000      7.8303      2.5940      0.1958      3.3950     88.3398     23.3448
  1385.9000      7.8303      2.6328      0.1764      1.0397     92.5342     23.0220
  1386.0000      7.8407      2.6594      0.2195     -0.5692     96.1333     22.8927
  1386.1000      7.8407      2.6699      0.1893     -1.2053     98.4145     22.7521
  1386.2000      7.8407      2.6681      0.1462     -1.0982    100.4555     22.7018
  1386.3000      7.8421      2.6614      0.1314     -0.6916    100.3187     23.0581
  1386.4000      7.8421      2.6431      0.1164      0.4154     98.4439     23.4071
  1386.5000      7.8625      2.6127      0.0768      2.2611     97.4063     23.2447
  1386.6000      7.8625      2.5901      0.0386      3.6316     97.5619     22.7399
  1386.7000      7.8625      2.5806      0.0751      4.2065     98.2196     22.2484
  1386.8000      7.8502      2.5720      0.0243      4.7262     97.9605     21.8554
  1386.9000      7.8502      2.5676      0.0207      4.9924     93.8115     21.6198
