~Version Information
VERS.                      2.0: CWLS Log ASCII Standard - VERSION 2.0
WRAP.                       NO: One line per depth step
~Well Information Block
STRT.FT               419.7500: 
STOP.FT              1170.0000: 
STEP.FT                 0.2500: 
NULL.                -999.2500: 
COMP.          Evergreen Operating Corporation: COMPANY
WELL.             Bernice 21-3: WELL
FLD.           Purgatoire River: FIELD
LOC.           201' FNL & 2575' FWL: LOCATION
PROV.                 Colorado: PROVINCE
CNTY.               Las Animas: COUNTRY
SRVC.                Patterson: SERVICE COMPANY
DATE.          Mon Jan 26 13:04:04 2004: LOG DATE
UWI.           05 071 07912   : UNIQUE WELL ID
~Curve Information Block
DEPT.FT            0 000 00 00: Depth
SN.Ohm-m                      : IEL Short Normal
SP.mV                         : IEL Spontaneous Potential
DIR.Ohm-m                     : IEL Induction Resistivity
GR.GAPI                       : Gamma Ray
~Parameter Information Block
~A  Depth        SN          SP         DIR          GR     
# ...
   486.7500   2000.0000   2000.0000 100000.0000    159.2492
   487.0000   2000.0000   2000.0000     68.2107    154.9119
   487.2500   2000.0000   2000.0000     29.9722    152.8157
   487.5000   2000.0000   2000.0000     21.6866    152.3984
   487.7500   2000.0000   2000.0000     18.8982    154.7592
   488.0000   2000.0000   2000.0000     17.8635    162.1427
   488.2500   2000.0000   2000.0000     17.3598    168.4066
   488.5000   2000.0000   2000.0000     16.9074    176.4011
   488.7500   2000.0000   2000.0000     16.3928    178.8833
   489.0000   2000.0000   2000.0000     15.8910    177.1330
   489.2500   2000.0000   2000.0000     15.5468    173.4515
   489.5000   2000.0000   2000.0000     15.4809    168.5655
   489.7500   2000.0000   2000.0000     15.7213    168.4329
   490.0000   2000.0000   2000.0000     16.1404    175.1270
   490.2500   2000.0000   2000.0000     16.4495    183.3552
   490.5000   2000.0000   2000.0000     16.3411    197.0185
   490.7500   2000.0000   2000.0000     15.7339    204.1313
   491.0000   2000.0000   2000.0000     14.8304    209.1012
   491.2500   2000.0000   2000.0000     13.9071    208.8538
   491.5000   2000.0000   2000.0000     13.1292    205.0040
   491.7500   2000.0000   2000.0000     12.5335    200.8918
   492.0000   2000.0000   2000.0000     12.0957    192.7416
   492.2500   2000.0000   2000.0000     11.7897    186.0051
   492.5000   2000.0000   2000.0000     11.6121    174.2341
   492.7500   2000.0000   2000.0000     11.5757    165.7390
   493.0000   2000.0000   2000.0000     11.6857    153.4553
   493.2500   2000.0000   2000.0000     11.9185    146.6184
   493.5000   2000.0000   2000.0000     12.2129    139.8850
   493.7500   2000.0000   2000.0000     12.4801    138.1101
   494.0000   2000.0000   2000.0000     12.6361    138.8968
   494.2500   2000.0000   2000.0000     12.6433    140.6326
   494.5000   2000.0000   2000.0000     12.5364    142.6013
   494.7500   2000.0000   2000.0000     12.4047    142.3483
   495.0000   2000.0000   2000.0000     12.3391    139.1510
   495.2500   2000.0000   2000.0000     12.3835    135.8408
   495.5000   2000.0000   2000.0000     12.5195    131.2256
   495.7500   2000.0000   2000.0000     12.6878    129.4891
   496.0000   2000.0000   2000.0000     12.8306    129.6352
   496.2500   2000.0000   2000.0000     12.9238    131.2721
   496.5000   2000.0000   2000.0000     12.9786    134.9467
   496.7500   2000.0000   2000.0000     13.0204    137.6239
   497.0000   2000.0000   2000.0000     13.0700    141.4398
   497.2500   2000.0000   2000.0000     13.1372    143.8284
   497.5000   2000.0000   2000.0000     13.2207    147.3454
   497.7500   2000.0000   2000.0000     13.3091    149.5235
   498.0000   2000.0000   2000.0000     13.3826    151.5928
   498.2500   2000.0000   2000.0000     13.4228    151.4494
   498.5000   2000.0000   2000.0000     13.4301    148.3820
   498.7500   2000.0000   2000.0000     13.4411    144.7650
   499.0000   2000.0000   2000.0000     13.5292    138.1767
   499.2500   2000.0000   2000.0000     13.7789    133.5929
   499.5000   2000.0000   2000.0000     14.2511    127.0278
   499.7500   2000.0000   2000.0000     14.9562    123.2101
   500.0000   2000.0000   2000.0000     15.8484    118.9434
   500.2500   2000.0000   2000.0000     16.8418    117.1147
   500.5000   2000.0000   2000.0000     17.8357    115.3041
   500.7500   2000.0000   2000.0000     18.7314    114.4084
   501.0000   2000.0000   2000.0000     19.4298    113.4954
   501.2500   2000.0000   2000.0000     19.8295    113.1135
   501.5000   2000.0000   2000.0000     19.8570    112.1373
   501.7500   2000.0000   2000.0000     19.5290    110.7116
   502.0000   2000.0000   2000.0000     18.9843    107.4003
   502.2500   2000.0000   2000.0000     18.4305    104.9545
   502.5000   2000.0000   2000.0000     18.0384    101.9523
   502.7500   2000.0000   2000.0000     17.8658    100.6550
   503.0000   2000.0000   2000.0000     17.8469     99.7097
   503.2500   2000.0000   2000.0000     17.8373     99.7566
   503.5000   2000.0000   2000.0000     17.6932    101.4156
   503.7500   2000.0000   2000.0000     17.3475    104.2192
   504.0000   2000.0000   2000.0000     16.8358    111.8688
   504.2500   2000.0000   2000.0000     16.2580    119.0899
   504.5000   2000.0000   2000.0000     15.7128    131.1283
   504.7500   2000.0000   2000.0000     15.2521    138.2480
   505.0000   2000.0000   2000.0000     14.8812    145.2243
   505.2500   2000.0000   2000.0000     14.5890    146.9708
   505.5000   2000.0000   2000.0000     14.3768    146.0991
   505.7500   2000.0000   2000.0000     14.2621    144.2774
   506.0000   2000.0000   2000.0000     14.2618    141.7779
   506.2500   2000.0000   2000.0000     14.3760    141.2273
   506.5000   2000.0000   2000.0000     14.5856    142.5610
   506.7500   2000.0000   2000.0000     14.8597    144.3413
   507.0000   2000.0000   2000.0000     15.1663    146.6264
   507.2500   2000.0000   2000.0000     15.4818    147.0528
   507.5000   2000.0000   2000.0000     15.7963    145.5052
   507.7500   2000.0000   2000.0000     16.1150    143.1060
   508.0000   2000.0000   2000.0000     16.4545    137.9620
   508.2500   2000.0000   2000.0000     16.8375    133.9776
   508.5000   2000.0000   2000.0000     17.2856    128.1717
   508.7500   2000.0000   2000.0000     17.8122    124.8590
   509.0000   2000.0000   2000.0000     18.4153    120.7825
   509.2500   2000.0000   2000.0000     19.0742    118.3247
   509.5000   2000.0000   2000.0000     19.7471    114.4102
   509.7500   2000.0000   2000.0000     20.3712    111.5331
   510.0000   2000.0000   2000.0000     20.8657    107.0973
   510.2500   2000.0000   2000.0000     21.1487    104.3592
   510.5000   2000.0000   2000.0000     21.1696    101.0486
   510.7500   2000.0000   2000.0000     20.9370     99.5793
   511.0000   2000.0000   2000.0000     20.5160     98.8688
   511.2500   2000.0000   2000.0000     19.9937     99.7146
   511.5000   2000.0000   2000.0000     19.4420    103.5569
   511.7500   2000.0000   2000.0000     18.9034    107.9926
   512.0000   2000.0000   2000.0000     18.3950    116.9935
   512.2500   2000.0000   2000.0000     17.9194    123.8392
   512.5000   2000.0000   2000.0000     17.4737    133.8135
   512.7500   2000.0000   2000.0000     17.0603    139.4156
   513.0000   2000.0000   2000.0000     16.6947    144.9671
   513.2500   2000.0000   2000.0000     16.4015    146.1495
   513.5000   2000.0000   2000.0000     16.1999    143.7504
   513.7500   2000.0000   2000.0000     16.0923    139.7811
   514.0000   2000.0000   2000.0000     16.0764    131.9604
   514.2500   2000.0000   2000.0000     16.1668    126.6736
   514.5000   2000.0000   2000.0000     16.3958    120.0737
   514.7500   2000.0000   2000.0000     16.7794    116.8051
   515.0000   2000.0000   2000.0000     17.2845    113.1438
   515.2500   2000.0000   2000.0000     17.8410    110.9883
   515.5000   2000.0000   2000.0000     18.4030    107.1410
   515.7500   2000.0000   2000.0000     19.0027    103.7208
   516.0000   2000.0000   2000.0000     19.7351     97.4133
   516.2500   2000.0000   2000.0000     20.6883     93.0996
   516.5000   2000.0000   2000.0000     21.8743     88.0005
   516.7500   2000.0000   2000.0000     23.1928     86.0412
   517.0000   2000.0000   2000.0000     24.4439     85.1128
   517.2500   2000.0000   2000.0000     25.4068     85.4379
   517.5000   2000.0000   2000.0000     25.9517     86.8215
   517.7500   2000.0000   2000.0000     26.0999     88.1708
   518.0000   2000.0000   2000.0000     25.9627     90.4075
   518.2500   2000.0000   2000.0000     25.6330     91.5974
   518.5000   2000.0000   2000.0000     25.1377     92.0400
   518.7500   2000.0000   2000.0000     24.4760     91.1549
   519.0000   2000.0000   2000.0000     23.6839     88.6354
   519.2500   2000.0000   2000.0000     22.8387     87.2359
   519.5000   2000.0000   2000.0000     22.0094     87.9016
   519.7500   2000.0000   2000.0000     21.2142     91.1500
   520.0000   2000.0000   2000.0000     20.4344    100.2473
