~Version Information
VERS.                      2.0: CWLS Log ASCII Standard - VERSION 2.0
WRAP.                       NO: One line per depth step
~Well Information Block
STRT.FT               840.0000: 
STOP.FT              2450.0000: 
STEP.FT                 0.1000: 
NULL.                -999.2500: 
COMP.          Petrogulf Corporation: COMPANY
WELL.             Leier 17-42V: WELL
FLD.           Purgatorie River: FIELD
LOC.           2309' FNL & 1062' FEL SENE 17 33S 67W: LOCATION
PROV.                 Colorado: PROVINCE
CNTY.               Las Animas: COUNTRY
SRVC.                Patterson: SERVICE COMPANY
DATE.          Thu Sep 22 09:35:36 2005: LOG DATE
UWI.           071 08409 : UNIQUE WELL ID
~Curve Information Block
DEPT.FT            0 000 00 00: Depth
DCAL.in                       : CDL Caliper
RHOB.g/cc                     : CDL Bulk Density
RHOC.g/cc                     : CDL Density Correction
DPOR.pu                       : CDL Density Porosity
GR.GAPI                       : Gamma Ray
NPOR.pu                       : Neutron Porosity
~Parameter Information Block
~A  Depth       DCAL        RHOB        RHOC        DPOR         GR         NPOR    
   840.0000      8.1568      1.9699     -0.5258     41.2202     92.2040     42.7364
   840.1000      8.1568      1.9536     -0.6112     42.2044     95.1719     42.5240
   840.2000      8.1568      1.9654     -0.6493     41.4919     98.4371     42.4137
   840.3000      8.1616      2.0112     -0.5158     38.7173    103.7930     42.4270
   840.4000      8.1616      2.0513     -0.5175     36.2845    109.5117     42.3361
   840.5000      8.1596      2.0795     -0.5846     34.5777    111.0767     42.1693
   840.6000      8.1596      2.1187     -0.5341     32.2010    109.4446     42.2189
   840.7000      8.1596      2.1633     -0.5192     29.4952    107.6173     42.6064
   840.8000      8.1613      2.1990     -0.5170     27.3324    104.9262     43.0575
   840.9000      8.1613      2.2206     -0.4689     26.0247    101.8416     43.2506
   841.0000      8.1556      2.2330     -0.5350     25.2726    100.2631     43.2834
   841.1000      8.1556      2.2544     -0.5255     23.9779     99.3352     43.3871
   841.2000      8.1556      2.2895     -0.5202     21.8492     99.1686     43.4552
   841.3000      8.1628      2.3162     -0.4721     20.2307    101.5332     43.3889
   841.4000      8.1628      2.3182     -0.5027     20.1072    103.5582     43.3246
   841.5000      8.1626      2.3102     -0.4944     20.5929    102.2268     43.2261
   841.6000      8.1626      2.3045     -0.4798     20.9387     99.6274     43.0716
   841.7000      8.1626      2.3023     -0.5062     21.0744     97.5266     43.0178
   841.8000      8.1605      2.3081     -0.5489     20.7217     96.0388     43.0036
   841.9000      8.1605      2.3144     -0.5101     20.3367     95.6910     42.8954
   842.0000      8.1610      2.3079     -0.5635     20.7309     96.3559     42.7275
   842.1000      8.1610      2.2974     -0.5891     21.3718     97.1459     42.6322
   842.2000      8.1610      2.2968     -0.5236     21.4069     97.8217     42.5671
   842.3000      8.1588      2.3058     -0.5826     20.8623     98.2712     42.3836
   842.4000      8.1588      2.3164     -0.4909     20.2154     97.8823     42.2069
   842.5000      8.1573      2.3200     -0.4965     20.0021     95.9941     42.1681
   842.6000      8.1573      2.3272     -0.5156     19.5652     94.1360     42.1882
   842.7000      8.1573      2.3600     -0.5527     17.5729     94.2391     42.2546
   842.8000      8.1628      2.4089     -0.4396     14.6122     95.3315     42.4252
   842.9000      8.1628      2.4339     -0.4611     13.0973     96.5243     42.6312
   843.0000      8.1602      2.4313     -0.5567     13.2567     98.2038     42.7542
   843.1000      8.1602      2.4416     -0.5507     12.6325     98.4601     42.7624
   843.2000      8.1602      2.4719     -0.4971     10.7920     96.4553     42.7125
   843.3000      8.1584      2.4822     -0.5155     10.1704     94.0857     42.5495
   843.4000      8.1584      2.4374     -0.5218     12.8819     93.8350     42.2247
   843.5000      8.1621      2.3435     -0.5331     18.5759     95.6450     41.9728
   843.6000      8.1621      2.2847     -0.6703     22.1390     96.4784     41.9312
   843.7000      8.1621      2.3365     -0.5814     19.0021     96.2773     41.9926
   843.8000      8.1537      2.4368     -0.5796     12.9227     96.6196     42.0480
   843.9000      8.1537      2.4999     -0.5226      9.0955     96.0491     42.0797
   844.0000      8.1548      2.5339     -0.6319      7.0365     93.2645     42.0141
   844.1000      8.1548      2.5774     -0.5253      4.4017     90.4716     41.7549
   844.2000      8.1548      2.5992     -0.2283      3.0812     90.2588     41.4740
   844.3000      8.1576      2.5468     -0.4920      6.2557     90.8130     41.3488
   844.4000      8.1576      2.4542     -0.5316     11.8654     90.0932     41.3472
   844.5000      8.1611      2.3928     -0.6650     15.5858     89.7925     41.4069
   844.6000      8.1611      2.3816     -0.5376     16.2661     89.8325     41.4349
   844.7000      8.1611      2.3865     -0.5298     15.9703     88.8000     41.3768
   844.8000      8.1624      2.3884     -0.5874     15.8540     88.1045     41.3491
   844.9000      8.1624      2.3906     -0.5127     15.7201     89.2662     41.4169
   845.0000      8.1615      2.3743     -0.5464     16.7091     91.1272     41.4769
   845.1000      8.1615      2.3333     -0.6092     19.1918     93.4678     41.4239
   845.2000      8.1615      2.3042     -0.6735     20.9587     97.2399     41.2771
   845.3000      8.1608      2.3029     -0.5796     21.0378    100.7121     41.1163
   845.4000      8.1608      2.3011     -0.5187     21.1470    100.4878     41.0530
   845.5000      8.1570      2.2873     -0.5694     21.9834     96.8184     41.0710
   845.6000      8.1570      2.2842     -0.5771     22.1676     94.9397     41.0826
   845.7000      8.1570      2.2978     -0.5417     21.3448     97.8513     41.2002
   845.8000      8.1579      2.3022     -0.5367     21.0784    101.7489     41.4274
   845.9000      8.1579      2.2872     -0.5872     21.9854    103.7472     41.6639
   846.0000      8.1542      2.2666     -0.5122     23.2349    105.9471     41.9104
   846.1000      8.1542      2.2546     -0.5701     23.9626    107.2461     42.0189
   846.2000      8.1542      2.2590     -0.5358     23.6952    106.2533     41.9571
   846.3000      8.1548      2.2690     -0.5090     23.0904    106.2769     41.9773
   846.4000      8.1548      2.2744     -0.5965     22.7650    107.1418     42.1771
   846.5000      8.1557      2.2795     -0.4935     22.4555    105.9548     42.4066
   846.6000      8.1557      2.2916     -0.5771     21.7182    104.9053     42.5091
   846.7000      8.1557      2.3154     -0.5206     20.2799    106.7461     42.4792
   846.8000      8.1549      2.3359     -0.5149     19.0369    107.5654     42.4438
   846.9000      8.1549      2.3359     -0.5028     19.0392    103.6325     42.5362
   847.0000      8.1618      2.3138     -0.4951     20.3778     97.4629     42.6563
   847.1000      8.1618      2.2835     -0.5919     22.2097     92.9640     42.6277
   847.2000      8.1618      2.2738     -0.6126     22.8020     91.7667     42.5115
   847.3000      8.1549      2.3019     -0.5629     21.0986     92.6633     42.3662
   847.4000      8.1549      2.3489     -0.5089     18.2504     92.2922     42.1377
   847.5000      8.1559      2.3682     -0.4609     17.0793     89.0313     41.8787
   847.6000      8.1559      2.3387     -0.5193     18.8673     84.5148     41.6607
   847.7000      8.1559      2.3004     -0.6020     21.1870     81.4742     41.5047
   847.8000      8.1561      2.3011     -0.5885     21.1482     81.1439     41.4593
   847.9000      8.1561      2.3355     -0.5091     19.0577     81.6467     41.5070
   848.0000      8.1563      2.3668     -0.5045     17.1613     80.6065     41.4800
   848.1000      8.1563      2.3813     -0.5417     16.2858     78.5290     41.3140
   848.2000      8.1563      2.3966     -0.5611     15.3578     76.7502     41.1057
   848.3000      8.1573      2.4228     -0.4862     13.7718     76.2764     40.9302
   848.4000      8.1573      2.4547     -0.5085     11.8386     75.6291     40.9320
   848.5000      8.1575      2.4858     -0.4343      9.9518     71.9091     41.1555
   848.6000      8.1575      2.4985     -0.3790      9.1816     66.6548     41.3566
   848.7000      8.1575      2.4764     -0.4255     10.5201     63.2778     41.3008
   848.8000      8.1568      2.4267     -0.4281     13.5321     61.7595     41.0824
   848.9000      8.1568      2.3753     -0.4970     16.6490     60.8007     40.9855
   849.0000      8.1517      2.3457     -0.4590     18.4425     60.0117     41.0340
   849.1000      8.1517      2.3374     -0.4687     18.9473     60.3458     41.0436
   849.2000      8.1517      2.3352     -0.4803     19.0794     61.8960     40.9010
   849.3000      8.1525      2.3269     -0.3999     19.5832     63.5159     40.7314
   849.4000      8.1525      2.3081     -0.4651     20.7217     64.2235     40.6384
   849.5000      8.1559      2.2772     -0.4064     22.5927     63.1144     40.5460
