~Version Information
VERS.                      2.0: CWLS Log ASCII Standard - VERSION 2.0
WRAP.                       NO: One line per depth step
~Well Information Block
STRT.FT               521.6000: 
STOP.FT              1490.2000: 
STEP.FT                 0.1000: 
NULL.                -999.2500: 
COMP.          Petrogulf Corporation: COMPANY
WELL.          Robinson 15-11R: WELL
FLD.           Purgatorie River: FIELD
LOC.           324' FNL & 570' FWL: LOCATION
CNTY.               Las Animas: COUNTY
SRVC.                         : SERVICE COMPANY
DATE.          Sat Nov 06 22:43:15 2004: LOG DATE
UWI.           05 071 08029 00: UNIQUE WELL ID
STAT.                 Colorado: STATE
~Curve Information Block
DEPT.FT            0 000 00 00: Depth
DCAL.in                       : CDL Caliper
RHOB.g/cc                     : CDL Bulk Density
RHOC.g/cc                     : CDL Density Correction
DPOR.pu                       : CDL Density Porosity
GR.GAPI                       : Gamma Ray
NPOR.pu                       : Neutron Porosity
~Parameter Information Block
~A  Depth       DCAL        RHOB        RHOC        DPOR         GR         NPOR    
# ...
   550.4000      4.7996      2.3648     -0.1353     17.2819     82.7589     48.7771
   550.5000      4.8126      2.3515     -0.1790     18.0904     82.4969     48.4030
   550.6000      4.8126      2.3444     -0.1137     18.5225     78.5530     48.0735
   550.7000      4.8126      2.3281     -0.1102     19.5089     74.4339     47.9208
   550.8000      4.8029      2.3053     -0.2028     20.8907     71.8533     48.0249
   550.9000      4.8029      2.2952     -0.1685     21.5054     71.7022     48.1903
   551.0000      4.8130      2.2899     -0.0700     21.8214     73.0449     48.1049
   551.1000      4.8130      2.2717     -0.2154     22.9262     73.5967     48.0084
   551.2000      4.8130      2.2578     -0.2593     23.7675     72.2399     48.1518
   551.3000      4.8201      2.2626     -0.1571     23.4803     68.5269     48.2890
   551.4000      4.8201      2.2694     -0.1401     23.0659     63.6519     48.3936
   551.5000      4.8237      2.2711     -0.2282     22.9616     59.7406     48.6680
   551.6000      4.8237      2.2736     -0.1434     22.8107     60.6428     48.9060
   551.7000      4.8237      2.2755     -0.2091     22.6980     66.5883     48.8808
   551.8000      4.8499      2.2801     -0.1671     22.4155     71.9217     48.5967
   551.9000      4.8499      2.2879     -0.1043     21.9431     71.7619     48.1471
   552.0000      4.8095      2.2862     -0.0884     22.0463     67.1826     47.9118
   552.1000      4.8095      2.2753     -0.1486     22.7063     64.4056     48.1734
   552.2000      4.8095      2.2680     -0.1258     23.1488     67.2922     48.4970
   552.3000      4.7882      2.2673     -0.1932     23.1921     70.8131     48.5417
   552.4000      4.7882      2.2739     -0.1594     22.7939     70.1992     48.5164
   552.5000      4.7876      2.2851     -0.1361     22.1142     68.5504     48.6272
   552.6000      4.7876      2.3021     -0.1462     21.0861     68.4425     48.8891
   552.7000      4.7876      2.3223     -0.0854     19.8581     68.3950     49.0553
   552.8000      4.8102      2.3275     -0.0861     19.5484     70.1522     48.8656
   552.9000      4.8102      2.3073     -0.1221     20.7711     75.5980     48.4946
   553.0000      4.8462      2.2669     -0.1511     23.2190     79.8917     48.2865
   553.1000      4.8462      2.2167     -0.2147     26.2576     79.4317     48.2995
   553.2000      4.8462      2.1794     -0.2738     28.5202     79.0056     48.3551
   553.3000      4.8544      2.1775     -0.2810     28.6357     81.0741     48.3702
   553.4000      4.8544      2.1998     -0.1586     27.2856     80.6806     48.4186
   553.5000      4.8306      2.2158     -0.2215     26.3140     75.4963     48.6455
   553.6000      4.8306      2.2188     -0.1825     26.1332     69.8962     48.9560
   553.7000      4.8306      2.2175     -0.1517     26.2096     66.5430     48.9585
   553.8000      4.8040      2.2204     -0.1895     26.0381     65.0880     48.4901
   553.9000      4.8040      2.2288     -0.1771     25.5253     64.2364     47.9098
   554.0000      4.7956      2.2345     -0.1417     25.1815     61.5459     47.7874
   554.1000      4.7956      2.2349     -0.1559     25.1562     59.0520     48.2255
   554.2000      4.7956      2.2355     -0.1945     25.1233     60.0423     48.6878
   554.3000      4.7980      2.2405     -0.1751     24.8197     62.9079     48.7451
   554.4000      4.7980      2.2478     -0.1781     24.3769     66.1298     48.4959
   554.5000      4.8456      2.2504     -0.1058     24.2190     68.3407     48.2489
   554.6000      4.8456      2.2492     -0.1450     24.2884     69.1538     48.2167
   554.7000      4.8456      2.2548     -0.1485     23.9505     70.7927     48.3331
   554.8000      4.8480      2.2655     -0.1510     23.3044     72.7243     48.2869
   554.9000      4.8480      2.2727     -0.1199     22.8671     72.5243     48.0634
   555.0000      4.7943      2.2784     -0.1806     22.5205     70.2091     47.8720
   555.1000      4.7943      2.2801     -0.0806     22.4160     67.4802     47.7481
   555.2000      4.7943      2.2649     -0.1332     23.3378     67.2951     47.6663
   555.3000      4.8376      2.2430     -0.1489     24.6696     70.9661     47.5617
   555.4000      4.8376      2.2377     -0.1686     24.9905     75.0754     47.4235
   555.5000      4.8169      2.2516     -0.1824     24.1440     76.7395     47.3289
   555.6000      4.8169      2.2702     -0.1676     23.0212     74.5327     47.3906
   555.7000      4.8169      2.2822     -0.1539     22.2919     69.9553     47.8599
   555.8000      4.8196      2.2888     -0.2185     21.8879     67.6609     48.5625
   555.9000      4.8196      2.2924     -0.1284     21.6757     67.2322     48.9327
   556.0000      4.8128      2.2876     -0.1818     21.9611     63.9249     48.8197
   556.1000      4.8128      2.2818     -0.1948     22.3170     59.3376     48.5071
   556.2000      4.8128      2.2901     -0.1583     21.8115     59.6212     48.2921
   556.3000      4.8098      2.3080     -0.0980     20.7266     65.5084     48.1672
   556.4000      4.8098      2.3195     -0.1061     20.0295     71.0506     48.1554
   556.5000      4.7968      2.3134     -0.1021     20.3995     71.0221     48.3989
   556.6000      4.7968      2.2883     -0.1077     21.9213     66.1707     48.6790
   556.7000      4.7968      2.2616     -0.1689     23.5369     62.3843     48.7125
   556.8000      4.7894      2.2524     -0.1938     24.0943     65.7084     48.4931
   556.9000      4.7894      2.2547     -0.1811     23.9605     74.7300     48.2134
   557.0000      4.8228      2.2519     -0.1741     24.1266     80.4509     48.0545
   557.1000      4.8228      2.2533     -0.2348     24.0441     79.8219     48.0463
   557.2000      4.8228      2.2730     -0.1816     22.8459     77.4581     48.2651
   557.3000      4.8483      2.2917     -0.1356     21.7161     74.4002     48.5794
   557.4000      4.8483      2.2916     -0.1516     21.7203     70.7484     48.5138
   557.5000      4.8117      2.2865     -0.1554     22.0319     70.5415     48.1359
   557.6000      4.8117      2.2834     -0.0834     22.2168     72.6402     48.0656
   557.7000      4.8117      2.2754     -0.1471     22.7006     71.5479     48.2893
   557.8000      4.7931      2.2692     -0.1905     23.0812     68.4464     48.4639
   557.9000      4.7931      2.2730     -0.1823     22.8505     67.6277     48.6553
   558.0000      4.8135      2.2816     -0.2140     22.3278     67.8690     48.8360
   558.1000      4.8135      2.2795     -0.1330     22.4533     66.8945     48.9243
   558.2000      4.8135      2.2509     -0.1979     24.1903     66.6969     49.0178
   558.3000      4.8028      2.2154     -0.2779     26.3393     69.9533     49.1281
   558.4000      4.8028      2.2157     -0.2217     26.3218     75.1596     49.2263
   558.5000      4.8220      2.2578     -0.1981     23.7706     76.5355     49.2271
   558.6000      4.8220      2.3139     -0.1763     20.3688     71.3963     49.0540
   558.7000      4.8220      2.3587     -0.1082     17.6552     63.9513     48.7226
   558.8000      4.8305      2.3867     -0.1881     15.9567     59.0296     48.3133
   558.9000      4.8305      2.4093     -0.1211     14.5854     57.1273     48.1063
   559.0000      4.8049      2.4270     -0.1399     13.5138     56.2355     48.2486
   559.1000      4.8049      2.4349     -0.1424     13.0356     58.2495     48.5596
   559.2000      4.8049      2.4350     -0.1237     13.0326     65.3402     48.8455
   559.3000      4.8158      2.4231     -0.0829     13.7530     71.1041     48.9656
   559.4000      4.8158      2.3906     -0.1294     15.7221     68.8178     48.8594
   559.5000      4.8178      2.3424     -0.1479     18.6448     63.1570     48.6559
   559.6000      4.8178      2.3008     -0.1848     21.1624     60.3807     48.4968
   559.7000      4.8178      2.2789     -0.1641     22.4908     59.6297     48.3140
   559.8000      4.7973      2.2618     -0.1238     23.5263     59.1316     48.0196
   559.9000      4.7973      2.2432     -0.1773     24.6570     58.6576     47.8384
