~Version Information
VERS.                      2.0: CWLS Log ASCII Standard - VERSION 2.0
WRAP.                       NO: One line per depth step
~Well Information Block
STRT.FT               546.0000: 
STOP.FT              1771.5000: 
STEP.FT                 0.1000: 
NULL.                -999.2500: 
COMP.          Petrogulf Corporation: COMPANY
WELL.             McLeod 9-42R: WELL
FLD.           Purgatorie River: FIELD
LOC.           1748' FNL & 372' FEL: LOCATION
PROV.                 Colorado: PROVINCE
CNTY.               Las Animas: COUNTRY
SRVC.                Patterson: SERVICE COMPANY
DATE.          Tue Aug 16 11:11:38 2005: LOG DATE
UWI.                071 08092 : UNIQUE WELL ID
~Curve Information Block
DEPT.FT            0 000 00 00: Depth
DCAL.in                       : CDL Caliper
RHOB.g/cc                     : CDL Bulk Density
RHOC.g/cc                     : CDL Density Correction
DPOR.pu                       : CDL Density Porosity
GR.GAPI                       : Gamma Ray
NPOR.pu                       : Neutron Porosity
~Parameter Information Block
~A  Depth       DCAL        RHOB        RHOC        DPOR         GR         NPOR    
# ...
  1256.4000      7.9354      2.5742      0.0514      4.5957    117.6980     24.8590
  1256.5000      7.9073      2.5883      0.0938      3.7412    115.6930     23.5696
  1256.6000      7.9073      2.5981      0.0457      3.1466    114.5256     23.0653
  1256.7000      7.9073      2.6155      0.0901      2.0923    113.2216     23.2119
  1256.8000      7.9014      2.6366      0.1049      0.8096    112.1595     23.5532
  1256.9000      7.9014      2.6442      0.1188      0.3546    112.8921     23.9739
  1257.0000      7.8862      2.6281      0.1028      1.3299    114.9857     24.4162
  1257.1000      7.8862      2.6025      0.0189      2.8777    117.5102     24.6760
  1257.2000      7.8862      2.5921      0.0125      3.5100    118.1410     24.7661
  1257.3000      7.8878      2.6023      0.0064      2.8934    115.1297     24.5895
  1257.4000      7.8878      2.6215      0.0628      1.7278    110.9058     24.1465
  1257.5000      7.8865      2.6366      0.0994      0.8092    109.1146     23.7979
  1257.6000      7.8865      2.6422      0.0700      0.4720    111.6036     23.6627
  1257.7000      7.8865      2.6386      0.0575      0.6921    115.9885     24.0111
  1257.8000      7.8861      2.6211      0.0920      1.7502    118.1967     24.8867
  1257.9000      7.8861      2.5934     -0.0029      3.4279    117.6630     25.7453
  1258.0000      7.9131      2.5754      0.0212      4.5188    117.1260     26.3746
  1258.1000      7.9131      2.5740      0.0574      4.6038    117.6495     26.5598
  1258.2000      7.9131      2.5781      0.0727      4.3567    117.7983     26.0903
  1258.3000      7.9128      2.5777      0.0604      4.3802    117.0488     25.4999
  1258.4000      7.9128      2.5747      0.0425      4.5629    116.3989     25.2270
  1258.5000      7.8819      2.5770      0.0636      4.4237    116.6987     25.1036
  1258.6000      7.8819      2.5814      0.0756      4.1592    115.8578     24.9803
  1258.7000      7.8819      2.5763      0.0865      4.4660    113.6511     24.8946
  1258.8000      7.8730      2.5627      0.0638      5.2900    115.0506     25.0388
  1258.9000      7.8730      2.5477      0.0645      6.1992    121.1742     25.5609
  1259.0000      7.8791      2.5320      0.0366      7.1504    127.7007     26.3530
  1259.1000      7.8791      2.5173     -0.0036      8.0437    130.6447     26.9422
  1259.2000      7.8791      2.5034      0.0405      8.8870    130.3645     27.2007
  1259.3000      7.9092      2.4897      0.0172      9.7143    131.1733     27.6214
  1259.4000      7.9092      2.4793      0.0412     10.3471    134.6232     28.0998
  1259.5000      7.8991      2.4734      0.0172     10.7027    137.5234     28.2886
  1259.6000      7.8991      2.4744      0.0377     10.6413    137.6848     28.4034
  1259.7000      7.8991      2.4831      0.0716     10.1149    136.2997     28.3554
  1259.8000      7.8888      2.4929      0.1211      9.5184    136.0958     27.7579
  1259.9000      7.8888      2.4895      0.1325      9.7298    135.6333     26.9980
  1260.0000      7.8907      2.4574      0.1241     11.6756    132.7004     26.6906
  1260.1000      7.8907      2.3943      0.1385     15.4946    129.5957     26.8440
  1260.2000      7.8907      2.3189      0.0850     20.0675    127.0261     27.3741
  1260.3000      7.8819      2.2586      0.0359     23.7217    122.3952     28.2418
  1260.4000      7.8819      2.2250      0.0509     25.7600    117.0877     29.2182
  1260.5000      7.9356      2.2128     -0.0189     26.4957    113.6177     30.0463
  1260.6000      7.9356      2.2204      0.0367     26.0391    110.8121     30.4527
  1260.7000      7.9356      2.2497      0.0316     24.2605    107.5190     30.2561
  1260.8000      8.0215      2.2973      0.0827     21.3772    104.2300     29.7120
  1260.9000      8.0215      2.3513      0.1528     18.1005    102.7115     29.1714
  1261.0000      8.0578      2.4000      0.1972     15.1492    103.8352     28.7349
  1261.1000      8.0578      2.4376      0.1198     12.8733    106.2849     28.4102
  1261.2000      8.0578      2.4612      0.0671     11.4432    108.7711     27.9372
  1261.3000      7.9187      2.4745      0.0340     10.6372    112.2149     26.8791
  1261.4000      7.9187      2.4886      0.0028      9.7798    115.7107     25.5068
  1261.5000      7.8924      2.5070      0.0649      8.6687    116.2655     24.4186
  1261.6000      7.8924      2.5233      0.0547      7.6804    114.4097     23.7545
  1261.7000      7.8924      2.5336      0.0721      7.0537    112.3100     23.1923
  1261.8000      7.8995      2.5386      0.0788      6.7494    111.4881     22.5146
  1261.9000      7.8995      2.5390      0.0970      6.7248    112.6177     21.9589
  1262.0000      7.9027      2.5348      0.0603      6.9821    113.6788     21.7305
  1262.1000      7.9027      2.5305      0.0489      7.2422    113.4996     21.8628
  1262.2000      7.9027      2.5321      0.0526      7.1458    113.0836     22.5404
  1262.3000      7.8986      2.5409      0.0264      6.6138    112.6185     23.5371
  1262.4000      7.8986      2.5520      0.0411      5.9417    111.6491     24.0326
  1262.5000      7.8948      2.5596      0.0829      5.4774    111.1272     23.7976
  1262.6000      7.8948      2.5661      0.0360      5.0872    111.6990     23.1869
  1262.7000      7.8948      2.5727      0.1228      4.6830    111.5751     22.4852
  1262.8000      7.8959      2.5757      0.0836      4.5044    108.2980     21.9820
  1262.9000      7.8959      2.5793      0.1106      4.2864    103.0102     21.8482
  1263.0000      7.8703      2.5850      0.0863      3.9422     99.6729     22.0296
  1263.1000      7.8703      2.5920      0.0615      3.5149    100.1748     22.0680
  1263.2000      7.8703      2.6094      0.0612      2.4595    101.9755     21.4288
  1263.3000      7.8670      2.6368      0.1178      0.7998    101.3811     20.5244
  1263.4000      7.8670      2.6576      0.1400     -0.4605     99.2880     20.1768
  1263.5000      7.8688      2.6648      0.1226     -0.8990     97.4019     20.1441
  1263.6000      7.8688      2.6621      0.1332     -0.7342     94.6266     19.9118
  1263.7000      7.8688      2.6473      0.1375      0.1610     91.5759     19.7244
  1263.8000      7.7948      2.6247      0.0986      1.5355     89.7530     19.8288
  1263.9000      7.7948      2.6145      0.0296      2.1537     88.4483     20.2515
  1264.0000      7.7661      2.6262      0.0755      1.4452     87.2742     20.8234
  1264.1000      7.7661      2.6436      0.1041      0.3884     86.0424     20.9734
  1264.2000      7.7661      2.6555      0.1031     -0.3362     84.1515     20.3666
  1264.3000      7.8180      2.6652      0.1030     -0.9237     81.5725     19.3559
  1264.4000      7.8180      2.6697      0.1048     -1.1923     80.0961     18.4945
  1264.5000      7.8434      2.6609      0.0895     -0.6618     80.8436     18.0072
  1264.6000      7.8434      2.6423      0.0564      0.4654     83.0339     17.9506
  1264.7000      7.8434      2.6243      0.0444      1.5597     87.6067     18.2608
  1264.8000      7.8796      2.6103      0.0494      2.4051     93.8239     18.6427
  1264.9000      7.8796      2.5968      0.0674      3.2261     98.0993     18.9824
  1265.0000      7.8679      2.5815      0.0461      4.1516    100.6122     19.5623
  1265.1000      7.8679      2.5715      0.0248      4.7605    104.9975     20.6393
  1265.2000      7.8679      2.5724      0.0616      4.7046    110.6283     21.9852
  1265.3000      7.8682      2.5786      0.0665      4.3281    112.8914     23.0448
  1265.4000      7.8682      2.5819      0.0915      4.1246    111.5415     23.4997
  1265.5000      7.8705      2.5756      0.0993      4.5110    109.8406     23.4895
  1265.6000      7.8705      2.5616      0.0549      5.3571    109.3908     23.4187
  1265.7000      7.8705      2.5594      0.0470      5.4905    110.6054     23.4615
  1265.8000      7.8871      2.5804      0.0556      4.2163    113.5142     23.4517
  1265.9000      7.8871      2.6075      0.1018      2.5773    116.6840     23.3745
