~Version Information
VERS.                      2.0: CWLS Log ASCII Standard - VERSION 2.0
WRAP.                       NO: One line per depth step
~Well Information Block
STRT.FT               433.5000: 
STOP.FT              1880.2500: 
STEP.FT                 0.2500: 
NULL.                -999.2500: 
COMP.          Pioneer Natural Resources: COMPANY
WELL.           Buckhorn 12-21: WELL
FLD.           Purgatorie River: FIELD
LOC.           2450' FNL & 608' FWL--: LOCATION
PROV.                       CO: PROVINCE
CNTY.               Las Animas: COUNTRY
SRVC.                         : SERVICE COMPANY
DATE.          Fri Dec 03 14:13:08 2004: LOG DATE
UWI.          005 071 08129 : UNIQUE WELL ID
~Curve Information Block
DEPT.FT            0 000 00 00: Depth
NPOR.pu                       : Neutron Porosity
CCL.                          : Casing Collar Locator
TT3.usec                      : CBL 3' Travel Time
AMP3.mV                       : CBL 3' Amplitude
GR.GAPI                       : Gamma Ray
~Parameter Information Block
~A  Depth       NPOR        CCL         TT3         AMP3         GR     
# ...
  1189.5000     27.2793      0.0000    307.4224     20.1872    152.0031
  1189.7500     27.4712      0.0000    307.4825     20.0511    151.5829
  1190.0000     27.5316      0.0000    307.5726     19.8134    149.5758
  1190.2500     27.4141      0.0000    307.6664     19.5707    146.0215
  1190.5000     27.2044      0.0000    307.7391     19.3490    141.0587
  1190.7500     27.0445      0.0000    307.7930     19.0989    135.3650
  1191.0000     26.9652      0.0000    307.8461     18.7570    130.4650
  1191.2500     26.8692      0.0000    307.9092     18.3106    128.1481
  1191.5000     26.7162      0.0000    307.9843     17.8117    129.3345
  1191.7500     26.6226      0.0000    308.0782     17.3329    133.6106
  1192.0000     26.7163      0.0000    308.2385     16.9025    139.8168
  1192.2500     26.9654      0.0000    308.6072     16.4738    146.8300
  1192.5000     27.2092      0.0000    309.7409     15.9669    153.7934
  1192.7500     27.3151      0.0000    313.3857     15.3425    159.8328
  1193.0000     27.2627      0.0000    323.6740     14.6324    163.6763
  1193.2500     27.1148      0.0000    347.2654     13.8966    163.9671
  1193.5000     26.9615      0.0000    390.1152     13.1602    160.4922
  1193.7500     26.8983      0.0000    451.2454     12.3893    154.8590
  1194.0000     27.0181      0.0000    519.2205     11.5224    149.3399
  1194.2500     27.3653      0.0000    576.3047     10.5526    145.1165
  1194.5000     27.8777      0.0000    607.7386      9.6060    141.9919
  1194.7500     28.3916      0.0000    610.2305      8.9015    139.5127
  1195.0000     28.7331      0.0000    595.7565      8.5607    137.7017
  1195.2500     28.8287      0.0000    586.2626      8.4781    136.5571
  1195.5000     28.7448      0.0000    598.6872      8.4485    135.4829
  1195.7500     28.6381      0.0000    632.1961      8.3867    133.8849
  1196.0000     28.6671      0.0000    671.0487      8.3512    132.0849
  1196.2500     28.9140      0.0000    698.5015      8.4061    131.2193
  1196.5000     29.3601      0.0000    706.4225      8.5517    132.4432
  1196.7500     29.9292     -2.0000    695.6122      8.7801    136.3670
  1197.0000     30.5469      0.0000    672.1967      9.1450    142.7666
  1197.2500     31.1447      0.0000    642.2700      9.7485    150.4793
  1197.5000     31.6436      0.0000    606.7786     10.6233    157.7852
  1197.7500     31.9819      0.0000    563.4560     11.6115    163.1607
  1198.0000     32.1610      0.0000    514.5460     12.4336    165.8524
  1198.2500     32.2421      0.0000    467.2222     12.9582    166.1259
  1198.5000     32.3050      0.0000    425.6379     13.3359    165.1730
  1198.7500     32.4105      0.0000    388.8617     13.7907    164.4994
  1199.0000     32.5759      0.0000    356.8971     14.3658    165.0055
  1199.2500     32.7712      0.0000    332.7778     14.9556    166.3980
  1199.5000     32.9597      0.0000    318.2970     15.4921    167.1386
  1199.7500     33.1329      0.0000    311.5689     16.0120    164.9525
  1200.0000     33.2822      0.0000    309.1194     16.5934    158.2657
  1200.2500     33.3578      0.0000    308.3307     17.3010    148.1134
  1200.5000     33.3027      0.0000    307.9612     18.1752    138.3422
  1200.7500     33.1224      0.0000    307.5809     19.2202    132.8890
  1201.0000     32.9016      0.0000    306.9680     20.4024    132.6190
  1201.2500     32.7576      0.0000    305.7052     21.6774    134.9798
  1201.5000     32.7760      0.0000    303.0806     23.0209    136.5105
  1201.7500     32.9497      0.0000    298.3800     24.4242    135.6196
  1202.0000     33.1635      0.0000    291.5893     25.8669    133.5056
  1202.2500     33.2782      0.0000    283.8315     27.3144    132.8008
  1202.5000     33.2602      0.0000    276.8400     28.7445    135.0065
  1202.7500     33.2135      0.0000    271.8303     30.1719    139.0154
  1203.0000     33.2693      0.0000    268.9097     31.6461    142.3428
  1203.2500     33.4568      0.0000    267.4410     33.2197    143.8367
  1203.5000     33.6930      0.0000    266.7139     34.8989    144.7703
  1203.7500     33.8757      0.0000    266.2857     36.6238    146.9675
  1204.0000     33.9573      0.0000    265.9670     38.3149    150.1611
  1204.2500     33.9404      0.0000    265.7014     39.9324    151.9780
  1204.5000     33.8646      0.0000    265.4832     41.4582    150.6568
  1204.7500     33.8193      0.0000    265.3210     42.8138    146.8044
  1205.0000     33.8961      0.0000    265.2219     43.8367    142.1421
  1205.2500     34.0807      0.0000    265.1801     44.3596    137.6588
  1205.5000     34.2453      0.0000    265.1798     44.3085    133.6313
  1205.7500     34.2989      0.0000    265.2104     43.7395    130.5001
  1206.0000     34.2910      0.0000    265.2755     42.8224    128.9677
  1206.2500     34.3269      0.0000    265.3822     41.7806    129.4375
  1206.5000     34.4244      0.0000    265.5253     40.7808    131.5146
  1206.7500     34.4964      0.0000    265.6879     39.8314    134.0947
  1207.0000     34.4535      0.0000    265.8587     38.8019    136.1852
  1207.2500     34.3046      0.0000    266.0442     37.5647    137.6504
  1207.5000     34.1664      0.0000    266.2580     36.1207    138.9798
  1207.7500     34.1622      0.0000    266.4996     34.6015    140.5104
  1208.0000     34.2819      0.0000    266.7436     33.1878    142.1328
  1208.2500     34.3597      0.0000    266.9485     32.0426    143.5405
  1208.5000     34.2280      0.0000    267.0754     31.2819    144.3440
  1208.7500     33.8987      0.0000    267.1082     30.9522    144.0014
  1209.0000     33.5597      0.0000    267.0582     31.0187    142.0908
  1209.2500     33.3953      0.0000    266.9493     31.3770    138.6858
  1209.5000     33.4484      0.0000    266.8035     31.8627    134.2616
  1209.7500     33.6494      0.0000    266.6506     32.2720    129.6685
  1210.0000     33.9153      0.0000    266.5385     32.4350    126.5027
  1210.2500     34.1858      0.0000    266.5161     32.3020    126.6672
  1210.5000     34.3888      0.0000    266.6089     31.9386    130.7651
  1210.7500     34.4173      0.0000    266.8107     31.4413    137.2749
  1211.0000     34.1701      0.0000    267.0951     30.8840    143.7461
  1211.2500     33.6176      0.0000    267.4401     30.3169    148.3623
  1211.5000     32.8395      0.0000    267.8793     29.7621    150.1426
  1211.7500     32.0266      0.0000    268.5797     29.2128    148.6034
  1212.0000     31.4376      0.0000    269.9484     28.6602    144.3795
  1212.2500     31.2830      0.0000    272.6386     28.1119    139.9710
  1212.5000     31.6126      0.0000    277.1842     27.5806    138.4980
  1212.7500     32.3392      0.0000    283.2641     27.0829    140.7984
  1213.0000     33.3397      0.0000    289.3954     26.6411    144.0841
  1213.2500     34.4592      0.0000    293.8833     26.2396    144.1730
  1213.5000     35.4455      0.0000    296.3363     25.7749    139.2832
  1213.7500     36.0147      0.0000    297.9208     25.0928    131.6058
  1214.0000     36.0451      0.0000    299.9470     24.1014    125.2637
  1214.2500     35.6733      0.0000    302.6050     22.8343    122.9919
  1214.5000     35.1804      0.0000    305.2849     21.4062    124.7878
  1214.7500     34.7831      0.0000    307.9543     19.9256    129.1007
  1215.0000     34.5089      0.0000    312.4987     18.4407    134.4459
  1215.2500     34.2403      0.0000    323.7885     16.9413    139.8343
  1215.5000     33.8816      0.0000    349.5060     15.4146    144.4857
  1215.7500     33.4887      0.0000    396.0211     13.9123    147.6153
  1216.0000     33.2371      0.0000    460.3111     12.5630    148.3833
  1216.2500     33.2629      0.0000    524.9716     11.5198    146.4384
  1216.5000     33.5343      0.0000    564.7036     10.8944    142.9359
  1216.7500     33.8715      0.0000    561.8585     10.7265    140.3317
  1217.0000     34.0893      0.0000    518.2294     10.9922    140.3289
  1217.2500     34.1242      0.0000    453.3735     11.6385    142.2968
