~Version Information
 VERS.                                  2.0 : CWLS LAS VERSION
 WRAP.                                   NO : WRAPING MODE
 SWARE .                 MController 2.5.0J : SOFTWARE VERSION
~Well Information
 WELL.                           Elmo 14-21 : WELL
 COMP.    PIONEER NATURAL RESOURCES USA INC : COMPANY
 FLD.                      PURGATOIRE RIVER : FIELD
 LOC.               SW/SW Sec 21 T33S  R66W : LOCATION
 DATE.                         5/16-17/2005 : DATE(S) LOGGED
 SRVC.       Blanco Geological Services LLC : SERVICE COMPANY
 STAT.                                   CO : STATE
 CNTY.                           Las Animas : COUNTY
 CTRY.                                  USA : COUNTRY
 API.                       05-071-08360-00 : API NUMBER
 STRT.FT                             300.00 : START DEPTH
 STOP.FT                            1680.00 : STOP DEPTH
 STEP.FT                               1.00 : DEPTH INCREMENT
 NULL.                                -9999 : NULL VALUE
~Curve information
 DEPTH.FT                                   :
 ROP.MIN/FT                                 :
 GAS.UNITS                                  :
~ASCII Log data
# ...
       500.0         0.37         27.1 
       501.0         0.23         27.2 
       502.0         0.40         27.4 
       503.0         0.27         27.2 
       504.0         0.33         27.1 
       505.0         0.27         27.2 
       506.0         0.40         27.3 
       507.0         0.32         27.2 
       508.0         0.37         27.4 
       509.0         0.20         26.7 
       510.0         0.23         27.1 
       511.0         0.40         27.5 
       512.0         0.13         27.3 
       513.0         0.33         27.4 
       514.0         0.30         27.6 
       515.0         0.33         27.3 
       516.0         0.37         27.5 
       517.0         0.45         27.6 
       518.0         0.37         27.7 
       519.0         0.40         27.7 
       520.0         0.17         27.5 
       521.0         0.40         27.9 
       522.0         0.37         28.7 
       523.0         0.33         28.6 
       524.0         0.40         28.1 
       525.0         0.43         30.0 
       526.0         0.42         30.2 
       527.0         0.33         27.8 
       528.0         0.43         27.6 
       529.0         0.27         27.6 
       530.0         0.33         27.7 
       531.0         0.27         27.8 
       532.0         0.30         28.0 
       533.0         0.30         27.9 
       534.0         0.33         27.8 
       535.0         0.33         27.9 
       536.0         0.03         27.3 
       537.0         0.23         28.1 
       538.0         0.38         28.1 
       539.0         0.03         27.2 
       540.0         0.37         27.9 
       541.0         0.37         27.9 
       542.0         0.23         27.8 
       543.0         0.33         28.2 
       544.0         0.30         28.0 
       545.0         0.33         28.1 
       546.0         0.37         28.0 
       547.0         0.37         27.9 
       548.0         0.37         27.8 
       549.0         0.32         28.3 
       550.0         0.30         28.0 
       551.0         0.43         28.5 
       552.0         0.27         28.4 
       553.0         0.17         28.3 
       554.0         0.33         28.4 
       555.0         0.33         28.2 
       556.0         0.33         28.4 
       557.0         0.40         29.4 
       558.0         0.33         30.8 
       559.0         0.38         34.0 
       560.0         0.33         35.7 
       561.0         0.03         34.5 
       562.0         0.40         35.1 
       563.0         0.07         33.1 
       564.0         0.27         33.5 
       565.0         0.30         31.5 
       566.0         0.10         30.8 
       567.0         0.40         30.8 
       568.0         0.47         30.1 
       569.0         0.33         29.7 
       570.0         0.07         29.7 
       571.0         0.25         30.0 
       572.0         0.37         29.5 
       573.0         0.27         29.5 
       574.0         0.37         29.5 
       575.0         0.33         29.3 
       576.0         0.30         29.0 
       577.0         0.37         28.9 
       578.0         0.33         29.1 
       579.0         0.30         29.0 
       580.0         0.37         28.9 
       581.0         0.35         28.9 
       582.0         0.33         29.4 
       583.0         0.30         29.7 
       584.0         0.33         30.0 
       585.0         0.37         30.1 
       586.0         0.27         30.4 
       587.0         0.43         30.6 
       588.0         0.33         30.6 
       589.0         0.37         30.5 
       590.0         0.30         30.5 
       591.0         0.42         30.9 
       592.0         0.37         31.7 
       593.0         0.30         32.5 
       594.0         0.40         31.2 
       595.0         0.33         31.0 
       596.0         0.40         31.0 
       597.0         0.47         31.0 
       598.0         0.40         30.8 
       599.0         0.37         30.7 
       600.0         0.35         30.8 
       601.0         0.40         31.0 
       602.0         0.33         31.2 
       603.0         0.30         31.0 
       604.0         0.40         31.1 
       605.0         0.47         30.8 
       606.0         0.30         31.0 
       607.0         0.43         30.6 
       608.0         0.43         32.9 
       609.0         0.52         35.5 
       610.0         0.47         33.9 
       611.0         0.43         32.4 
       612.0         0.33         31.2 
       613.0         0.37         31.7 
       614.0         0.33         31.5 
       615.0         0.33         31.2 
       616.0         0.37         32.7 
       617.0         0.38         32.6 
       618.0         0.43         34.9 
       619.0         0.30         38.8 
       620.0         0.37         40.9 
       621.0         0.37         41.2 
       622.0         0.30         41.3 
       623.0         0.37         41.5 
       624.0         0.40         41.9 
       625.0         0.33         42.8 
       626.0         0.32         43.2 
       627.0         0.27         44.6 
       628.0         0.40         46.3 
       629.0         0.40         49.2 
       630.0         0.27         51.3 
       631.0         0.40         53.7 
       632.0         0.47         54.1 
       633.0         0.37         55.4 
       634.0         0.43         53.2 
       635.0         0.38         47.1 
       636.0         0.50         49.2 
       637.0         0.50         48.1 
       638.0         0.53         37.0 
       639.0         0.63         28.3 
       640.0         0.43         29.3 
       641.0         0.30         30.2 
       642.0         0.45         31.4 
       643.0         0.37         31.6 
       644.0         0.40         31.3 
       645.0         0.40         31.3 
       646.0         0.27         30.7 
       647.0         0.47         30.4 
       648.0         0.27         29.8 
       649.0         0.37         29.7 
       650.0         0.33         29.4 
       651.0         0.35         29.3 
       652.0         0.37         29.2 
       653.0         0.40         29.0 
       654.0         0.40         29.1 
       655.0         0.33         28.9 
       656.0         0.40         28.9 
       657.0         0.37         28.6 
       658.0         0.33         28.3 
       659.0         0.33         28.2 
       660.0         0.32         28.2 
       661.0         0.30         27.8 
       662.0         0.37         28.0 
       663.0         0.30         28.1 
       664.0         0.37         27.8 
       665.0         0.37         27.7 
       666.0         0.37         27.7 
       667.0         0.30         27.9 
       668.0         0.43         27.9 
       669.0         0.30         27.7 
       670.0         0.35         27.9 
       671.0         0.43         28.9 
       672.0         0.33         29.6 
       673.0         0.30         29.7 
       674.0         0.30         30.0 
       675.0         0.47         30.1 
       676.0         0.33         29.9 
       677.0         0.47         30.1 
       678.0         0.65         30.5 
       679.0         0.30         29.9 
       680.0         0.47         29.8 
       681.0         0.27         29.3 
       682.0         0.47         29.0 
       683.0         0.40         28.8 
       684.0         0.30         28.5 
       685.0         0.37         28.4 
       686.0         0.37         28.2 
       687.0         0.28         27.7 
       688.0         0.33         28.1 
       689.0         0.23         28.0 
       690.0         0.23         28.1 
       691.0         0.27         27.9 
       692.0         0.23         27.7 
       693.0         0.17         27.1 
       694.0         0.37         27.8 
       695.0         0.27         27.5 
       696.0         0.20         27.4 
       697.0         0.30         27.7 
       698.0         0.27         27.5 
       699.0         0.18         27.8 
