~Version Information
VERS.                      2.0: CWLS Log ASCII Standard - VERSION 2.0
WRAP.                       NO: One line per depth step
~Well Information Block
STRT.FT               240.0000: 
STOP.FT               966.2000: 
STEP.FT                 0.1000: 
NULL.                -999.2500: 
COMP.          Pioneer Natural Resources: COMPANY
WELL.          New Mexico 21-5: WELL
FLD.           Purgatoire River: FIELD
LOC.           175' FNL & 1700' FWL: LOCATION
PROV.                 Colorado: PROVINCE
CNTY.               Las Animas: COUNTRY
SRVC.                Patterson: SERVICE COMPANY
DATE.          Mon Dec 13 06:55:26 2004: LOG DATE
UWI.           05 071 08234 00: UNIQUE WELL ID
~Curve Information Block
DEPT.FT            0 000 00 00: Depth
DCAL.in                       : CDL Caliper
RHOB.g/cc                     : CDL Bulk Density
RHOC.g/cc                     : CDL Density Correction
DPOR.pu                       : CDL Density Porosity
NPOR.pu                       : Neutron Porosity
GR.GAPI                       : Gamma Ray
~Parameter Information Block
~A  Depth       DCAL        RHOB        RHOC        DPOR        NPOR         GR     
# ...
   384.0000      8.0614      2.5522      0.0584      5.9277     23.8328    130.5562
   384.1000      8.0614      2.5651      0.0954      5.1463     24.0274    129.4804
   384.2000      8.0614      2.5744      0.0670      4.5837     23.7245    129.5025
   384.3000      8.0501      2.5704      0.1027      4.8252     23.1601    131.4231
   384.4000      8.0501      2.5635      0.0673      5.2409     22.8964    132.6723
   384.5000      8.0261      2.5680      0.0560      4.9688     23.0578    129.0438
   384.6000      8.0261      2.5814      0.0846      4.1569     23.1413    121.5372
   384.7000      8.0261      2.5964      0.0625      3.2512     23.0454    113.2491
   384.8000      8.0020      2.6092      0.1027      2.4745     23.1213    108.2126
   384.9000      8.0020      2.6117      0.0888      2.3224     23.3292    107.4709
   385.0000      7.9866      2.6016      0.1008      2.9337     23.2704    105.4155
   385.1000      7.9866      2.5840      0.0787      4.0005     23.1413    100.9708
   385.2000      7.9866      2.5656      0.0860      5.1168     23.2047     98.7124
   385.3000      7.9811      2.5494      0.0923      6.0970     23.1548     97.9331
   385.4000      7.9811      2.5360      0.0688      6.9069     23.0874     94.0200
   385.5000      7.9790      2.5298      0.1116      7.2859     23.4757     87.3727
   385.6000      7.9790      2.5375      0.0562      6.8159     24.1101     83.3169
   385.7000      7.9790      2.5624      0.1035      5.3096     24.3728     83.8705
   385.8000      7.9761      2.5903      0.1096      3.6193     24.3285     85.3825
   385.9000      7.9761      2.6034      0.1450      2.8222     24.3358     85.3235
   386.0000      7.9762      2.6024      0.1425      2.8861     24.3027     85.4417
   386.1000      7.9762      2.5986      0.1052      3.1159     24.1967     88.2203
   386.2000      7.9762      2.5978      0.1093      3.1652     24.2581     93.5932
   386.3000      7.9786      2.5979      0.0876      3.1600     24.6554     98.1306
   386.4000      7.9786      2.5939      0.0921      3.3981     25.4085     99.7255
   386.5000      7.9778      2.5791      0.0938      4.2973     26.1193     99.4358
   386.6000      7.9778      2.5583      0.0416      5.5567     26.3512     98.9139
   386.7000      7.9778      2.5454      0.0613      6.3410     26.2188     98.5475
   386.8000      7.9743      2.5383      0.0501      6.7690     25.9167     98.8422
   386.9000      7.9743      2.5315      0.0263      7.1833     25.7046    102.1249
   387.0000      7.9728      2.5262      0.0418      7.5058     25.9069    106.1719
   387.1000      7.9728      2.5257      0.0189      7.5320     26.4405    107.9542
   387.2000      7.9728      2.5354      0.0230      6.9452     26.8275    109.8038
   387.3000      7.9746      2.5500      0.0529      6.0629     26.7868    113.2055
   387.4000      7.9746      2.5492      0.0700      6.1106     26.5300    117.7369
   387.5000      7.9765      2.5227      0.0609      7.7148     26.2766    123.3785
   387.6000      7.9765      2.4953      0.0025      9.3768     26.0255    127.5440
   387.7000      7.9765      2.5044      0.0119      8.8269     25.8527    126.9795
   387.8000      7.9790      2.5466      0.1328      6.2663     25.7729    123.6182
   387.9000      7.9790      2.5875      0.1058      3.7865     25.7227    121.1880
   388.0000      7.9867      2.6146      0.1058      2.1425     25.8123    117.9554
   388.1000      7.9867      2.6298      0.1333      1.2212     26.2462    114.0999
   388.2000      7.9867      2.6366      0.0953      0.8150     26.9218    115.5109
   388.3000      7.9985      2.6463      0.1138      0.2224     27.4311    121.2647
   388.4000      7.9985      2.6584      0.1199     -0.5105     27.5184    125.2544
   388.5000      8.0101      2.6580      0.1252     -0.4819     27.2906    125.7536
   388.6000      8.0101      2.6454      0.0746      0.2765     26.9104    125.0494
   388.7000      8.0101      2.6368      0.0975      0.8015     26.4265    125.0392
   388.8000      8.0233      2.6306      0.1194      1.1728     25.8415    124.9231
   388.9000      8.0233      2.6141      0.0731      2.1765     25.2140    124.9713
   389.0000      8.0330      2.5909      0.0801      3.5846     24.5761    128.0613
   389.1000      8.0330      2.5750      0.0505      4.5427     23.8656    133.6667
   389.2000      8.0330      2.5670      0.1077      5.0278     23.1733    134.2851
   389.3000      8.0352      2.5560      0.0585      5.6984     22.6830    126.1765
   389.4000      8.0352      2.5406      0.0832      6.6279     22.5404    116.5285
   389.5000      8.0359      2.5208      0.0591      7.8325     22.7263    112.6707
   389.6000      8.0359      2.4950      0.0471      9.3943     23.0216    114.3622
   389.7000      8.0359      2.4779     -0.0059     10.4310     23.1803    116.0550
   389.8000      8.0374      2.4906     -0.0055      9.6601     23.1053    113.0928
   389.9000      8.0374      2.5288      0.0483      7.3483     22.8883    107.6577
   390.0000      8.0381      2.5649      0.0634      5.1578     22.6733    104.8571
   390.1000      8.0381      2.5791      0.0759      4.2993     22.6435    102.2239
   390.2000      8.0381      2.5715      0.0418      4.7558     22.7779     97.0779
   390.3000      8.0373      2.5549      0.0491      5.7627     22.7195     94.7314
   390.4000      8.0373      2.5389      0.0469      6.7360     22.3570     98.5532
   390.5000      8.0362      2.5291      0.0435      7.3274     22.1904    104.5180
   390.6000      8.0362      2.5278      0.0506      7.4049     22.5769    107.5553
   390.7000      8.0362      2.5278      0.0625      7.4085     23.2310    107.6141
   390.8000      8.0375      2.5214      0.0267      7.7958     23.7259    106.7478
   390.9000      8.0375      2.5140     -0.0185      8.2412     23.8016    104.3072
   391.0000      8.0373      2.5058      0.0292      8.7389     23.5370    102.1130
   391.1000      8.0373      2.4852      0.0024      9.9879     23.2943    104.1485
   391.2000      8.0373      2.4610     -0.0034     11.4560     23.1265    108.8374
   391.3000      8.0330      2.4541      0.0248     11.8740     22.8925    111.3589
   391.4000      8.0330      2.4575      0.0445     11.6666     22.4921    111.0561
   391.5000      8.0295      2.4544      0.0156     11.8516     21.8444    108.3414
   391.6000      8.0295      2.4550      0.0076     11.8185     21.1190    102.5499
   391.7000      8.0295      2.4658      0.0637     11.1633     20.6620     99.4435
   391.8000      8.0375      2.4677      0.0965     11.0474     20.2796    100.0127
   391.9000      8.0375      2.4563      0.0302     11.7380     19.3526     97.2135
   392.0000      8.0550      2.4545      0.0417     11.8493     18.0221     92.9082
   392.1000      8.0550      2.4742      0.0397     10.6564     16.9327     91.2624
   392.2000      8.0550      2.5001      0.0884      9.0831     16.2262     89.7699
   392.3000      8.0679      2.5066      0.1375      8.6934     15.8660     88.5718
   392.4000      8.0679      2.4877      0.0276      9.8372     16.0828     89.0039
   392.5000      8.0769      2.4662     -0.0216     11.1384     16.7190     87.9422
   392.6000      8.0769      2.4629     -0.0020     11.3393     17.2490     85.1871
   392.7000      8.0769      2.4751      0.0167     10.6011     17.5148     82.9648
   392.8000      8.0915      2.4854      0.0275      9.9760     17.7459     80.6907
   392.9000      8.0915      2.4862      0.0298      9.9277     18.1874     79.6469
   393.0000      8.1071      2.4872      0.0302      9.8680     18.8195     82.1101
   393.1000      8.1071      2.4958      0.0656      9.3463     19.2969     85.9100
   393.2000      8.1071      2.5043      0.1050      8.8290     19.4399     87.3095
   393.3000      8.1136      2.5024      0.0565      8.9449     19.5797     87.6731
   393.4000      8.1136      2.4935      0.0411      9.4833     19.9728     90.1630
   393.5000      8.1062      2.4909      0.0214      9.6453     20.3409     94.7977
