~Version Information
VERS.                      2.0: CWLS Log ASCII Standard - VERSION 2.0
WRAP.                       NO: One line per depth step
~Well Information Block
STRT.FT               240.0000: 
STOP.FT              1452.5000: 
STEP.FT                 0.1000: 
NULL.                -999.2500: 
COMP.          Petrogulf Corporation: COMPANY
WELL.          Robinson 15-12R: WELL
FLD.           Purgatorie River: FIELD
LOC.           1752' FNL & 561' FWL: LOCATION
PROV.                 Colorado: PROVINCE
CNTY.               Las Animas: COUNTRY
SRVC.                Patterson: SERVICE COMPANY
DATE.          Tue Sep 13 15:07:52 2005: LOG DATE
UWI.                          : UNIQUE WELL ID
~Curve Information Block
DEPT.FT            0 000 00 00: Depth
DCAL.in                       : CDL Caliper
RHOB.g/cc                     : CDL Bulk Density
RHOC.g/cc                     : CDL Density Correction
DPOR.pu                       : CDL Density Porosity
GR.GAPI                       : Gamma Ray
NPOR.pu                       : Neutron Porosity
~Parameter Information Block
~A  Depth       DCAL        RHOB        RHOC        DPOR         GR         NPOR    
   240.0000      8.1426      2.2247     -0.4413     25.7788     76.7912     41.7973
   240.1000      8.1426      2.1881     -0.5171     27.9920     79.4182     41.8556
   240.2000      8.1426      2.1612     -0.6038     29.6237     82.9241     41.7946
   240.3000      8.1427      2.1768     -0.5109     28.6812     85.5897     41.6707
   240.4000      8.1427      2.2096     -0.5037     26.6919     88.2626     41.6640
   240.5000      8.1406      2.2320     -0.4853     25.3326     91.8718     41.9500
   240.6000      8.1406      2.2382     -0.4770     24.9560     94.1308     42.4038
   240.7000      8.1406      2.2328     -0.4929     25.2848     94.7645     42.8022
   240.8000      8.1399      2.2311     -0.5532     25.3895     96.3458     43.0796
   240.9000      8.1399      2.2404     -0.5241     24.8214     97.8397     43.1991
   241.0000      8.1377      2.2458     -0.5162     24.4990     97.2176     43.0672
   241.1000      8.1377      2.2331     -0.4839     25.2643     95.3879     42.7575
   241.2000      8.1377      2.2100     -0.5252     26.6659     93.4435     42.4382
   241.3000      8.1429      2.1931     -0.5424     27.6904     92.3112     42.2509
   241.4000      8.1429      2.1842     -0.5551     28.2281     92.6292     42.4402
   241.5000      8.1393      2.1717     -0.5100     28.9869     93.2074     42.9475
   241.6000      8.1393      2.1592     -0.6384     29.7462     93.6748     43.2345
   241.7000      8.1393      2.1574     -0.5240     29.8531     93.8980     43.1231
   241.8000      8.1368      2.1516     -0.5314     30.2072     91.5205     42.9997
   241.9000      8.1368      2.1342     -0.5733     31.2593     86.4806     43.0290
   242.0000      8.1376      2.1299     -0.6364     31.5185     82.5759     43.0013
   242.1000      8.1376      2.1543     -0.5529     30.0415     82.4698     42.8041
   242.2000      8.1376      2.1929     -0.5409     27.7042     84.7104     42.4892
   242.3000      8.1383      2.2324     -0.5282     25.3075     86.5624     42.1711
   242.4000      8.1383      2.2660     -0.4568     23.2742     86.8634     41.9666
   242.5000      8.1419      2.2841     -0.4873     22.1762     86.0264     41.8535
   242.6000      8.1419      2.2900     -0.5274     21.8163     83.6481     41.6508
   242.7000      8.1419      2.2914     -0.4607     21.7346     79.8093     41.2882
   242.8000      8.1390      2.2877     -0.4768     21.9553     77.1460     40.9167
   242.9000      8.1390      2.2766     -0.4423     22.6305     77.0173     40.7124
   243.0000      8.1426      2.2606     -0.5690     23.5977     78.6481     40.7053
   243.1000      8.1426      2.2526     -0.5178     24.0863     79.2891     40.8586
   243.2000      8.1426      2.2564     -0.5233     23.8559     77.9557     41.0301
   243.3000      8.1368      2.2592     -0.4579     23.6833     77.4443     41.1611
   243.4000      8.1368      2.2512     -0.5238     24.1725     79.1256     41.4728
   243.5000      8.1407      2.2417     -0.5460     24.7459     81.9561     41.9775
   243.6000      8.1407      2.2390     -0.5244     24.9103     84.5378     42.3481
   243.7000      8.1407      2.2352     -0.5144     25.1412     85.4473     42.3277
   243.8000      8.1397      2.2200     -0.4698     26.0609     85.5797     42.0431
   243.9000      8.1397      2.1922     -0.5323     27.7465     87.3985     41.7721
   244.0000      8.1417      2.1652     -0.5262     29.3818     88.9110     41.6065
   244.1000      8.1417      2.1479     -0.5390     30.4314     86.9526     41.6077
   244.2000      8.1417      2.1327     -0.5646     31.3493     84.2780     41.7544
   244.3000      8.1369      2.1211     -0.5994     32.0521     84.5345     41.9140
   244.4000      8.1369      2.1232     -0.5754     31.9264     86.1595     42.1332
   244.5000      8.1428      2.1262     -0.5342     31.7467     88.1796     42.4803
   244.6000      8.1428      2.1133     -0.5476     32.5263     91.5204     42.7426
   244.7000      8.1428      2.0943     -0.5533     33.6804     93.7925     42.7356
   244.8000      8.1397      2.0866     -0.5539     34.1428     93.7475     42.5741
   244.9000      8.1397      2.0940     -0.5227     33.6985     93.5304     42.5046
   245.0000      8.1406      2.1075     -0.5000     32.8776     92.5451     42.5963
   245.1000      8.1406      2.1255     -0.5263     31.7886     91.0031     42.6876
   245.2000      8.1406      2.1501     -0.4648     30.2965     91.5981     42.7128
   245.3000      8.1432      2.1722     -0.4815     28.9573     94.2930     42.7796
   245.4000      8.1432      2.1940     -0.5211     27.6357     96.6420     42.9190
   245.5000      8.1389      2.2210     -0.4627     25.9980     97.3506     43.0003
   245.6000      8.1389      2.2314     -0.3704     25.3694     97.4088     42.9226
   245.7000      8.1389      2.2136     -0.4907     26.4495     97.3280     42.7891
   245.8000      8.1414      2.1952     -0.4881     27.5652     95.8876     42.7033
   245.9000      8.1414      2.1876     -0.4803     28.0271     93.3206     42.6201
   246.0000      8.1423      2.1787     -0.5187     28.5631     90.9525     42.4368
   246.1000      8.1423      2.1738     -0.5161     28.8628     89.7640     42.1525
   246.2000      8.1423      2.1785     -0.5594     28.5747     89.9200     42.0940
   246.3000      8.1383      2.1799     -0.4593     28.4893     90.6564     42.5063
   246.4000      8.1383      2.1657     -0.5136     29.3544     90.8141     42.9712
   246.5000      8.1377      2.1429     -0.5649     30.7330     90.0894     43.0190
   246.6000      8.1377      2.1264     -0.5655     31.7331     90.1625     42.7898
   246.7000      8.1377      2.1221     -0.5838     31.9911     91.2386     42.4853
   246.8000      8.1379      2.1297     -0.5657     31.5329     91.1908     42.1594
   246.9000      8.1379      2.1434     -0.4855     30.7024     89.8658     42.0099
   247.0000      8.1392      2.1536     -0.5552     30.0855     88.4078     42.0869
   247.1000      8.1392      2.1510     -0.4818     30.2399     87.4554     42.1389
   247.2000      8.1392      2.1371     -0.5433     31.0846     88.5090     42.0566
   247.3000      8.1411      2.1313     -0.5463     31.4390     92.1332     42.0147
   247.4000      8.1411      2.1411     -0.5183     30.8402     95.6551     42.0489
   247.5000      8.1395      2.1521     -0.5029     30.1776     97.5731     42.0230
   247.6000      8.1395      2.1498     -0.4592     30.3162     99.7254     41.9947
   247.7000      8.1395      2.1291     -0.4873     31.5711    103.0699     42.1335
   247.8000      8.1406      2.1020     -0.5826     33.2113    106.2121     42.3248
   247.9000      8.1406      2.0952     -0.5876     33.6214    105.9587     42.2587
   248.0000      8.1433      2.1235     -0.5774     31.9087    101.7716     41.9068
   248.1000      8.1433      2.1770     -0.5375     28.6663     97.5166     41.6511
   248.2000      8.1433      2.2316     -0.4447     25.3561     94.9292     41.7283
   248.3000      8.1395      2.2722     -0.5043     22.8994     92.5974     41.9250
   248.4000      8.1395      2.3040     -0.4710     20.9702     89.7148     42.0406
   248.5000      8.1383      2.3333     -0.4689     19.1932     86.2858     42.0629
   248.6000      8.1383      2.3513     -0.4466     18.1049     83.3160     41.9670
   248.7000      8.1383      2.3479     -0.5225     18.3117     82.1067     41.8188
   248.8000      8.1414      2.3279     -0.5119     19.5199     82.7849     41.7177
   248.9000      8.1414      2.2966     -0.5093     21.4183     84.8730     41.6750
   249.0000      8.1428      2.2529     -0.5210     24.0676     87.2020     41.6434
   249.1000      8.1428      2.2111     -0.5667     26.5986     87.8998     41.5480
   249.2000      8.1428      2.1893     -0.5177     27.9191     87.8076     41.4301
   249.3000      8.1435      2.1899     -0.5773     27.8847     88.9156     41.4077
   249.4000      8.1435      2.2175     -0.5422     26.2146     91.0253     41.4067
   249.5000      8.1461      2.2641     -0.4577     23.3884     91.6887     41.2148
