~Version Information
 VERS.                                  2.0 : CWLS LAS VERSION
 WRAP.                                   NO : WRAPING MODE
 SWARE .                 MController 2.5.0J : SOFTWARE VERSION
~Well Information
 WELL.                         Culver 14-12 : WELL
 COMP.    Pioneer Natural Resources USA Inc : COMPANY
 FLD.                      Purgatoire River : FIELD
 LOC.                SW/SW Sec 12 T32S R66W : LOCATION
 DATE.                              6/06/05 : DATE(S) LOGGED
 SRVC.       Blanco Geological Services LLC : SERVICE COMPANY
 STAT.                                   CO : STATE
 CNTY.                           Las Animas : COUNTY
 CTRY.                                  USA : COUNTRY
 API.                       05 071 08386 00 : API NUMBER
 STRT.FT                             442.00 : START DEPTH
 STOP.FT                            2305.00 : STOP DEPTH
 STEP.FT                               1.00 : DEPTH INCREMENT
 NULL.                                -9999 : NULL VALUE
~Curve information
 DEPTH.FT                                   :
 ROP.MIN/FT                                 :
 GAS.UNITS                                  :
~ASCII Log data
# ...
       842.0         0.23          8.6 
       843.0         0.27          6.2 
       844.0         0.23          4.4 
       845.0         0.20          3.3 
       846.0         0.20          2.9 
       847.0         0.20          2.9 
       848.0         0.17          3.1 
       849.0         0.17          3.9 
       850.0         0.17          3.7 
       851.0         0.13          4.1 
       852.0         0.13          5.0 
       853.0         0.13          5.1 
       854.0         0.20          5.9 
       855.0         0.10          5.5 
       856.0         0.13          5.6 
       857.0         0.17          6.3 
       858.0         0.18          7.2 
       859.0         0.13          7.1 
       860.0         0.13          6.7 
       861.0         0.27          7.1 
       862.0         0.20          7.1 
       863.0         0.17          6.3 
       864.0         0.17          5.2 
       865.0         0.20          4.8 
       866.0         2.45         96.5 
       867.0         0.40         42.3 
       868.0         0.27         24.4 
       869.0         0.27         18.0 
       870.0         0.17         14.8 
       871.0         0.13         11.6 
       872.0         0.27          9.8 
       873.0         0.13          7.2 
       874.0         0.13          6.1 
       875.0         0.13          5.6 
       876.0         0.13          5.7 
       877.0         0.13          5.6 
       878.0         0.10          5.3 
       879.0         0.13          5.3 
       880.0         0.13          4.9 
       881.0         0.17          4.6 
       882.0         0.22          4.6 
       883.0         0.23          4.1 
       884.0         0.27          4.1 
       885.0         0.17          4.2 
       886.0         0.17          4.0 
       887.0         0.17          3.9 
       888.0         0.20          4.5 
       889.0         0.13          4.9 
       890.0         0.17          4.5 
       891.0         0.13          4.5 
       892.0         0.13          4.6 
       893.0         0.10          4.4 
       894.0         0.07          5.3 
       895.0         0.20          9.4 
       896.0         1.72         67.4 
       897.0         0.37         47.9 
       898.0         0.33         29.4 
       899.0         0.27         18.8 
       900.0         0.23         12.9 
       901.0         0.20         10.3 
       902.0         0.23          8.1 
       903.0         0.30          6.4 
       904.0         0.20          4.8 
       905.0         0.23          4.3 
       906.0         0.17          4.2 
       907.0         0.22          4.3 
       908.0         0.20          4.1 
       909.0         0.20          3.7 
       910.0         0.17          3.4 
       911.0         0.17          3.5 
       912.0         0.23          3.8 
       913.0         0.17          4.1 
       914.0         0.20          3.9 
       915.0         0.17          3.6 
       916.0         0.17          4.1 
       917.0         0.20          4.6 
       918.0         0.20          4.8 
       919.0         0.17          5.3 
       920.0         0.13          5.4 
       921.0         0.13          5.3 
       922.0         0.13          5.5 
       923.0         0.17          4.7 
       924.0         0.17          4.5 
       925.0         0.17          4.3 
       926.0         2.38         89.2 
       927.0         0.30         51.8 
       928.0         0.27         32.1 
       929.0         0.30         20.5 
       930.0         0.23         13.2 
       931.0         0.22         10.0 
       932.0         0.23          7.8 
       933.0         0.23          5.8 
       934.0         0.20          4.6 
       935.0         0.23          4.2 
       936.0         0.23          3.9 
       937.0         0.20          4.4 
       938.0         0.10          4.1 
       939.0         0.13          4.2 
       940.0         0.13          4.1 
       941.0         0.17          4.2 
       942.0         0.20          4.1 
       943.0         0.13          3.8 
       944.0         0.17          3.8 
       945.0         0.17          4.1 
       946.0         0.13          4.2 
       947.0         0.17          5.0 
       948.0         0.13          4.7 
       949.0         0.13          4.4 
       950.0         0.15          4.7 
       951.0         0.17          4.7 
       952.0         0.17          4.6 
       953.0         0.20          3.9 
       954.0         0.20          3.9 
       955.0         0.20          4.1 
       956.0         2.38         64.1 
       957.0         0.23         34.3 
       958.0         0.30         24.0 
       959.0         0.23         15.8 
       960.0         0.17         11.4 
       961.0         0.17          9.7 
       962.0         0.20          8.4 
       963.0         0.17          6.8 
       964.0         0.23          6.2 
       965.0         0.20          4.7 
       966.0         0.20          4.3 
       967.0         0.20          4.2 
       968.0         0.20          4.3 
       969.0         0.17          4.9 
       970.0         0.17          6.1 
       971.0         0.17          8.3 
       972.0         0.23         10.9 
       973.0         0.18         12.4 
       974.0         0.20         13.1 
       975.0         0.17         13.3 
       976.0         0.17         13.6 
       977.0         0.17         13.8 
       978.0         0.17         13.8 
       979.0         0.20         12.3 
       980.0         0.13         11.1 
       981.0         0.20         10.3 
       982.0         0.17          9.2 
       983.0         0.20          8.0 
       984.0         0.17          7.5 
       985.0         0.17          6.3 
       986.0         2.95        102.9 
       987.0         0.33         40.4 
       988.0         0.30         22.6 
       989.0         0.27         14.3 
       990.0         0.20         10.2 
       991.0         0.23          8.2 
       992.0         0.25          6.4 
       993.0         0.20          5.0 
       994.0         0.23          4.3 
       995.0         0.23          3.9 
       996.0         0.20          4.1 
       997.0         0.20          4.2 
       998.0         0.17          4.0 
       999.0         0.10          4.3 
      1000.0         0.10          4.1 
      1001.0         0.13          4.4 
      1002.0         0.13          4.8 
      1003.0         0.27          5.3 
      1004.0         0.20          5.3 
      1005.0         0.23          4.8 
      1006.0         0.20          4.8 
      1007.0         0.13          5.3 
      1008.0         0.17          5.5 
      1009.0         0.13          5.6 
      1010.0         0.13          5.4 
      1011.0         0.18          4.9 
      1012.0         0.17          4.5 
      1013.0         0.23          4.3 
      1014.0         0.17          4.3 
      1015.0         0.20          4.0 
      1016.0         2.30         19.9 
      1017.0         0.28         12.6 
      1018.0         0.40          9.4 
      1019.0         0.23          7.1 
      1020.0         0.20          6.7 
      1021.0         0.23          6.0 
      1022.0         0.23          5.3 
      1023.0         0.23          5.1 
      1024.0         0.23          5.3 
      1025.0         0.20          5.3 
      1026.0         0.10          5.2 
      1027.0         0.10          5.4 
      1028.0         0.10          5.3 
      1029.0         0.13          5.5 
      1030.0         0.10          5.7 
      1031.0         0.13          5.6 
      1032.0         0.17          5.6 
      1033.0         0.20          5.1 
      1034.0         0.25          4.8 
      1035.0         0.20          4.4 
      1036.0         0.23          4.1 
      1037.0         0.17          3.9 
      1038.0         0.13          3.7 
      1039.0         0.13          3.9 
      1040.0         0.13          3.8 
      1041.0         0.10          3.8 
