~Version Information
VERS.                      2.0: CWLS Log ASCII Standard - VERSION 2.0
WRAP.                       NO: One line per depth step
~Well Information Block
STRT.FT               260.0000: 
STOP.FT              2272.0000: 
STEP.FT                 0.2500: 
NULL.                -999.2500: 
COMP.          Pioneer Natural Resources: COMPANY
WELL.            Moo Moo 31-36: WELL
FLD.           Purgatoire River: FIELD
LOC.           612' FNL & 2326' FEL: LOCATION
PROV.                 Colorado: PROVINCE
CNTY.               Las Animas: COUNTRY
SRVC.                Patterson: SERVICE COMPANY
DATE.          Fri Jun 17 07:45:39 2005: LOG DATE
UWI.           05 071 08395 00: UNIQUE WELL ID
~Curve Information Block
DEPT.FT            0 000 00 00: Depth
DIR.Ohm-m                     : IEL Induction Resistivity
SN.Ohm-m                      : IEL Short Normal
SP.mV                         : IEL Spontaneous Potential
GR.GAPI                       : Gamma Ray
~Parameter Information Block
~A  Depth       DIR          SN          SP          GR     
# ...
  1834.5000     10.6761     11.7717    230.6069    145.8875
  1834.7500     10.8418     11.8475    231.4121    146.4384
  1835.0000     11.0437     11.7699    231.9557    147.8560
  1835.2500     11.2746     11.6398    232.2734    149.2004
  1835.5000     11.5235     11.5911    232.5172    151.5183
  1835.7500     11.7773     11.6718    232.8309    152.9062
  1836.0000     12.0224     11.8471    233.2783    153.6913
  1836.2500     12.2473     12.0831    233.8461    152.6055
  1836.5000     12.4461     12.3560    234.4759    148.1186
  1836.7500     12.6217     12.6025    235.0856    143.9631
  1837.0000     12.7865     12.7422    235.5845    138.4692
  1837.2500     12.9592     12.7620    235.9020    136.4149
  1837.5000     13.1579     12.7543    236.0257    135.7039
  1837.7500     13.3948     12.8351    236.0178    135.9969
  1838.0000     13.6706     13.0277    235.9840    136.7108
  1838.2500     13.9702     13.2948    236.0050    137.6604
  1838.5000     14.2608     13.6046    236.0831    140.8126
  1838.7500     14.4960     13.8921    236.1522    144.2229
  1839.0000     14.6288     14.1040    236.1256    150.6688
  1839.2500     14.6276     14.2998    235.9237    155.4222
  1839.5000     14.4857     14.5979    235.4807    162.6321
  1839.7500     14.2195     15.0540    234.7727    166.7930
  1840.0000     13.8662     15.6268    233.8598    170.0468
  1840.2500     13.4845     16.2077    232.8920    169.2053
  1840.5000     13.1541     16.6610    232.0537    163.3382
  1840.7500     12.9643     16.8796    231.4825    157.4499
  1841.0000     12.9989     16.8591    231.2183    148.7164
  1841.2500     13.3324     16.7047    231.2071    144.7702
  1841.5000     14.0457     16.5475    231.3444    143.6149
  1841.7500     15.2717     16.4606    231.5354    146.1259
  1842.0000     17.2895     16.4368    231.7347    153.2584
  1842.2500     20.7381     16.4463    231.9343    158.6522
  1842.5000     27.2493     16.4804    232.1071    164.8237
  1842.7500     42.1976     16.5099    232.1691    166.6884
  1843.0000     99.2029     16.4750    232.0084    166.5332
  1843.2500 100000.0000     16.3428    231.5574    165.5858
  1843.5000 100000.0000     16.1419    230.8344    164.8320
  1843.7500 100000.0000     15.9306    229.9125    165.3628
  1844.0000 100000.0000     15.7590    228.8410    167.6261
  1844.2500 100000.0000     15.6731    227.5780    169.5669
  1844.5000 100000.0000     15.6866    225.9789    171.9160
  1844.7500 100000.0000     15.7618    223.8549    172.6498
  1845.0000 100000.0000     15.8742    221.0840    172.3923
  1845.2500 100000.0000     16.0576    217.7054    171.3786
  1845.5000 100000.0000     16.3415    213.9191    168.5146
  1845.7500 100000.0000     16.6389    209.9643    165.7150
  1846.0000 100000.0000     16.7660    205.9400    160.8848
  1846.2500 100000.0000     16.6279    201.6752    158.0972
  1846.5000 100000.0000     16.3461    196.7232    156.1125
  1846.7500 100000.0000     16.1657    190.4802    156.7169
  1847.0000 100000.0000     16.2746    182.3533    160.0255
  1847.2500 100000.0000     16.7604    171.9001    162.9270
  1847.5000     18.8010     17.6337    158.9335    166.4823
  1847.7500      6.4424     18.7881    143.6262    167.4349
  1848.0000      3.2372     19.9815    126.5588    165.6870
  1848.2500      1.9201     20.8892    108.6044    162.0102
  1848.5000      1.2520     21.2449     90.7062    152.5729
  1848.7500      0.8648     20.9974     73.7840    144.1709
  1849.0000      0.6191     20.2664     58.8847    130.6220
  1849.2500      0.4544     19.1238     47.3761    122.6208
  1849.5000      0.3414     17.5360     40.8561    114.1326
  1849.7500      0.2634     15.4788     40.6510    111.1421
  1850.0000      0.2093     12.9591     47.1335    110.5997
  1850.2500      0.1705     10.1179     59.3125    112.7562
  1850.5000      0.1405      7.4103     75.0328    118.5239
  1850.7500      0.1157      5.3644     91.7263    122.2367
  1851.0000      0.0951      4.1496    107.2898    123.8015
  1851.2500      0.0789      3.5812    120.6232    121.0143
  1851.5000      0.0677      3.4154    131.6157    112.2766
  1851.7500      0.0614      3.4750    140.7080    105.2190
  1852.0000      0.0601      3.6288    148.3722     95.3700
  1852.2500      0.0640      3.8026    154.8176     89.8853
  1852.5000      0.0745      4.0425    160.0226     83.2846
  1852.7500      0.0943      4.6229    163.9554     80.0257
  1853.0000      0.1276      6.1301    166.7562     77.5602
  1853.2500      0.1799      9.4151    168.7420     77.9817
  1853.5000      0.2577     15.2290    170.2685     81.5369
  1853.7500      0.3691     23.4244    171.5975     85.0732
  1854.0000      0.5270     32.6307    172.8736     90.5352
  1854.2500      0.7541     41.2364    174.1736     93.7881
  1854.5000      1.0853     48.5608    175.5369     98.1779
  1854.7500      1.5552     54.9301    176.9594    101.0382
  1855.0000      2.1436     60.9553    178.4002    105.3461
  1855.2500      2.7029     66.8946    179.8125    107.9742
  1855.5000      3.0659     72.5541    181.1601    110.7521
  1855.7500      3.3329     77.5366    182.4023    111.4096
  1856.0000      3.9102     81.4490    183.4743    110.5243
  1856.2500      5.7893     84.0217    184.3063    109.0832
  1856.5000     17.1264     85.1706    184.8690    106.5965
  1856.7500 100000.0000     84.9436    185.2011    105.1089
  1857.0000 100000.0000     83.4191    185.4015    103.3444
  1857.2500 100000.0000     80.6248    185.6052    102.4740
  1857.5000 100000.0000     76.5331    185.9535    101.5920
  1857.7500 100000.0000     71.1152    186.5748    101.2413
  1858.0000 100000.0000     64.4510    187.6124    100.7781
  1858.2500 100000.0000     56.8277    189.2720    100.1730
  1858.5000      2.5230     48.5458    191.7879     98.1683
  1858.7500      0.8726     39.7102    195.2707     95.9043
  1859.0000      0.4220     30.4941    199.5610     91.5299
  1859.2500      0.2358     21.5305    204.2350     88.8267
  1859.5000      0.1514     13.8931    208.7731     87.5741
  1859.7500      0.1145      8.5589    212.7759     90.1088
  1860.0000      0.1000      5.6985    216.0866     99.9625
  1860.2500      0.0964      4.5861    218.7512    109.6291
  1860.5000      0.0991      4.3180    220.8824    125.1250
  1860.7500      0.1083      4.4767    222.5666    133.8414
  1861.0000      0.1280      5.1596    223.8759    142.0750
  1861.2500      0.1647      6.5928    224.9156    143.9617
  1861.5000      0.2264      8.7174    225.8214    141.8283
  1861.7500      0.3206     11.1380    226.7183    137.6881
  1862.0000      0.4572     13.4614    227.6931    128.8904
  1862.2500      0.6588     15.4973    228.7857    122.4623
  1862.5000      0.9899     17.1630    229.9802    114.4708
  1862.7500      1.6396     18.3840    231.2096    111.8210
  1863.0000      3.3012     19.1037    232.3922    113.4915
  1863.2500     11.0377     19.3160    233.4677    117.8966
  1863.5000 100000.0000     19.0849    234.4001    126.5119
  1863.7500 100000.0000     18.5806    235.1597    131.8303
  1864.0000 100000.0000     18.0385    235.7119    137.8949
  1864.2500 100000.0000     17.6013    236.0220    140.9883
  1864.5000 100000.0000     17.2788    236.0703    145.3810
  1864.7500 100000.0000     17.0877    235.8750    148.4347
  1865.0000 100000.0000     17.0642    235.5051    152.4568
  1865.2500 100000.0000     17.1295    235.0614    154.0060
  1865.5000 100000.0000     17.1274    234.6195    153.9240
  1865.7500 100000.0000     17.0216    234.1748    152.4279
  1866.0000 100000.0000     16.9382    233.6613    148.9220
  1866.2500 100000.0000     16.9708    233.0620    146.3319
  1866.5000 100000.0000     17.0632    232.5052    142.5236
  1866.7500 100000.0000     17.1080    232.2174    139.6409
  1867.0000 100000.0000     17.0375    232.3559    133.2492
  1867.2500 100000.0000     16.8217    232.8656    126.9894
  1867.5000 100000.0000     16.4417    233.4744    115.4934
  1867.7500 100000.0000     15.8860    233.8295    108.0699
