~Version Information
 VERS.                                  2.0 : CWLS LAS VERSION
 WRAP.                                   NO : WRAPING MODE
 SWARE .                 MController 2.5.0J : SOFTWARE VERSION
~Well Information
 WELL.                   Flying Horse 12-11 : WELL
 COMP.    Pioneer Natural Resources USA Inc : COMPANY
 FLD.                      Purgatoire River : FIELD
 LOC.                SW/NW Sec 11 T32S R66W : LOCATION
 DATE.                           5/28-29/05 : DATE(S) LOGGED
 SRVC.       Blanco Geological Services LLC : SERVICE COMPANY
 STAT.                                   CO : STATE
 CNTY.                           Las Animas : COUNTY
 CTRY.                                  USA : COUNTRY
 API.                       05-071-08378-00 : API NUMBER
 STRT.FT                            1495.00 : START DEPTH
 STOP.FT                            2425.00 : STOP DEPTH
 STEP.FT                               1.00 : DEPTH INCREMENT
 NULL.                                -9999 : NULL VALUE
~Curve information
 DEPTH.FT                                   :
 ROP.MIN/FT                                 :
 GAS.UNITS                                  :
~ASCII Log data
# ...
      2295.0         0.30        772.4 
      2296.0         0.30        753.5 
      2297.0         0.37        732.6 
      2298.0         0.27        716.4 
      2299.0         0.35        703.3 
      2300.0         0.30        693.2 
      2301.0         0.23        686.1 
      2302.0         0.27        677.0 
      2303.0         0.23        661.2 
      2304.0         0.23        650.7 
      2305.0         0.37        644.0 
      2306.0         2.35        583.0 
      2307.0         0.43       1296.6 
      2308.0         0.33       1645.3 
      2309.0         0.30       1792.9 
      2310.0         0.27       1796.3 
      2311.0         0.30       1732.6 
      2312.0         0.27       1562.4 
      2313.0         0.23       1394.3 
      2314.0         0.30       1270.3 
      2315.0         0.28       1141.6 
      2316.0         0.23       1052.7 
      2317.0         0.23        988.3 
      2318.0         0.17        935.1 
      2319.0         0.17        902.4 
      2320.0         0.13        861.7 
      2321.0         0.23        812.8 
      2322.0         0.13        740.0 
      2323.0         0.23        737.0 
      2324.0         0.30        767.0 
      2325.0         0.30        780.8 
      2326.0         0.33        782.1 
      2327.0         0.30        777.1 
      2328.0         0.32        766.3 
      2329.0         0.33        753.8 
      2330.0         0.37        740.7 
      2331.0         0.33        726.9 
      2332.0         0.20        715.4 
      2333.0         0.17        706.7 
      2334.0         0.20        691.8 
      2335.0         0.33        655.8 
      2336.0         3.42       1287.2 
      2337.0         0.53       1705.6 
      2338.0         0.40       1752.8 
      2339.0         0.35       1730.9 
      2340.0         0.30       1600.5 
      2341.0         0.30       1432.4 
      2342.0         0.27       1275.7 
      2343.0         0.27       1157.1 
      2344.0         0.30       1063.5 
      2345.0         0.27        978.6 
      2346.0         0.23        917.9 
      2347.0         0.30        842.8 
      2348.0         0.30        759.9 
      2349.0         0.27        767.0 
      2350.0         0.23        774.1 
      2351.0         0.28        774.1 
      2352.0         0.20        767.3 
      2353.0         0.37        758.6 
      2354.0         0.27        747.8 
      2355.0         0.27        740.7 
      2356.0         0.27        730.3 
      2357.0         0.17        716.8 
      2358.0         0.13        703.6 
      2359.0         0.17        683.4 
      2360.0         0.13        636.3 
      2361.0         0.27        586.4 
      2362.0         0.27        570.2 
      2363.0         0.23        627.2 
      2364.0         0.27        686.1 
      2365.0         0.42        709.4 
      2366.0         3.22       1526.4 
      2367.0         0.37       1957.0 
      2368.0         0.20       2157.1 
      2369.0         0.20       2278.0 
      2370.0         0.30       2293.2 
      2371.0         0.40       2189.4 
      2372.0         0.37       1833.6 
      2373.0         0.37       1556.7 
      2374.0         0.37       1328.3 
      2375.0         0.37       1157.5 
      2376.0         0.42       1032.1 
      2377.0         0.43        934.1 
      2378.0         0.47        895.0 
      2379.0         0.37        919.6 
      2380.0         0.33        921.3 
      2381.0         0.33        934.1 
      2382.0         0.37        948.6 
      2383.0         0.50        943.9 
      2384.0         0.28        880.5 
      2385.0         0.23        822.2 
      2386.0         0.30        757.9 
      2387.0         0.30        678.4 
      2388.0         0.37        578.6 
      2389.0         0.33        449.6 
      2390.0         0.43        166.2 
      2391.0         0.47        133.8 
      2392.0         0.47        121.3 
      2393.0         0.45        116.1 
      2394.0         0.37        113.5 
      2395.0         0.33        109.1 
      2396.0         7.87       1252.1 
      2397.0         0.50       1039.9 
      2398.0         0.42        670.3 
      2399.0         0.60        615.4 
      2400.0         0.50        777.1 
      2401.0         0.63        867.0 
      2402.0         0.40        864.3 
      2403.0         0.50        814.5 
      2404.0         0.58        716.8 
      2405.0         0.50        585.0 
      2406.0         0.50        482.3 
      2407.0         0.40        440.0 
      2408.0         0.37        159.4 
      2409.0         0.33        145.3 
      2410.0         0.33        136.7 
      2411.0         0.37        129.7 
      2412.0         0.45        124.4 
      2413.0         0.27        124.7 
      2414.0         0.33        132.7 
      2415.0         0.27        139.6 
      2416.0         0.23        147.0 
      2417.0         0.37        155.0 
      2418.0         0.53        155.3 
      2419.0         0.53        151.4 
      2420.0         0.43        172.5 
      2421.0         0.55        186.4 
      2422.0         0.67        185.0 
      2423.0         0.77        150.0 
      2424.0         0.90        128.5 
      2425.0         1.38        103.8 
