~Version Information
VERS.                      2.0: CWLS Log ASCII Standard - VERSION 2.0
WRAP.                       NO: One line per depth step
~Well Information Block
STRT.FT                -4.2500: 
STOP.FT              2018.7500: 
STEP.FT                 0.2500: 
NULL.                -999.2500: 
COMP.          Petrogulf Corporation: COMPANY
WELL.             State 16-21R: WELL
FLD.           Purgatoire River: FIELD
LOC.           203' FNL & 1560' FWL----: LOCATION
PROV.                 Colorado: PROVINCE
CNTY.               Las Animas: COUNTRY
SRVC.                         : SERVICE COMPANY
DATE.          Thu Sep 29 11:32:19 2005: LOG DATE
API.           05-071-08313 : API Number
~Curve Information Block
DEPT.FT            0 000 00 00: Depth
GR.GAPI                       : Gamma Ray
CCL.                          : Casing Collar Locator
AMP3.mV                       : CBL 3' Amplitude
AMP5.mV                       : CBL 5' Amplitude
~Parameter Information Block
~A  Depth        GR         CCL         AMP3        AMP5    
# ...
   531.7500    103.3032      0.0000      3.3252      0.2488
   532.0000    100.7375      0.0000      3.2981      0.2348
   532.2500     97.0804      0.0000      3.2710      0.2075
   532.5000     93.4812      0.0000      3.2451      0.1780
   532.7500     90.9580      0.0000      3.2175      0.1608
   533.0000     89.9714      0.0000      3.1880      0.1649
   533.2500     90.6251      0.0000      3.1633      0.1883
   533.5000     92.7724      0.0000      3.1534      0.2203
   533.7500     95.7190      0.0000      3.1649      0.2484
   534.0000     98.3031      0.0000      3.1940      0.2659
   534.2500     99.7639      0.0000      3.2282      0.2750
   534.5000    100.3992      0.0000      3.2574      0.2832
   534.7500    100.9674      0.0000      3.2834      0.2918
   535.0000    101.5488      0.0000      3.3143      0.2922
   535.2500    101.4227      0.0000      3.3474      0.2757
   535.5000    100.1468      0.0000      3.3613      0.2451
   535.7500     98.4066      0.0000      3.3308      0.2155
   536.0000     97.3964      0.0000      3.2496      0.2041
   536.2500     97.4083      0.0000      3.1408      0.2174
   536.5000     97.6389      0.0000      3.0464      0.2466
   536.7500     97.4922      0.0000      3.0055      0.2735
   537.0000     97.3911      0.0000      3.0311      0.2846
   537.2500     98.1480      0.0000      3.1002      0.2822
   537.5000    100.0860      0.0000      3.1719      0.2791
   537.7500    102.8410      0.0000      3.2255      0.2844
   538.0000    105.6898      0.0000      3.2770      0.2977
   538.2500    108.1999      0.0000      3.3551      0.3146
   538.5000    110.6877      0.0000      3.4641      0.3341
   538.7500    113.7210      0.0000      3.5770      0.3587
   539.0000    117.0908      0.0000      3.6615      0.3891
   539.2500    119.5841      0.0000      3.7128      0.4193
   539.5000    119.9733      0.0000      3.7600      0.4387
   539.7500    118.2448      0.0000      3.8376      0.4422
   540.0000    115.7036      0.0000      3.9502      0.4364
   540.2500    113.6186      0.0000      4.0709      0.4346
   540.5000    111.9639      0.0000      4.1738      0.4464
   540.7500    110.0664      0.0000      4.2605      0.4714
   541.0000    108.2594      0.0000      4.3538      0.5003
   541.2500    107.9133      0.0000      4.4709      0.5200
   541.5000    109.7309      0.0000      4.6054      0.5234
   541.7500    112.7572      0.0000      4.7322      0.5172
   542.0000    115.1858      0.0000      4.8313      0.5190
   542.2500    115.7803      0.0000      4.9049      0.5430
   542.5000    114.6035      0.0000      4.9720      0.5886
   542.7500    112.6572      0.0000      5.0475      0.6405
   543.0000    110.8276      0.0000      5.1259      0.6782
   543.2500    109.2200      0.0000      5.1817      0.6867
   543.5000    107.5413      0.0000      5.1869      0.6651
   543.7500    105.7429      0.0000      5.1363      0.6283
   544.0000    103.8522      0.0000      5.0548      0.5975
   544.2500    101.4940      0.0000      4.9772      0.5850
   544.5000     98.3342      0.0000      4.9197      0.5884
   544.7500     94.9538      0.0000      4.8759      0.5992
   545.0000     92.5084      0.0000      4.8348      0.6138
   545.2500     91.3102      0.0000      4.7950      0.6311
   545.5000     90.3880      0.0000      4.7650      0.6416
   545.7500     88.7061      0.0000      4.7598      0.6255
   546.0000     86.2849      0.0000      4.7967      0.5679
   546.2500     83.7850      0.0000      4.8826      0.4777
   546.5000     81.4415      0.0000      4.9927      0.3876
   546.7500     78.8709      0.0000      5.0579      0.3287
   547.0000     75.7569      0.0000      4.9933      0.3067
   547.2500     72.3395      0.0000      4.7676      0.3034
   547.5000     69.2232      0.0000      4.4479      0.2968
   547.7500     67.0686      0.0000      4.1506      0.2770
   548.0000     66.5619      0.0000      3.9433      0.2481
   548.2500     68.2452     -1.4389      3.8072      0.2221
   548.5000     71.9748     -1.3251      3.6862      0.2087
   548.7500     76.6248      0.0000      3.5508      0.2069
   549.0000     80.6430      0.0000      3.4157      0.2040
   549.2500     82.9251      0.0000      3.3086      0.1853
   549.5000     83.1270      0.0000      3.2315      0.1480
   549.7500     81.4705      0.0000      3.1516      0.1044
   550.0000     78.6547      0.0000      3.0309      0.0717
   550.2500     75.8245      0.0000      2.8589      0.0589
   550.5000     74.1318      0.0000      2.6552      0.0633
   550.7500     73.9729      0.0000      2.4449      0.0754
   551.0000     74.6579      0.0000      2.2378      0.0859
   551.2500     75.0343      0.0000      2.0300      0.0912
   551.5000     74.5518      0.0000      1.8244      0.0930
   551.7500     73.7913      0.0000      1.6417      0.0950
   552.0000     74.0446      0.0000      1.5070      0.0996
   552.2500     76.2623      0.0000      1.4279      0.1071
   552.5000     80.1413      0.0000      1.3907      0.1167
   552.7500     84.0697      0.0000      1.3718      0.1285
   553.0000     86.1653      0.0000      1.3495      0.1427
   553.2500     85.6505      0.0000      1.3138      0.1554
   553.5000     83.2040      0.0000      1.2741      0.1587
   553.7500     80.0341      0.0000      1.2550      0.1473
   554.0000     77.0139      0.0000      1.2768      0.1259
   554.2500     74.7846      0.0000      1.3413      0.1090
   554.5000     74.0327      0.0000      1.4347      0.1098
   554.7500     75.0134      0.0000      1.5453      0.1287
   555.0000     76.9348      0.0000      1.6730      0.1516
   555.2500     78.3283      0.0000      1.8206      0.1600
   555.5000     78.0706      0.0000      1.9790      0.1473
   555.7500     75.9916      0.0000      2.1283      0.1245
   556.0000     72.8447      0.0000      2.2531      0.1102
   556.2500     69.8594      0.0000      2.3549      0.1169
   556.5000     67.9774      0.0000      2.4500      0.1447
   556.7500     67.3073      0.0000      2.5583      0.1864
   557.0000     67.3933      0.0000      2.6921      0.2325
   557.2500     67.8101      0.0000      2.8459      0.2735
   557.5000     68.3243      0.0000      2.9957      0.3021
   557.7500     68.7625      0.0000      3.1104      0.3171
   558.0000     69.0311      0.0000      3.1709      0.3218
   558.2500     69.2420      0.0000      3.1808      0.3191
   558.5000     69.4860      0.0000      3.1615      0.3118
   558.7500     69.3859      0.0000      3.1406      0.3053
   559.0000     68.2850      0.0000      3.1394      0.3054
   559.2500     66.1189      0.0000      3.1662      0.3117
   559.5000     63.6773      0.0000      3.2181      0.3170
   559.7500     61.6826      0.0000      3.2862      0.3139
   560.0000     59.8550      0.0000      3.3553      0.3034
   560.2500     57.1698      0.0000      3.3996      0.2962
   560.5000     53.0304      0.0000      3.3940      0.3051
   560.7500     48.1419      0.0000      3.3369      0.3329
   561.0000     44.1809      0.0000      3.2616      0.3686
   561.2500     42.4968      0.0000      3.2219      0.3945
   561.5000     43.0480      0.0000      3.2591      0.4001
   561.7500     44.5834      0.0000      3.3674      0.3894
   562.0000     45.7958      0.0000      3.4848      0.3768
   562.2500     46.2911      0.0000      3.5317      0.3744
   562.5000     46.6261      0.0000      3.4717      0.3817
   562.7500     47.6536      0.0000      3.3374      0.3888
   563.0000     49.7803      0.0000      3.1980      0.3888
   563.2500     52.6949      0.0000      3.1061      0.3845
   563.5000     55.7984      0.0000      3.0725      0.3834
   563.7500     58.8961      0.0000      3.0820      0.3898
   564.0000     62.3712      0.0000      3.1229      0.4019
   564.2500     66.5662      0.0000      3.1993      0.4142
   564.5000     71.0172      0.0000      3.3155      0.4213
   564.7500     74.4470      0.0000      3.4561      0.4205
   565.0000     75.6582      0.0000      3.5858      0.4140
