~Version Information
VERS.                      2.0: CWLS Log ASCII Standard - VERSION 2.0
WRAP.                       NO: One line per depth step
~Well Information Block
STRT.FT               360.0000: 
STOP.FT              1622.7000: 
STEP.FT                 0.1000: 
NULL.                -999.2500: 
COMP.          Pioneer Natural Resources: COMPANY
WELL.                Eric 42-9: WELL
FLD.           Purgatoire River: FIELD
LOC.           2050' FNL & 850' FEL: LOCATION
PROV.                 Colorado: PROVINCE
CNTY.               Las Animas: COUNTRY
SRVC.                Patterson: SERVICE COMPANY
DATE.          Mon Nov 01 08:19:51 2004: LOG DATE
UWI.           05 071 07999 00: UNIQUE WELL ID
~Curve Information Block
DEPT.FT            0 000 00 00: Depth
DCAL.in                       : CDL Caliper
RHOB.g/cc                     : CDL Bulk Density
RHOC.g/cc                     : CDL Density Correction
DPOR.pu                       : CDL Density Porosity
NPOR.pu                       : Neutron Porosity
GR.GAPI                       : Gamma Ray
~Parameter Information Block
~A  Depth       DCAL        RHOB        RHOC        DPOR        NPOR         GR     
# ...
  1262.4000      8.1463      2.3289     -0.0277     19.4585     28.1155    134.2681
  1262.5000      8.1457      2.3061     -0.0171     20.8445     28.3672    138.1482
  1262.6000      8.1457      2.2927      0.0118     21.6568     28.8493    141.0582
  1262.7000      8.1457      2.2739      0.0339     22.7918     29.6121    143.0691
  1262.8000      8.1448      2.2163      0.0360     26.2853     30.9469    146.2312
  1262.9000      8.1448      2.1070     -0.0463     32.9062     32.1094    152.4120
  1263.0000      8.1433      1.9794     -0.1108     40.6446     32.4902    153.1089
  1263.1000      8.1433      1.8625     -0.1130     47.7287     32.7790    139.9431
  1263.2000      8.1433      1.7521     -0.1266     54.4165     33.3982    122.9292
  1263.3000      8.1414      1.6457     -0.1605     60.8694     34.0708    112.2051
  1263.4000      8.1414      1.5511     -0.1785     66.6000     34.4453    102.7515
  1263.5000      8.1401      1.4638     -0.1329     71.8880     34.2467     92.6723
  1263.6000      8.1401      1.3798     -0.1427     76.9808     33.9849     86.3002
  1263.7000      8.1401      1.3147     -0.1465     80.9288     34.1685     80.8023
  1263.8000      8.1370      1.2795     -0.0834     83.0623     34.3586     70.0424
  1263.9000      8.1370      1.2697     -0.0333     83.6521     34.2377     56.2769
  1264.0000      8.1296      1.2832      0.0057     82.8381     33.8901     46.3446
  1264.1000      8.1296      1.3191      0.0221     80.6597     33.5194     41.8420
  1264.2000      8.1296      1.3689      0.0787     77.6407     33.3642     39.6357
  1264.3000      8.1188      1.4248      0.0699     74.2546     33.2400     37.2547
  1264.4000      8.1188      1.4954      0.0842     69.9782     32.7441     34.5618
  1264.5000      8.1112      1.5892      0.1429     64.2896     32.0762     34.6890
  1264.6000      8.1112      1.6950      0.1641     57.8799     31.7512     41.7244
  1264.7000      8.1112      1.8008      0.1776     51.4658     31.6934     51.5748
  1264.8000      8.1163      1.9078      0.2273     44.9835     31.1943     55.6615
  1264.9000      8.1163      2.0141      0.2223     38.5407     30.2374     55.5517
  1265.0000      8.1362      2.1138      0.2317     32.4998     29.4523     58.0436
  1265.1000      8.1362      2.2049      0.2281     26.9750     28.8677     64.0348
  1265.2000      8.1362      2.2841      0.2233     22.1734     28.2743     73.3150
  1265.3000      8.1575      2.3435      0.2038     18.5748     27.9453     84.4436
  1265.4000      8.1575      2.3780      0.2074     16.4857     28.0333     91.4410
  1265.5000      8.1682      2.3902      0.1436     15.7449     28.2960     92.3494
  1265.6000      8.1682      2.3882      0.0935     15.8672     28.5078     94.2552
  1265.7000      8.1682      2.3776      0.0834     16.5083     28.6826    101.8222
  1265.8000      8.1714      2.3632      0.0064     17.3816     28.6893    111.6849
  1265.9000      8.1714      2.3537      0.0067     17.9573     28.2410    117.8012
  1266.0000      8.1741      2.3557     -0.0100     17.8355     27.5321    118.6137
  1266.1000      8.1741      2.3692      0.0103     17.0205     27.0725    119.5594
  1266.2000      8.1741      2.3879      0.0363     15.8827     27.0980    123.4140
  1266.3000      8.1766      2.4052      0.0733     14.8349     27.4395    129.6259
  1266.4000      8.1766      2.4171      0.0510     14.1139     27.7098    137.4622
  1266.5000      8.1742      2.4195      0.0784     13.9694     27.5004    142.7518
  1266.6000      8.1742      2.4122      0.0538     14.4093     26.8553    145.2310
  1266.7000      8.1742      2.4069      0.0454     14.7326     26.3923    149.3328
  1266.8000      8.1703      2.4166      0.0424     14.1461     26.8597    152.2026
  1266.9000      8.1703      2.4395      0.0684     12.7584     28.0795    148.9736
  1267.0000      8.1685      2.4578      0.0722     11.6498     28.9104    142.6018
  1267.1000      8.1685      2.4628      0.0741     11.3439     28.8664    138.6982
  1267.2000      8.1685      2.4636      0.0510     11.2993     28.6468    138.6842
  1267.3000      8.1685      2.4594      0.0866     11.5507     28.8732    137.9704
  1267.4000      8.1685      2.4392      0.0825     12.7734     29.2787    135.2857
  1267.5000      8.1673      2.4084      0.0265     14.6395     29.0413    133.3370
  1267.6000      8.1673      2.3875     -0.0102     15.9100     28.2566    129.7386
  1267.7000      8.1673      2.3889     -0.0091     15.8216     28.0527    122.7273
  1267.8000      8.1612      2.4067      0.0442     14.7478     28.6493    116.9937
  1267.9000      8.1612      2.4208      0.0471     13.8893     29.0088    116.8664
  1268.0000      8.1526      2.4186      0.0473     14.0257     28.5125    119.3946
  1268.1000      8.1526      2.4036      0.0106     14.9328     27.7071    121.3363
  1268.2000      8.1526      2.3790      0.0546     16.4216     27.3131    122.0354
  1268.3000      8.1477      2.3415      0.0217     18.6961     27.6239    121.5900
  1268.4000      8.1477      2.2980     -0.0208     21.3321     28.2952    124.7804
  1268.5000      8.1442      2.2602     -0.0206     23.6215     28.4412    132.2105
  1268.6000      8.1442      2.2308     -0.0118     25.4063     27.7423    136.8807
  1268.7000      8.1442      2.2078     -0.0499     26.7972     27.1502    136.1365
  1268.8000      8.1432      2.1894     -0.0267     27.9147     27.4744    130.1038
  1268.9000      8.1432      2.1722      0.0042     28.9580     28.2042    118.1682
  1269.0000      8.1483      2.1573     -0.0052     29.8583     28.6624    104.4445
  1269.1000      8.1483      2.1566     -0.0007     29.9046     29.0658     96.9767
  1269.2000      8.1483      2.1864      0.0115     28.0976     29.6614     97.5213
  1269.3000      8.1528      2.2480      0.0616     24.3639     29.8925    104.8075
  1269.4000      8.1528      2.3156      0.1318     20.2644     29.3122    114.6166
  1269.5000      8.1601      2.3606      0.1280     17.5418     28.2882    119.7563
  1269.6000      8.1601      2.3797      0.1426     16.3806     27.5456    123.0395
  1269.7000      8.1601      2.3901      0.1184     15.7515     27.2858    128.8617
  1269.8000      8.1826      2.4076      0.1531     14.6910     27.3642    129.8738
  1269.9000      8.1826      2.4335      0.1932     13.1187     27.7613    121.6969
  1270.0000      8.2046      2.4602      0.2062     11.5048     27.9476    112.5026
  1270.1000      8.2046      2.4801      0.1825     10.2987     27.1918    111.4999
  1270.2000      8.2046      2.4850      0.1846     10.0009     26.0111    116.1176
  1270.3000      8.1952      2.4756      0.1214     10.5687     25.6712    119.7444
  1270.4000      8.1952      2.4626      0.0922     11.3583     26.2370    122.4769
  1270.5000      8.1653      2.4415      0.1131     12.6388     26.9615    122.0777
  1270.6000      8.1653      2.4070     -0.0047     14.7261     27.2569    117.6141
  1270.7000      8.1653      2.3705      0.0241     16.9395     27.2195    114.8111
  1270.8000      8.1473      2.3356      0.0206     19.0563     27.5029    116.5363
  1270.9000      8.1473      2.2913      0.0250     21.7397     28.4706    121.1445
  1271.0000      8.1431      2.2182      0.0463     26.1719     29.4457    123.1189
  1271.1000      8.1431      2.1168     -0.0649     32.3127     29.5554    120.5638
  1271.2000      8.1431      2.0145     -0.0555     38.5181     29.2387    120.3874
  1271.3000      8.1416      1.9219     -0.1163     44.1246     29.5074    123.5640
  1271.4000      8.1416      1.8396     -0.1452     49.1168     30.5622    120.5472
  1271.5000      8.1399      1.7805     -0.1047     52.6997     31.6034    109.2752
  1271.6000      8.1399      1.7582     -0.1110     54.0507     31.7536    100.6510
  1271.7000      8.1399      1.7735     -0.0304     53.1233     30.9606     97.8729
  1271.8000      8.1398      1.8185      0.0310     50.3965     29.8277     96.6956
  1271.9000      8.1398      1.8889      0.0863     46.1262     28.6873     94.0884
