~Version Information
VERS.                      2.0: CWLS Log ASCII Standard - VERSION 2.0
WRAP.                       NO: One line per depth step
~Well Information Block
STRT.FT               840.0000: 
STOP.FT              2450.0000: 
STEP.FT                 0.1000: 
NULL.                -999.2500: 
COMP.          Petrogulf Corporation: COMPANY
WELL.             Leier 17-42V: WELL
FLD.           Purgatorie River: FIELD
LOC.           2309' FNL & 1062' FEL SENE 17 33S 67W: LOCATION
PROV.                 Colorado: PROVINCE
CNTY.               Las Animas: COUNTRY
SRVC.                Patterson: SERVICE COMPANY
DATE.          Thu Sep 22 09:35:36 2005: LOG DATE
UWI.           071 08409 : UNIQUE WELL ID
~Curve Information Block
DEPT.FT            0 000 00 00: Depth
DCAL.in                       : CDL Caliper
RHOB.g/cc                     : CDL Bulk Density
RHOC.g/cc                     : CDL Density Correction
DPOR.pu                       : CDL Density Porosity
GR.GAPI                       : Gamma Ray
NPOR.pu                       : Neutron Porosity
~Parameter Information Block
~A  Depth       DCAL        RHOB        RHOC        DPOR         GR         NPOR    
# ...
  1051.2000      7.9880      2.6441      0.1105      0.3554    120.4264     28.5193
  1051.3000      7.9848      2.6705      0.1775     -1.2402    123.7503     28.2499
  1051.4000      7.9848      2.6880      0.1951     -2.3060    124.1879     28.1340
  1051.5000      7.9728      2.6983      0.1372     -2.9294    121.7434     28.1289
  1051.6000      7.9728      2.6946      0.1609     -2.7052    118.0514     28.0355
  1051.7000      7.9728      2.6707      0.1045     -1.2562    116.2784     27.7485
  1051.8000      7.9738      2.6412      0.0480      0.5323    117.1309     27.3866
  1051.9000      7.9738      2.6211      0.0479      1.7545    117.4034     27.1069
  1052.0000      7.9711      2.6059      0.0858      2.6754    116.8585     26.9100
  1052.1000      7.9711      2.5859      0.0908      3.8861    118.2109     26.7449
  1052.2000      7.9711      2.5603      0.0496      5.4378    122.2785     26.6501
  1052.3000      7.9694      2.5386      0.0313      6.7497    126.4651     26.6378
  1052.4000      7.9694      2.5393      0.0496      6.7120    127.8999     26.6655
  1052.5000      7.9614      2.5692      0.0818      4.8946    126.4261     26.8542
  1052.6000      7.9614      2.6109      0.1046      2.3714    123.4924     27.3077
  1052.7000      7.9614      2.6425      0.1375      0.4564    119.1267     27.8479
  1052.8000      7.9686      2.6608      0.1444     -0.6550    113.3191     28.2257
  1052.9000      7.9686      2.6750      0.1678     -1.5137    108.4410     28.1967
  1053.0000      7.9634      2.6865      0.1418     -2.2122    105.8034     27.8050
  1053.1000      7.9634      2.6954      0.1561     -2.7498    105.4659     27.5465
  1053.2000      7.9634      2.7044      0.1349     -3.2945    106.7222     27.6852
  1053.3000      7.9610      2.7063      0.1127     -3.4102    106.2110     28.0752
  1053.4000      7.9610      2.6956      0.1007     -2.7644    102.4622     28.3822
  1053.5000      7.9638      2.6772      0.1032     -1.6458     98.4739     28.1522
  1053.6000      7.9638      2.6514      0.0545     -0.0849     97.0602     27.2916
  1053.7000      7.9638      2.6162      0.0393      2.0475     97.8466     26.1253
  1053.8000      7.9583      2.5802     -0.0134      4.2311    100.0772     24.7989
  1053.9000      7.9583      2.5594     -0.0046      5.4905    101.4091     23.4428
  1054.0000      7.9762      2.5604      0.0021      5.4279     98.4940     22.3077
  1054.1000      7.9762      2.5810      0.0233      4.1839     93.8102     21.0740
  1054.2000      7.9762      2.6129      0.1286      2.2498     93.7510     19.5362
  1054.3000      7.9943      2.6371      0.1617      0.7818     98.1166     18.5685
  1054.4000      7.9943      2.6408      0.1559      0.5571     99.1053     19.3849
  1054.5000      7.9766      2.6280      0.1074      1.3342     94.0061     22.5525
  1054.6000      7.9766      2.6082      0.0840      2.5324     88.3843     27.1729
  1054.7000      7.9766      2.5869      0.0907      3.8259     87.0207     31.5074
  1054.8000      7.9781      2.5617      0.1047      5.3512     90.6380     35.2642
  1054.9000      7.9781      2.5382      0.0334      6.7757     96.2884     39.0256
  1055.0000      7.9887      2.5399     -0.0029      6.6706    100.4419     42.2131
  1055.1000      7.9887      2.5710      0.1308      4.7870    104.0549     44.2798
  1055.2000      7.9887      2.6010      0.1298      2.9715    125.6245     45.8267
  1055.3000      7.9965      2.6152      0.1086      2.1112    125.1570     47.2851
  1055.4000      7.9965      2.6257      0.1497      1.4726    126.0970     48.4267
  1055.5000      8.0013      2.6389      0.1863      0.6707    131.0453     49.1481
  1055.6000      8.0013      2.6502      0.2024     -0.0133    134.4617     49.6531
  1055.7000      8.0013      2.6607      0.1445     -0.6464    133.5856     50.0943
  1055.8000      8.0178      2.6727      0.1583     -1.3775    130.0279     50.4704
  1055.9000      8.0178      2.6732      0.1772     -1.4068    126.2085     50.7521
  1056.0000      8.0364      2.6596      0.0946     -0.5819    124.1662     50.9574
  1056.1000      8.0364      2.6564      0.0444     -0.3880    123.9156     51.1135
  1056.2000      8.0364      2.6672      0.1340     -1.0417    142.6002     51.2263
  1056.3000      8.0667      2.6704      0.1394     -1.2342    142.5788     51.3209
  1056.4000      8.0667      2.6697      0.0827     -1.1966    143.2808     51.4152
  1056.5000      8.0544      2.6863      0.0979     -2.2020    144.4666     51.5314
  1056.6000      8.0544      2.7212      0.1202     -4.3149    144.0856     51.6745
  1056.7000      8.0544      2.7625      0.1371     -6.8153    139.6856     51.7727
  1056.8000      8.0598      2.8015      0.1638     -9.1818    131.2337     51.7656
  1056.9000      8.0598      2.8280      0.1593    -10.7872    122.2933     51.6939
  1057.0000      8.0572      2.8265      0.2031    -10.6946    115.0133     51.6167
  1057.1000      8.0572      2.7897      0.1345     -8.4686    110.4672     51.5544
  1057.2000      8.0572      2.7336      0.0611     -5.0659    124.9740     51.5120
  1057.3000      8.0593      2.6843      0.0008     -2.0810    128.8293     51.4810
  1057.4000      8.0593      2.6523      0.0525     -0.1394    134.8684     51.4457
  1057.5000      8.0565      2.6265      0.0295      1.4230    142.0558     25.5527
  1057.6000      8.0565      2.6021      0.0457      2.9037    146.8063     25.4600
  1057.7000      8.0565      2.5902      0.0384      3.6248    148.7645     25.4478
  1057.8000      8.0553      2.5978      0.0697      3.1637    151.0270     25.4874
  1057.9000      8.0553      2.6179      0.0789      1.9426    153.8231     25.6527
  1058.0000      8.0574      2.6382      0.0795      0.7152    153.3704     25.9693
  1058.1000      8.0574      2.6417      0.1242      0.5023    146.8277     26.1597
  1058.2000      8.0574      2.6262      0.0811      1.4402    138.2932     25.9740
  1058.3000      8.0583      2.6148      0.0879      2.1305    134.3007     25.5937
  1058.4000      8.0583      2.6204      0.0796      1.7962    135.4110     25.3890
  1058.5000      8.0560      2.6363      0.0770      0.8285    137.3986     25.4919
  1058.6000      8.0560      2.6611      0.0568     -0.6728    137.7063     25.7281
  1058.7000      8.0560      2.6915      0.0961     -2.5169    138.5014     25.6330
  1058.8000      8.0622      2.7106      0.0999     -3.6718    142.1046     25.0683
  1058.9000      8.0622      2.7105      0.0620     -3.6653    144.2248     24.5712
  1059.0000      8.0732      2.6926      0.1216     -2.5796    142.6994     24.5008
  1059.1000      8.0732      2.6563      0.0504     -0.3833    143.0780     24.6988
  1059.2000      8.0732      2.6175      0.0464      1.9696    146.9018     24.9359
  1059.3000      8.0763      2.5970      0.0311      3.2103    149.4016     25.0511
  1059.4000      8.0763      2.5940      0.0252      3.3970    150.6241     25.1794
  1059.5000      8.0876      2.5944      0.0417      3.3698    152.1898     25.6750
  1059.6000      8.0876      2.6026      0.0318      2.8709    153.0466     26.6126
  1059.7000      8.0876      2.6349      0.0679      0.9124    155.5039     27.6520
  1059.8000      8.0828      2.6889      0.0651     -2.3582    158.8918     28.2613
  1059.9000      8.0828      2.7447      0.0984     -5.7424    156.1600     28.2959
  1060.0000      8.0949      2.7860      0.0896     -8.2422    148.4971     28.1789
  1060.1000      8.0949      2.8105      0.0834     -9.7293    144.3162     28.3360
  1060.2000      8.0949      2.8222      0.0683    -10.4342    145.8658     28.6214
  1060.3000      8.0960      2.8218      0.0862    -10.4148    149.2948     28.4882
  1060.4000      8.0960      2.8116      0.0717     -9.7953    149.7918     27.7264
  1060.5000      8.1066      2.7957      0.0445     -8.8307    144.7947     26.8512
  1060.6000      8.1066      2.7651      0.0468     -6.9788    139.7742     26.5369
  1060.7000      8.1066      2.7103     -0.0331     -3.6528    140.2319     26.7643
