~Version Information
VERS.                      2.0: CWLS Log ASCII Standard - VERSION 2.0
WRAP.                       NO: One line per depth step
~Well Information Block
STRT.FT               387.1000: 
STOP.FT              1748.0000: 
STEP.FT                 0.1000: 
NULL.                -999.2500: 
COMP.          Evergreen Operating Corp.: COMPANY
WELL.          Pachorek 13-31 Tr: WELL
FLD.           Cottontail Pass: FIELD
LOC.           1575' FSL & 900' FWL--API# 05-071-07019-00: LOCATION
PROV.                 Colorado: PROVINCE
CNTY.               Las Animas: COUNTRY
SRVC.          Scientific Data Systems, Inc.: SERVICE COMPANY
DATE.          Tue Aug 08 15:02:37 2000: LOG DATE
UWI.                      05071070190000:UNIQUE WELL IDENTIFICATION
~Curve Information Block
DEPT.FT            0 000 00 00: Depth
DCAL.in                       : CDL Caliper
RHOB.g/cc                     : CDL Bulk Density
RHOC.g/cc                     : CDL Density Correction
DPOR.pu                       : CDL Density Porosity
GR.GAPI                       : Gamma Ray
NPOR.pu                       : Neutron Porosity
~Parameter Information Block
~A  Depth       DCAL        RHOB        RHOC        DPOR         GR         NPOR    
# ...
   665.5000      7.9688      2.3942      0.0736     15.5025    177.5502     30.1286
   665.6000      7.9688      2.4009      0.0739     15.0973    176.8756     30.7210
   665.7000      7.9688      2.4092      0.0748     14.5925    175.8548     31.2504
   665.8000      7.9526      2.4191      0.0758     13.9948    174.4409     31.6990
   665.9000      7.9526      2.4303      0.0763     13.3161    172.6208     32.0528
   666.0000      7.9447      2.4426      0.0761     12.5724    170.4144     32.3027
   666.1000      7.9447      2.4556      0.0746     11.7836    167.8729     32.4434
   666.2000      7.9447      2.4690      0.0718     10.9716    165.0765     32.4733
   666.3000      7.9370      2.4824      0.0675     10.1592    162.1273     32.3945
   666.4000      7.9370      2.4954      0.0618      9.3681    159.1400     32.2124
   666.5000      7.9238      2.5078      0.0549      8.6180    156.2393     31.9362
   666.6000      7.9238      2.5192      0.0469      7.9251    153.5458     31.5788
   666.7000      7.9238      2.5295      0.0384      7.3012    151.1648     31.1579
   666.8000      7.9124      2.5386      0.0297      6.7529    149.1735     30.6954
   666.9000      7.9124      2.5464      0.0213      6.2818    147.6099     30.2160
   667.0000      7.9070      2.5529      0.0137      5.8847    146.4687     29.7459
   667.1000      7.9070      2.5584      0.0072      5.5545    145.7038     29.3111
   667.2000      7.9070      2.5629      0.0022      5.2806    145.2368     28.9341
   667.3000      7.9052      2.5667     -0.0010      5.0507    144.9765     28.6328
   667.4000      7.9052      2.5699     -0.0023      4.8518    144.8270     28.4184
   667.5000      7.9035      2.5729     -0.0018      4.6713    144.7136     28.2941
   667.6000      7.9035      2.5758      0.0006      4.4983    144.5778     28.2565
   667.7000      7.9035      2.5787      0.0046      4.3240    144.3845     28.2955
   667.8000      7.8988      2.5816      0.0099      4.1425    144.1168     28.3968
   667.9000      7.8988      2.5848      0.0162      3.9507    143.7625     28.5427
   668.0000      7.8928      2.5882      0.0229      3.7483    143.3087     28.7146
   668.1000      7.8928      2.5916      0.0296      3.5372    142.7337     28.8947
   668.2000      7.8928      2.5952      0.0359      3.3210    142.0072     29.0662
   668.3000      7.8900      2.5988      0.0413      3.1043    141.0923     29.2150
   668.4000      7.8900      2.6023      0.0455      2.8921    139.9515     29.3293
   668.5000      7.8903      2.6056      0.0483      2.6894    138.5574     29.4001
   668.6000      7.8903      2.6087      0.0496      2.5001    136.9010     29.4212
   668.7000      7.8903      2.6116      0.0494      2.3275    135.0009     29.3886
   668.8000      7.8906      2.6141      0.0479      2.1740    132.9021     29.3010
   668.9000      7.8906      2.6163      0.0453      2.0413    130.6807     29.1588
   669.0000      7.8905      2.6181      0.0418      1.9303    128.4362     28.9650
   669.1000      7.8905      2.6196      0.0377      1.8420    126.2804     28.7244
   669.2000      7.8905      2.6207      0.0331      1.7775    124.3365     28.4437
   669.3000      7.8912      2.6213      0.0282      1.7379    122.7195     28.1310
   669.4000      7.8912      2.6215      0.0232      1.7253    121.5314     27.7960
   669.5000      7.8925      2.6213      0.0183      1.7419    120.8499     27.4487
   669.6000      7.8925      2.6205      0.0134      1.7902    120.7178     27.0989
   669.7000      7.8925      2.6191      0.0086      1.8726    121.1406     26.7557
   669.8000      7.8934      2.6171      0.0039      1.9911    122.0800     26.4260
   669.9000      7.8934      2.6146     -0.0007      2.1464    123.4612     26.1142
   670.0000      7.8938      2.6114     -0.0052      2.3377    125.1723     25.8222
   670.1000      7.8938      2.6077     -0.0095      2.5624    127.0809     25.5495
   670.2000      7.8938      2.6035     -0.0138      2.8158    129.0462     25.2951
   670.3000      7.8948      2.5990     -0.0180      3.0909    130.9362     25.0577
   670.4000      7.8948      2.5942     -0.0219      3.3793    132.6433     24.8375
   670.5000      7.8984      2.5894     -0.0256      3.6709    134.0895     24.6368
   670.6000      7.8984      2.5847     -0.0288      3.9551    135.2287     24.4599
   670.7000      7.8984      2.5803     -0.0314      4.2215    136.0463     24.3123
   670.8000      7.9039      2.5764     -0.0333      4.4608    136.5484     24.1995
   670.9000      7.9039      2.5730     -0.0342      4.6651    136.7545     24.1253
   671.0000      7.9080      2.5703     -0.0342      4.8293    136.6939     24.0912
   671.1000      7.9080      2.5683     -0.0332      4.9505    136.3992     24.0954
   671.2000      7.9080      2.5670     -0.0312      5.0291    135.9064     24.1337
   671.3000      7.9064      2.5664     -0.0284      5.0677    135.2578     24.2000
   671.4000      7.9064      2.5663     -0.0251      5.0710    134.5030     24.2883
   671.5000      7.8979      2.5668     -0.0216      5.0449    133.7022     24.3937
   671.6000      7.8979      2.5676     -0.0181      4.9960    132.9211     24.5136
   671.7000      7.8979      2.5687     -0.0150      4.9302    132.2305     24.6480
   671.8000      7.8872      2.5699     -0.0125      4.8524    131.6988     24.7988
   671.9000      7.8872      2.5714     -0.0106      4.7655    131.3842     24.9692
   672.0000      7.8772      2.5729     -0.0094      4.6706    131.3308     25.1618
   672.1000      7.8772      2.5747     -0.0086      4.5665    131.5594     25.3779
   672.2000      7.8772      2.5766     -0.0080      4.4504    132.0658     25.6158
   672.3000      7.8737      2.5788     -0.0073      4.3181    132.8125     25.8702
   672.4000      7.8737      2.5813     -0.0062      4.1651    133.7342     26.1328
   672.5000      7.8747      2.5842     -0.0044      3.9873    134.7382     26.3924
   672.6000      7.8747      2.5876     -0.0018      3.7818    135.7109     26.6357
   672.7000      7.8747      2.5915      0.0017      3.5475    136.5259     26.8491
   672.8000      7.8753      2.5958      0.0060      3.2858    137.0590     27.0203
   672.9000      7.8753      2.6005      0.0111      3.0007    137.2077     27.1392
   673.0000      7.8745      2.6055      0.0166      2.6985    136.9026     27.1993
   673.1000      7.8745      2.6106      0.0223      2.3876    136.1260     27.1985
   673.2000      7.8745      2.6157      0.0278      2.0781    134.9188     27.1392
   673.3000      7.8738      2.6206      0.0329      1.7807    133.3763     27.0282
   673.4000      7.8738      2.6252      0.0372      1.5058    131.6420     26.8759
   673.5000      7.8747      2.6292      0.0407      1.2632    129.8853     26.6949
   673.6000      7.8747      2.6325      0.0432      1.0610    128.2790     26.4996
   673.7000      7.8747      2.6351      0.0447      0.9051    126.9737     26.3045
   673.8000      7.8760      2.6368      0.0453      0.7993    126.0704     26.1226
   673.9000      7.8760      2.6377      0.0451      0.7447    125.6145     25.9656
   674.0000      7.8762      2.6378      0.0442      0.7403    125.5860     25.8423
   674.1000      7.8762      2.6371      0.0427      0.7829    125.9176     25.7583
   674.2000      7.8762      2.6357      0.0408      0.8679    126.5008     25.7164
   674.3000      7.8772      2.6337      0.0384      0.9893    127.2148     25.7164
   674.4000      7.8772      2.6312      0.0357      1.1405    127.9441     25.7554
   674.5000      7.8800      2.6283      0.0327      1.3147    128.5981     25.8293
   674.6000      7.8800      2.6252      0.0294      1.5051    129.1229     25.9327
   674.7000      7.8800      2.6219      0.0258      1.7054    129.5093     26.0604
   674.8000      7.8826      2.6185      0.0222      1.9096    129.7878     26.2084
   674.9000      7.8826      2.6151      0.0185      2.1127    130.0179     26.3740
   675.0000      7.8830      2.6119      0.0147      2.3101    130.2807     26.5561
