~Version Information
VERS.                      2.0: CWLS Log ASCII Standard - VERSION 2.0
WRAP.                       NO: One line per depth step
~Well Information Block
STRT.FT               460.0000: 
STOP.FT               961.2500: 
STEP.FT                 0.2500: 
NULL.                -999.2500: 
COMP.          Pioneer Natural Resources: COMPANY
WELL.                Pug 33-19: WELL
FLD.           Purgatoire River: FIELD
LOC.           1381' FSL & 2140' FEL: LOCATION
PROV.                 Colorado: PROVINCE
CNTY.               Las Animas: COUNTRY
SRVC.                Patterson: SERVICE COMPANY
DATE.          Tue Dec 14 08:25:14 2004: LOG DATE
UWI.           05 071 08193 00: UNIQUE WELL ID
~Curve Information Block
DEPT.FT            0 000 00 00: Depth
SN.Ohm-m                      : IEL Short Normal
SP.mV                         : IEL Spontaneous Potential
DIR.Ohm-m                     : IEL Induction Resistivity
GR.GAPI                       : Gamma Ray
~Parameter Information Block
~A  Depth        SN          SP         DIR          GR     
# ...
   694.5000     13.2401     72.2580     12.1758    116.2810
   694.7500     12.9551     72.3419     11.8094    116.5096
   695.0000     12.6669     72.4126     11.5134    117.8257
   695.2500     12.3900     72.4638     11.2786    119.6483
   695.5000     12.1436     72.4915     11.0904    122.4472
   695.7500     11.9410     72.4932     10.9356    123.3707
   696.0000     11.7857     72.4673     10.8080    123.1024
   696.2500     11.6744     72.4114     10.7085    122.4453
   696.5000     11.6030     72.3219     10.6416    121.7429
   696.7500     11.5712     72.1950     10.6121    121.5851
   697.0000     11.5822     72.0289     10.6239    121.4949
   697.2500     11.6406     71.8256     10.6802    121.3087
   697.5000     11.7479     71.5920     10.7820    120.6591
   697.7500     11.9003     71.3404     10.9271    119.9777
   698.0000     12.0887     71.0875     11.1083    118.5283
   698.2500     12.3013     70.8526     11.3166    117.2200
   698.5000     12.5281     70.6537     11.5439    114.9956
   698.7500     12.7664     70.5032     11.7863    113.7392
   699.0000     13.0234     70.4047     12.0450    112.6632
   699.2500     13.3152     70.3518     12.3254    112.3248
   699.5000     13.6607     70.3303     12.6357    111.8028
   699.7500     14.0721     70.3231     12.9834    111.3798
   700.0000     14.5432     70.3145     13.3698    110.9030
   700.2500     15.0457     70.2939     13.7860    110.6227
   700.5000     15.5359     70.2542     14.2107    109.5915
   700.7500     15.9697     70.1899     14.6142    108.2189
   701.0000     16.3185     70.0934     14.9685    105.3382
   701.2500     16.5787     69.9556     15.2593    103.1721
   701.5000     16.7716     69.7686     15.4920     99.9518
   701.7500     16.9336     69.5305     15.6870     98.0867
   702.0000     17.1014     69.2493     15.8687     96.3945
   702.2500     17.2950     68.9423     16.0557     96.3162
   702.5000     17.5081     68.6322     16.2567     97.5686
   702.7500     17.7087     68.3407     16.4698     98.6633
   703.0000     17.8552     68.0822     16.6808     99.1936
   703.2500     17.9175     67.8607     16.8626     98.3447
   703.5000     17.8914     67.6712     16.9799     96.1073
   703.7500     17.7973     67.5029     17.0020     95.0666
   704.0000     17.6664     67.3460     16.9171     95.3810
   704.2500     17.5270     67.1956     16.7412     96.7143
   704.5000     17.3948     67.0552     16.5140     99.5131
   704.7500     17.2713     66.9347     16.2844    101.4843
   705.0000     17.1467     66.8458     16.0916    104.0929
   705.2500     17.0055     66.7954     15.9516    105.3287
   705.5000     16.8343     66.7795     15.8558    106.2878
   705.7500     16.6301     66.7826     15.7817    106.5903
   706.0000     16.4037     66.7821     15.7068    107.0677
   706.2500     16.1756     66.7577     15.6167    107.3882
   706.5000     15.9680     66.6997     15.5074    107.5813
   706.7500     15.7975     66.6125     15.3853    107.6177
   707.0000     15.6728     66.5122     15.2656    108.2178
   707.2500     15.5929     66.4176     15.1659    109.3647
   707.5000     15.5470     66.3425     15.0969    112.3324
   707.7500     15.5200     66.2903     15.0574    114.7955
   708.0000     15.5001     66.2546     15.0362    118.1202
   708.2500     15.4873     66.2224     15.0171    119.4708
   708.5000     15.4959     66.1796     14.9874    119.6490
   708.7500     15.5491     66.1133     14.9465    118.5922
   709.0000     15.6688     66.0145     14.9114    115.8156
   709.2500     15.8672     65.8781     14.9136    113.5188
   709.5000     16.1413     65.7045     14.9851    109.7294
   709.7500     16.4726     65.4998     15.1445    107.1589
   710.0000     16.8334     65.2761     15.3924    103.6989
   710.2500     17.1967     65.0506     15.7165    101.7061
   710.5000     17.5456     64.8419     16.0985     98.6430
   710.7500     17.8756     64.6674     16.5173     96.3184
   711.0000     18.1936     64.5399     16.9483     92.9370
   711.2500     18.5147     64.4663     17.3638     91.3865
   711.5000     18.8561     64.4482     17.7369     90.9391
   711.7500     19.2248     64.4830     18.0470     92.1758
   712.0000     19.6071     64.5644     18.2833     96.6000
   712.2500     19.9686     64.6823     18.4435    100.9120
   712.5000     20.2726     64.8222     18.5317    107.3127
   712.7500     20.5028     64.9656     18.5596    109.9442
   713.0000     20.6766     65.0928     18.5506    110.0915
   713.2500     20.8370     65.1864     18.5398    108.2034
   713.5000     21.0361     65.2334     18.5653    104.6626
   713.7500     21.3194     65.2254     18.6579    102.8545
   714.0000     21.7185     65.1567     18.8353    100.7657
   714.2500     22.2481     65.0234     19.1036     98.6617
   714.5000     22.9050     64.8237     19.4627     92.6500
   714.7500     23.6711     64.5603     19.9111     86.7731
   715.0000     24.5200     64.2430     20.4450     77.1195
   715.2500     25.4262     63.8879     21.0556     71.4914
   715.5000     26.3656     63.5141     21.7255     65.3753
   715.7500     27.3093     63.1378     22.4301     62.6586
   716.0000     28.2189     62.7678     23.1435     59.7291
   716.2500     29.0535     62.4034     23.8423     58.1481
   716.5000     29.7827     62.0368     24.5069     56.1649
   716.7500     30.3964     61.6589     25.1218     55.2348
   717.0000     30.9001     61.2652     25.6756     54.8004
   717.2500     31.3038     60.8617     26.1597     55.2868
   717.5000     31.6110     60.4658     26.5672     57.0984
   717.7500     31.8148     60.1050     26.8959     58.8313
   718.0000     31.9001     59.8111     27.1529     61.6791
   718.2500     31.8514     59.6131     27.3502     63.2843
   718.5000     31.6604     59.5303     27.4902     64.5384
   718.7500     31.3294     59.5677     27.5535     64.6879
   719.0000     30.8717     59.7146     27.5054     65.1968
   719.2500     30.3147     59.9463     27.3162     66.6577
   719.5000     29.7028     60.2285     26.9823     71.1191
   719.7500     29.0901     60.5228     26.5305     75.2364
   720.0000     28.5202     60.7918     26.0055     82.0226
   720.2500     28.0081     61.0034     25.4493     86.4242
   720.5000     27.5375     61.1335     24.8841     92.3050
   720.7500     27.0768     61.1678     24.3096     95.4904
   721.0000     26.6026     61.1024     23.7160     98.4963
   721.2500     26.1137     60.9445     23.1024     98.8941
   721.5000     25.6282     60.7122     22.4876     96.9260
   721.7500     25.1681     60.4343     21.9060     94.3368
   722.0000     24.7408     60.1482     21.3937     89.9731
   722.2500     24.3256     59.8972     20.9732     87.6833
   722.5000     23.8710     59.7248     20.6387     86.1229
   722.7500     23.3081     59.6682     20.3463     86.1716
   723.0000     22.5761     59.7513     20.0176     86.9827
   723.2500     21.6463     59.9819     19.5639     87.7916
   723.5000     20.5328     60.3520     18.9260     89.7426
   723.7500     19.2838     60.8410     18.1022     91.6817
   724.0000     17.9611     61.4204     17.1421     95.1637
   724.2500     16.6247     62.0570     16.1146     97.4758
   724.5000     15.3274     62.7150     15.0806    100.5931
   724.7500     14.1191     63.3588     14.0847    102.5339
   725.0000     13.0471     63.9555     13.1595    105.4632
   725.2500     12.1518     64.4783     12.3300    107.2883
   725.5000     11.4609     64.9089     11.6131    109.3290
   725.7500     10.9839     65.2381     11.0170    110.2698
   726.0000     10.7092     65.4638     10.5421    112.0635
   726.2500     10.6039     65.5889     10.1837    114.1626
   726.5000     10.6209     65.6184      9.9350    118.6617
   726.7500     10.7126     65.5588      9.7893    121.7527
   727.0000     10.8451     65.4185      9.7402    124.5257
   727.2500     11.0033     65.2094      9.7820    124.2271
   727.5000     11.1861     64.9482      9.9083    120.3639
   727.7500     11.3975     64.6554     10.1111    116.2684
