~Version Information
VERS.                      2.0: CWLS Log ASCII Standard - VERSION 2.0
WRAP.                       NO: One line per depth step
~Well Information Block
STRT.FT               748.2500: 
STOP.FT              2498.5000: 
STEP.FT                 0.2500: 
NULL.                -999.2500: 
COMP.          Petrogulf Corporation: COMPANY
WELL.           Montoya 13-41V: WELL
FLD.           Purgatorie River: FIELD
LOC.           449' FNL & 891' FEL: LOCATION
CNTY.               Las Animas: COUNTY
SRVC.                         : SERVICE COMPANY
DATE.          Tue Aug 17 13:22:31 2004: LOG DATE
UWI.           05 071 08021 00: UNIQUE WELL ID
STAT.                 Colorado: STATE
~Curve Information Block
DEPT.FT            0 000 00 00: Depth
SP.mV                         : DIL Spontaneous Potential
RILD.Ohm-m                    : DIL Deep Resistivity
RILM.Ohm-m                    : DIL Medium Resistivity
RLL3.Ohm-m                    : DIL Shallow Resistivity
GR.GAPI                       : Gamma Ray
~Parameter Information Block
~A  Depth        SP         RILD        RILM        RLL3         GR     
# ...
   776.2500   2000.0000     68.0922     88.2681   1998.0000     92.0026
   776.5000   2000.0000     69.6483     88.4437   1998.0000     90.7628
   776.7500   2000.0000     70.5976     87.0027   1998.0000     89.7400
   777.0000   2000.0000     70.5137     84.4791   1998.0000     88.3500
   777.2500   2000.0000     69.4044     81.5210   1998.0000     87.6755
   777.5000   2000.0000     67.8135     78.6463   1998.0000     87.2526
   777.7500   2000.0000     66.5553     76.1403   1998.0000     87.5649
   778.0000   2000.0000     66.3609     74.0773   1998.0000     88.8659
   778.2500   2000.0000     67.6672     72.3858   1998.0000     89.5543
   778.5000   2000.0000     70.5392     70.9433   1998.0000     88.2303
   778.7500   2000.0000     74.5706     69.6559   1998.0000     85.0466
   779.0000   2000.0000     78.8158     68.5186   1998.0000     77.8260
   779.2500   2000.0000     81.9745     67.6203   1998.0000     73.0098
   779.5000   2000.0000     83.0301     67.1340   1998.0000     68.4167
   779.7500   2000.0000     81.9146     67.2686   1998.0000     67.7552
   780.0000   2000.0000     79.4411     68.2337   1998.0000     69.9093
   780.2500   2000.0000     76.6595     70.2216   1998.0000     72.6650
   780.5000   2000.0000     74.3188     73.3842   1998.0000     77.1858
   780.7500   2000.0000     72.7414     77.8099   1998.0000     79.6040
   781.0000   2000.0000     71.9254     83.4555   1998.0000     81.3945
   781.2500   2000.0000     71.6639     90.0488   1998.0000     81.2078
   781.5000   2000.0000     71.6313     96.9511   1998.0000     79.1704
   781.7500   2000.0000     71.4555    103.1190   1998.0000     77.1299
   782.0000   2000.0000     70.8048    107.2797   1998.0000     74.4221
   782.2500   2000.0000     69.5137    108.4512   1998.0000     73.7369
   782.5000   2000.0000     67.6778    106.4662   1998.0000     74.9877
   782.7500   2000.0000     65.6625    102.0480   1998.0000     76.7385
   783.0000   2000.0000     63.9719     96.3726   1998.0000     78.6105
   783.2500   2000.0000     63.0748     90.5077   1998.0000     78.3255
   783.5000   2000.0000     63.2468     85.1594   1998.0000     75.4661
   783.7500   2000.0000     64.4603     80.6595   1998.0000     72.8206
   784.0000   2000.0000     66.2740     77.0956   1998.0000     69.6477
   784.2500   2000.0000     67.7872     74.4217   1998.0000     68.5064
   784.5000   2000.0000     67.8822     72.5498   1998.0000     67.3580
   784.7500   2000.0000     65.8557     71.3986   1998.0000     66.1565
   785.0000   2000.0000     62.0650     70.8949   1998.0000     63.3034
   785.2500   2000.0000     57.8537     70.9805   1998.0000     61.0669
   785.5000   2000.0000     54.8862     71.5857   1998.0000     57.8401
   785.7500   2000.0000     54.7613     72.6187   1998.0000     55.8641
   786.0000   2000.0000     59.4743     73.9439   1998.0000     53.1107
   786.2500   2000.0000     73.2096     75.3784   1998.0000     51.3926
   786.5000   2000.0000    108.8784     76.7024   1998.0000     48.8682
   786.7500   2000.0000    230.8713     77.6886   1998.0000     47.1165
   787.0000   2000.0000   4155.5698     78.1422   1998.0000     44.4958
   787.2500   2000.0000 100000.0000     77.9502   1998.0000     43.0132
   787.5000   2000.0000 100000.0000     77.1290   1998.0000     41.4996
   787.7500   2000.0000 100000.0000     75.8164   1998.0000     40.8750
   788.0000   2000.0000 100000.0000     74.2537   1998.0000     40.1624
   788.2500   2000.0000    507.2324     72.7262   1998.0000     39.7479
   788.5000   2000.0000    274.2155     71.5064   1998.0000     39.3026
   788.7500   2000.0000    210.7527     70.8037   1998.0000     39.2003
   789.0000   2000.0000    189.1033     70.7478   1998.0000     39.4372
   789.2500   2000.0000    181.6537     71.3683   1998.0000     39.9231
   789.5000   2000.0000    172.9812     72.5902   1998.0000     41.3505
   789.7500   2000.0000    152.8419     74.2262   1998.0000     43.0256
   790.0000   2000.0000    124.5846     75.9687   1998.0000     47.3848
   790.2500   2000.0000    100.7113     77.3501   1998.0000     51.9171
   790.5000   2000.0000     89.4521     77.9256   1998.0000     60.8956
   790.7500   2000.0000     99.8300     77.2580   1998.0000     67.4782
   791.0000   2000.0000    217.7994     75.0143   1998.0000     76.4027
   791.2500   2000.0000 100000.0000     71.0686   1998.0000     81.1299
   791.5000   2000.0000 100000.0000     65.4899   1998.0000     86.7514
   791.7500   2000.0000 100000.0000     58.5373   1998.0000     90.2156
   792.0000   2000.0000 100000.0000     50.6685   1998.0000     95.9277
   792.2500   2000.0000 100000.0000     42.5345   1998.0000    100.0651
   792.5000   2000.0000 100000.0000     34.8487   1998.0000    105.7751
   792.7500   2000.0000 100000.0000     28.1729   1998.0000    108.5662
   793.0000   2000.0000    248.9924     22.7755   1998.0000    111.0553
   793.2500   2000.0000     16.6133     18.6525   1998.0000    112.2357
   793.5000   2000.0000      8.3327     15.6417   1998.0000    114.7114
   793.7500   2000.0000      5.9291     13.5331   1998.0000    117.1968
   794.0000   2000.0000      5.1238     12.1342   1998.0000    121.6825
   794.2500   2000.0000      5.0871     11.2940   1998.0000    124.4513
   794.5000   2000.0000      5.6346     10.9043   1998.0000    126.9328
   794.7500   2000.0000      6.8453     10.8906   1998.0000    127.0511
   795.0000   2000.0000      9.0729     11.2011   1998.0000    125.3122
   795.2500   2000.0000     13.2399     11.7946   1998.0000    123.5791
   795.5000   2000.0000     21.8479     12.6291   1998.0000    121.1163
   795.7500   2000.0000     42.4383     13.6494   1998.0000    119.6723
   796.0000   2000.0000     94.8571     14.7739   1998.0000    117.6182
   796.2500   2000.0000    143.3126     15.8825   1998.0000    116.3963
   796.5000   2000.0000     86.1953     16.8170   1998.0000    115.0319
   796.7500   2000.0000     45.8305     17.4082   1998.0000    114.3555
   797.0000   2000.0000     29.1480     17.5370   1998.0000    113.4294
   797.2500   2000.0000     21.7294     17.1950   1998.0000    113.0147
   797.5000   2000.0000     18.1600     16.4919   1998.0000    113.4225
   797.7500   2000.0000     16.4183     15.5987   1998.0000    114.7285
   798.0000   2000.0000     15.6331     14.6755   1998.0000    118.2255
   798.2500   2000.0000     15.3662     13.8309   1998.0000    121.1996
   798.5000   2000.0000     15.3608     13.1186   1998.0000    125.5314
   798.7500   2000.0000     15.4414     12.5499   1998.0000    127.6343
   799.0000   2000.0000     15.4800     12.1150   1998.0000    128.8639
   799.2500   2000.0000     15.3990     11.7932   1998.0000    128.4684
   799.5000   2000.0000     15.1833     11.5599   1998.0000    126.9472
   799.7500   2000.0000     14.8705     11.3917   1998.0000    125.9710
   800.0000   2000.0000     14.5240     11.2692   1998.0000    125.4672
   800.2500   2000.0000     14.2035     11.1782   1998.0000    126.1354
   800.5000   2000.0000     13.9473     11.1109   1998.0000    128.9601
   800.7500   2000.0000     13.7689     11.0642   1998.0000    131.9859
   801.0000   2000.0000     13.6606     11.0387   1998.0000    137.8483
   801.2500   2000.0000     13.5985     11.0359   1998.0000    142.4138
   801.5000   2000.0000     13.5519     11.0553   1998.0000    149.8482
   801.7500   2000.0000     13.4941     11.0929   1998.0000    154.9548
   802.0000   2000.0000     13.4111     11.1407   1998.0000    162.6903
   802.2500   2000.0000     13.3042     11.1884   1998.0000    167.8641
   802.5000   2000.0000     13.1824     11.2247   1998.0000    174.8504
   802.7500   2000.0000     13.0541     11.2408   1998.0000    178.0296
   803.0000   2000.0000     12.9222     11.2319   1998.0000    179.4377
   803.2500   2000.0000     12.7871     11.1990   1998.0000    178.4130
   803.5000   2000.0000     12.6528     11.1484   1998.0000    175.3502
   803.7500   2000.0000     12.5290     11.0901   1998.0000    172.7695
   804.0000   2000.0000     12.4282     11.0355   1998.0000    167.9699
