~Version Information
VERS.                      2.0: CWLS Log ASCII Standard - VERSION 2.0
WRAP.                       NO: One line per depth step
~Well Information Block
STRT.FT               318.1000: 
STOP.FT              2688.0000: 
STEP.FT                 0.1000: 
NULL.                -999.2500: 
COMP.          Petrogulf Corporation: COMPANY
WELL.            Montoya 1-24V: WELL
FLD.           Purgatorie River: FIELD
LOC.           605' FSL & 2557' FWL: LOCATION
CNTY.               Las Animas: COUNTY
SRVC.                         : SERVICE COMPANY
DATE.          Wed Oct 20 14:56:37 2004: LOG DATE
UWI.           05 071 08194 00: UNIQUE WELL ID
STAT.                 Colorado: STATE
~Curve Information Block
DEPT.FT            0 000 00 00: Depth
DCAL.in                       : CDL Caliper
RHOB.g/cc                     : CDL Bulk Density
RHOC.g/cc                     : CDL Density Correction
DPOR.pu                       : CDL Density Porosity
GR.GAPI                       : Gamma Ray
NPOR.pu                       : Neutron Porosity
~Parameter Information Block
~A  Depth       DCAL        RHOB        RHOC        DPOR         GR         NPOR    
# ...
  2362.9000      7.8761      2.6156      0.1182      2.0829     72.9783     22.4409
  2363.0000      7.8705      2.6154      0.0338      2.0973     74.6722     22.6527
  2363.1000      7.8705      2.6022      0.0621      2.8953     78.8291     22.8288
  2363.2000      7.8705      2.5815      0.0335      4.1513     80.6304     22.7979
  2363.3000      7.8638      2.5657      0.0104      5.1098     77.6755     22.3860
  2363.4000      7.8638      2.5622     -0.0002      5.3235     74.2855     22.1055
  2363.5000      7.8647      2.5694      0.0158      4.8878     75.4394     22.7099
  2363.6000      7.8647      2.5823      0.0068      4.1049     80.7738     23.9044
  2363.7000      7.8647      2.5827      0.0970      4.0759     86.7788     24.6441
  2363.8000      7.8688      2.5606      0.0221      5.4188     90.4400     24.5376
  2363.9000      7.8688      2.5385     -0.0021      6.7599     91.2739     24.3895
  2364.0000      7.8583      2.5324      0.0082      7.1278     91.8932     24.5784
  2364.1000      7.8583      2.5316      0.0087      7.1749     93.9728     24.7157
  2364.2000      7.8583      2.5257      0.0364      7.5347     95.7203     24.8331
  2364.3000      7.8731      2.5146      0.0332      8.2086     93.0409     25.2031
  2364.4000      7.8731      2.5058      0.0126      8.7367     84.5057     25.5057
  2364.5000      7.9028      2.5074      0.0312      8.6411     75.9495     24.9224
  2364.6000      7.9028      2.5190      0.0307      7.9398     72.0813     23.6994
  2364.7000      7.9028      2.5293      0.1132      7.3176     71.4906     23.2927
  2364.8000      7.8925      2.5239      0.0627      7.6406     72.0671     24.0510
  2364.9000      7.8925      2.5063      0.0964      8.7113     73.1256     24.8390
  2365.0000      7.8752      2.4923      0.1003      9.5585     76.6898     25.0330
  2365.1000      7.8752      2.4911      0.0902      9.6329     82.4286     24.9131
  2365.2000      7.8752      2.5025      0.0530      8.9377     84.8594     24.7075
  2365.3000      7.8565      2.5246      0.0682      7.6008     81.8344     24.5176
  2365.4000      7.8565      2.5536      0.0956      5.8420     78.2818     24.6180
  2365.5000      7.8507      2.5804      0.1378      4.2165     75.9644     25.0799
  2365.6000      7.8507      2.5947      0.1462      3.3497     73.0672     25.5316
  2365.7000      7.8507      2.6010      0.1193      2.9710     72.2793     25.4907
  2365.8000      7.8565      2.6084      0.1424      2.5211     75.3951     25.0098
  2365.9000      7.8565      2.6067      0.1679      2.6215     78.9648     24.3723
  2366.0000      7.8665      2.5870      0.0470      3.8207     80.5787     23.8091
  2366.1000      7.8665      2.5681      0.0142      4.9635     80.0222     23.5747
  2366.2000      7.8665      2.5697      0.0509      4.8681     77.5107     23.3454
  2366.3000      7.8730      2.5936      0.0408      3.4168     74.8159     22.7708
  2366.4000      7.8730      2.6265      0.1152      1.4267     73.1012     22.2529
  2366.5000      7.8850      2.6375      0.1259      0.7591     72.1951     22.0579
  2366.6000      7.8850      2.6124      0.0630      2.2818     73.2941     21.8942
  2366.7000      7.8850      2.5794      0.0276      4.2762     73.3549     22.0067
  2366.8000      7.9156      2.5804     -0.0043      4.2197     68.3944     22.6560
  2366.9000      7.9156      2.6147      0.0725      2.1387     63.6992     23.1233
  2367.0000      7.8974      2.6392      0.0708      0.6575     66.0484     22.8869
  2367.1000      7.8974      2.6367      0.0102      0.8053     71.6568     22.1177
  2367.2000      7.8974      2.6233      0.0455      1.6186     72.3384     21.0820
  2367.3000      7.8445      2.6137     -0.0162      2.1979     68.3653     20.1871
  2367.4000      7.8445      2.6203      0.0028      1.8021     64.5602     19.9403
  2367.5000      7.8787      2.6315      0.0817      1.1199     64.2191     20.4149
  2367.6000      7.8787      2.6267      0.0371      1.4127     67.4737     20.8935
  2367.7000      7.8787      2.6165     -0.0203      2.0275     71.9835     20.5328
  2367.8000      7.8733      2.6117      0.0444      2.3217     77.4711     19.1988
  2367.9000      7.8733      2.6022      0.0474      2.8992     82.2764     17.8383
  2368.0000      7.8352      2.5907      0.0376      3.5965     82.9470     17.2552
  2368.1000      7.8352      2.5884      0.0031      3.7348     80.8708     16.9114
  2368.2000      7.8352      2.5994      0.0212      3.0661     78.5091     16.5488
  2368.3000      7.8287      2.6206     -0.0195      1.7804     75.0539     16.9299
  2368.4000      7.8287      2.6389      0.0647      0.6729     68.7314     17.7653
  2368.5000      7.8278      2.6517      0.0120     -0.1029     62.3323     17.6794
  2368.6000      7.8278      2.6676      0.0890     -1.0644     59.5863     16.8176
  2368.7000      7.8278      2.6706      0.0984     -1.2497     57.7731     16.3992
  2368.8000      7.8048      2.6532      0.0089     -0.1919     53.9743     16.3359
  2368.9000      7.8048      2.6377      0.0661      0.7428     51.0480     16.0618
  2369.0000      7.8140      2.6398      0.0469      0.6168     51.2186     15.7775
  2369.1000      7.8140      2.6559      0.0741     -0.3594     54.1367     15.5722
  2369.2000      7.8140      2.6678      0.1013     -1.0805     58.8177     15.2351
  2369.3000      7.7996      2.6697      0.0125     -1.1948     62.6895     14.6283
  2369.4000      7.7996      2.6820      0.0395     -1.9399     62.9952     13.9903
  2369.5000      7.7994      2.7060      0.1048     -3.3957     59.6715     13.6516
  2369.6000      7.7994      2.7183      0.1178     -4.1366     57.3113     13.5563
  2369.7000      7.7994      2.7090      0.1010     -3.5776     58.8612     13.4774
  2369.8000      7.8226      2.6877      0.0894     -2.2868     59.9826     13.1837
  2369.9000      7.8226      2.6649      0.0443     -0.9042     57.9182     12.8741
  2370.0000      7.8357      2.6412      0.0515      0.5355     58.9981     13.3131
  2370.1000      7.8357      2.6220      0.0329      1.6968     64.2524     14.5156
  2370.2000      7.8357      2.6264      0.0157      1.4299     68.1301     15.4732
  2370.3000      7.8456      2.6506      0.0779     -0.0387     71.6979     15.3769
  2370.4000      7.8456      2.6606      0.0802     -0.6445     73.9014     14.5499
  2370.5000      7.8525      2.6458      0.0556      0.2538     69.8550     14.1387
  2370.6000      7.8525      2.6324      0.0538      1.0666     62.9602     14.5554
  2370.7000      7.8525      2.6323      0.0762      1.0754     60.0752     15.1009
  2370.8000      7.8413      2.6269      0.0749      1.3994     61.3740     15.5598
  2370.9000      7.8413      2.6014      0.0545      2.9481     62.9371     16.3662
  2371.0000      7.8273      2.5631      0.0319      5.2651     62.9882     17.5053
  2371.1000      7.8273      2.5242      0.0747      7.6239     64.1569     18.7481
  2371.2000      7.8273      2.4921      0.0069      9.5679     70.0427     19.8116
  2371.3000      7.8465      2.4787     -0.0092     10.3792     81.0677     20.6066
  2371.4000      7.8465      2.4939      0.0229      9.4615     92.2761     21.2338
  2371.5000      7.8349      2.5363      0.0993      6.8934     96.4005     21.6805
  2371.6000      7.8349      2.5931      0.1381      3.4488     96.2124     22.2727
  2371.7000      7.8349      2.6375      0.2630      0.7590     99.1256     23.3864
  2371.8000      7.8670      2.6511      0.2004     -0.0662    104.4227     24.5893
  2371.9000      7.8670      2.6520      0.2362     -0.1190    106.2075     25.2563
  2372.0000      8.0668      2.6513      0.2464     -0.0812    102.1489     25.4358
  2372.1000      8.0668      2.6319      0.2209      1.0941     96.1028     25.3489
  2372.2000      8.0668      2.5967      0.0800      3.2303     91.0573     25.1544
  2372.3000      8.1117      2.5779      0.0793      4.3708     87.0543     25.1177
  2372.4000      8.1117      2.5796      0.1468      4.2678     85.9838     25.2352
