~Version Information
VERS.                      2.0: CWLS Log ASCII Standard - VERSION 2.0
WRAP.                       NO: One line per depth step
~Well Information Block
STRT.FT               950.0000: 
STOP.FT              2417.7000: 
STEP.FT                 0.1000: 
NULL.                -999.2500: 
COMP.          Pioneer Natural Resources: COMPANY
WELL.            Chevron 13-13: WELL
FLD.           Purgatoire River: FIELD
LOC.           1560' FSL & 711' FWL--: LOCATION
CNTY.               Las Animas: COUNTY
SRVC.          Superior Well Services: SERVICE COMPANY
DATE.          Mon Feb 12 14:55:24 2007: LOG DATE
UWI.           05 071 08319 00: UNIQUE WELL ID
STAT.                 Colorado: STATE
~Curve Information Block
DEPT.FT            0 000 00 00: Depth
DCAL.in                       : CDL Caliper
RHOB.g/cc                     : CDL Bulk Density
RHOC.g/cc                     : CDL Density Correction
DPOR.pu                       : CDL Density Porosity
GR.GAPI                       : Gamma Ray
~Parameter Information Block
~A  Depth       DCAL        RHOB        RHOC        DPOR         GR     
# ...
  2383.6000      7.6295      2.4904      0.0618      9.6735     94.5256
  2383.7000      7.6295      2.4564      0.0012     11.7358     97.9477
  2383.8000      7.6446      2.4383     -0.0255     12.8281     98.1641
  2383.9000      7.6446      2.4531     -0.0027     11.9332     95.1081
  2384.0000      7.6523      2.4883      0.0754      9.7991     93.4888
  2384.1000      7.6523      2.5170      0.1113      8.0621     98.2399
  2384.2000      7.6523      2.5286      0.0649      7.3576    104.0580
  2384.3000      7.6537      2.5326      0.0818      7.1127    103.9492
  2384.4000      7.6537      2.5338      0.1158      7.0429     98.6459
  2384.5000      7.6531      2.5307      0.1029      7.2278     94.2352
  2384.6000      7.6531      2.5261      0.1133      7.5078     96.3421
  2384.7000      7.6531      2.5168      0.0990      8.0745     99.3975
  2384.8000      7.6517      2.5009      0.0777      9.0361     94.7086
  2384.9000      7.6517      2.4905      0.0477      9.6691     86.0796
  2385.0000      7.6500      2.4926      0.0586      9.5418     80.6682
  2385.1000      7.6500      2.4939      0.0677      9.4600     76.5610
  2385.2000      7.6500      2.4826      0.0654     10.1430     72.3680
  2385.3000      7.6484      2.4663      0.0368     11.1332     75.5076
  2385.4000      7.6484      2.4541      0.0479     11.8705     84.6053
  2385.5000      7.6484      2.4444      0.0237     12.4607     86.3204
  2385.6000      7.6484      2.4341      0.0442     13.0846     77.4710
  2385.7000      7.6484      2.4270      0.0322     13.5146     69.8841
  2385.8000      7.6497      2.4326      0.0198     13.1753     73.4445
  2385.9000      7.6497      2.4486      0.0405     12.2061     84.1935
  2386.0000      7.6513      2.4606      0.0390     11.4818     93.7293
  2386.1000      7.6513      2.4662      0.0367     11.1421    100.3889
  2386.2000      7.6513      2.4757      0.0486     10.5629    107.3892
  2386.3000      7.6523      2.4934      0.0535      9.4908    116.3997
  2386.4000      7.6523      2.5160      0.0514      8.1217    124.5690
  2386.5000      7.6524      2.5417      0.0662      6.5627    130.2677
  2386.6000      7.6524      2.5648      0.0944      5.1623    138.4738
  2386.7000      7.6524      2.5748      0.0664      4.5586    148.8786
  2386.8000      7.6514      2.5690      0.0702      4.9085    154.0348
  2386.9000      7.6514      2.5483      0.0362      6.1632    153.7010
  2387.0000      7.6478      2.5187      0.0457      7.9580    155.4762
  2387.1000      7.6478      2.4948      0.0060      9.4053    162.8746
  2387.2000      7.6478      2.4868      0.0269      9.8899    173.6530
  2387.3000      7.6431      2.4930      0.0275      9.5137    183.2036
  2387.4000      7.6431      2.5053      0.0303      8.7712    186.5697
  2387.5000      7.6409      2.5176      0.0735      8.0216    185.7018
  2387.6000      7.6409      2.5355      0.0163      6.9407    183.8837
  2387.7000      7.6409      2.5639      0.0868      5.2174    175.4041
  2387.8000      7.6439      2.5890      0.1024      3.6953    161.0565
  2387.9000      7.6439      2.5983      0.0968      3.1322    149.1276
  2388.0000      7.6495      2.5965      0.0903      3.2425    141.9349
  2388.1000      7.6495      2.5912      0.0747      3.5621    139.1799
  2388.2000      7.6495      2.5840      0.0758      3.9993    136.6151
  2388.3000      7.6508      2.5736      0.0395      4.6331    130.2784
  2388.4000      7.6508      2.5634      0.0370      5.2511    127.1091
  2388.5000      7.6440      2.5597      0.0470      5.4700    130.5214
  2388.6000      7.6440      2.5625      0.0114      5.3041    134.3586
  2388.7000      7.6440      2.5612      0.0798      5.3802    135.9441
  2388.8000      7.6320      2.5517      0.0233      5.9550    134.9845
  2388.9000      7.6320      2.5442      0.0658      6.4139    131.9993
  2389.0000      7.6246      2.5390      0.0451      6.7253    129.2352
  2389.1000      7.6246      2.5342      0.0225      7.0175    127.0174
  2389.2000      7.6246      2.5369      0.0145      6.8518    124.8089
  2389.3000      7.6233      2.5507      0.0730      6.0154    120.3504
  2389.4000      7.6233      2.5672      0.1089      5.0181    111.8647
  2389.5000      7.6262      2.5736      0.1031      4.6295    105.3734
  2389.6000      7.6262      2.5689      0.0292      4.9136    106.1970
  2389.7000      7.6262      2.5662      0.0715      5.0810    112.1858
  2389.8000      7.6322      2.5701      0.0918      4.8398    120.0895
  2389.9000      7.6322      2.5750      0.0835      4.5480    119.4096
  2390.0000      7.6389      2.5730      0.0880      4.6674     93.1825
  2390.1000      7.6389      2.5587      0.0667      5.5311     48.8970
  2390.2000      7.6389      2.5392      0.0482      6.7143     15.6047
  2390.3000      7.6410      2.5332      0.0317      7.0800      2.8501
  2390.4000      7.6410      2.5489      0.0743      6.1264      0.2871
  2390.5000      7.6342      2.5679      0.0835      4.9767      0.0152
  2390.6000      7.6342      2.5675      0.0905      5.0000      0.0000
  2390.7000      7.6342      2.5515      0.0903      5.9704   -999.2500
  2390.8000      7.6262      2.5448      0.0688      6.3768   -999.2500
  2390.9000      7.6262      2.5582      0.1288      5.5655   -999.2500
  2391.0000      7.6223      2.5731      0.1076      4.6599   -999.2500
  2391.1000      7.6223      2.5736      0.1199      4.6320   -999.2500
  2391.2000      7.6223      2.5685      0.0700      4.9395   -999.2500
  2391.3000      7.6208      2.5810      0.0568      4.1837   -999.2500
  2391.4000      7.6208      2.6076      0.1309      2.5676   -999.2500
  2391.5000      7.6213      2.6142      0.1208      2.1668   -999.2500
  2391.6000      7.6213      2.5929      0.0731      3.4605   -999.2500
  2391.7000      7.6213      2.5677      0.1055      4.9906   -999.2500
  2391.8000      7.6190      2.5569      0.0510      5.6438   -999.2500
  2391.9000      7.6190      2.5698      0.0707      4.8584   -999.2500
  2392.0000      7.6106      2.5988      0.1055      3.1008   -999.2500
  2392.1000      7.6106      2.6213      0.1186      1.7372   -999.2500
  2392.2000      7.6106      2.6256      0.1396      1.4766   -999.2500
  2392.3000      7.6029      2.6149      0.1322      2.1278   -999.2500
  2392.4000      7.6029      2.5987      0.0768      3.1066   -999.2500
  2392.5000      7.6012      2.5892      0.0849      3.6829   -999.2500
  2392.6000      7.6012      2.5885      0.1047      3.7272   -999.2500
  2392.7000      7.6012      2.5846      0.1439      3.9615   -999.2500
  2392.8000      7.6070      2.5773      0.0658      4.4033   -999.2500
  2392.9000      7.6070      2.5828      0.0803      4.0719   -999.2500
  2393.0000      7.6146      2.5985      0.0767      3.1211   -999.2500
  2393.1000      7.6146      2.6013      0.1198      2.9510   -999.2500
  2393.2000      7.6146      2.5846      0.0373      3.9634   -999.2500
  2393.3000      7.6136      2.5683      0.0726      4.9501   -999.2500
  2393.4000      7.6136      2.5666      0.0738      5.0517   -999.2500
  2393.5000      7.6050      2.5753      0.1165      4.5282   -999.2500
  2393.6000      7.6050      2.5838      0.0805      4.0130   -999.2500
  2393.7000      7.6050      2.5864      0.0633      3.8572   -999.2500
  2393.8000      7.5982      2.5884      0.0582      3.7305   -999.2500
  2393.9000      7.5982      2.5973      0.0783      3.1918   -999.2500
  2394.0000      7.5942      2.6046      0.0728      2.7544   -999.2500
  2394.1000      7.5942      2.5971      0.0924      3.2032   -999.2500
  2394.2000      7.5942      2.5756      0.0760      4.5117   -999.2500
  2394.3000      7.5919      2.5514      0.0557      5.9734   -999.2500
  2394.4000      7.5919      2.5362      0.0434      6.8970   -999.2500
  2394.5000      7.5919      2.5384      0.0294      6.7639   -999.2500
  2394.6000      7.5919      2.5599      0.0406      5.4621   -999.2500
  2394.7000      7.5919      2.5819      0.1241      4.1279   -999.2500
